[{"name":"Great Leap Brewing 大跃啤酒","phone":"+861057171399","twitter":"greatleapbeer","address":"6 Doujiao Hutong","lat":39.935959886381966,"lng":116.3930347099839,"neighborhood":"De ān mén","city_fetched":"Beijing,China","state":"北京市","country":"中国","canonicalUrl":"https://foursquare.com/v/great-leap-brewing-%E5%A4%A7%E8%B7%83%E5%95%A4%E9%85%92/52187f3611d247f3b9c15d52","categoryId":"50327c8591d4c4b30a586d5d","category":"Brewery","checkinsCount":790,"usersCount":739,"tipCount":35,"visitsCount":1114,"url":"http://www.greatleapbrewing.com","tier":"","message":"","currency":"","rating":9.2},{"name":"Modernista","phone":"+8613691425744","address":"44 Baochao Hutong","lat":39.943126624462764,"lng":116.39349006327237,"neighborhood":"Āndìng mén","city_fetched":"Beijing,China","state":"北京市","country":"中国","canonicalUrl":"https://foursquare.com/v/modernista/4ebf86ae8231b62f42419c78","categoryId":"4bf58dd8d48988d116941735","category":"Bar","checkinsCount":885,"usersCount":612,"tipCount":29,"visitsCount":1301,"tier":"","message":"","currency":"","rating":9},{"name":"Amilal","phone":"+861084041416","address":"48 Shoubi Hutong","lat":39.93919193648093,"lng":116.39894485473633,"neighborhood":"Dōngchéng qū","city_fetched":"Beijing,China","state":"北京市","country":"中国","canonicalUrl":"https://foursquare.com/v/amilal/4b58866af964a520185c28e3","categoryId":"4bf58dd8d48988d116941735","category":"Bar","checkinsCount":492,"usersCount":258,"tipCount":13,"visitsCount":535,"tier":"","message":"","currency":"","rating":8.9},{"name":"Mao Mao Chong","phone":"+861064055718","address":"12 Banchang Hutong","lat":39.933511592687104,"lng":116.40096187591553,"neighborhood":"Dōngchéng qū","city_fetched":"Beijing,China","state":"北京市","country":"中国","canonicalUrl":"https://foursquare.com/v/mao-mao-chong-%E6%AF%9B%E6%AF%9B%E8%99%AB/4b928f56f964a520770434e3","categoryId":"4bf58dd8d48988d11b941735","category":"Pub","checkinsCount":1055,"usersCount":497,"tipCount":45,"visitsCount":1202,"url":"http://www.maomaochongbeijing.com","tier":"","message":"","currency":"","rating":8.9},{"name":"京A (Jing-A) Taproom","phone":"+861065018883","address":"1949 The Hidden City, Courtyard 4, Gongti Bei Lu, Chaoyang district","lat":39.93040810033189,"lng":116.4522117592351,"neighborhood":"Dōng sì shítiáo","city_fetched":"Beijing,China","state":"北京市","country":"中国","canonicalUrl":"https://foursquare.com/v/%E4%BA%ACa-jinga-taproom/542180ea498e5208ee0a7fd2","categoryId":"50327c8591d4c4b30a586d5d","category":"Brewery","checkinsCount":826,"usersCount":477,"tipCount":23,"visitsCount":998,"url":"http://capitalbrew.com","tier":"","message":"","currency":"","rating":8.9},{"name":"Great Leap Brewing","phone":"+861064166687","twitter":"greatleapbeer","address":"12 Xinzhong St","lat":39.93507252642042,"lng":116.43587443061269,"neighborhood":"Dōng zhí mén","city_fetched":"Beijing,China","state":"北京市","country":"中国","canonicalUrl":"https://foursquare.com/v/great-leap-brewing-%E5%A4%A7%E8%B7%83%E5%95%A4%E9%85%92/51efcdac498e4a68d787cbc9","categoryId":"50327c8591d4c4b30a586d5d","category":"Brewery","checkinsCount":2904,"usersCount":1754,"tipCount":77,"visitsCount":4478,"url":"http://www.greatleapbrewing.com","tier":2,"message":"Moderate","currency":"¥","rating":8.9},{"name":"Great Leap Brewing 大跃啤酒","phone":"+861064166887","twitter":"greatleapbeer","address":"45 Xinyuan St","lat":39.948595048740586,"lng":116.4488694705569,"neighborhood":"Dōng zhí mén","city_fetched":"Beijing,China","state":"北京市","country":"中国","canonicalUrl":"https://foursquare.com/v/great-leap-brewing-%E5%A4%A7%E8%B7%83%E5%95%A4%E9%85%92/54ca211e498ecc6670d7625f","categoryId":"4bf58dd8d48988d11b941735","category":"Pub","checkinsCount":393,"usersCount":360,"tipCount":17,"visitsCount":787,"url":"http://www.greatleapbrewing.com","tier":2,"message":"Moderate","currency":"¥","rating":8.8},{"name":"The Tiki Bungalow (2nd Version)","phone":"+8615810511562","address":"34 Jiao Dao Kou Bei San Tiao","lat":39.94191325919432,"lng":116.40526554151593,"neighborhood":"Běixīn qiáo","city_fetched":"Beijing,China","state":"北京市","country":"中国","canonicalUrl":"https://foursquare.com/v/the-tiki-bungalow-2nd-version/560a723b498e1743defca5a2","categoryId":"4bf58dd8d48988d11e941735","category":"Cocktail Bar","checkinsCount":89,"usersCount":83,"tipCount":8,"visitsCount":152,"tier":"","message":"","currency":"","rating":8.6},{"name":"Slow Boat Brewery Taproom","phone":"+861065385537","address":"东四八条56号 56 Dongsi Batiao","lat":39.930800820752765,"lng":116.41406178474425,"neighborhood":"Dōngchéng qū","city_fetched":"Beijing,China","state":"北京市","country":"中国","canonicalUrl":"https://foursquare.com/v/slow-boat-brewery-taproom/50c7eebffe70bbb88fe5e0fb","categoryId":"50327c8591d4c4b30a586d5d","category":"Brewery","checkinsCount":781,"usersCount":594,"tipCount":47,"visitsCount":1082,"url":"http://www.slowboatbrewery.com","tier":"","message":"","currency":"","rating":8.6},{"name":"Mokihi","address":"好运街 Lucky Street","lat":39.948533322875235,"lng":116.46603565035208,"neighborhood":"Chāoyáng qū","city_fetched":"Beijing,China","state":"北京市","country":"中国","canonicalUrl":"https://foursquare.com/v/mokihi/4d6a5db7fd7ea35d580ab14a","categoryId":"4bf58dd8d48988d11e941735","category":"Cocktail Bar","checkinsCount":434,"usersCount":210,"tipCount":14,"visitsCount":494,"tier":"","message":"","currency":"","rating":8.5},{"name":"Ming Bar","lat":39.934554608372885,"lng":116.44603425042621,"neighborhood":"Dōng zhí mén","city_fetched":"Beijing,China","country":"中国","canonicalUrl":"https://foursquare.com/v/ming-bar/51e94f13498ee93dc0c11079","categoryId":"4bf58dd8d48988d11e941735","category":"Cocktail Bar","checkinsCount":226,"usersCount":77,"tipCount":5,"visitsCount":260,"tier":"","message":"","currency":"","rating":8.4},{"name":"D.Lounge","phone":"+861065937710","address":"4 Gongti N Rd","lat":39.93031542081879,"lng":116.4499819278717,"neighborhood":"Dōng sì shítiáo","city_fetched":"Beijing,China","state":"北京市","country":"中国","canonicalUrl":"https://foursquare.com/v/dlounge/4b07de58f964a5209f0023e3","categoryId":"4bf58dd8d48988d121941735","category":"Lounge","checkinsCount":1903,"usersCount":987,"tipCount":38,"visitsCount":2128,"tier":"","message":"","currency":"","rating":8.4},{"name":"Janes & Hooch","phone":"+861065032757","address":"4 Gongti Bei Lu","lat":39.93064450589553,"lng":116.45106554031372,"neighborhood":"Dōng sì shítiáo","city_fetched":"Beijing,China","state":"北京市","country":"中国","canonicalUrl":"https://foursquare.com/v/janes--hooch/50ba4f27e4b063c748f7bfb6","categoryId":"4bf58dd8d48988d11e941735","category":"Cocktail Bar","checkinsCount":1341,"usersCount":730,"tipCount":43,"visitsCount":1489,"url":"http://www.janeshooch.com","tier":"","message":"","currency":"","rating":8.2},{"name":"Dusk Dawn Club (DDC)","phone":"+861064078969","address":"14 Shanlao Alley","lat":39.93065075784627,"lng":116.40432606081464,"neighborhood":"Dōngchéng qū","city_fetched":"Beijing,China","state":"北京市","country":"中国","canonicalUrl":"https://foursquare.com/v/dusk-dawn-club-ddc/53be3e30498e5599b27edaf4","categoryId":"4bf58dd8d48988d116941735","category":"Bar","checkinsCount":111,"usersCount":120,"tipCount":2,"visitsCount":174,"tier":"","message":"","currency":"","rating":8.2},{"name":"台北纯K","phone":"+861052279777","address":"工人体育场西路6号(工体西门南侧)","lat":39.927922182268,"lng":116.43786839471302,"neighborhood":"Dōng sì shítiáo","city_fetched":"Beijing,China","state":"北京市","country":"中国","canonicalUrl":"https://foursquare.com/v/%E5%8F%B0%E5%8C%97%E7%BA%AFk/5229bff911d29f4d5f917e98","categoryId":"4bf58dd8d48988d120941735","category":"Karaoke Bar","checkinsCount":432,"usersCount":266,"tipCount":3,"visitsCount":496,"url":"http://www.chunk.com.cn/index.aspx","tier":"","message":"","currency":"","rating":8.2},{"name":"Mai Bar 麦酒吧","phone":"+8613811252641","address":"40 Beiluogu Alley","lat":39.94426698204832,"lng":116.39673402488951,"neighborhood":"Āndìng mén","city_fetched":"Beijing,China","state":"北京市","country":"中国","canonicalUrl":"https://foursquare.com/v/mai-bar-%E9%BA%A6%E9%85%92%E5%90%A7/4ed8d49d61af8a14b45991ab","categoryId":"4bf58dd8d48988d11e941735","category":"Cocktail Bar","checkinsCount":772,"usersCount":482,"tipCount":26,"visitsCount":959,"tier":"","message":"","currency":"","rating":8.2},{"name":"Atmosphere 云·酷","phone":"+861065052299","address":"1 Jianguomen Outer St","lat":39.9107978881197,"lng":116.45224057186148,"neighborhood":"Guómào","city_fetched":"Beijing,China","state":"北京市","country":"中国","canonicalUrl":"https://foursquare.com/v/atmosphere-%E4%BA%91%E9%85%B7/4c9c91070e9bb1f7568dd45f","categoryId":"4bf58dd8d48988d11e941735","category":"Cocktail Bar","checkinsCount":1872,"usersCount":1196,"tipCount":58,"visitsCount":1878,"url":"http://www.shangri-la.com/beijing/chinaworldsummitwing/dining/bars-lounges/atmosphere","tier":"","message":"","currency":"","rating":8.2},{"name":"Dada Bar","phone":"+8618311080818","address":"206 Gulou E St","lat":39.938981619690736,"lng":116.39285026283368,"neighborhood":"De ān mén","city_fetched":"Beijing,China","state":"北京市","country":"中国","canonicalUrl":"https://foursquare.com/v/dada-bar/50129bb3e4b080ff6a982ad3","categoryId":"4bf58dd8d48988d116941735","category":"Bar","checkinsCount":1407,"usersCount":539,"tipCount":14,"visitsCount":1771,"url":"http://www.weibo.com/dadabj","tier":"","message":"","currency":"","rating":8.1},{"name":"Spark","phone":"+861065871501","address":"9 Guanghua Rd","lat":39.91505236247915,"lng":116.4449393749237,"neighborhood":"Yong'anli","city_fetched":"Beijing,China","state":"北京市","country":"中国","canonicalUrl":"https://foursquare.com/v/spark/4e4560861f6e29f10d97197b","categoryId":"4bf58dd8d48988d11f941735","category":"Nightclub","checkinsCount":1442,"usersCount":860,"tipCount":19,"visitsCount":1521,"url":"http://www.sparkbeijing.com.cn","tier":"","message":"","currency":"","rating":8.1},{"name":"China Bar 北京亮酒吧","phone":"+861085671838","address":"2 Jianguomen Outer St","lat":39.90618287219072,"lng":116.45303579895203,"neighborhood":"Chāoyáng qū","city_fetched":"Beijing,China","state":"北京市","country":"中国","canonicalUrl":"https://foursquare.com/v/china-bar-%E5%8C%97%E4%BA%AC%E4%BA%AE%E9%85%92%E5%90%A7/4b97a737f964a520c90d35e3","categoryId":"4bf58dd8d48988d11e941735","category":"Cocktail Bar","checkinsCount":999,"usersCount":643,"tipCount":18,"visitsCount":1011,"url":"http://beijing.park.hyatt.com/en/hotel/dining/ChinaBar.html","tier":"","message":"","currency":"","rating":8.1},{"name":"Arrow Factory Brewing 箭厂啤酒 (亮马河店)","phone":"+861085325335","address":"1 Xindong lu","lat":39.94389709231369,"lng":116.44314765930174,"neighborhood":"Dōng zhí mén","city_fetched":"Beijing,China","state":"北京市","country":"中国","canonicalUrl":"https://foursquare.com/v/arrow-factory-brewing-%E7%AE%AD%E5%8E%82%E5%95%A4%E9%85%92-%E4%BA%AE%E9%A9%AC%E6%B2%B3%E5%BA%97/569dd79e498e1966747964d1","categoryId":"50327c8591d4c4b30a586d5d","category":"Brewery","checkinsCount":94,"usersCount":83,"tipCount":7,"visitsCount":138,"url":"http://www.arrowfactorybrewing.com","tier":"","message":"","currency":"","rating":8.1},{"name":"4corners 肆角餐吧","phone":"+861064017797","address":"27 Dashibei Hutong","lat":39.93901021740138,"lng":116.38750093584531,"neighborhood":"Xichéng qū","city_fetched":"Beijing,China","state":"北京市","country":"中国","canonicalUrl":"https://foursquare.com/v/4corners-%E8%82%86%E8%A7%92%E9%A4%90%E5%90%A7/4eff2dc6f9abd5b38fe65442","categoryId":"4bf58dd8d48988d116941735","category":"Bar","checkinsCount":918,"usersCount":493,"tipCount":18,"visitsCount":1149,"url":"http://www.these4corners.com","tier":"","message":"","currency":"","rating":8.1},{"name":"Sir Teen","lat":39.92830617567467,"lng":116.43822569285268,"neighborhood":"Dōng sì shítiáo","city_fetched":"Beijing,China","country":"中国","canonicalUrl":"https://foursquare.com/v/sir-teen/5561d3d6498e4406b9a54614","categoryId":"4bf58dd8d48988d11f941735","category":"Nightclub","checkinsCount":268,"usersCount":197,"tipCount":2,"visitsCount":395,"tier":"","message":"","currency":"","rating":8},{"name":"MEI","address":"1 Chaoyangmen Outer St","lat":39.91850660503671,"lng":116.45457438283869,"neighborhood":"Chāoyáng qū","city_fetched":"Beijing,China","state":"北京市","country":"中国","canonicalUrl":"https://foursquare.com/v/mei/55a74dc3498ee1734e6f9ae7","categoryId":"4bf58dd8d48988d116941735","category":"Bar","checkinsCount":250,"usersCount":162,"tipCount":7,"visitsCount":260,"url":"http://www.rosewoodhotels.com/en/beijing/dining/Mei","tier":"","message":"","currency":"","rating":8},{"name":"Lush","phone":"+861082863566","address":"35 Chengfu Rd","lat":39.99090619409785,"lng":116.33023738861084,"neighborhood":"Wǔ dàokǒu","city_fetched":"Beijing,China","state":"北京市","country":"中国","canonicalUrl":"https://foursquare.com/v/lush/4b0a61f8f964a520a72323e3","categoryId":"4bf58dd8d48988d116941735","category":"Bar","checkinsCount":3370,"usersCount":1068,"tipCount":55,"visitsCount":3532,"url":"http://www.lushbeijing.com","tier":"","message":"","currency":"","rating":8},{"name":"Revolution","address":"Side of yashow","lat":39.933740614278086,"lng":116.44631085877572,"neighborhood":"Dōng zhí mén","city_fetched":"Beijing,China","state":"北京市","country":"中国","canonicalUrl":"https://foursquare.com/v/revolution/4df3680252b100c2d7fa64d1","categoryId":"4bf58dd8d48988d116941735","category":"Bar","checkinsCount":789,"usersCount":292,"tipCount":14,"visitsCount":854,"tier":"","message":"","currency":"","rating":8},{"name":"El Nido 酒吧","phone":"+8615810382089","address":"59 Fangjia Hutong","lat":39.942646802748655,"lng":116.40310764312744,"neighborhood":"Běixīn qiáo","city_fetched":"Beijing,China","state":"北京市","country":"中国","canonicalUrl":"https://foursquare.com/v/el-nido-%E9%85%92%E5%90%A7/4ca9db19f47ea143c40c8321","categoryId":"4bf58dd8d48988d116941735","category":"Bar","checkinsCount":663,"usersCount":254,"tipCount":10,"visitsCount":715,"tier":"","message":"","currency":"","rating":8},{"name":"Infusion Room","phone":"+861064159837","address":"4 Gongti N Rd","lat":39.930432,"lng":116.449991,"neighborhood":"Dōng sì shítiáo","city_fetched":"Beijing,China","state":"北京市","country":"中国","canonicalUrl":"https://foursquare.com/v/infusion-room/5565cd9c498e73c945f751ad","categoryId":"4bf58dd8d48988d116941735","category":"Bar","checkinsCount":101,"usersCount":61,"tipCount":2,"visitsCount":108,"tier":"","message":"","currency":"","rating":7.9},{"name":"CHEERS进口葡萄酒折扣店 三里屯店","phone":"+861064171796","address":"北京市朝阳区三里屯路29号楼6门102室 (三里屯3.3大厦同侧向北100米)","lat":39.938145312520135,"lng":116.4490596365351,"neighborhood":"Dōng zhí mén","city_fetched":"Beijing,China","state":"北京市","country":"中国","canonicalUrl":"https://foursquare.com/v/cheers%E8%BF%9B%E5%8F%A3%E8%91%A1%E8%90%84%E9%85%92%E6%8A%98%E6%89%A3%E5%BA%97-%E4%B8%89%E9%87%8C%E5%B1%AF%E5%BA%97/4e4f87abaeb70f1284a1640a","categoryId":"4bf58dd8d48988d123941735","category":"Wine Bar","checkinsCount":281,"usersCount":168,"tipCount":5,"visitsCount":346,"tier":"","message":"","currency":"","rating":7.8},{"name":"Beer Mania 欧月啤酒餐吧","phone":"+861065000559","address":"16 Sanlitun S St","lat":39.92639095935367,"lng":116.44906997680664,"neighborhood":"Dōng sì shítiáo","city_fetched":"Beijing,China","state":"北京市","country":"中国","canonicalUrl":"https://foursquare.com/v/beer-mania-%E6%AC%A7%E6%9C%88%E5%95%A4%E9%85%92%E9%A4%90%E5%90%A7/4b05878bf964a520a69822e3","categoryId":"4bf58dd8d48988d116941735","category":"Bar","checkinsCount":1350,"usersCount":588,"tipCount":27,"visitsCount":1485,"url":"http://www.beermania.asia","tier":"","message":"","currency":"","rating":7.8},{"name":"Yun","address":"The Peninsula Beijing, 8 Goldfish Lane","lat":39.91378075106235,"lng":116.4098072729375,"neighborhood":"Wángfǔ jǐng","city_fetched":"Beijing,China","state":"北京市","country":"中国","canonicalUrl":"https://foursquare.com/v/yun/51b5ec43498eb97873bc02a7","categoryId":"4bf58dd8d48988d116941735","category":"Bar","checkinsCount":64,"usersCount":47,"tipCount":2,"visitsCount":64,"tier":"","message":"","currency":"","rating":7.8},{"name":"8-Bit","phone":"+8613488783848","address":"13 N Luogu Alley","lat":39.936443861591606,"lng":116.40217619218248,"neighborhood":"Dōngchéng qū","city_fetched":"Beijing,China","state":"北京市","country":"中国","canonicalUrl":"https://foursquare.com/v/8bit/52ac57c111d283577c8b1b2a","categoryId":"4bf58dd8d48988d116941735","category":"Bar","checkinsCount":104,"usersCount":66,"tipCount":4,"visitsCount":105,"tier":"","message":"","currency":"","rating":7.8},{"name":"Durty Nellies Irish Pub","address":"B8 East 3rd Ring N Rd","lat":39.946245632130186,"lng":116.45827962018173,"neighborhood":"Chāoyáng qū","city_fetched":"Beijing,China","state":"北京市","country":"中国","canonicalUrl":"https://foursquare.com/v/durty-nellies-irish-pub/4e9ceaeb7ee58295327b2a39","categoryId":"4bf58dd8d48988d11b941735","category":"Pub","checkinsCount":112,"usersCount":92,"tipCount":3,"visitsCount":118,"tier":"","message":"","currency":"","rating":7.7},{"name":"Hidden House","lat":39.934187433713575,"lng":116.4441498473744,"neighborhood":"Dōng zhí mén","city_fetched":"Beijing,China","country":"中国","canonicalUrl":"https://foursquare.com/v/hidden-house/5535153a498e398985d6e2eb","categoryId":"4bf58dd8d48988d116941735","category":"Bar","checkinsCount":93,"usersCount":122,"tipCount":4,"visitsCount":166,"tier":"","message":"","currency":"","rating":7.7},{"name":"Elements","phone":"+861065512373","address":"58 Gongti Ximen","lat":39.93024464293231,"lng":116.43798941511145,"neighborhood":"Dōng sì shítiáo","city_fetched":"Beijing,China","state":"北京市","country":"中国","canonicalUrl":"https://foursquare.com/v/%E7%95%B0-elements/4f9c18f9e4b0d04dc056c51c","categoryId":"4bf58dd8d48988d11f941735","category":"Nightclub","checkinsCount":1994,"usersCount":1322,"tipCount":28,"visitsCount":2810,"tier":"","message":"","currency":"","rating":7.6},{"name":"Capital Spirits • 首都酒坊","address":"40大菊胡同","lat":39.93869837529711,"lng":116.4191210076665,"neighborhood":"Běixīn qiáo","city_fetched":"Beijing,China","country":"中国","canonicalUrl":"https://foursquare.com/v/capital-spirits--%E9%A6%96%E9%83%BD%E9%85%92%E5%9D%8A/53e4e6ae498ecbb68cf33646","categoryId":"4bf58dd8d48988d11e941735","category":"Cocktail Bar","checkinsCount":103,"usersCount":128,"tipCount":6,"visitsCount":198,"tier":"","message":"","currency":"","rating":7.5},{"name":"Face","address":"26 Dong Cao Yuan","lat":39.92467136552164,"lng":116.4410662651062,"neighborhood":"Dōng sì shítiáo","city_fetched":"Beijing,China","state":"北京市","country":"中国","canonicalUrl":"https://foursquare.com/v/face/4b05878cf964a520e19822e3","categoryId":"4bf58dd8d48988d11e941735","category":"Cocktail Bar","checkinsCount":332,"usersCount":280,"tipCount":8,"visitsCount":377,"url":"http://http://www.facebars.com/en/beijing/restaurant","tier":"","message":"","currency":"","rating":7.5},{"name":"Plan B","address":"Bldg 2, Unit 12, 22 International Art Street","lat":39.89849608981567,"lng":116.4651828453513,"neighborhood":"Chāoyáng qū","city_fetched":"Beijing,China","state":"北京市","country":"中国","canonicalUrl":"https://foursquare.com/v/plan-b/4ff6fe9de4b025109a1b5104","categoryId":"4bf58dd8d48988d116941735","category":"Bar","checkinsCount":297,"usersCount":102,"tipCount":5,"visitsCount":347,"tier":"","message":"","currency":"","rating":7.5},{"name":"Glen Classic","phone":"+861065516788","lat":39.924492176494425,"lng":116.44101490482869,"neighborhood":"Dōng sì shítiáo","city_fetched":"Beijing,China","country":"中国","canonicalUrl":"https://foursquare.com/v/glen-classic/510a7868e4b090e457cc6a2a","categoryId":"4bf58dd8d48988d11e941735","category":"Cocktail Bar","checkinsCount":213,"usersCount":83,"tipCount":5,"visitsCount":241,"tier":"","message":"","currency":"","rating":7.5},{"name":"过客 Pass By Restaurant & Bar","phone":"+861084038004","address":"108 Nanluogu Alley","lat":39.93363578654207,"lng":116.39698299741478,"neighborhood":"Dōngchéng qū","city_fetched":"Beijing,China","state":"北京市","country":"中国","canonicalUrl":"https://foursquare.com/v/%E8%BF%87%E5%AE%A2-pass-by-restaurant--bar/4b05878cf964a520e49822e3","categoryId":"4bf58dd8d48988d116941735","category":"Bar","checkinsCount":559,"usersCount":492,"tipCount":20,"visitsCount":614,"tier":"","message":"","currency":"","rating":7.5},{"name":"BBC (Bottle, Boots, & Cigars)","lat":39.935359,"lng":116.438704,"neighborhood":"Dōng zhí mén","city_fetched":"Beijing,China","country":"中国","canonicalUrl":"https://foursquare.com/v/bbc-bottle-boots--cigars/536dcc14498e0ac0d9daeff8","categoryId":"4bf58dd8d48988d11e941735","category":"Cocktail Bar","checkinsCount":173,"usersCount":71,"tipCount":8,"visitsCount":180,"tier":"","message":"","currency":"","rating":7.5},{"name":"Roots Reggae Bar","address":"No. 6 south riverside houhai","lat":39.93770968818413,"lng":116.3865098049451,"neighborhood":"Dōngchéng qū","city_fetched":"Beijing,China","state":"北京市","country":"中国","canonicalUrl":"https://foursquare.com/v/roots-reggae-bar/4d4d28eca7f86ea8128b33de","categoryId":"4bf58dd8d48988d116941735","category":"Bar","checkinsCount":197,"usersCount":159,"tipCount":10,"visitsCount":204,"tier":"","message":"","currency":"","rating":7.5},{"name":"Windows","address":"Zhichunlu","lat":39.98686774788925,"lng":116.33435602467486,"neighborhood":"Wǔ dàokǒu","city_fetched":"Beijing,China","state":"北京市","country":"中国","canonicalUrl":"https://foursquare.com/v/windows/51699ff2e4b0bebed0e68fc2","categoryId":"4bf58dd8d48988d116941735","category":"Bar","checkinsCount":399,"usersCount":231,"tipCount":5,"visitsCount":590,"tier":"","message":"","currency":"","rating":7.4},{"name":"东方亮 Redmoon","phone":"+861065109024","address":"1 E Chang'an Ave","lat":39.90899254060578,"lng":116.40759981791713,"neighborhood":"Wángfǔ jǐng","city_fetched":"Beijing,China","state":"北京市","country":"中国","canonicalUrl":"https://foursquare.com/v/%E4%B8%9C%E6%96%B9%E4%BA%AE-redmoon/4cc303df42d1b60c90441413","categoryId":"4bf58dd8d48988d1d5941735","category":"Hotel Bar","checkinsCount":557,"usersCount":333,"tipCount":10,"visitsCount":605,"url":"http://beijing.grand.hyatt.com/en/hotel/dining/Redmoon.html","tier":"","message":"","currency":"","rating":7.4},{"name":"Mesh","phone":"+861064176688","address":"Bldg 1, 11 Sanlitun Road","lat":39.93604950187408,"lng":116.44870519638062,"neighborhood":"Dōng zhí mén","city_fetched":"Beijing,China","state":"北京市","country":"中国","canonicalUrl":"https://foursquare.com/v/mesh/4b1a7a0ef964a520e1ea23e3","categoryId":"4bf58dd8d48988d1d5941735","category":"Hotel Bar","checkinsCount":1562,"usersCount":723,"tipCount":28,"visitsCount":1586,"url":"http://www.theoppositehouse.com","tier":"","message":"","currency":"","rating":7.4},{"name":"Westin Chaoyang Executive Lounge","lat":39.948758208186376,"lng":116.45441879616305,"neighborhood":"Dōng zhí mén","city_fetched":"Beijing,China","state":"北京市","country":"中国","canonicalUrl":"https://foursquare.com/v/westin-chaoyang-executive-lounge/4dbe6ed2f7b1ab37dd8c9132","categoryId":"4bf58dd8d48988d1d5941735","category":"Hotel Bar","checkinsCount":416,"usersCount":148,"tipCount":2,"visitsCount":416,"tier":"","message":"","currency":"","rating":7.4},{"name":"Glen","phone":"+861065911191","address":"Taiyue Suites 2F, Sanlitun South St","lat":39.92641446235514,"lng":116.44912302516028,"neighborhood":"Dōng sì shítiáo","city_fetched":"Beijing,China","state":"北京市","country":"中国","canonicalUrl":"https://foursquare.com/v/glen/4bbf634f82a2ef3be0b02cd2","categoryId":"4bf58dd8d48988d11e941735","category":"Cocktail Bar","checkinsCount":440,"usersCount":243,"tipCount":16,"visitsCount":448,"tier":"","message":"","currency":"","rating":7.4},{"name":"The Garage","phone":"+861080465456","address":"Houshayu Yuyang Lu","lat":40.06559388772527,"lng":116.53102403015731,"neighborhood":"Shùnyì","city_fetched":"Beijing,China","state":"北京市","country":"中国","canonicalUrl":"https://foursquare.com/v/the-garage/51af1ab8498ee8754d69d8b0","categoryId":"4bf58dd8d48988d116941735","category":"Bar","checkinsCount":213,"usersCount":76,"tipCount":8,"visitsCount":308,"url":"http://www.thegaragebeijing.com","tier":"","message":"","currency":"","rating":7.4},{"name":"Miles Bar","address":"三里屯南33号附近（联通营业厅西50米）","lat":39.934568,"lng":116.445727,"neighborhood":"Dōng zhí mén","city_fetched":"Beijing,China","country":"中国","canonicalUrl":"https://foursquare.com/v/miles-bar/53c80641498e2e0df8d84998","categoryId":"4bf58dd8d48988d11e941735","category":"Cocktail Bar","checkinsCount":214,"usersCount":161,"tipCount":16,"visitsCount":265,"tier":"","message":"","currency":"","rating":7.3},{"name":"XL Bar And Restaurant","lat":39.93603674262977,"lng":116.44489900024548,"neighborhood":"Dōng zhí mén","city_fetched":"Beijing,China","country":"中国","canonicalUrl":"https://foursquare.com/v/xl-bar-and-restaurant/54140d3f498e740c65551672","categoryId":"4bf58dd8d48988d116941735","category":"Bar","checkinsCount":73,"usersCount":53,"tipCount":8,"visitsCount":132,"tier":"","message":"","currency":"","rating":7.3},{"name":"Paddy O'Shea's","phone":"+861064156389","address":"28 Dongzhimen Outer St","lat":39.93975953362835,"lng":116.4405083656311,"neighborhood":"Dōng zhí mén","city_fetched":"Beijing,China","state":"北京市","country":"中国","canonicalUrl":"https://foursquare.com/v/paddy-osheas/4b08a327f964a520031023e3","categoryId":"4bf58dd8d48988d11b941735","category":"Pub","checkinsCount":1351,"usersCount":792,"tipCount":23,"visitsCount":1850,"url":"http://www.paddyosheasbeijing.com","tier":"","message":"","currency":"","rating":7.3},{"name":"The Tree","phone":"+861064151954","address":"43 Sanlitun S Rd","lat":39.93523507773804,"lng":116.44758403301239,"neighborhood":"Dōng zhí mén","city_fetched":"Beijing,China","state":"北京市","country":"中国","canonicalUrl":"https://foursquare.com/v/the-tree/4b05878cf964a520ce9822e3","categoryId":"4bf58dd8d48988d11b941735","category":"Pub","checkinsCount":2244,"usersCount":1126,"tipCount":52,"visitsCount":2284,"url":"http://www.treebeijing.com.cn","tier":"","message":"","currency":"","rating":7.3},{"name":"The Irish Volunteer","phone":"+8618664385581","address":"Jiangtai Lu","lat":39.97774493098995,"lng":116.47387504577637,"neighborhood":"Dōng zhí mén","city_fetched":"Beijing,China","state":"北京市","country":"中国","canonicalUrl":"https://foursquare.com/v/the-irish-volunteer/4b85d1cff964a520b87431e3","categoryId":"4bf58dd8d48988d11b941735","category":"Pub","checkinsCount":490,"usersCount":241,"tipCount":15,"visitsCount":592,"tier":"","message":"","currency":"","rating":7.3},{"name":"Executive Lounge","address":"1 Dongfang Rd","lat":39.95197574365743,"lng":116.45564619935308,"neighborhood":"Dōng zhí mén","city_fetched":"Beijing,China","state":"北京市","country":"中国","canonicalUrl":"https://foursquare.com/v/executive-lounge/4e7341b92271391c703fcb25","categoryId":"4bf58dd8d48988d1d5941735","category":"Hotel Bar","checkinsCount":459,"usersCount":139,"tipCount":4,"visitsCount":464,"tier":"","message":"","currency":"","rating":7.3},{"name":"The Bar","lat":39.93532530405265,"lng":116.44769965827098,"neighborhood":"Dōng zhí mén","city_fetched":"Beijing,China","country":"中国","canonicalUrl":"https://foursquare.com/v/the-bar/5110ea8ce4b0a7b622ad438f","categoryId":"4bf58dd8d48988d116941735","category":"Bar","checkinsCount":208,"usersCount":83,"tipCount":5,"visitsCount":217,"tier":"","message":"","currency":"","rating":7.2},{"name":"The Lounge 酒廊","address":"1 Jianguomen Outer Ave","lat":39.910748,"lng":116.45212,"neighborhood":"Yong'anli","city_fetched":"Beijing,China","state":"北京市","country":"中国","canonicalUrl":"https://foursquare.com/v/the-lounge-%E9%85%92%E5%BB%8A/4d4e4bdfdeabf04d8a3fc124","categoryId":"4bf58dd8d48988d121941735","category":"Lounge","checkinsCount":452,"usersCount":374,"tipCount":5,"visitsCount":456,"tier":"","message":"","currency":"","rating":7.2},{"name":"TROUBLE BAR BEIJING","phone":"+8613911136564","address":"朝阳区工体东路2-11号","lat":39.93134875020163,"lng":116.4449451018826,"neighborhood":"Dōng sì shítiáo","city_fetched":"Beijing,China","state":"北京市","country":"中国","canonicalUrl":"https://foursquare.com/v/trouble-bar-beijing/4f9f7f0fe4b04840b9cf8812","categoryId":"4bf58dd8d48988d116941735","category":"Bar","checkinsCount":441,"usersCount":101,"tipCount":10,"visitsCount":465,"url":"https://instagram.com/troublebarbeijing/","tier":"","message":"","currency":"","rating":7.2},{"name":"Chocolate Kafe","lat":39.91664067170081,"lng":116.43548831422392,"neighborhood":"Zhāoyáng","city_fetched":"Beijing,China","country":"中国","canonicalUrl":"https://foursquare.com/v/chocolate-kafe/507c3343e4b018ca976fd32d","categoryId":"4bf58dd8d48988d119941735","category":"Hookah Bar","checkinsCount":281,"usersCount":136,"tipCount":2,"visitsCount":281,"tier":"","message":"","currency":"","rating":7.2},{"name":"Jam Bar","phone":"+861064048218","address":"鼓楼东大街206号","lat":39.939198306538614,"lng":116.39284449885793,"neighborhood":"De ān mén","city_fetched":"Beijing,China","state":"北京市","country":"中国","canonicalUrl":"https://foursquare.com/v/jam-bar/4e888fdb775b68cb8311c3f1","categoryId":"4bf58dd8d48988d116941735","category":"Bar","checkinsCount":149,"usersCount":70,"tipCount":10,"visitsCount":149,"tier":"","message":"","currency":"","rating":7.2},{"name":"W Lounge","address":"2 Jianguomen S Ave","lat":39.904626,"lng":116.430603,"neighborhood":"Chāoyáng qū","city_fetched":"Beijing,China","state":"北京市","country":"中国","canonicalUrl":"https://foursquare.com/v/w-lounge/5477250c498e625c55bb60f8","categoryId":"4bf58dd8d48988d1d5941735","category":"Hotel Bar","checkinsCount":99,"usersCount":61,"tipCount":3,"visitsCount":105,"tier":"","message":"","currency":"","rating":7.2},{"name":"The Brick","phone":"+8613426166677","address":"Behind the legent Centre","lat":39.89390472209651,"lng":116.45902872791879,"neighborhood":"Chāoyáng qū","city_fetched":"Beijing,China","state":"北京市","country":"中国","canonicalUrl":"https://foursquare.com/v/the-brick/4f71b722e4b0be6421116dc5","categoryId":"4bf58dd8d48988d11b941735","category":"Pub","checkinsCount":278,"usersCount":80,"tipCount":3,"visitsCount":280,"url":"http://www.beijingdrivethru.com","tier":"","message":"","currency":"","rating":7.2},{"name":"温莎KTV Windsor KTV","address":"6 Jianguomen Outer Ave","lat":39.90555240037756,"lng":116.45081146132674,"neighborhood":"Chāoyáng qū","city_fetched":"Beijing,China","state":"北京市","country":"中国","canonicalUrl":"https://foursquare.com/v/%E6%B8%A9%E8%8E%8Ektv-windsor-ktv/5041f332e4b00a580462e8a2","categoryId":"4bf58dd8d48988d120941735","category":"Karaoke Bar","checkinsCount":246,"usersCount":193,"tipCount":4,"visitsCount":264,"tier":"","message":"","currency":"","rating":7.1},{"name":"The Local","phone":"+861065919525","address":"Sanlitun S St","lat":39.93036303657409,"lng":116.45134737879776,"neighborhood":"Dōng sì shítiáo","city_fetched":"Beijing,China","state":"北京市","country":"中国","canonicalUrl":"https://foursquare.com/v/the-local/4f99730ee4b06ffc46a40912","categoryId":"4bf58dd8d48988d11b941735","category":"Pub","checkinsCount":1339,"usersCount":487,"tipCount":28,"visitsCount":1570,"tier":"","message":"","currency":"","rating":7.1},{"name":"Swing Bar Beijing @ San Li Tun","lat":39.933445,"lng":116.449157,"neighborhood":"Dōng zhí mén","city_fetched":"Beijing,China","country":"中国","canonicalUrl":"https://foursquare.com/v/swing-bar-beijing--san-li-tun/4d2b31d077a2a1cd620b7bb7","categoryId":"4bf58dd8d48988d120941735","category":"Karaoke Bar","checkinsCount":350,"usersCount":121,"tipCount":7,"visitsCount":355,"tier":"","message":"","currency":"","rating":7.1},{"name":"BLCU Beer Garden","lat":39.99247741699219,"lng":116.33897399902344,"neighborhood":"Wǔ dàokǒu","city_fetched":"Beijing,China","country":"中国","canonicalUrl":"https://foursquare.com/v/%E5%8C%97%E4%BA%AC%E8%AF%AD%E8%A8%80%E5%A4%A7%E5%AD%A6%E5%95%A4%E9%85%92%E5%9B%AD-blcu-beer-garden/4fb4a0e5e4b0c87fa1792da0","categoryId":"4bf58dd8d48988d117941735","category":"Beer Garden","checkinsCount":308,"usersCount":72,"tipCount":2,"visitsCount":322,"tier":"","message":"","currency":"","rating":7.1},{"name":"Malty Dog","lat":39.943208,"lng":116.396604,"neighborhood":"Āndìng mén","city_fetched":"Beijing,China","country":"中国","canonicalUrl":"https://foursquare.com/v/malty-dog/5078138de4b069ffd6bfbf4c","categoryId":"4bf58dd8d48988d116941735","category":"Bar","checkinsCount":94,"usersCount":66,"tipCount":5,"visitsCount":94,"tier":"","message":"","currency":"","rating":7.1},{"name":"Aria Jazz and Wine Bar","phone":"+861065052266","address":"1 Jinanguomenwai Ave","lat":39.90829398069746,"lng":116.45297241138432,"neighborhood":"Yong'anli","city_fetched":"Beijing,China","state":"北京市","country":"中国","canonicalUrl":"https://foursquare.com/v/aria-jazz-and-wine-bar/4b05878bf964a5209d9822e3","categoryId":"4bf58dd8d48988d11e941735","category":"Cocktail Bar","checkinsCount":477,"usersCount":289,"tipCount":12,"visitsCount":481,"url":"http://www.shangri-la.com/beijing/chinaworld/dining/restaurants/aria","tier":"","message":"","currency":"","rating":7.1},{"name":"NBeer Pub","phone":"+861083288823","address":"Huguosi Dajie, 85","lat":39.93398108343031,"lng":116.3692629044483,"neighborhood":"Xichéng qū","city_fetched":"Beijing,China","country":"中国","canonicalUrl":"https://foursquare.com/v/nbeer-pub/5210868811d23ab6085e332d","categoryId":"50327c8591d4c4b30a586d5d","category":"Brewery","checkinsCount":154,"usersCount":74,"tipCount":9,"visitsCount":158,"tier":"","message":"","currency":"","rating":7.1},{"name":"V Plus Lounge","phone":"+861085871233","address":"朝阳区工体东路中国红街3号楼14F","lat":39.93106974065966,"lng":116.44391933831793,"neighborhood":"Dōng sì shítiáo","city_fetched":"Beijing,China","state":"北京市","country":"中国","canonicalUrl":"https://foursquare.com/v/v-plus-lounge/4eff1ddc8b81b0190a2f00e5","categoryId":"4bf58dd8d48988d121941735","category":"Lounge","checkinsCount":932,"usersCount":666,"tipCount":26,"visitsCount":1068,"tier":"","message":"","currency":"","rating":7.1},{"name":"Cicada Ultra Lounge","address":"N4-33 Tai Koo Li Sanlitun North, 11 Sanlitun Road","lat":39.93690839927408,"lng":116.44758440551344,"neighborhood":"Dōng zhí mén","city_fetched":"Beijing,China","state":"北京市","country":"中国","canonicalUrl":"https://foursquare.com/v/cicada-ultra-lounge/51e7ed36498ea5a669f45980","categoryId":"4bf58dd8d48988d121941735","category":"Lounge","checkinsCount":183,"usersCount":89,"tipCount":6,"visitsCount":184,"tier":"","message":"","currency":"","rating":7.1},{"name":"Cellar Door","address":"方家胡同 • Fangjia Hutong","lat":39.94267139953932,"lng":116.40373816301982,"neighborhood":"Běixīn qiáo","city_fetched":"Beijing,China","state":"北京市","country":"中国","canonicalUrl":"https://foursquare.com/v/cellar-door/50363d26e4b0cf4240bf2281","categoryId":"4bf58dd8d48988d116941735","category":"Bar","checkinsCount":218,"usersCount":83,"tipCount":2,"visitsCount":225,"tier":"","message":"","currency":"","rating":7},{"name":"Centro","phone":"+861065618833","address":"1 Guanghua Rd","lat":39.912503985259995,"lng":116.45133585370377,"neighborhood":"Yong'anli","city_fetched":"Beijing,China","state":"北京市","country":"中国","canonicalUrl":"https://foursquare.com/v/centro-%E7%82%AB%E9%85%B7%E9%85%92%E5%BB%8A/4b4590e5f964a520000e26e3","categoryId":"4bf58dd8d48988d1d5941735","category":"Hotel Bar","checkinsCount":1789,"usersCount":732,"tipCount":32,"visitsCount":1840,"tier":"","message":"","currency":"","rating":7},{"name":"School","address":"东城区五道营胡同53号 • 53 Wudaoying Hutong, Dongcheng District","lat":39.94702271626765,"lng":116.40672326087952,"neighborhood":"Běixīn qiáo","city_fetched":"Beijing,China","state":"北京市","country":"中国","canonicalUrl":"https://foursquare.com/v/school/4bd6a2e8637ba593c37af870","categoryId":"4bf58dd8d48988d116941735","category":"Bar","checkinsCount":220,"usersCount":149,"tipCount":2,"visitsCount":224,"tier":"","message":"","currency":"","rating":7},{"name":"Union Bar & Grille","phone":"+861064159117","address":"19, Sanlitun Lu","lat":39.93372960154708,"lng":116.44816875457764,"neighborhood":"Dōng zhí mén","city_fetched":"Beijing,China","state":"北京市","country":"中国","canonicalUrl":"https://foursquare.com/v/union-bar--grille/4b10e4fff964a520867623e3","categoryId":"4bf58dd8d48988d116941735","category":"Bar","checkinsCount":3240,"usersCount":1026,"tipCount":63,"visitsCount":3264,"tier":"","message":"","currency":"","rating":7},{"name":"Doron","phone":"+8613041067891","address":"28 Dongzhimen Outer St","lat":39.93993357483225,"lng":116.44055388033867,"neighborhood":"Dōng zhí mén","city_fetched":"Beijing,China","state":"北京市","country":"中国","canonicalUrl":"https://foursquare.com/v/doron/4f084a5ee4b0596c8e7a0dcd","categoryId":"4bf58dd8d48988d1d4941735","category":"Speakeasy","checkinsCount":113,"usersCount":63,"tipCount":1,"visitsCount":115,"tier":"","message":"","currency":"","rating":7},{"name":"VICS 威克斯","phone":"+861052930333","address":"工体北门内东侧","lat":39.93146435270606,"lng":116.44156237023603,"neighborhood":"Dōng sì shítiáo","city_fetched":"Beijing,China","state":"北京市","country":"中国","canonicalUrl":"https://foursquare.com/v/vics-%E5%A8%81%E5%85%8B%E6%96%AF/4b05878df964a520069922e3","categoryId":"4bf58dd8d48988d11f941735","category":"Nightclub","checkinsCount":2549,"usersCount":1552,"tipCount":41,"visitsCount":3188,"url":"http://www.vics.com.cn","tier":"","message":"","currency":"","rating":7},{"name":"Ichikura 一藏","phone":"+861065071107","address":"36, Dongsanhuan Beilu","lat":39.92070163115101,"lng":116.45655666329392,"neighborhood":"Chāoyáng qū","city_fetched":"Beijing,China","state":"北京市","country":"中国","canonicalUrl":"https://foursquare.com/v/ichikura-%E4%B8%80%E8%97%8F/4bffc876f61ea59351bbea13","categoryId":"4bf58dd8d48988d122941735","category":"Whisky Bar","checkinsCount":283,"usersCount":155,"tipCount":12,"visitsCount":288,"tier":"","message":"","currency":"","rating":7},{"name":"Kai 开吧","address":"三里屯后街","lat":39.934812367680905,"lng":116.44820100710751,"neighborhood":"Dōng zhí mén","city_fetched":"Beijing,China","state":"北京市","country":"中国","canonicalUrl":"https://foursquare.com/v/kai-%E5%BC%80%E5%90%A7/4b4229acf964a520f0cd25e3","categoryId":"4bf58dd8d48988d116941735","category":"Bar","checkinsCount":384,"usersCount":155,"tipCount":3,"visitsCount":384,"tier":"","message":"","currency":"","rating":7},{"name":"Chill","phone":"+861064059575","address":"No.2 Andingmenwai","lat":39.947222674835714,"lng":116.4006084472606,"neighborhood":"Āndìng mén","city_fetched":"Beijing,China","state":"北京市","country":"中国","canonicalUrl":"https://foursquare.com/v/chill/5051ebc0e4b03d1e198987e1","categoryId":"4bf58dd8d48988d121941735","category":"Lounge","checkinsCount":139,"usersCount":118,"tipCount":3,"visitsCount":179,"tier":"","message":"","currency":"","rating":6.9},{"name":"Mojito Man","address":"43 Sanlitun N St","lat":39.93437664120891,"lng":116.44806846671462,"neighborhood":"Dōng zhí mén","city_fetched":"Beijing,China","state":"北京市","country":"中国","canonicalUrl":"https://foursquare.com/v/mojito-man/519b9111498ea5ebf45ff76e","categoryId":"4bf58dd8d48988d11e941735","category":"Cocktail Bar","checkinsCount":116,"usersCount":68,"tipCount":4,"visitsCount":116,"tier":"","message":"","currency":"","rating":6.9},{"name":"Press Club Bar","address":"The St. Regis Beijing 21 Jianguomenwai Dajie","lat":39.90924658001713,"lng":116.43398994611869,"neighborhood":"Jiànguó mén","city_fetched":"Beijing,China","state":"北京市","country":"中国","canonicalUrl":"https://foursquare.com/v/press-club-bar/5120a98de4b0ed97eea7d8c3","categoryId":"4bf58dd8d48988d1d5941735","category":"Hotel Bar","checkinsCount":90,"usersCount":69,"tipCount":7,"visitsCount":90,"tier":"","message":"","currency":"","rating":6.9},{"name":"Xian 仙","phone":"+861084260888","address":"22 Jiuxianqiao Rd","lat":39.96750918864575,"lng":116.48593739076526,"neighborhood":"Dōng zhí mén","city_fetched":"Beijing,China","state":"北京市","country":"中国","canonicalUrl":"https://foursquare.com/v/xian-%E4%BB%99/504a0c4ce4b00cd455ae4ebc","categoryId":"4bf58dd8d48988d116941735","category":"Bar","checkinsCount":799,"usersCount":404,"tipCount":20,"visitsCount":824,"url":"http://www.xian-bar.com","tier":"","message":"","currency":"","rating":6.9},{"name":"Maggie's","phone":"+861085628142","lat":39.91218244527512,"lng":116.43813997507095,"neighborhood":"Zhāoyáng","city_fetched":"Beijing,China","state":"北京市","country":"中国","canonicalUrl":"https://foursquare.com/v/maggies/4c016be2b0702d7f963b6378","categoryId":"4bf58dd8d48988d116941735","category":"Bar","checkinsCount":473,"usersCount":476,"tipCount":9,"visitsCount":899,"url":"http://www.maggiesbar.com","tier":"","message":"","currency":"","rating":6.9},{"name":"LAN Club 兰会所","phone":"+861051096012","address":"12B Jianguomen Outer Ave","lat":39.90677350742503,"lng":116.44267559051514,"neighborhood":"Chāoyáng qū","city_fetched":"Beijing,China","state":"北京市","country":"中国","canonicalUrl":"https://foursquare.com/v/lan-club-%E5%85%B0%E4%BC%9A%E6%89%80/4b4df5bef964a52044dc26e3","categoryId":"4bf58dd8d48988d121941735","category":"Lounge","checkinsCount":578,"usersCount":447,"tipCount":20,"visitsCount":580,"url":"http://lanclub.cc","tier":"","message":"","currency":"","rating":6.9},{"name":"Sheraton Beijing Dongcheng Executive Lounge","lat":39.96706232747886,"lng":116.40240097828794,"neighborhood":"Āndìng mén","city_fetched":"Beijing,China","state":"北京市","country":"中国","canonicalUrl":"https://foursquare.com/v/sheraton-beijing-dongcheng-executive-lounge/4eba18a88231d54a3d72edee","categoryId":"4bf58dd8d48988d121941735","category":"Lounge","checkinsCount":290,"usersCount":110,"tipCount":4,"visitsCount":295,"tier":"","message":"","currency":"","rating":6.9},{"name":"Parlor 香","address":"39-9 Xingfuercun","lat":39.936876138016416,"lng":116.44272068757816,"neighborhood":"Dōng zhí mén","city_fetched":"Beijing,China","state":"北京市","country":"中国","canonicalUrl":"https://foursquare.com/v/parlor-%E9%A6%99/52b1a111498e7fb3292aba99","categoryId":"4bf58dd8d48988d11e941735","category":"Cocktail Bar","checkinsCount":269,"usersCount":293,"tipCount":8,"visitsCount":441,"tier":"","message":"","currency":"","rating":6.9},{"name":"Global Club","address":"Wudaokou, Tung Yuen Building Basement","lat":39.99176742315989,"lng":116.33067191382746,"neighborhood":"Wǔ dàokǒu","city_fetched":"Beijing,China","country":"中国","canonicalUrl":"https://foursquare.com/v/global-club/4ca9ee1676d3a0937972246b","categoryId":"4bf58dd8d48988d11f941735","category":"Nightclub","checkinsCount":591,"usersCount":285,"tipCount":7,"visitsCount":596,"tier":"","message":"","currency":"","rating":6.8},{"name":"YIN on 12 Rooftop Bar","phone":"+861059608866","address":"12F New World Hotel, 8 Qinian Street","lat":39.897365053322616,"lng":116.40613585466775,"neighborhood":"Qiánmén","city_fetched":"Beijing,China","state":"北京市","country":"中国","canonicalUrl":"https://foursquare.com/v/yin-on-12-rooftop-bar/539340b6498e2660780e9363","categoryId":"4bf58dd8d48988d11e941735","category":"Cocktail Bar","checkinsCount":94,"usersCount":73,"tipCount":2,"visitsCount":100,"url":"http://beijing.newworldhotels.com/en/dining/yin-on-12-rootop-bar/","tier":"","message":"","currency":"","rating":6.8},{"name":"Green Cap","address":"Laiguangying W Rd, 2/F","lat":40.022581,"lng":116.508077,"neighborhood":"Chāoyáng qū","city_fetched":"Beijing,China","state":"北京市","country":"中国","canonicalUrl":"https://foursquare.com/v/green-cap/4cde92eef8a4a143ba02d8bc","categoryId":"4bf58dd8d48988d116941735","category":"Bar","checkinsCount":608,"usersCount":64,"tipCount":11,"visitsCount":614,"url":"http://www.greencapbeijing.com","tier":"","message":"","currency":"","rating":6.8},{"name":"Executive Lounge","address":"26A Xiaoyun Rd","lat":39.958541462999555,"lng":116.46112621683257,"neighborhood":"Dōng zhí mén","city_fetched":"Beijing,China","state":"北京市","country":"中国","canonicalUrl":"https://foursquare.com/v/executive-lounge/50a73f1ee4b0b9c7310e5b48","categoryId":"4bf58dd8d48988d121941735","category":"Lounge","checkinsCount":176,"usersCount":67,"tipCount":1,"visitsCount":176,"tier":"","message":"","currency":"","rating":6.8},{"name":"Xiu","phone":"+861085671108","address":"2 Jianguomen Outer St","lat":39.90565422161436,"lng":116.45293235778809,"neighborhood":"Chāoyáng qū","city_fetched":"Beijing,China","state":"北京市","country":"中国","canonicalUrl":"https://foursquare.com/v/%E7%A7%80-xiu/4b8f931bf964a520935833e3","categoryId":"4bf58dd8d48988d11f941735","category":"Nightclub","checkinsCount":1818,"usersCount":1126,"tipCount":50,"visitsCount":1876,"tier":"","message":"","currency":"","rating":6.7},{"name":"Hacker-Pschorr","lat":39.935767806870956,"lng":116.44423628821224,"neighborhood":"Dōng zhí mén","city_fetched":"Beijing,China","country":"中国","canonicalUrl":"https://foursquare.com/v/hackerpschorr/54917d11498e482af836add4","categoryId":"50327c8591d4c4b30a586d5d","category":"Brewery","checkinsCount":118,"usersCount":95,"tipCount":3,"visitsCount":183,"tier":"","message":"","currency":"","rating":6.7},{"name":"Funky Bar & Lounge","phone":"+861065516866","address":"8 Gongti W Rd","lat":39.92743709432584,"lng":116.43898062745929,"neighborhood":"Dōng sì shítiáo","city_fetched":"Beijing,China","state":"北京市","country":"中国","canonicalUrl":"https://foursquare.com/v/funky-bar--lounge/5196d2f5498ee2ba61d48f00","categoryId":"4bf58dd8d48988d1d8941735","category":"Gay Bar","checkinsCount":235,"usersCount":137,"tipCount":4,"visitsCount":270,"tier":"","message":"","currency":"","rating":6.7},{"name":"Club Chocolate","address":"19 Ritan N Rd","lat":39.91659116461359,"lng":116.43580913543701,"neighborhood":"Zhāoyáng","city_fetched":"Beijing,China","state":"北京市","country":"中国","canonicalUrl":"https://foursquare.com/v/club-chocolate/4b59d16df964a520e89928e3","categoryId":"4bf58dd8d48988d116941735","category":"Bar","checkinsCount":1257,"usersCount":831,"tipCount":27,"visitsCount":1409,"tier":"","message":"","currency":"","rating":6.7},{"name":"Wu Club","address":"28 Chengfu Rd","lat":39.99135333541488,"lng":116.33288584636466,"neighborhood":"Wǔ dàokǒu","city_fetched":"Beijing,China","state":"北京市","country":"中国","canonicalUrl":"https://foursquare.com/v/wu-club/4ef492086c250742265e3f48","categoryId":"4bf58dd8d48988d11f941735","category":"Nightclub","checkinsCount":804,"usersCount":325,"tipCount":6,"visitsCount":825,"tier":"","message":"","currency":"","rating":6.7},{"name":"Hilton Beijing Wangfujing Executive Lounge","address":"16th floor, Beijing Wangfujing Hilton Hotel","lat":39.913191250788955,"lng":116.40673527378578,"neighborhood":"Wángfǔ jǐng","city_fetched":"Beijing,China","state":"北京市","country":"中国","canonicalUrl":"https://foursquare.com/v/hilton-beijing-wangfujing-executive-lounge/5312fc68498e4314922ee3a8","categoryId":"4bf58dd8d48988d1d5941735","category":"Hotel Bar","checkinsCount":116,"usersCount":51,"tipCount":2,"visitsCount":120,"tier":"","message":"","currency":"","rating":6.7},{"name":"Aperitivo","phone":"+861064177793","address":"43 Sanlitun North Alley","lat":39.93464687650126,"lng":116.44800513982773,"neighborhood":"Dōng zhí mén","city_fetched":"Beijing,China","state":"北京市","country":"中国","canonicalUrl":"https://foursquare.com/v/aperitivo-%E6%84%8F%E5%BC%8F%E9%A4%90%E5%90%A7/4b05878cf964a520c89822e3","categoryId":"4bf58dd8d48988d116941735","category":"Bar","checkinsCount":1314,"usersCount":421,"tipCount":14,"visitsCount":1323,"tier":"","message":"","currency":"","rating":6.7},{"name":"Coco banana","lat":39.92749454978776,"lng":116.43907859589469,"neighborhood":"Dōng sì shítiáo","city_fetched":"Beijing,China","state":"北京市","country":"中国","canonicalUrl":"https://foursquare.com/v/coco-banana/4b892a33f964a520572032e3","categoryId":"4bf58dd8d48988d11f941735","category":"Nightclub","checkinsCount":230,"usersCount":159,"tipCount":1,"visitsCount":247,"tier":"","message":"","currency":"","rating":6.7},{"name":"MIX Club","phone":"+861065302689","address":"Gongti N Rd","lat":39.93139484589272,"lng":116.44059998282837,"neighborhood":"Dōng sì shítiáo","city_fetched":"Beijing,China","state":"北京市","country":"中国","canonicalUrl":"https://foursquare.com/v/mix-club/4bb603d62ea195218000ab2f","categoryId":"4bf58dd8d48988d11f941735","category":"Nightclub","checkinsCount":1072,"usersCount":928,"tipCount":33,"visitsCount":1191,"tier":"","message":"","currency":"","rating":6.7},{"name":"Kokomo","phone":"+861064131019","address":"Sanlitun Back St","lat":39.93479850588284,"lng":116.44815490610979,"neighborhood":"Dōng zhí mén","city_fetched":"Beijing,China","state":"北京市","country":"中国","canonicalUrl":"https://foursquare.com/v/kokomo/4bdc213e2a3a0f472f93b1b6","categoryId":"4bf58dd8d48988d116941735","category":"Bar","checkinsCount":1060,"usersCount":570,"tipCount":16,"visitsCount":1078,"tier":"","message":"","currency":"","rating":6.6},{"name":"Lido Square","lat":39.975487648966435,"lng":116.47310574495407,"neighborhood":"Dōng zhí mén","city_fetched":"Beijing,China","state":"北京市","country":"中国","canonicalUrl":"https://foursquare.com/v/lido-square/4c0264dc187ec928df1db47b","categoryId":"4bf58dd8d48988d117941735","category":"Beer Garden","checkinsCount":773,"usersCount":329,"tipCount":3,"visitsCount":779,"tier":"","message":"","currency":"","rating":6.6},{"name":"Helen's","address":"Volksrepubliek China","lat":39.893447,"lng":116.386286,"neighborhood":"Qiánmén","city_fetched":"Beijing,China","state":"北京市","country":"中国","canonicalUrl":"https://foursquare.com/v/helens/4e0033c462843b639cf7bba2","categoryId":"4bf58dd8d48988d116941735","category":"Bar","checkinsCount":258,"usersCount":129,"tipCount":7,"visitsCount":258,"tier":"","message":"","currency":"","rating":6.6},{"name":"荷花市场","address":"西城区什刹海","lat":39.932774430049484,"lng":116.38566247639324,"neighborhood":"Dōngchéng qū","city_fetched":"Beijing,China","state":"北京市","country":"中国","canonicalUrl":"https://foursquare.com/v/%E8%8D%B7%E8%8A%B1%E5%B8%82%E5%9C%BA/4e28240518a83a13622ea139","categoryId":"4bf58dd8d48988d117941735","category":"Beer Garden","checkinsCount":311,"usersCount":246,"tipCount":1,"visitsCount":311,"tier":"","message":"","currency":"","rating":6.6},{"name":"The Swan With Two Necks","lat":40.06114838378835,"lng":116.5401946808769,"neighborhood":"Shùnyì","city_fetched":"Beijing,China","state":"北京市","country":"中国","canonicalUrl":"https://foursquare.com/v/the-swan-with-two-necks/4ed6113bb8f7304633411bf9","categoryId":"4bf58dd8d48988d116941735","category":"Bar","checkinsCount":437,"usersCount":144,"tipCount":5,"visitsCount":515,"tier":"","message":"","currency":"","rating":6.6},{"name":"Fez","address":"Nanli Patio","lat":39.934954,"lng":116.448615,"neighborhood":"Dōng zhí mén","city_fetched":"Beijing,China","state":"北京市","country":"中国","canonicalUrl":"https://foursquare.com/v/fez/4dbd3912cda109aa6cae2ea3","categoryId":"4bf58dd8d48988d11e941735","category":"Cocktail Bar","checkinsCount":346,"usersCount":231,"tipCount":5,"visitsCount":346,"tier":"","message":"","currency":"","rating":6.6},{"name":"Beetle in a Box 盒子里的甲虫","phone":"+861064073093","address":"4-24 Jiaodaokou E Ave","lat":39.93942226632577,"lng":116.40830039978027,"neighborhood":"Běixīn qiáo","city_fetched":"Beijing,China","state":"北京市","country":"中国","canonicalUrl":"https://foursquare.com/v/beetle-in-a-box-%E7%9B%92%E5%AD%90%E9%87%8C%E7%9A%84%E7%94%B2%E8%99%AB/4b4051ecf964a520a3b725e3","categoryId":"4bf58dd8d48988d116941735","category":"Bar","checkinsCount":485,"usersCount":291,"tipCount":21,"visitsCount":617,"tier":"","message":"","currency":"","rating":6.6},{"name":"Hush","address":"Gongti","lat":39.930764175463786,"lng":116.44025421393528,"neighborhood":"Dōng sì shítiáo","city_fetched":"Beijing,China","country":"中国","canonicalUrl":"https://foursquare.com/v/hush/54396b21498ee8034f597142","categoryId":"4bf58dd8d48988d11f941735","category":"Nightclub","checkinsCount":134,"usersCount":79,"tipCount":5,"visitsCount":152,"tier":"","message":"","currency":"","rating":6.6},{"name":"Enoterra","phone":"+861052086076","address":"Nali patio 4th floor","lat":39.93481552212804,"lng":116.4484691619873,"neighborhood":"Dōng zhí mén","city_fetched":"Beijing,China","state":"北京市","country":"中国","canonicalUrl":"https://foursquare.com/v/enoterra/4ca4bc57d5a2a14309415490","categoryId":"4bf58dd8d48988d123941735","category":"Wine Bar","checkinsCount":1071,"usersCount":424,"tipCount":17,"visitsCount":1099,"tier":"","message":"","currency":"","rating":6.5},{"name":"Sim-Sim karaoke","lat":39.916896,"lng":116.437589,"neighborhood":"Zhāoyáng","city_fetched":"Beijing,China","country":"中国","canonicalUrl":"https://foursquare.com/v/simsim-karaoke/506b0face4b0b2645d23926f","categoryId":"4bf58dd8d48988d120941735","category":"Karaoke Bar","checkinsCount":215,"usersCount":76,"tipCount":3,"visitsCount":216,"tier":"","message":"","currency":"","rating":6.5},{"name":"The Steps","address":"Chengfu Rd","lat":39.99057930129388,"lng":116.33116774424002,"neighborhood":"Wǔ dàokǒu","city_fetched":"Beijing,China","state":"北京市","country":"中国","canonicalUrl":"https://foursquare.com/v/the-steps/505c7420e4b0084c3fe06391","categoryId":"4bf58dd8d48988d116941735","category":"Bar","checkinsCount":1107,"usersCount":402,"tipCount":12,"visitsCount":1148,"tier":"","message":"","currency":"","rating":6.5},{"name":"LANTERN Club 灯笼俱乐部","phone":"+861065513936","address":"Workers' Stadium W Rd","lat":39.9306560874097,"lng":116.43786839471302,"neighborhood":"Dōng sì shítiáo","city_fetched":"Beijing,China","state":"北京市","country":"中国","canonicalUrl":"https://foursquare.com/v/lantern-club-%E7%81%AF%E7%AC%BC%E4%BF%B1%E4%B9%90%E9%83%A8/4ea7bb0a9a526de96a6ab2fb","categoryId":"4bf58dd8d48988d11f941735","category":"Nightclub","checkinsCount":594,"usersCount":294,"tipCount":10,"visitsCount":602,"tier":"","message":"","currency":"","rating":6.5},{"name":"First Floor","phone":"+861064130587","address":"三里屯后街，同里，1层","lat":39.93500569960859,"lng":116.44795897676839,"neighborhood":"Dōng zhí mén","city_fetched":"Beijing,China","state":"北京市","country":"中国","canonicalUrl":"https://foursquare.com/v/first-floor/4bc9d3c768f976b025e75d83","categoryId":"4bf58dd8d48988d11b941735","category":"Pub","checkinsCount":3425,"usersCount":1356,"tipCount":53,"visitsCount":3491,"tier":"","message":"","currency":"","rating":6.5},{"name":"Sensations","address":"Wudaokou","lat":39.990583847615405,"lng":116.3311331514537,"neighborhood":"Wǔ dàokǒu","city_fetched":"Beijing,China","state":"北京市","country":"中国","canonicalUrl":"https://foursquare.com/v/sensations/4d2c9470f7a9224ba86a19a0","categoryId":"4bf58dd8d48988d116941735","category":"Bar","checkinsCount":540,"usersCount":260,"tipCount":5,"visitsCount":541,"tier":"","message":"","currency":"","rating":6.4},{"name":"龙吧 Loong Bar","phone":"+861059086688","address":"83 Jianguo Rd","lat":39.90873367510603,"lng":116.47557187267718,"neighborhood":"Chāoyáng qū","city_fetched":"Beijing,China","state":"北京市","country":"中国","canonicalUrl":"https://foursquare.com/v/%E9%BE%99%E5%90%A7-loong-bar/4b05878cf964a520bc9822e3","categoryId":"4bf58dd8d48988d11e941735","category":"Cocktail Bar","checkinsCount":241,"usersCount":127,"tipCount":2,"visitsCount":243,"tier":"","message":"","currency":"","rating":6.4},{"name":"DK1308 德国啤酒餐吧","phone":"+861065035555","address":"Gongti E Rd","lat":39.930471979233516,"lng":116.44445527152575,"neighborhood":"Dōng sì shítiáo","city_fetched":"Beijing,China","state":"北京市","country":"中国","canonicalUrl":"https://foursquare.com/v/dk1308-%E5%BE%B7%E5%9B%BD%E5%95%A4%E9%85%92%E9%A4%90%E5%90%A7/4cc6df351e596dcba518e167","categoryId":"4bf58dd8d48988d117941735","category":"Beer Garden","checkinsCount":432,"usersCount":291,"tipCount":12,"visitsCount":445,"tier":"","message":"","currency":"","rating":6.3},{"name":"Liv Club","lat":39.92859410878627,"lng":116.43848502180761,"neighborhood":"Dōng sì shítiáo","city_fetched":"Beijing,China","country":"中国","canonicalUrl":"https://foursquare.com/v/liv-club/5178fd78498eac4e712eff9e","categoryId":"4bf58dd8d48988d11f941735","category":"Nightclub","checkinsCount":577,"usersCount":315,"tipCount":12,"visitsCount":687,"tier":"","message":"","currency":"","rating":6.3},{"name":"Salud 老伍","phone":"+861064025086","address":"66 Nanluogu Alley","lat":39.935609384983906,"lng":116.3969224691391,"neighborhood":"Dōngchéng qū","city_fetched":"Beijing,China","state":"北京市","country":"中国","canonicalUrl":"https://foursquare.com/v/salud-%E8%80%81%E4%BC%8D/4b2db77ff964a520c5da24e3","categoryId":"4bf58dd8d48988d116941735","category":"Bar","checkinsCount":708,"usersCount":474,"tipCount":14,"visitsCount":763,"tier":"","message":"","currency":"","rating":6.3},{"name":"Ruizhao Sake Bar 瑞兆居酒屋","phone":"+861064667935","address":"8 Xinyuanxili Zhongjie","lat":39.947006265989074,"lng":116.44130229949951,"neighborhood":"Dōng zhí mén","city_fetched":"Beijing,China","state":"北京市","country":"中国","canonicalUrl":"https://foursquare.com/v/ruizhao-sake-bar-%E7%91%9E%E5%85%86%E5%B1%85%E9%85%92%E5%B1%8B/4b2bb2f9f964a52058b924e3","categoryId":"4bf58dd8d48988d11c941735","category":"Sake Bar","checkinsCount":233,"usersCount":91,"tipCount":8,"visitsCount":237,"tier":"","message":"","currency":"","rating":6.2},{"name":"Vivid","address":"Conrad Beijing","lat":39.92594276719117,"lng":116.45388288571208,"neighborhood":"Dōng sì shítiáo","city_fetched":"Beijing,China","country":"中国","canonicalUrl":"https://foursquare.com/v/vivid/528238ba498e4b4bc37366cf","categoryId":"4bf58dd8d48988d1d5941735","category":"Hotel Bar","checkinsCount":76,"usersCount":55,"tipCount":2,"visitsCount":76,"tier":"","message":"","currency":"","rating":6.2},{"name":"The Box 盒子","phone":"+861064013293","address":"5 Qianmachang Alley, Jiu Gulou Ave","lat":39.942580997401826,"lng":116.38752937316895,"neighborhood":"Dōngchéng qū","city_fetched":"Beijing,China","state":"北京市","country":"中国","canonicalUrl":"https://foursquare.com/v/the-box-%E7%9B%92%E5%AD%90/4c81ca9851ada1cd9fcc1610","categoryId":"4bf58dd8d48988d116941735","category":"Bar","checkinsCount":138,"usersCount":72,"tipCount":11,"visitsCount":138,"tier":"","message":"","currency":"","rating":6.2},{"name":"Latte 拿铁","address":"North Gate, Worker Stadium","lat":39.93085363309349,"lng":116.43996607280255,"neighborhood":"Dōng sì shítiáo","city_fetched":"Beijing,China","state":"北京市","country":"中国","canonicalUrl":"https://foursquare.com/v/latte-%E6%8B%BF%E9%93%81/4c2e427d987f20a11bde4aaa","categoryId":"4bf58dd8d48988d11f941735","category":"Nightclub","checkinsCount":775,"usersCount":525,"tipCount":17,"visitsCount":853,"tier":"","message":"","currency":"","rating":6.2},{"name":"目的地酒吧 Destination","phone":"+861065528180","address":"7 Gongti W Rd","lat":39.927040917254466,"lng":116.43728634335542,"neighborhood":"Dōng sì shítiáo","city_fetched":"Beijing,China","state":"北京市","country":"中国","canonicalUrl":"https://foursquare.com/v/%E7%9B%AE%E7%9A%84%E5%9C%B0%E9%85%92%E5%90%A7-destination/4b87ec18f964a52013d331e3","categoryId":"4bf58dd8d48988d1d8941735","category":"Gay Bar","checkinsCount":985,"usersCount":450,"tipCount":15,"visitsCount":1076,"tier":"","message":"","currency":"","rating":6.2},{"name":"True Color","address":"28 Gongti N Rd","lat":39.94501575308417,"lng":116.4155960083008,"neighborhood":"Běixīn qiáo","city_fetched":"Beijing,China","state":"北京市","country":"中国","canonicalUrl":"https://foursquare.com/v/true-color/50e6f2d7e4b0e4337800a779","categoryId":"4bf58dd8d48988d11f941735","category":"Nightclub","checkinsCount":530,"usersCount":163,"tipCount":10,"visitsCount":544,"tier":"","message":"","currency":"","rating":6.2},{"name":"Frank's Place","phone":"+861064378399","address":"9-3 Jiangtai W Rd","lat":39.972688556285426,"lng":116.46958082914352,"neighborhood":"Dōng zhí mén","city_fetched":"Beijing,China","state":"北京市","country":"中国","canonicalUrl":"https://foursquare.com/v/franks-place/4b061952f964a5209fe822e3","categoryId":"4bf58dd8d48988d11d941735","category":"Sports Bar","checkinsCount":431,"usersCount":222,"tipCount":14,"visitsCount":448,"tier":"","message":"","currency":"","rating":6.2},{"name":"如果吧 If Bar (aka 'Siif')","address":"67 North Luogu Alley","lat":39.942464467942635,"lng":116.39659681745562,"neighborhood":"Āndìng mén","city_fetched":"Beijing,China","state":"北京市","country":"中国","canonicalUrl":"https://foursquare.com/v/%E5%A6%82%E6%9E%9C%E5%90%A7-if-bar-aka-siif/4bb5fd2946d4a593a686c5c0","categoryId":"4bf58dd8d48988d116941735","category":"Bar","checkinsCount":179,"usersCount":123,"tipCount":11,"visitsCount":186,"tier":"","message":"","currency":"","rating":6.1},{"name":"京城俱乐部 Capital Club","address":"6 Xin Yuan Nan Road","lat":39.94648058793243,"lng":116.44773423408718,"neighborhood":"Dōng zhí mén","city_fetched":"Beijing,China","state":"北京市","country":"中国","canonicalUrl":"https://foursquare.com/v/%E4%BA%AC%E5%9F%8E%E4%BF%B1%E4%B9%90%E9%83%A8-capital-club/4ca1f824e44d6dcb0bb50275","categoryId":"4bf58dd8d48988d121941735","category":"Lounge","checkinsCount":190,"usersCount":89,"tipCount":2,"visitsCount":192,"tier":"","message":"","currency":"","rating":6.1},{"name":"Más","phone":"+8613146840989","address":"25 Beixinqiao toutiao","lat":39.94048305620863,"lng":116.41387631358111,"neighborhood":"Běixīn qiáo","city_fetched":"Beijing,China","state":"Beijjng","country":"中国","canonicalUrl":"https://foursquare.com/v/m%C3%A1s/4f92bf03e4b0f08d3f953f30","categoryId":"4bf58dd8d48988d11e941735","category":"Cocktail Bar","checkinsCount":289,"usersCount":171,"tipCount":9,"visitsCount":373,"tier":"","message":"","currency":"","rating":6.1},{"name":"Alfa 餐吧","phone":"+861064130086","address":"朝阳区幸福一村6号工体北门对面的胡同里","lat":39.933597973639216,"lng":116.44018650054932,"neighborhood":"Dōng zhí mén","city_fetched":"Beijing,China","state":"北京市","country":"中国","canonicalUrl":"https://foursquare.com/v/alfa-%E9%A4%90%E5%90%A7/4b645c08f964a52029ad2ae3","categoryId":"4bf58dd8d48988d121941735","category":"Lounge","checkinsCount":562,"usersCount":268,"tipCount":15,"visitsCount":566,"tier":"","message":"","currency":"","rating":6.1},{"name":"Nashville 乡谣","phone":"+861058670298","address":"26 Haoyun Jie, Zaoying Lu","lat":39.94891858437507,"lng":116.4652892947197,"neighborhood":"Chāoyáng qū","city_fetched":"Beijing,China","state":"北京市","country":"中国","canonicalUrl":"https://foursquare.com/v/nashville-%E4%B9%A1%E8%B0%A3/4b48a920f964a520ef5126e3","categoryId":"4bf58dd8d48988d116941735","category":"Bar","checkinsCount":268,"usersCount":177,"tipCount":7,"visitsCount":268,"tier":"","message":"","currency":"","rating":6},{"name":"Helen's Hangout","address":"315 Shaoyaoju Beili","lat":39.983519,"lng":116.424771,"neighborhood":"Sháoyào jū","city_fetched":"Beijing,China","state":"北京市","country":"中国","canonicalUrl":"https://foursquare.com/v/helens-hangout/4e6e2e0f18380b4aac4de61e","categoryId":"4bf58dd8d48988d116941735","category":"Bar","checkinsCount":1125,"usersCount":365,"tipCount":12,"visitsCount":1337,"tier":"","message":"","currency":"","rating":6},{"name":"Sirena Bar 海妖","phone":"+861084020842","address":"五道营胡同 | Wǔ dào yíng hútòng","lat":39.947006731664445,"lng":116.4085508128138,"neighborhood":"Běixīn qiáo","city_fetched":"Beijing,China","state":"北京市","country":"中国","canonicalUrl":"https://foursquare.com/v/sirena-bar-%E6%B5%B7%E5%A6%96/4eda47275c5c96a2fe14eeaa","categoryId":"4bf58dd8d48988d116941735","category":"Bar","checkinsCount":94,"usersCount":86,"tipCount":7,"visitsCount":94,"url":"http://weibo.com/sirena1985","tier":"","message":"","currency":"","rating":6},{"name":"Czech Pub 捷克餐吧","phone":"+861085690637","address":"朝阳区神路街39号日坛上街","lat":39.918642142633345,"lng":116.4372690546792,"neighborhood":"Zhāoyáng","city_fetched":"Beijing,China","state":"北京市","country":"中国","canonicalUrl":"https://foursquare.com/v/czech-pub-%E6%8D%B7%E5%85%8B%E9%A4%90%E5%90%A7/4daacd3e93a04642f0873de6","categoryId":"4bf58dd8d48988d11b941735","category":"Pub","checkinsCount":130,"usersCount":88,"tipCount":6,"visitsCount":130,"url":"http://www.czechpub.cn","tier":"","message":"","currency":"","rating":6},{"name":"熊猫精酿 Panda Brew （北新桥店）","address":"东四北大街14号(簋街西头)","lat":39.938493449276464,"lng":116.41078131312015,"neighborhood":"Běixīn qiáo","city_fetched":"Beijing,China","country":"中国","canonicalUrl":"https://foursquare.com/v/%E7%86%8A%E7%8C%AB%E7%B2%BE%E9%85%BF-panda-brew-%E5%8C%97%E6%96%B0%E6%A1%A5%E5%BA%97/55291aae498e00d18e5987bb","categoryId":"50327c8591d4c4b30a586d5d","category":"Brewery","checkinsCount":72,"usersCount":116,"tipCount":3,"visitsCount":128,"tier":"","message":"","currency":"","rating":5.9},{"name":"糖果 Tango","phone":"+861064282288","address":"79 Hepingli W St","lat":39.94923544663518,"lng":116.40974963729803,"neighborhood":"Āndìng mén","city_fetched":"Beijing,China","state":"北京市","country":"中国","canonicalUrl":"https://foursquare.com/v/%E7%B3%96%E6%9E%9C-tango/4b74fb8bf964a52014fa2de3","categoryId":"4bf58dd8d48988d120941735","category":"Karaoke Bar","checkinsCount":292,"usersCount":211,"tipCount":1,"visitsCount":292,"tier":"","message":"","currency":"","rating":5.9},{"name":"Nanjie","lat":39.93079,"lng":116.450442,"neighborhood":"Dōng sì shítiáo","city_fetched":"Beijing,China","country":"中国","canonicalUrl":"https://foursquare.com/v/nanjie/4b9bdc26f964a5203f2e36e3","categoryId":"4bf58dd8d48988d116941735","category":"Bar","checkinsCount":413,"usersCount":240,"tipCount":8,"visitsCount":420,"tier":"","message":"","currency":"","rating":5.9},{"name":"酷姿 Coolth KTV","address":"太古里三里屯","lat":39.93554724933317,"lng":116.44862744090719,"neighborhood":"Dōng zhí mén","city_fetched":"Beijing,China","state":"北京市","country":"中国","canonicalUrl":"https://foursquare.com/v/%E9%85%B7%E5%A7%BF-coolth-ktv/4ebd18dee5faed97bedf11ba","categoryId":"4bf58dd8d48988d120941735","category":"Karaoke Bar","checkinsCount":188,"usersCount":139,"tipCount":2,"visitsCount":188,"tier":"","message":"","currency":"","rating":5.8},{"name":"Black Sun Bar 黑太阳","phone":"+861065936912","address":"9, Nongzhanguan Nanlu","lat":39.935703989787896,"lng":116.46882176399231,"neighborhood":"Chāoyáng qū","city_fetched":"Beijing,China","state":"北京市","country":"中国","canonicalUrl":"https://foursquare.com/v/black-sun-bar-%E9%BB%91%E5%A4%AA%E9%98%B3/4b45b813f964a520b40f26e3","categoryId":"4bf58dd8d48988d116941735","category":"Bar","checkinsCount":449,"usersCount":137,"tipCount":9,"visitsCount":454,"tier":"","message":"","currency":"","rating":5.8},{"name":"Hopfenstube","address":"Ritan Gongyuan W Rd","lat":39.92094295016559,"lng":116.43383434580718,"neighborhood":"Zhāoyáng","city_fetched":"Beijing,China","state":"北京市","country":"中国","canonicalUrl":"https://foursquare.com/v/hopfenstube/4d809663e6d7721e12551ac7","categoryId":"4bf58dd8d48988d116941735","category":"Bar","checkinsCount":173,"usersCount":95,"tipCount":6,"visitsCount":173,"tier":"","message":"","currency":"","rating":5.8},{"name":"TGI Fridays","address":"Shuangyushu","lat":39.962198,"lng":116.315385,"neighborhood":"Dà zhōng sì","city_fetched":"Beijing,China","state":"北京市","country":"中国","canonicalUrl":"https://foursquare.com/v/tgi-fridays/4c90b44e1adc3704ad7029d1","categoryId":"4bf58dd8d48988d11d941735","category":"Sports Bar","checkinsCount":246,"usersCount":134,"tipCount":4,"visitsCount":248,"tier":"","message":"","currency":"","rating":5.8},{"name":"12SQM","address":"Nanluoguxiang","lat":39.93287824124558,"lng":116.39688501151453,"neighborhood":"Dōngchéng qū","city_fetched":"Beijing,China","state":"北京市","country":"中国","canonicalUrl":"https://foursquare.com/v/12sqm/4b114850f964a520b47923e3","categoryId":"4bf58dd8d48988d116941735","category":"Bar","checkinsCount":366,"usersCount":143,"tipCount":7,"visitsCount":368,"tier":"","message":"","currency":"","rating":5.7},{"name":"Fubar 福吧","phone":"+861065938227","twitter":"fubarbeijing","address":"Gongti E Rd","lat":39.928069372923325,"lng":116.44186019897461,"neighborhood":"Dōng sì shítiáo","city_fetched":"Beijing,China","state":"北京市","country":"中国","canonicalUrl":"https://foursquare.com/v/fubar-%E7%A6%8F%E5%90%A7/4b0fdd88f964a520a36523e3","categoryId":"4bf58dd8d48988d1d4941735","category":"Speakeasy","checkinsCount":1761,"usersCount":635,"tipCount":30,"visitsCount":1776,"tier":"","message":"","currency":"","rating":5.7},{"name":"KURA KURA","address":"Sanlitun Rd","lat":39.93869836991711,"lng":116.44937038421631,"neighborhood":"Dōng zhí mén","city_fetched":"Beijing,China","state":"北京市","country":"中国","canonicalUrl":"https://foursquare.com/v/kura-kura/4d8341ab02eb5481de4e15f5","categoryId":"4bf58dd8d48988d116941735","category":"Bar","checkinsCount":393,"usersCount":232,"tipCount":9,"visitsCount":528,"tier":"","message":"","currency":"","rating":5.7},{"name":"Ibiza 伊贝莎主题KTV","address":"三里屯 SOHO 商城 3 号六层","lat":39.93129821526896,"lng":116.44711186861608,"neighborhood":"Dōng sì shítiáo","city_fetched":"Beijing,China","state":"北京市","country":"中国","canonicalUrl":"https://foursquare.com/v/ibiza-%E4%BC%8A%E8%B4%9D%E8%8E%8E%E4%B8%BB%E9%A2%98ktv/4df0e46e88775c5de1290be0","categoryId":"4bf58dd8d48988d120941735","category":"Karaoke Bar","checkinsCount":349,"usersCount":249,"tipCount":5,"visitsCount":357,"tier":"","message":"","currency":"","rating":5.7},{"name":"钱柜 KTV Cashbox Party World","phone":"+861059639666","address":"4 Huixin E St","lat":39.985946640458224,"lng":116.41807207816576,"neighborhood":"Chāoyáng qū","city_fetched":"Beijing,China","state":"北京市","country":"中国","canonicalUrl":"https://foursquare.com/v/%E9%92%B1%E6%9F%9C-ktv-cashbox-party-world/4b8938b9f964a520eb2332e3","categoryId":"4bf58dd8d48988d120941735","category":"Karaoke Bar","checkinsCount":493,"usersCount":290,"tipCount":8,"visitsCount":507,"url":"http://www.cn.cashboxparty.com","tier":"","message":"","currency":"","rating":5.7},{"name":"Paddy's Irish Bar","address":"2/F Tongli Studios","lat":39.934825839577,"lng":116.44798202728762,"neighborhood":"Dōng zhí mén","city_fetched":"Beijing,China","state":"北京市","country":"中国","canonicalUrl":"https://foursquare.com/v/paddys-irish-bar/5130ae91e4b0bef17ad382a2","categoryId":"4bf58dd8d48988d116941735","category":"Bar","checkinsCount":83,"usersCount":69,"tipCount":2,"visitsCount":83,"tier":"","message":"","currency":"","rating":5.7},{"name":"Grinders Restaurant & Sports Bar","phone":"3718917856","address":"3-02 Tianzhijiaozi, Middle Road of E.3rd Ring Road","lat":39.89416402477681,"lng":116.45904779434204,"neighborhood":"Chāoyáng qū","city_fetched":"Beijing,China","state":"北京市","country":"中国","canonicalUrl":"https://foursquare.com/v/grinders-restaurant--sports-bar/4d0cdbfabe6d6ea8caa101b5","categoryId":"4bf58dd8d48988d116941735","category":"Bar","checkinsCount":489,"usersCount":167,"tipCount":18,"visitsCount":491,"tier":"","message":"","currency":"","rating":5.6},{"name":"George's Bar Beijing","address":"Gongti","lat":39.92812696481559,"lng":116.44137740135193,"neighborhood":"Dōng sì shítiáo","city_fetched":"Beijing,China","state":"北京市","country":"中国","canonicalUrl":"https://foursquare.com/v/georges-bar-beijing/4c24b7eea852c9283787e36c","categoryId":"4bf58dd8d48988d116941735","category":"Bar","checkinsCount":306,"usersCount":158,"tipCount":13,"visitsCount":310,"tier":"","message":"","currency":"","rating":5.6},{"name":"Grand Club Lounge","twitter":"hyattconcierge","address":"1 E Chang'an Ave","lat":39.908024452279236,"lng":116.40832185745239,"neighborhood":"Wángfǔ jǐng","city_fetched":"Beijing,China","state":"北京市","country":"中国","canonicalUrl":"https://foursquare.com/v/grand-club-lounge/4ca28a8b5720b1f73a432aef","categoryId":"4bf58dd8d48988d1d5941735","category":"Hotel Bar","checkinsCount":732,"usersCount":291,"tipCount":7,"visitsCount":735,"tier":"","message":"","currency":"","rating":5.6},{"name":"Executive Lounge","address":"83 Jianguo Rd","lat":39.90886240974389,"lng":116.47567558775816,"neighborhood":"Chāoyáng qū","city_fetched":"Beijing,China","state":"北京市","country":"中国","canonicalUrl":"https://foursquare.com/v/executive-lounge/4eaa6eed5c5cf8848a3de7cf","categoryId":"4bf58dd8d48988d1d5941735","category":"Hotel Bar","checkinsCount":333,"usersCount":109,"tipCount":3,"visitsCount":336,"tier":"","message":"","currency":"","rating":5.6},{"name":"Vanguard / VA Live","address":"东城区五道营胡同13号 • 13 Wudaoying Hutong, Dongcheng District","lat":39.94704739167809,"lng":116.40936523675919,"neighborhood":"Běixīn qiáo","city_fetched":"Beijing,China","state":"北京市","country":"中国","canonicalUrl":"https://foursquare.com/v/vanguard--va-live/4cd16642f6378cfa861abbd6","categoryId":"4bf58dd8d48988d116941735","category":"Bar","checkinsCount":220,"usersCount":152,"tipCount":4,"visitsCount":223,"tier":"","message":"","currency":"","rating":5.4},{"name":"Propaganda","phone":"+861082893991","address":"Caijing Donglu","lat":39.99050106050396,"lng":116.33098901479056,"neighborhood":"Wǔ dàokǒu","city_fetched":"Beijing,China","state":"北京市","country":"中国","canonicalUrl":"https://foursquare.com/v/propaganda/4ba0fb85f964a520048c37e3","categoryId":"4bf58dd8d48988d116941735","category":"Bar","checkinsCount":554,"usersCount":316,"tipCount":13,"visitsCount":555,"tier":"","message":"","currency":"","rating":5.3},{"name":"Red Club","phone":"+8613651319097","address":"三里屯后街3.3购物中心西侧地下1层","lat":39.935299771523994,"lng":116.44804541620388,"neighborhood":"Dōng zhí mén","city_fetched":"Beijing,China","state":"北京市","country":"中国","canonicalUrl":"https://foursquare.com/v/red-club/4c8674dbd4e237042b658b88","categoryId":"4bf58dd8d48988d11f941735","category":"Nightclub","checkinsCount":97,"usersCount":80,"tipCount":5,"visitsCount":97,"tier":"","message":"","currency":"","rating":5.3},{"name":"Melody 麦乐迪","address":"24 Zhongguancun S Ave.","lat":39.9502515559272,"lng":116.31826429000407,"neighborhood":"Zhōngguāncūn","city_fetched":"Beijing,China","state":"北京市","country":"中国","canonicalUrl":"https://foursquare.com/v/melody-%E9%BA%A6%E4%B9%90%E8%BF%AA/4bacbd9df964a5206d083be3","categoryId":"4bf58dd8d48988d120941735","category":"Karaoke Bar","checkinsCount":219,"usersCount":141,"tipCount":2,"visitsCount":220,"tier":"","message":"","currency":"","rating":5.2},{"name":"Brussel's","lat":39.93035957869015,"lng":116.45148567988183,"neighborhood":"Dōng sì shítiáo","city_fetched":"Beijing,China","country":"中国","canonicalUrl":"https://foursquare.com/v/brussels/4f50e988e4b02b3bcaadb102","categoryId":"4bf58dd8d48988d11b941735","category":"Pub","checkinsCount":394,"usersCount":132,"tipCount":17,"visitsCount":394,"tier":"","message":"","currency":"","rating":5.2},{"name":"Smugglers","address":"三里屯酒吧街","lat":39.93529628192506,"lng":116.44762474398502,"neighborhood":"Dōng zhí mén","city_fetched":"Beijing,China","state":"北京市","country":"中国","canonicalUrl":"https://foursquare.com/v/smugglers/4b6c4c0cf964a520a92e2ce3","categoryId":"4bf58dd8d48988d116941735","category":"Bar","checkinsCount":323,"usersCount":160,"tipCount":4,"visitsCount":323,"tier":"","message":"","currency":"","rating":5.2}]