[{"name":"The Union Trading Co.","address":"64 Fenyang Road (Front Entrance on Middle Fuxing Rd.)","lat":31.21356096975006,"lng":121.44962129672314,"neighborhood":"Xúhuì","city_fetched":"Changning,China","country":"中国","canonicalUrl":"https://foursquare.com/v/the-union-trading-co/53a5bede498e35d5abb9bd77","categoryId":"4bf58dd8d48988d11e941735","category":"Cocktail Bar","checkinsCount":1096,"usersCount":739,"tipCount":30,"visitsCount":1796,"tier":"","message":"","currency":"","rating":8.9},{"name":"酒池星座 Constellation","phone":"+862154040970","address":"新乐路86号","lat":31.219591322014907,"lng":121.45064949989319,"neighborhood":"Jìngān","city_fetched":"Changning,China","state":"上海市","country":"中国","canonicalUrl":"https://foursquare.com/v/%E9%85%92%E6%B1%A0%E6%98%9F%E5%BA%A7-constellation/4b586ab4f964a520cd5628e3","categoryId":"4bf58dd8d48988d11e941735","category":"Cocktail Bar","checkinsCount":1070,"usersCount":618,"tipCount":14,"visitsCount":1150,"tier":"","message":"","currency":"","rating":8.9},{"name":"The Nest","address":"Beijing Lu 130 6f","lat":31.242816365977024,"lng":121.48314400244418,"neighborhood":"Wàitān","city_fetched":"Changning,China","country":"中国","canonicalUrl":"https://foursquare.com/v/the-nest/548c4f32498ea6aa0e8ada60","categoryId":"4bf58dd8d48988d121941735","category":"Lounge","checkinsCount":1514,"usersCount":1363,"tipCount":38,"visitsCount":2901,"tier":"","message":"","currency":"","rating":8.9},{"name":"Speak Low","address":"579 Fuxing Lu","lat":31.216873867583164,"lng":121.46119272457092,"neighborhood":"Xīntiāndì","city_fetched":"Changning,China","state":"上海市","country":"中国","canonicalUrl":"https://foursquare.com/v/speak-low/53ad6fd9498ef536312f3fc8","categoryId":"4bf58dd8d48988d116941735","category":"Bar","checkinsCount":611,"usersCount":756,"tipCount":24,"visitsCount":1098,"tier":"","message":"","currency":"","rating":8.9},{"name":"Bar Rouge","phone":"+862163391199","twitter":"bar_rouge","address":"7/F, Bund 18, 18 Zhongshan Rd. East-1","lat":31.24032491359998,"lng":121.4854645729065,"neighborhood":"Wàitān","city_fetched":"Changning,China","state":"上海市","country":"中国","canonicalUrl":"https://foursquare.com/v/bar-rouge/4b0588bff964a5208fd722e3","categoryId":"4bf58dd8d48988d121941735","category":"Lounge","checkinsCount":8947,"usersCount":4849,"tipCount":142,"visitsCount":9611,"url":"http://www.bar-rouge-shanghai.com","tier":3,"message":"Expensive","currency":"¥","rating":8.8},{"name":"Senator Saloon","phone":"+862154231330","address":"98 Wuyuan Rd","lat":31.21492104921403,"lng":121.44245266914368,"neighborhood":"Xúhuì","city_fetched":"Changning,China","state":"上海市","country":"中国","canonicalUrl":"https://foursquare.com/v/senator-saloon/4fe45d5fe4b023504e597994","categoryId":"4bf58dd8d48988d122941735","category":"Whisky Bar","checkinsCount":3355,"usersCount":1277,"tipCount":66,"visitsCount":3873,"url":"http://www.senatorsaloon.com","tier":2,"message":"Moderate","currency":"¥","rating":8.8},{"name":"The Cannery","address":"1107 Yuyuan Road","lat":31.220395688215458,"lng":121.42381853076044,"neighborhood":"Zhǎngníng","city_fetched":"Changning,China","state":"上海市","country":"中国","canonicalUrl":"https://foursquare.com/v/the-cannery/574c154e498e43b1dc810eac","categoryId":"4bf58dd8d48988d121941735","category":"Lounge","checkinsCount":220,"usersCount":252,"tipCount":4,"visitsCount":443,"tier":3,"message":"Expensive","currency":"¥","rating":8.7},{"name":"Bar No.3","address":"兴国路277号 277 XinGuo Lu","lat":31.206621341013644,"lng":121.43316149711607,"neighborhood":"Xúhuì","city_fetched":"Changning,China","state":"上海市","country":"中国","canonicalUrl":"https://foursquare.com/v/bar-no3/5406f276498ee2d256d24a18","categoryId":"4bf58dd8d48988d11e941735","category":"Cocktail Bar","checkinsCount":348,"usersCount":369,"tipCount":14,"visitsCount":688,"tier":"","message":"","currency":"","rating":8.7},{"name":"Magpie Cocktail & Mom's Cuisine","address":"Yongkang Lu","lat":31.21173241955045,"lng":121.45035779631765,"neighborhood":"Xúhuì","city_fetched":"Changning,China","state":"上海市","country":"中国","canonicalUrl":"https://foursquare.com/v/magpie-cocktail--moms-cuisine/5151b6b0e4b0351d5c6e98e9","categoryId":"4bf58dd8d48988d11e941735","category":"Cocktail Bar","checkinsCount":265,"usersCount":171,"tipCount":13,"visitsCount":319,"tier":"","message":"","currency":"","rating":8.7},{"name":"啤酒阿姨 (Beer Lady)","address":"法华真路455号","lat":31.206686728730023,"lng":121.42185965154312,"neighborhood":"Zhǎngníng","city_fetched":"Changning,China","state":"上海市","country":"中国","canonicalUrl":"https://foursquare.com/v/%E5%95%A4%E9%85%92%E9%98%BF%E5%A7%A8-beer-lady/56bda766498e8e42f096a41e","categoryId":"4bf58dd8d48988d116941735","category":"Bar","checkinsCount":110,"usersCount":85,"tipCount":3,"visitsCount":156,"tier":"","message":"","currency":"","rating":8.4},{"name":"O Theatre","phone":"+862160960505","address":"57 Mao Ming Nan Lu","lat":31.222621,"lng":121.455481,"neighborhood":"Jìngān","city_fetched":"Changning,China","state":"上海市","country":"中国","canonicalUrl":"https://foursquare.com/v/o-theatre/52fb59b1498eb7dde7c0017f","categoryId":"4bf58dd8d48988d11e941735","category":"Cocktail Bar","checkinsCount":119,"usersCount":83,"tipCount":4,"visitsCount":127,"tier":"","message":"","currency":"","rating":8.4},{"name":"Long Bar","phone":"+862163229988","address":"Lobby Level, Waldorf Astoria Club, 2 Zhongshan Rd. E-1","lat":31.235866657964863,"lng":121.48688077926636,"neighborhood":"Wàitān","city_fetched":"Changning,China","state":"上海市","country":"中国","canonicalUrl":"https://foursquare.com/v/long-bar/4c810bafe602b1f739c18e7a","categoryId":"4bf58dd8d48988d1d5941735","category":"Hotel Bar","checkinsCount":1608,"usersCount":1004,"tipCount":36,"visitsCount":1626,"url":"http://www.waldorfastoriashanghai.com/english/dine_in_style/Long_Bar","tier":"","message":"","currency":"","rating":8.4},{"name":"Heyday","phone":"+862162366075","address":"Taian Lu","lat":31.207654,"lng":121.432509,"neighborhood":"Zhǎngníng","city_fetched":"Changning,China","state":"上海市","country":"中国","canonicalUrl":"https://foursquare.com/v/heyday/54afca7b498e6aa485f3a447","categoryId":"4bf58dd8d48988d11e941735","category":"Cocktail Bar","checkinsCount":222,"usersCount":162,"tipCount":11,"visitsCount":265,"url":"http://www.heydayjazz.cn","tier":"","message":"","currency":"","rating":8.4},{"name":"Justcool 玖库","address":"291 番禺路","lat":31.207420083346125,"lng":121.42464448699444,"neighborhood":"Zhǎngníng","city_fetched":"Changning,China","country":"中国","canonicalUrl":"https://foursquare.com/v/justcool-%E7%8E%96%E5%BA%93/53ca7ddb498ec00d435bd737","categoryId":"4bf58dd8d48988d116941735","category":"Bar","checkinsCount":111,"usersCount":81,"tipCount":4,"visitsCount":159,"tier":"","message":"","currency":"","rating":8.3},{"name":"Mokkos Bar","phone":"+862162121114","address":"Room 103 1245 Wuding Road West","lat":31.226875,"lng":121.428802,"neighborhood":"Jìngān","city_fetched":"Changning,China","state":"上海市","country":"中国","canonicalUrl":"https://foursquare.com/v/mokkos-bar/4b0bf924f964a5203d3523e3","categoryId":"4bf58dd8d48988d116941735","category":"Bar","checkinsCount":625,"usersCount":429,"tipCount":19,"visitsCount":740,"tier":"","message":"","currency":"","rating":8.3},{"name":"Kangaroo Bar","phone":"+862154666066","address":"33 Yongjia Rd.","lat":31.2126918396339,"lng":121.45833624078601,"neighborhood":"Xīntiāndì","city_fetched":"Changning,China","state":"上海市","country":"中国","canonicalUrl":"https://foursquare.com/v/kangaroo-bar/4b62e7d1f964a5202f582ae3","categoryId":"4bf58dd8d48988d118941735","category":"Dive Bar","checkinsCount":693,"usersCount":192,"tipCount":14,"visitsCount":735,"tier":"","message":"","currency":"","rating":8.2},{"name":"M1NT","phone":"+862163912811","address":"24/F, 318 Fuzhou Rd.","lat":31.236744131549496,"lng":121.48000358048391,"neighborhood":"Běixīn qiáo","city_fetched":"Changning,China","state":"上海市","country":"中国","canonicalUrl":"https://foursquare.com/v/m1nt/4b0588c5f964a52074d922e3","categoryId":"4bf58dd8d48988d11f941735","category":"Nightclub","checkinsCount":12550,"usersCount":4985,"tipCount":153,"visitsCount":14347,"url":"http://www.m1ntglobal.com","tier":3,"message":"Expensive","currency":"¥","rating":8.2},{"name":"Dada Bar","phone":"+8615901969600","address":"115 Xingfu Rd","lat":31.20711812231016,"lng":121.42659215775748,"neighborhood":"Zhǎngníng","city_fetched":"Changning,China","state":"上海市","country":"中国","canonicalUrl":"https://foursquare.com/v/dada-bar/4b56e9e3f964a520101f28e3","categoryId":"4bf58dd8d48988d116941735","category":"Bar","checkinsCount":1872,"usersCount":1134,"tipCount":24,"visitsCount":2519,"url":"http://www.weibo.com/dadabar","tier":"","message":"","currency":"","rating":8.1},{"name":"Tap House","phone":"+862152926990","address":"99 Taixing Rd.","lat":31.230473806933162,"lng":121.45532904570489,"neighborhood":"Jìngān","city_fetched":"Changning,China","state":"上海市","country":"中国","canonicalUrl":"https://foursquare.com/v/tap-house/55bb706d498e8d9d9e5ca8a8","categoryId":"4bf58dd8d48988d117941735","category":"Beer Garden","checkinsCount":202,"usersCount":143,"tipCount":4,"visitsCount":209,"tier":"","message":"","currency":"","rating":8.1},{"name":"I Love Shanghai Lounge","phone":"+862152286899","address":"3F, 1788 Xinzha Rd.","lat":31.230031,"lng":121.438933,"neighborhood":"Jìngān","city_fetched":"Changning,China","state":"上海市","country":"中国","canonicalUrl":"https://foursquare.com/v/i-love-shanghai-lounge/4b0588bef964a5205cd722e3","categoryId":"4bf58dd8d48988d118941735","category":"Dive Bar","checkinsCount":2051,"usersCount":435,"tipCount":28,"visitsCount":2193,"url":"http://iloveshanghailounge.com","tier":"","message":"","currency":"","rating":8.1},{"name":"Panda Restaurant & Bar","lat":31.21024066945739,"lng":121.4636307221635,"neighborhood":"Xīntiāndì","city_fetched":"Changning,China","state":"上海市","country":"中国","canonicalUrl":"https://foursquare.com/v/panda-restaurant--bar/4ebfd56930f82a2e1322ebfe","categoryId":"4bf58dd8d48988d116941735","category":"Bar","checkinsCount":92,"usersCount":79,"tipCount":1,"visitsCount":92,"tier":"","message":"","currency":"","rating":8},{"name":"Shanty","phone":"+862162258635","address":"武夷路84号","lat":31.21545323339964,"lng":121.42486810684204,"neighborhood":"Zhǎngníng","city_fetched":"Changning,China","state":"上海市","country":"中国","canonicalUrl":"https://foursquare.com/v/shanty/4b6d752ef964a52090752ce3","categoryId":"4bf58dd8d48988d1d4941735","category":"Speakeasy","checkinsCount":200,"usersCount":122,"tipCount":8,"visitsCount":206,"tier":"","message":"","currency":"","rating":8},{"name":"Barbarossa","phone":"+862163180220","address":"Inside People's Park, 231 Nanjing Rd. W.","lat":31.2332813547054,"lng":121.46709515639547,"neighborhood":"Rénmín Guǎngchǎng","city_fetched":"Changning,China","state":"上海市","country":"中国","canonicalUrl":"https://foursquare.com/v/barbarossa/4dd3e9f3d4c05dc63acd76f2","categoryId":"4bf58dd8d48988d121941735","category":"Lounge","checkinsCount":4119,"usersCount":2716,"tipCount":96,"visitsCount":4553,"tier":"","message":"","currency":"","rating":8},{"name":"Time Passage","phone":"+862162402588","address":"华山路 1038 弄 173 号","lat":31.213833798638014,"lng":121.43152536629525,"neighborhood":"Jìngān","city_fetched":"Changning,China","state":"上海市","country":"中国","canonicalUrl":"https://foursquare.com/v/%E6%98%A8%E5%A4%A9%E4%BB%8A%E5%A4%A9%E6%98%8E%E5%A4%A9--time-passage/4b892698f964a520851f32e3","categoryId":"4bf58dd8d48988d11b941735","category":"Pub","checkinsCount":884,"usersCount":354,"tipCount":11,"visitsCount":1114,"tier":"","message":"","currency":"","rating":7.9},{"name":"Shanghai Brewery","phone":"+862164065919","address":"21C,  3338 Hongmei Pedestrian Lane","lat":31.193245969902193,"lng":121.38341762482688,"neighborhood":"Mǐnxíng qū","city_fetched":"Changning,China","state":"上海市","country":"中国","canonicalUrl":"https://foursquare.com/v/shanghai-brewery/4d9fe746a77d816e26cd0d09","categoryId":"50327c8591d4c4b30a586d5d","category":"Brewery","checkinsCount":1726,"usersCount":840,"tipCount":34,"visitsCount":1785,"tier":"","message":"","currency":"","rating":7.9},{"name":"The Mansion","address":"2388 Hongqiao Rd","lat":31.17899715093946,"lng":121.36251951988191,"neighborhood":"Mǐnxíng qū","city_fetched":"Changning,China","state":"上海市","country":"中国","canonicalUrl":"https://foursquare.com/v/the-mansion/51435c88e4b0fb9a38dee998","categoryId":"4bf58dd8d48988d11f941735","category":"Nightclub","checkinsCount":282,"usersCount":217,"tipCount":9,"visitsCount":411,"tier":"","message":"","currency":"","rating":7.9},{"name":"Boxing Cat Brewery | 拳击猫餐厅","phone":"+862164312091","twitter":"boxingcatbeer","address":"82 W Fuxing Rd","lat":31.212639120343354,"lng":121.4384393170182,"neighborhood":"Xúhuì","city_fetched":"Changning,China","state":"上海市","country":"中国","canonicalUrl":"https://foursquare.com/v/boxing-cat-brewery--%E6%8B%B3%E5%87%BB%E7%8C%AB%E9%A4%90%E5%8E%85/4bd1d4d6caff9521136bd1f0","categoryId":"50327c8591d4c4b30a586d5d","category":"Brewery","checkinsCount":4596,"usersCount":2166,"tipCount":76,"visitsCount":5580,"url":"http://www.boxingcatbrewery.com","tier":"","message":"","currency":"","rating":7.7},{"name":"The Tailor Bar","address":"4/F 2 Huashan Lu","lat":31.22520493005188,"lng":121.44001847456853,"neighborhood":"Jìngān","city_fetched":"Changning,China","country":"中国","canonicalUrl":"https://foursquare.com/v/the-tailor-bar/5382f200498eefac456bee29","categoryId":"4bf58dd8d48988d11e941735","category":"Cocktail Bar","checkinsCount":142,"usersCount":110,"tipCount":6,"visitsCount":150,"tier":"","message":"","currency":"","rating":7.7},{"name":"Burdigala Bordeaux Wine Bar","phone":"+862164229826","address":"嘉善路301号2楼","lat":31.208557114378046,"lng":121.45557453395489,"neighborhood":"Xúhuì","city_fetched":"Changning,China","state":"上海市","country":"中国","canonicalUrl":"https://foursquare.com/v/burdigala-bordeaux-wine-bar/5226b4c411d2a197caf33904","categoryId":"4bf58dd8d48988d123941735","category":"Wine Bar","checkinsCount":408,"usersCount":338,"tipCount":7,"visitsCount":559,"url":"http://www.theburdigala.com","tier":"","message":"","currency":"","rating":7.7},{"name":"I Love Shanghai Lounge TZF","phone":"+862164228116","address":"248 Taikang Rd Lane 1 Building 1","lat":31.209747821157247,"lng":121.46433365926566,"neighborhood":"Xīntiāndì","city_fetched":"Changning,China","state":"上海市","country":"中国","canonicalUrl":"https://foursquare.com/v/i-love-shanghai-lounge-tzf/558902b4498ec9509ee0c727","categoryId":"4bf58dd8d48988d121941735","category":"Lounge","checkinsCount":1014,"usersCount":100,"tipCount":11,"visitsCount":1071,"tier":"","message":"","currency":"","rating":7.7},{"name":"Dogtown","address":"409 Shaanxi Bei Lu","lat":31.232274930243577,"lng":121.44839936658094,"neighborhood":"Jìngān","city_fetched":"Changning,China","country":"中国","canonicalUrl":"https://foursquare.com/v/dogtown/5385b82d498efc318a91ce86","categoryId":"4bf58dd8d48988d117941735","category":"Beer Garden","checkinsCount":466,"usersCount":245,"tipCount":13,"visitsCount":489,"tier":"","message":"","currency":"","rating":7.6},{"name":"Epic","address":"17 Gao You Road","lat":31.212123,"lng":121.434012,"neighborhood":"Xúhuì","city_fetched":"Changning,China","state":"上海市","country":"中国","canonicalUrl":"https://foursquare.com/v/epic/53ad5be8498e53a18724d948","categoryId":"4bf58dd8d48988d11e941735","category":"Cocktail Bar","checkinsCount":172,"usersCount":177,"tipCount":1,"visitsCount":250,"tier":"","message":"","currency":"","rating":7.6},{"name":"Barber Shop","address":"615 Yongjia Road","lat":31.20638103428032,"lng":121.44413645885354,"neighborhood":"Xújiāhuì","city_fetched":"Changning,China","state":"上海市","country":"中国","canonicalUrl":"https://foursquare.com/v/barber-shop/563e1693cd1017136e32535e","categoryId":"4bf58dd8d48988d121941735","category":"Lounge","checkinsCount":124,"usersCount":179,"tipCount":6,"visitsCount":227,"tier":"","message":"","currency":"","rating":7.5},{"name":"Club Lounge","address":"44/F, The Portman Ritz-Carlton, Shanghai, 1376 Nanjing Rd W","lat":31.229103874516568,"lng":121.44709930798983,"neighborhood":"Jìngān","city_fetched":"Changning,China","state":"上海市","country":"中国","canonicalUrl":"https://foursquare.com/v/club-lounge/4f659355e4b015497c4333d9","categoryId":"4bf58dd8d48988d121941735","category":"Lounge","checkinsCount":325,"usersCount":109,"tipCount":2,"visitsCount":325,"tier":"","message":"","currency":"","rating":7.5},{"name":"Kaiba Belgian Beer Bar | 开巴","phone":"+862162805688","address":"定西路739号","lat":31.209544936159926,"lng":121.41915846460638,"neighborhood":"Zhǎngníng","city_fetched":"Changning,China","state":"上海市","country":"中国","canonicalUrl":"https://foursquare.com/v/kaiba-belgian-beer-bar--%E5%BC%80%E5%B7%B4/4c8e10f4d68c6dcbd6b0f8a1","categoryId":"4bf58dd8d48988d116941735","category":"Bar","checkinsCount":1062,"usersCount":678,"tipCount":21,"visitsCount":1314,"tier":"","message":"","currency":"","rating":7.5},{"name":"Koala Bar","phone":"52588779","address":"淮海西路280号 | 280 Huaihai Rd. W.","lat":31.201654196939945,"lng":121.42457193702073,"neighborhood":"Zhǎngníng","city_fetched":"Changning,China","state":"上海市","country":"中国","canonicalUrl":"https://foursquare.com/v/koala-bar/4bdd6377f219c9b6a77c1210","categoryId":"4bf58dd8d48988d116941735","category":"Bar","checkinsCount":828,"usersCount":312,"tipCount":12,"visitsCount":1039,"tier":"","message":"","currency":"","rating":7.4},{"name":"The Tipsy Fiddler","address":"Xingfu Lu","lat":31.205420640875737,"lng":121.42630754315732,"neighborhood":"Zhǎngníng","city_fetched":"Changning,China","state":"上海市","country":"中国","canonicalUrl":"https://foursquare.com/v/the-tipsy-fiddler/536cf91d498e77ab22a28d9a","categoryId":"4bf58dd8d48988d116941735","category":"Bar","checkinsCount":268,"usersCount":145,"tipCount":5,"visitsCount":408,"tier":"","message":"","currency":"","rating":7.4},{"name":"Hongmei Pedestrian | 老外街","lat":31.193255962091307,"lng":121.3833283008131,"neighborhood":"Mǐnxíng qū","city_fetched":"Changning,China","country":"中国","canonicalUrl":"https://foursquare.com/v/hongmei-pedestrian--%E8%80%81%E5%A4%96%E8%A1%97/4d897de27d4c5481605a5571","categoryId":"4bf58dd8d48988d117941735","category":"Beer Garden","checkinsCount":1846,"usersCount":642,"tipCount":13,"visitsCount":1932,"tier":"","message":"","currency":"","rating":7.4},{"name":"Muya","address":"定西路447号 | 447 Dingxi Rd.","lat":31.205703328493712,"lng":121.41841618526301,"neighborhood":"Zhǎngníng","city_fetched":"Changning,China","state":"上海市","country":"中国","canonicalUrl":"https://foursquare.com/v/muya/4e0733af62e100e5816e2cb3","categoryId":"4bf58dd8d48988d116941735","category":"Bar","checkinsCount":190,"usersCount":78,"tipCount":5,"visitsCount":190,"tier":"","message":"","currency":"","rating":7.3},{"name":"The Shed","phone":"+862162376381","twitter":"shedsh","address":"698 Shaanxi Bei Lu","lat":31.236426041765206,"lng":121.44550908767376,"neighborhood":"Jìngān","city_fetched":"Changning,China","state":"上海市","country":"中国","canonicalUrl":"https://foursquare.com/shedsh","categoryId":"4bf58dd8d48988d116941735","category":"Bar","checkinsCount":2470,"usersCount":827,"tipCount":32,"visitsCount":2976,"url":"http://www.shedsh.com","tier":"","message":"","currency":"","rating":7.3},{"name":"789 Nanjing Lu Bar + Lounge - Le Royal Méridien Shanghai","phone":"+862133189999","twitter":"royalmeridiensh","address":"Le Royal Meridien Shanghai, Executive Office, 789 East Nanjing Road","lat":31.236333994188694,"lng":121.47146878618796,"neighborhood":"Běixīn qiáo","city_fetched":"Changning,China","state":"上海市","country":"中国","canonicalUrl":"https://foursquare.com/v/789-nanjing-lu-bar--lounge--le-royal-m%C3%A9ridien-shanghai/4e00acbfb0fbdf39a454d768","categoryId":"4bf58dd8d48988d121941735","category":"Lounge","checkinsCount":681,"usersCount":475,"tipCount":14,"visitsCount":691,"url":"http://www.leroyalmeridienshanghai.com","tier":"","message":"","currency":"","rating":7.3},{"name":"Shanghai Brewery","phone":"+862134610717","address":"18 Dongping Rd","lat":31.21048407935896,"lng":121.44464980162192,"neighborhood":"Xúhuì","city_fetched":"Changning,China","state":"上海市","country":"中国","canonicalUrl":"https://foursquare.com/v/shanghai-brewery/4f197745e4b0a339fb0cc1b2","categoryId":"50327c8591d4c4b30a586d5d","category":"Brewery","checkinsCount":6168,"usersCount":3280,"tipCount":132,"visitsCount":7699,"url":"http://shanghaibrewery.com","tier":"","message":"","currency":"","rating":7.3},{"name":"Brownstone","phone":"+862160737740","address":"Suite 311, Bldg 3, Surpass Court, 570 Yongjia Rd.","lat":31.20792818446355,"lng":121.4464632224901,"neighborhood":"Xúhuì","city_fetched":"Changning,China","state":"上海市","country":"中国","canonicalUrl":"https://foursquare.com/v/brownstone/4d64e90389238cfa19669236","categoryId":"4bf58dd8d48988d11e941735","category":"Cocktail Bar","checkinsCount":1228,"usersCount":714,"tipCount":18,"visitsCount":1240,"url":"http://www.brownstone.asia","tier":"","message":"","currency":"","rating":7.3},{"name":"Adam's","address":"448-5 Xinhua Lu","lat":31.206046915495676,"lng":121.4191863697521,"neighborhood":"Zhǎngníng","city_fetched":"Changning,China","state":"上海市","country":"中国","canonicalUrl":"https://foursquare.com/v/adams/4f3fb631e4b031299dcebb73","categoryId":"4bf58dd8d48988d11e941735","category":"Cocktail Bar","checkinsCount":119,"usersCount":66,"tipCount":19,"visitsCount":119,"tier":"","message":"","currency":"","rating":7.3},{"name":"The Fennel Lounge","address":"镇宁路217号","lat":31.22031414183966,"lng":121.43186577225008,"neighborhood":"Jìngān","city_fetched":"Changning,China","country":"中国","canonicalUrl":"https://foursquare.com/v/the-fennel-lounge/4ece4dd5f5b9832ad7cd65a9","categoryId":"4bf58dd8d48988d116941735","category":"Bar","checkinsCount":612,"usersCount":392,"tipCount":23,"visitsCount":693,"tier":"","message":"","currency":"","rating":7.3},{"name":"Zapfler Craft Beer","address":"42 Yongkang Lu","lat":31.21304322828283,"lng":121.45405138251914,"neighborhood":"Xúhuì","city_fetched":"Changning,China","state":"上海市","country":"中国","canonicalUrl":"https://foursquare.com/v/zapfler-craft-beer/554220fb498ed0aa606c5546","categoryId":"4bf58dd8d48988d117941735","category":"Beer Garden","checkinsCount":157,"usersCount":89,"tipCount":4,"visitsCount":160,"tier":"","message":"","currency":"","rating":7.2},{"name":"The Tap House","phone":"+862154488337","address":"74 Yongkang Rd","lat":31.212812006077847,"lng":121.45350460530646,"neighborhood":"Xúhuì","city_fetched":"Changning,China","state":"上海市","country":"中国","canonicalUrl":"https://foursquare.com/v/the-tap-house/518cdf5f498ebb3f71da3a68","categoryId":"4bf58dd8d48988d11b941735","category":"Pub","checkinsCount":1321,"usersCount":538,"tipCount":20,"visitsCount":1387,"tier":"","message":"","currency":"","rating":7.2},{"name":"Rooster 2","address":"455 Shanxi Nan Lu","lat":31.232406748449975,"lng":121.44829893339154,"neighborhood":"Jìngān","city_fetched":"Changning,China","state":"上海市","country":"中国","canonicalUrl":"https://foursquare.com/v/rooster-2/55f2b53d498ef2e5e4789067","categoryId":"4bf58dd8d48988d11d941735","category":"Sports Bar","checkinsCount":309,"usersCount":109,"tipCount":2,"visitsCount":335,"tier":"","message":"","currency":"","rating":7.2},{"name":"Modu","address":"527 Huaihai Lu 5F","lat":31.222578682236506,"lng":121.46424439764891,"neighborhood":"Xīntiāndì","city_fetched":"Changning,China","country":"中国","canonicalUrl":"https://foursquare.com/v/modu/55cb616c498e3c20da28bdd2","categoryId":"4bf58dd8d48988d11f941735","category":"Nightclub","checkinsCount":189,"usersCount":104,"tipCount":1,"visitsCount":237,"tier":"","message":"","currency":"","rating":7.2},{"name":"Kaiba | 开吧","phone":"+862164182252","address":"479 Wuding Rd.","lat":31.23581272453462,"lng":121.4464632224901,"neighborhood":"Jìngān","city_fetched":"Changning,China","state":"上海市","country":"中国","canonicalUrl":"https://foursquare.com/v/kaiba--%E5%BC%80%E5%90%A7/4b962995f964a520f6be34e3","categoryId":"4bf58dd8d48988d116941735","category":"Bar","checkinsCount":2278,"usersCount":915,"tipCount":63,"visitsCount":2441,"tier":"","message":"","currency":"","rating":7.2},{"name":"The Rooster","phone":"+8613764535978","twitter":"roosterchina","address":"51 Yongkang Rd","lat":31.212982053038182,"lng":121.45385052588483,"neighborhood":"Xúhuì","city_fetched":"Changning,China","state":"上海市","country":"中国","canonicalUrl":"https://foursquare.com/roosterchina","categoryId":"4bf58dd8d48988d116941735","category":"Bar","checkinsCount":2249,"usersCount":481,"tipCount":17,"visitsCount":2377,"url":"http://www.roosterchina.com","tier":"","message":"","currency":"","rating":7.2},{"name":"Lucca lounge & cafe","address":"390 Panyu Lu 番禺路390号","lat":31.20601481580017,"lng":121.42524720809539,"neighborhood":"Zhǎngníng","city_fetched":"Changning,China","state":"上海市","country":"中国","canonicalUrl":"https://foursquare.com/v/lucca-lounge--cafe/54dcca48498ee59badadb964","categoryId":"4bf58dd8d48988d1d8941735","category":"Gay Bar","checkinsCount":161,"usersCount":157,"tipCount":1,"visitsCount":260,"tier":"","message":"","currency":"","rating":7.1},{"name":"Pentalounge","phone":"+862162521111","address":"1525 Dingxi Lu","lat":31.21996242541331,"lng":121.41714927645145,"neighborhood":"Zhǎngníng","city_fetched":"Changning,China","country":"中国","canonicalUrl":"https://foursquare.com/v/pentalounge/4db3a3cb4b226b343d7e1422","categoryId":"4bf58dd8d48988d121941735","category":"Lounge","checkinsCount":963,"usersCount":364,"tipCount":20,"visitsCount":995,"tier":"","message":"","currency":"","rating":7.1},{"name":"Dr. Beer","phone":"+862154681077","address":"83 Fumin Rd | 富民路83号","lat":31.22250715285636,"lng":121.4456932195677,"neighborhood":"Jìngān","city_fetched":"Changning,China","state":"上海市","country":"中国","canonicalUrl":"https://foursquare.com/v/dr-beer/4ea933c929c2fa4821aad506","categoryId":"4bf58dd8d48988d116941735","category":"Bar","checkinsCount":3288,"usersCount":2117,"tipCount":59,"visitsCount":3816,"tier":"","message":"","currency":"","rating":7.1},{"name":"urbn beergrdn","lat":31.22897121220097,"lng":121.4390698666128,"neighborhood":"Jìngān","city_fetched":"Changning,China","country":"中国","canonicalUrl":"https://foursquare.com/v/urbn-beergrdn/543a20d7498e1b6b7d77152b","categoryId":"4bf58dd8d48988d117941735","category":"Beer Garden","checkinsCount":96,"usersCount":71,"tipCount":5,"visitsCount":99,"tier":"","message":"","currency":"","rating":7.1},{"name":"Yuan Oyster & Cocktail Lounge","phone":"+862164330538","address":"17-2 North XiangYang Road","lat":31.2219722465638,"lng":121.45003527402876,"neighborhood":"Jìngān","city_fetched":"Changning,China","state":"上海市","country":"中国","canonicalUrl":"https://foursquare.com/v/yuan-oyster--cocktail-lounge/51ab093e8bbd94087901941f","categoryId":"4bf58dd8d48988d11e941735","category":"Cocktail Bar","checkinsCount":807,"usersCount":388,"tipCount":152,"visitsCount":916,"url":"http://www.yuanlounge.com","tier":"","message":"","currency":"","rating":7},{"name":"HEPCAT","address":"Kanding Lu No.359 2/F","lat":31.236706069297608,"lng":121.44490089236285,"neighborhood":"Jìngān","city_fetched":"Changning,China","state":"上海市","country":"中国","canonicalUrl":"https://foursquare.com/v/hepcat/53295701498ebc7455803360","categoryId":"4bf58dd8d48988d11e941735","category":"Cocktail Bar","checkinsCount":105,"usersCount":66,"tipCount":5,"visitsCount":109,"tier":"","message":"","currency":"","rating":7},{"name":"Le Baron","address":"20 Donghu Lu. 7/F","lat":31.21787827324631,"lng":121.45027968294696,"neighborhood":"Xúhuì","city_fetched":"Changning,China","state":"上海市","country":"中国","canonicalUrl":"https://foursquare.com/v/le-baron/541dbe0d498ee8757ee17bd3","categoryId":"4bf58dd8d48988d11f941735","category":"Nightclub","checkinsCount":1341,"usersCount":501,"tipCount":15,"visitsCount":1508,"url":"http://www.lebaronshanghai.com","tier":"","message":"","currency":"","rating":7},{"name":"Shanghai Beer Factory","lat":31.18354148566685,"lng":121.43285350189218,"neighborhood":"Xúhuì","city_fetched":"Changning,China","country":"中国","canonicalUrl":"https://foursquare.com/v/shanghai-beer-factory/536ba653498ee2572cbdcdeb","categoryId":"50327c8591d4c4b30a586d5d","category":"Brewery","checkinsCount":89,"usersCount":73,"tipCount":3,"visitsCount":96,"tier":"","message":"","currency":"","rating":7},{"name":"Bell Cafe & Bar","phone":"+8613817778890","address":"泰康路248弄11号后门","lat":31.21009332434434,"lng":121.464249976502,"neighborhood":"Xīntiāndì","city_fetched":"Changning,China","state":"上海市","country":"中国","canonicalUrl":"https://foursquare.com/v/bell-cafe--bar/4bb610461344b71361e89c04","categoryId":"4bf58dd8d48988d119941735","category":"Hookah Bar","checkinsCount":1031,"usersCount":572,"tipCount":22,"visitsCount":1058,"url":"http://www.bellbar.cn","tier":"","message":"","currency":"","rating":7},{"name":"Big Bamboo Sports Bar","phone":"+862164058720","address":"20 Hongmei Pedestrian St.","lat":31.19316,"lng":121.383231,"neighborhood":"Mǐnxíng qū","city_fetched":"Changning,China","state":"上海市","country":"中国","canonicalUrl":"https://foursquare.com/v/big-bamboo-sports-bar/4b599f56f964a5206b8f28e3","categoryId":"4bf58dd8d48988d11d941735","category":"Sports Bar","checkinsCount":1820,"usersCount":782,"tipCount":17,"visitsCount":1890,"tier":"","message":"","currency":"","rating":6.9},{"name":"Haoledi Ktv","address":"Yishan Road 425","lat":31.198750922332117,"lng":121.43287582336859,"neighborhood":"Shànghǎi jiāotōng dàxué","city_fetched":"Changning,China","state":"上海市","country":"中国","canonicalUrl":"https://foursquare.com/v/haoledi-ktv/50a3dec7e4b0b66c17e34752","categoryId":"4bf58dd8d48988d120941735","category":"Karaoke Bar","checkinsCount":72,"usersCount":56,"tipCount":0,"visitsCount":73,"tier":"","message":"","currency":"","rating":6.9},{"name":"habibi","address":"131 Yong Kang Lu","lat":31.212387138433787,"lng":121.45216554813446,"neighborhood":"Xúhuì","city_fetched":"Changning,China","state":"上海市","country":"中国","canonicalUrl":"https://foursquare.com/v/habibi/53a993c8498e98d78b751e3d","categoryId":"4bf58dd8d48988d119941735","category":"Hookah Bar","checkinsCount":93,"usersCount":50,"tipCount":6,"visitsCount":95,"tier":"","message":"","currency":"","rating":6.9},{"name":"Daga Brewpub","address":"37 Taian Rd","lat":31.207754390968365,"lng":121.43287582336859,"neighborhood":"Xúhuì","city_fetched":"Changning,China","state":"上海市","country":"中国","canonicalUrl":"https://foursquare.com/v/daga-brewpub/53b04471498ed1411b961aa1","categoryId":"50327c8591d4c4b30a586d5d","category":"Brewery","checkinsCount":249,"usersCount":224,"tipCount":4,"visitsCount":401,"tier":"","message":"","currency":"","rating":6.9},{"name":"FUSION night club","address":"Xintiandi, South Block, Building 6, Floor 5","lat":31.221032424154117,"lng":121.47028055880011,"neighborhood":"Xīntiāndì","city_fetched":"Changning,China","state":"上海市","country":"中国","canonicalUrl":"https://foursquare.com/v/fusion-night-club/54ef3675498ec34117184ab7","categoryId":"4bf58dd8d48988d11f941735","category":"Nightclub","checkinsCount":544,"usersCount":353,"tipCount":6,"visitsCount":687,"tier":"","message":"","currency":"","rating":6.8},{"name":"Shanghai Brewery Donghu","phone":"+862133563996","address":"20 Donghu Lu","lat":31.217916175443897,"lng":121.45034105774266,"neighborhood":"Jìngān","city_fetched":"Changning,China","state":"上海市","country":"中国","canonicalUrl":"https://foursquare.com/v/shanghai-brewery-donghu/55684e03498eb8bd02d40a0b","categoryId":"50327c8591d4c4b30a586d5d","category":"Brewery","checkinsCount":599,"usersCount":309,"tipCount":14,"visitsCount":626,"tier":"","message":"","currency":"","rating":6.8},{"name":"Handle Bar","address":"50 Yongkang Rd","lat":31.212959897520662,"lng":121.4538728433059,"neighborhood":"Xúhuì","city_fetched":"Changning,China","state":"上海市","country":"中国","canonicalUrl":"https://foursquare.com/v/handle-bar/4fec344ae4b0044db3e73200","categoryId":"4bf58dd8d48988d11d941735","category":"Sports Bar","checkinsCount":1138,"usersCount":291,"tipCount":9,"visitsCount":1148,"url":"http://www.handlebarshanghai.com","tier":"","message":"","currency":"","rating":6.7},{"name":"The Ritz Bar","phone":"+862162797686","address":"1376 Nanjing Xi Rd.","lat":31.22894540260043,"lng":121.4471718438331,"neighborhood":"Jìngān","city_fetched":"Changning,China","state":"上海市","country":"中国","canonicalUrl":"https://foursquare.com/v/the-ritz-bar/4e2d3a3ab61cd010838777d6","categoryId":"4bf58dd8d48988d11e941735","category":"Cocktail Bar","checkinsCount":400,"usersCount":198,"tipCount":6,"visitsCount":402,"tier":"","message":"","currency":"","rating":6.7},{"name":"Maison Camus","phone":"+862162898298","address":"# 208 Retail Plaza, Shanghai Centre, 1376 Nanjing Rd.W","lat":31.23241180717601,"lng":121.45547968628384,"neighborhood":"Jìngān","city_fetched":"Changning,China","state":"上海市","country":"中国","canonicalUrl":"https://foursquare.com/v/maison-camus/526e255611d29a2b26d19e35","categoryId":"4bf58dd8d48988d121941735","category":"Lounge","checkinsCount":233,"usersCount":112,"tipCount":9,"visitsCount":243,"url":"http://www.camus-shanghai.cn","tier":"","message":"","currency":"","rating":6.7},{"name":"Shiraz","address":"Shop8 No.3338","lat":31.193016,"lng":121.381625,"neighborhood":"Mǐnxíng qū","city_fetched":"Changning,China","state":"Chain","country":"中国","canonicalUrl":"https://foursquare.com/v/shiraz/4c24ad3a136d20a10b29e261","categoryId":"4bf58dd8d48988d119941735","category":"Hookah Bar","checkinsCount":114,"usersCount":96,"tipCount":7,"visitsCount":114,"tier":"","message":"","currency":"","rating":6.7},{"name":"Myst","address":"1123 M. Yan'an Rd","lat":31.222723804109688,"lng":121.443070707346,"neighborhood":"Jìngān","city_fetched":"Changning,China","state":"上海市","country":"中国","canonicalUrl":"https://foursquare.com/v/myst/5231e0c611d27690af873119","categoryId":"4bf58dd8d48988d11f941735","category":"Nightclub","checkinsCount":2582,"usersCount":1774,"tipCount":24,"visitsCount":4280,"tier":"","message":"","currency":"","rating":6.7},{"name":"金色三麥 Le Ble d'or","address":"愚园路108号2楼 108 Yuyuan Road, 2nd floor","lat":31.226538551157326,"lng":121.44110099413743,"neighborhood":"Jìngān","city_fetched":"Changning,China","state":"上海市","country":"中国","canonicalUrl":"https://foursquare.com/v/%E9%87%91%E8%89%B2%E4%B8%89%E9%BA%A5-le-ble-dor/55a79f25498e639432ec80fb","categoryId":"50327c8591d4c4b30a586d5d","category":"Brewery","checkinsCount":82,"usersCount":66,"tipCount":4,"visitsCount":84,"tier":"","message":"","currency":"","rating":6.7},{"name":"The Camel Sports Bar","phone":"+862164379446","address":"岳阳路1号 | 1 Yueyang Rd.","lat":31.210839649584607,"lng":121.44723879995571,"neighborhood":"Xúhuì","city_fetched":"Changning,China","state":"上海市","country":"中国","canonicalUrl":"https://foursquare.com/v/the-camel-sports-bar/4d1f291a86e15481c60db03a","categoryId":"4bf58dd8d48988d11d941735","category":"Sports Bar","checkinsCount":6428,"usersCount":1815,"tipCount":69,"visitsCount":6923,"tier":"","message":"","currency":"","rating":6.6},{"name":"Dr Bar","address":"Madang Rd.","lat":31.222649712821624,"lng":121.47045907261699,"neighborhood":"Xīntiāndì","city_fetched":"Changning,China","state":"上海市","country":"中国","canonicalUrl":"https://foursquare.com/v/dr-bar/4be97101ee96c928032dffbf","categoryId":"4bf58dd8d48988d116941735","category":"Bar","checkinsCount":463,"usersCount":297,"tipCount":12,"visitsCount":466,"tier":"","message":"","currency":"","rating":6.6},{"name":"Bubbly Nation","phone":"+862151669533","address":"537 Haifang Rd","lat":31.238816601318458,"lng":121.43899732568403,"neighborhood":"Jìngān","city_fetched":"Changning,China","state":"上海市","country":"中国","canonicalUrl":"https://foursquare.com/v/bubbly-nation/545c9cb6498ea4e09bbf6ea8","categoryId":"4bf58dd8d48988d121941735","category":"Lounge","checkinsCount":151,"usersCount":173,"tipCount":4,"visitsCount":263,"url":"http://www.bubblynation.com","tier":"","message":"","currency":"","rating":6.6},{"name":"Enoterra","phone":"+862154040050","address":"53-57 Anfu Rd.","lat":31.216900458904078,"lng":121.44231184164309,"neighborhood":"Jìngān","city_fetched":"Changning,China","state":"上海市","country":"中国","canonicalUrl":"https://foursquare.com/v/enoterra/4cc3e0f442d1b60cdd661a13","categoryId":"4bf58dd8d48988d123941735","category":"Wine Bar","checkinsCount":2160,"usersCount":779,"tipCount":31,"visitsCount":2234,"url":"http://www.enoterra.com.cn","tier":"","message":"","currency":"","rating":6.6},{"name":"Light & Salt","phone":"+862163611086","address":"133 Yuanmingyuan Rd","lat":31.24367873701245,"lng":121.48372968444885,"neighborhood":"Wàitān","city_fetched":"Changning,China","state":"上海市","country":"中国","canonicalUrl":"https://foursquare.com/v/light--salt/527e4d5b498ec141546a24db","categoryId":"4bf58dd8d48988d1d4941735","category":"Speakeasy","checkinsCount":601,"usersCount":439,"tipCount":6,"visitsCount":690,"url":"http://www.light-n-salt.com","tier":"","message":"","currency":"","rating":6.6},{"name":"Oscar's Pub","address":"1377 Fuxing Rd","lat":31.212539313383264,"lng":121.44549792815559,"neighborhood":"Xúhuì","city_fetched":"Changning,China","state":"上海市","country":"中国","canonicalUrl":"https://foursquare.com/v/oscars-pub/4b6812f2f964a5202e662be3","categoryId":"4bf58dd8d48988d11b941735","category":"Pub","checkinsCount":1031,"usersCount":497,"tipCount":16,"visitsCount":1156,"tier":"","message":"","currency":"","rating":6.5},{"name":"Zapata's","phone":"+8615221035065","address":"5 Hengshan Rd.","lat":31.210091836804295,"lng":121.44480045613197,"neighborhood":"Xúhuì","city_fetched":"Changning,China","state":"上海市","country":"中国","canonicalUrl":"https://foursquare.com/v/zapatas/4b0588bff964a52084d722e3","categoryId":"4bf58dd8d48988d11f941735","category":"Nightclub","checkinsCount":2697,"usersCount":1462,"tipCount":58,"visitsCount":2818,"url":"http://www.zapatas-shanghai.com","tier":"","message":"","currency":"","rating":6.5},{"name":"OTS Monkey Champagne Room","phone":"+862162556000","twitter":"monkeylounge_sh","address":"38 Donghu Rd.","lat":31.218449462173766,"lng":121.44969383098264,"neighborhood":"Jìngān","city_fetched":"Changning,China","state":"上海市","country":"中国","canonicalUrl":"https://foursquare.com/v/ots-monkey-champagne-room/4d0f636b71e8a1cd71657abd","categoryId":"4bf58dd8d48988d121941735","category":"Lounge","checkinsCount":4239,"usersCount":1202,"tipCount":43,"visitsCount":4560,"url":"http://iamots.com/shanghai","tier":"","message":"","currency":"","rating":6.5},{"name":"SKYLINE","address":"455-4 Fahuazhen Rd","lat":31.20636382776187,"lng":121.42174245259073,"neighborhood":"Zhǎngníng","city_fetched":"Changning,China","state":"上海市","country":"中国","canonicalUrl":"https://foursquare.com/v/skyline/4cc035b3a0c4f04dfe4c5931","categoryId":"4bf58dd8d48988d116941735","category":"Bar","checkinsCount":316,"usersCount":137,"tipCount":8,"visitsCount":352,"tier":"","message":"","currency":"","rating":6.5},{"name":"Ellen's Café","address":"366 Nujiang Rd","lat":31.23396821349463,"lng":121.39644702997309,"neighborhood":"Pǔtuó","city_fetched":"Changning,China","country":"中国","canonicalUrl":"https://foursquare.com/v/ellens-caf%C3%A9/4fddf880e4b0e078037ebada","categoryId":"4bf58dd8d48988d116941735","category":"Bar","checkinsCount":218,"usersCount":100,"tipCount":6,"visitsCount":237,"tier":"","message":"","currency":"","rating":6.5},{"name":"Grand Yard Cafe and Bar","address":"608 Xikang Rd","lat":31.23677615975502,"lng":121.44175384897672,"neighborhood":"Jìngān","city_fetched":"Changning,China","state":"上海市","country":"中国","canonicalUrl":"https://foursquare.com/v/grand-yard-cafe-and-bar/4f9bde77e4b008dde14b618d","categoryId":"4bf58dd8d48988d116941735","category":"Bar","checkinsCount":948,"usersCount":403,"tipCount":22,"visitsCount":1192,"tier":"","message":"","currency":"","rating":6.5},{"name":"The Beer Shelf","address":"232 Danshui Rd","lat":31.219047,"lng":121.468642,"neighborhood":"Xīntiāndì","city_fetched":"Changning,China","state":"上海市","country":"中国","canonicalUrl":"https://foursquare.com/v/the-beer-shelf/525a3dbf11d290c13b9ce401","categoryId":"4bf58dd8d48988d116941735","category":"Bar","checkinsCount":82,"usersCount":58,"tipCount":5,"visitsCount":84,"url":"http://www.beershelf.com.cn","tier":"","message":"","currency":"","rating":6.4},{"name":"Helen's","address":"茂名北路148号","lat":31.228226966950235,"lng":121.45550758266576,"neighborhood":"Jìngān","city_fetched":"Changning,China","state":"上海市","country":"中国","canonicalUrl":"https://foursquare.com/v/helens/52208f8811d2b0342039fa41","categoryId":"4bf58dd8d48988d118941735","category":"Dive Bar","checkinsCount":439,"usersCount":322,"tipCount":14,"visitsCount":616,"tier":"","message":"","currency":"","rating":6.4},{"name":"Max Pub","address":"180 Fujian Zhong Lu","lat":31.235859755032056,"lng":121.47701926353905,"neighborhood":"Běixīn qiáo","city_fetched":"Changning,China","state":"上海市","country":"中国","canonicalUrl":"https://foursquare.com/v/max-pub/505598cfe4b0a13302f77706","categoryId":"4bf58dd8d48988d11d941735","category":"Sports Bar","checkinsCount":155,"usersCount":113,"tipCount":3,"visitsCount":177,"tier":"","message":"","currency":"","rating":6.4},{"name":"Perry's","phone":"+862132558117","address":"3F, 1139 Kaixuan Rd.","lat":31.206442274095835,"lng":121.41387869011385,"neighborhood":"Zhǎngníng","city_fetched":"Changning,China","state":"上海市","country":"中国","canonicalUrl":"https://foursquare.com/v/perrys/4e7b57222271813db0a2ebbe","categoryId":"4bf58dd8d48988d116941735","category":"Bar","checkinsCount":1359,"usersCount":699,"tipCount":18,"visitsCount":1592,"tier":"","message":"","currency":"","rating":6.4},{"name":"Boxing Cat Brewery","phone":"+862164260360","twitter":"boxingcatbeer","address":"Unit 26A, Sinan Mansions, 519-521 Fuxing Rd. Middle","lat":31.21727669463987,"lng":121.46437271120125,"neighborhood":"Xīntiāndì","city_fetched":"Changning,China","state":"上海市","country":"中国","canonicalUrl":"https://foursquare.com/v/%E6%8B%B3%E5%87%BB%E7%8C%AB%E9%A4%90%E5%8E%85--boxing-cat-brewery/4cd9360aa99d3704ef8b09ce","categoryId":"50327c8591d4c4b30a586d5d","category":"Brewery","checkinsCount":3655,"usersCount":1943,"tipCount":58,"visitsCount":4091,"url":"http://www.boxingcatbrewery.com","tier":"","message":"","currency":"","rating":6.4},{"name":"Linx Club Shanghai","phone":"+862156066666","address":"淮海中路98号","lat":31.227225002604243,"lng":121.47479910469141,"neighborhood":"Lúwān","city_fetched":"Changning,China","state":"上海市","country":"中国","canonicalUrl":"https://foursquare.com/v/linx-club-shanghai/5311aa4b11d2518c9ca43ea9","categoryId":"4bf58dd8d48988d11f941735","category":"Nightclub","checkinsCount":625,"usersCount":417,"tipCount":13,"visitsCount":820,"tier":"","message":"","currency":"","rating":6.3},{"name":"FLASK","address":"432 Shaanxi South Rd.","lat":31.213339,"lng":121.45664,"neighborhood":"Xúhuì","city_fetched":"Changning,China","country":"中国","canonicalUrl":"https://foursquare.com/v/flask/5422cb46498e2277be51fce2","categoryId":"4bf58dd8d48988d11e941735","category":"Cocktail Bar","checkinsCount":365,"usersCount":326,"tipCount":12,"visitsCount":444,"tier":"","message":"","currency":"","rating":6.3},{"name":"Boxing Cat Brewery | 拳击猫餐厅","address":"100 Zunyi Rd. | 遵义路100号","lat":31.209197,"lng":121.403753,"neighborhood":"Xian xiá","city_fetched":"Changning,China","state":"上海市","country":"中国","canonicalUrl":"https://foursquare.com/v/boxing-cat-brewery--%E6%8B%B3%E5%87%BB%E7%8C%AB%E9%A4%90%E5%8E%85/553a2ae4498e5acdfa9dba5a","categoryId":"50327c8591d4c4b30a586d5d","category":"Brewery","checkinsCount":176,"usersCount":120,"tipCount":2,"visitsCount":200,"tier":"","message":"","currency":"","rating":6.3},{"name":"No. 9 Irish Pub","address":"697 Jiujiang Rd","lat":31.236084402872258,"lng":121.47236134330325,"neighborhood":"Běixīn qiáo","city_fetched":"Changning,China","state":"上海市","country":"中国","canonicalUrl":"https://foursquare.com/v/no-9-irish-pub/51619d22e4b002db621af669","categoryId":"4bf58dd8d48988d11b941735","category":"Pub","checkinsCount":383,"usersCount":300,"tipCount":11,"visitsCount":411,"tier":"","message":"","currency":"","rating":6.3},{"name":"The Flamingo","phone":"+862134619073","twitter":"theflamingobar","address":"1/F, 390 S. Shaanxi Rd","lat":31.215230911245893,"lng":121.4560934051288,"neighborhood":"Xúhuì","city_fetched":"Changning,China","state":"上海市","country":"中国","canonicalUrl":"https://foursquare.com/v/the-flamingo/5146a838e4b0c0b7facb952f","categoryId":"4bf58dd8d48988d11d941735","category":"Sports Bar","checkinsCount":463,"usersCount":219,"tipCount":12,"visitsCount":470,"url":"http://www.theflamingo-shanghai.com","tier":"","message":"","currency":"","rating":6.2},{"name":"Big Bamboo","phone":"+862162562265","address":"132 Nanyang Rd.","lat":31.229993,"lng":121.44684,"neighborhood":"Jìngān","city_fetched":"Changning,China","state":"上海市","country":"中国","canonicalUrl":"https://foursquare.com/v/big-bamboo/4c2f2377213c2d7f7c50305d","categoryId":"4bf58dd8d48988d11d941735","category":"Sports Bar","checkinsCount":3984,"usersCount":1468,"tipCount":48,"visitsCount":4395,"tier":"","message":"","currency":"","rating":6.2},{"name":"Napa Wine Bar & Kitchen","phone":"+862163180057","address":"2/F South Bund 22, Zhongshan E-2 Rd.","lat":31.233000327134484,"lng":121.48967000489418,"neighborhood":"Wàitān","city_fetched":"Changning,China","state":"上海市","country":"中国","canonicalUrl":"https://foursquare.com/v/napa-wine-bar--kitchen/51729030e4b09369ffd96f50","categoryId":"4bf58dd8d48988d123941735","category":"Wine Bar","checkinsCount":291,"usersCount":166,"tipCount":9,"visitsCount":293,"tier":"","message":"","currency":"","rating":6.2},{"name":"Side Bar","phone":"+862132262577","address":"56 Maoming Nan Lu | 茂名南路56号","lat":31.22312608768212,"lng":121.4554406313378,"neighborhood":"Jìngān","city_fetched":"Changning,China","state":"上海市","country":"中国","canonicalUrl":"https://foursquare.com/v/side-bar/4fec7145e4b01805080f9c7e","categoryId":"4bf58dd8d48988d118941735","category":"Dive Bar","checkinsCount":473,"usersCount":184,"tipCount":8,"visitsCount":547,"tier":"","message":"","currency":"","rating":6.2},{"name":"B&C","phone":"+862152132100","address":"西康路 685号","lat":31.237584376543914,"lng":121.44007427479414,"neighborhood":"Jìngān","city_fetched":"Changning,China","state":"上海市","country":"中国","canonicalUrl":"https://foursquare.com/v/bc/4d00dc19f7b38cfa2daad1c3","categoryId":"4bf58dd8d48988d118941735","category":"Dive Bar","checkinsCount":1758,"usersCount":320,"tipCount":17,"visitsCount":1933,"tier":"","message":"","currency":"","rating":6.2},{"name":"The Spot","phone":"+862162473579","twitter":"thespot5","address":"331 Tongren Rd","lat":31.227077957697468,"lng":121.45171165466309,"neighborhood":"Jìngān","city_fetched":"Changning,China","state":"上海市","country":"中国","canonicalUrl":"https://foursquare.com/v/the-spot/4b0588bef964a52059d722e3","categoryId":"4bf58dd8d48988d11d941735","category":"Sports Bar","checkinsCount":1533,"usersCount":594,"tipCount":17,"visitsCount":1609,"url":"http://www.thespot.com.cn","tier":"","message":"","currency":"","rating":6.1},{"name":"Obama Club | 奥巴马会所","phone":"+862160837567","address":"延安西路2088号虹桥嘉顿广场1楼","lat":31.20441438611887,"lng":121.40337824821472,"neighborhood":"Hóngqiáo","city_fetched":"Changning,China","state":"上海市","country":"中国","canonicalUrl":"https://foursquare.com/v/obama-club--%E5%A5%A5%E5%B7%B4%E9%A9%AC%E4%BC%9A%E6%89%80/4bfbe2a8d931c9289c5a838b","categoryId":"4bf58dd8d48988d1d8941735","category":"Gay Bar","checkinsCount":459,"usersCount":236,"tipCount":6,"visitsCount":460,"url":"http://www.obamaclub-sh.com","tier":"","message":"","currency":"","rating":6},{"name":"Raffles City 2F Men's Restroom","address":"西藏中路268号来福士广场2楼","lat":31.23413021325696,"lng":121.47175886800879,"neighborhood":"Běixīn qiáo","city_fetched":"Changning,China","state":"上海市","country":"中国","canonicalUrl":"https://foursquare.com/v/%E6%9D%A5%E7%A6%8F%E5%A3%AB2%E6%A5%BC%E7%94%B7%E5%8E%95%E6%89%80--raffles-city-2f-mens-restroom/4dc621a6887717c8803651b6","categoryId":"4bf58dd8d48988d1d8941735","category":"Gay Bar","checkinsCount":2121,"usersCount":440,"tipCount":9,"visitsCount":2127,"tier":"","message":"","currency":"","rating":5.9},{"name":"The Beaver","phone":"+862164743216","address":"28 yueyang lu | 岳阳路28号","lat":31.21008451508617,"lng":121.44732249505438,"neighborhood":"Xúhuì","city_fetched":"Changning,China","state":"上海市","country":"中国","canonicalUrl":"https://foursquare.com/v/the-beaver/4b6ad11af964a520b0e12be3","categoryId":"4bf58dd8d48988d116941735","category":"Bar","checkinsCount":624,"usersCount":319,"tipCount":8,"visitsCount":652,"tier":"","message":"","currency":"","rating":5.9},{"name":"Perry's","phone":"+862154365159","address":"3/F, No.1339, M. Huaihai Rd.","lat":31.213494132953073,"lng":121.44457168439126,"neighborhood":"Xúhuì","city_fetched":"Changning,China","state":"上海市","country":"中国","canonicalUrl":"https://foursquare.com/v/perrys/519112b1498e2b077f31284b","categoryId":"4bf58dd8d48988d116941735","category":"Bar","checkinsCount":1181,"usersCount":690,"tipCount":18,"visitsCount":1400,"tier":"","message":"","currency":"","rating":5.9},{"name":"Windows Scoreboard","phone":"8653827757","address":"淮海中路527号11楼","lat":31.22233562345147,"lng":121.4644117631236,"neighborhood":"Xīntiāndì","city_fetched":"Changning,China","state":"上海市","country":"中国","canonicalUrl":"https://foursquare.com/v/windows-scoreboard/4beab17d246fb7130aedabdf","categoryId":"4bf58dd8d48988d118941735","category":"Dive Bar","checkinsCount":824,"usersCount":523,"tipCount":16,"visitsCount":937,"tier":"","message":"","currency":"","rating":5.9},{"name":"Massé","phone":"+862152125971","twitter":"masseshanghai","address":"5-6/F, 219 Jinxian Rd","lat":31.223138269370686,"lng":121.45326469203859,"neighborhood":"Jìngān","city_fetched":"Changning,China","state":"上海市","country":"中国","canonicalUrl":"https://foursquare.com/v/mass%C3%A9/4dc60d2752b1e8f9f7e50c49","categoryId":"4bf58dd8d48988d11d941735","category":"Sports Bar","checkinsCount":1943,"usersCount":680,"tipCount":23,"visitsCount":2147,"tier":"","message":"","currency":"","rating":5.8},{"name":"Sasha's Restaurant and Bar","phone":"+862164746169","address":"11 Dongping Rd.","lat":31.210143513757966,"lng":121.44490089236285,"neighborhood":"Xúhuì","city_fetched":"Changning,China","state":"上海市","country":"中国","canonicalUrl":"https://foursquare.com/v/sashas-restaurant-and-bar/4b0588c1f964a52036d822e3","categoryId":"4bf58dd8d48988d116941735","category":"Bar","checkinsCount":2616,"usersCount":1301,"tipCount":35,"visitsCount":2661,"url":"http://www.sashas-shanghai.com","tier":"","message":"","currency":"","rating":5.8},{"name":"Mojito Heaven","address":"昭化东路530号","lat":31.215447640040107,"lng":121.43073852246849,"neighborhood":"Jìngān","city_fetched":"Changning,China","state":"上海市","country":"中国","canonicalUrl":"https://foursquare.com/v/mojito-heaven/508bf6d1e4b055a757fc39d3","categoryId":"4bf58dd8d48988d121941735","category":"Lounge","checkinsCount":119,"usersCount":90,"tipCount":2,"visitsCount":121,"tier":"","message":"","currency":"","rating":5.8},{"name":"Perry's","address":"978 Kangding Road","lat":31.233020065010436,"lng":121.43372403628005,"neighborhood":"Jìngān","city_fetched":"Changning,China","state":"上海市","country":"中国","canonicalUrl":"https://foursquare.com/v/perrys/526a699e11d267fbd88d6da4","categoryId":"4bf58dd8d48988d118941735","category":"Dive Bar","checkinsCount":289,"usersCount":213,"tipCount":10,"visitsCount":402,"tier":"","message":"","currency":"","rating":5.7},{"name":"City Bull","address":"红梅休闲街","lat":31.19325904873405,"lng":121.3834064593289,"neighborhood":"Mǐnxíng qū","city_fetched":"Changning,China","state":"上海市","country":"中国","canonicalUrl":"https://foursquare.com/v/city-bull/4f49ef30e4b0962089073442","categoryId":"4bf58dd8d48988d11d941735","category":"Sports Bar","checkinsCount":364,"usersCount":177,"tipCount":11,"visitsCount":364,"tier":"","message":"","currency":"","rating":5.7},{"name":"Park Tavern","address":"840 Hengshan Rd","lat":31.198656433219405,"lng":121.43597288645869,"neighborhood":"Shànghǎi jiāotōng dàxué","city_fetched":"Changning,China","state":"上海市","country":"中国","canonicalUrl":"https://foursquare.com/v/park-tavern/4b5b2463f964a52024e628e3","categoryId":"4bf58dd8d48988d11b941735","category":"Pub","checkinsCount":879,"usersCount":452,"tipCount":15,"visitsCount":942,"tier":"","message":"","currency":"","rating":5.7},{"name":"C's","address":"685 Dingxi Rd.","lat":31.208708092865486,"lng":121.41929799026776,"neighborhood":"Zhǎngníng","city_fetched":"Changning,China","state":"上海市","country":"中国","canonicalUrl":"https://foursquare.com/v/cs/4b0588bef964a52042d722e3","categoryId":"4bf58dd8d48988d118941735","category":"Dive Bar","checkinsCount":592,"usersCount":372,"tipCount":13,"visitsCount":676,"tier":"","message":"","currency":"","rating":5.7},{"name":"Le Comptoir Wine Bar","phone":"+862154065891","address":"301号 Guang Yuan Xi Lu","lat":31.19674240843389,"lng":121.4283013343811,"neighborhood":"Xújiāhuì","city_fetched":"Changning,China","state":"上海市","country":"中国","canonicalUrl":"https://foursquare.com/v/le-comptoir-wine-bar/4fe2c8b7754a6f4316513d68","categoryId":"4bf58dd8d48988d123941735","category":"Wine Bar","checkinsCount":136,"usersCount":69,"tipCount":8,"visitsCount":136,"tier":"","message":"","currency":"","rating":5.7},{"name":"390 Lounge & Club","address":"390 Panyu Lu","lat":31.206051997743995,"lng":121.42526395030337,"neighborhood":"Zhǎngníng","city_fetched":"Changning,China","state":"上海市","country":"中国","canonicalUrl":"https://foursquare.com/v/390-lounge--club/502e380de4b01a9d9e331609","categoryId":"4bf58dd8d48988d1d8941735","category":"Gay Bar","checkinsCount":875,"usersCount":474,"tipCount":18,"visitsCount":1111,"url":"http://390shanghai.com","tier":"","message":"","currency":"","rating":5.7},{"name":"Blarney Stone","address":"Yongkang Lu","lat":31.21278895853861,"lng":121.45335954152966,"neighborhood":"Xúhuì","city_fetched":"Changning,China","country":"中国","canonicalUrl":"https://foursquare.com/v/blarney-stone/5141c7b1e4b0dcb47e0bac68","categoryId":"4bf58dd8d48988d11b941735","category":"Pub","checkinsCount":812,"usersCount":392,"tipCount":6,"visitsCount":837,"tier":"","message":"","currency":"","rating":5.7},{"name":"BnC 3 - Tina's Bar","phone":"+862162243263","address":"陕西路925号","lat":31.23893464330909,"lng":121.4430372280818,"neighborhood":"Jìngān","city_fetched":"Changning,China","state":"上海市","country":"中国","canonicalUrl":"https://foursquare.com/v/bnc-3--tinas-bar/516fc7d7498e907d6530521f","categoryId":"4bf58dd8d48988d116941735","category":"Bar","checkinsCount":56,"usersCount":28,"tipCount":2,"visitsCount":56,"tier":"","message":"","currency":"","rating":5.7},{"name":"Logo","phone":"+862162162865","address":"Xinfu Lu 298","lat":31.209974698409738,"lng":121.42656425439627,"neighborhood":"Zhǎngníng","city_fetched":"Changning,China","country":"中国","canonicalUrl":"https://foursquare.com/v/logo/514096e6e4b0acc1f462ba09","categoryId":"4bf58dd8d48988d116941735","category":"Bar","checkinsCount":263,"usersCount":212,"tipCount":3,"visitsCount":356,"tier":"","message":"","currency":"","rating":5.6},{"name":"Windows Too","address":"静安区南京西路1618号久光百货2层","lat":31.22518492249145,"lng":121.4421221244388,"neighborhood":"Jìngān","city_fetched":"Changning,China","state":"上海市","country":"中国","canonicalUrl":"https://foursquare.com/v/windows-too/4d2883dd77a2a1cde40363b7","categoryId":"4bf58dd8d48988d116941735","category":"Bar","checkinsCount":1960,"usersCount":899,"tipCount":32,"visitsCount":2073,"url":"http://www.windowsbars.com","tier":"","message":"","currency":"","rating":5.6},{"name":"JW Cigar Lounge (40th) Floor","address":"399 Nanjing Road","lat":31.232338,"lng":121.465291,"neighborhood":"Rénmín Guǎngchǎng","city_fetched":"Changning,China","state":"上海市","country":"中国","canonicalUrl":"https://foursquare.com/v/jw-cigar-lounge-40th-floor/4d7756d8f2c054813d83a7a1","categoryId":"4bf58dd8d48988d121941735","category":"Lounge","checkinsCount":203,"usersCount":118,"tipCount":4,"visitsCount":203,"tier":"","message":"","currency":"","rating":5.6},{"name":"muses cafe","address":"1st floor, building 4, lane 777 Cangping road","lat":31.2356060025275,"lng":121.43648626548057,"neighborhood":"Jìngān","city_fetched":"Changning,China","country":"中国","canonicalUrl":"https://foursquare.com/v/muses-cafe/4b5857def964a5209a5328e3","categoryId":"4bf58dd8d48988d11b941735","category":"Pub","checkinsCount":210,"usersCount":139,"tipCount":4,"visitsCount":256,"tier":"","message":"","currency":"","rating":5.5},{"name":"Bar 505","address":"505 Nanjing Xi Lu","lat":31.23741706136491,"lng":121.47627177765054,"neighborhood":"Běixīn qiáo","city_fetched":"Changning,China","state":"上海市","country":"中国","canonicalUrl":"https://foursquare.com/v/bar-505/4b0588bdf964a520f5d622e3","categoryId":"4bf58dd8d48988d117941735","category":"Beer Garden","checkinsCount":94,"usersCount":51,"tipCount":1,"visitsCount":95,"tier":"","message":"","currency":"","rating":5.5},{"name":"Mr Pitt Cocktail","phone":"+8615026931989","address":"600-10 N Shaanxi Rd","lat":31.234865563484245,"lng":121.44687054080113,"neighborhood":"Jìngān","city_fetched":"Changning,China","state":"上海市","country":"中国","canonicalUrl":"https://foursquare.com/v/mr-pitt-cocktail/527a47e5498ed06cb3b86666","categoryId":"4bf58dd8d48988d11e941735","category":"Cocktail Bar","checkinsCount":179,"usersCount":87,"tipCount":11,"visitsCount":196,"url":"http://www.misterpitt.com","tier":"","message":"","currency":"","rating":5.5},{"name":"Sliders","phone":"+862164330201","address":"45 Yongkang Rd","lat":31.212971,"lng":121.453846,"neighborhood":"Xúhuì","city_fetched":"Changning,China","state":"上海市","country":"中国","canonicalUrl":"https://foursquare.com/v/sliders/504dd7f9e4b05763eab8ab90","categoryId":"4bf58dd8d48988d116941735","category":"Bar","checkinsCount":1619,"usersCount":756,"tipCount":32,"visitsCount":1640,"tier":"","message":"","currency":"","rating":5.5},{"name":"Kulou","phone":"+8613127536928","address":"222 Xiangyang South Road","lat":31.213906,"lng":121.452739,"neighborhood":"Xúhuì","city_fetched":"Changning,China","state":"上海市","country":"中国","canonicalUrl":"https://foursquare.com/v/kulou/54145dc6498edbe9411a547d","categoryId":"4bf58dd8d48988d116941735","category":"Bar","checkinsCount":187,"usersCount":241,"tipCount":5,"visitsCount":349,"url":"http://kuloubar.com","tier":"","message":"","currency":"","rating":5.4},{"name":"GRUB & GROOVE","phone":"+8618602127141","address":"283 W. Jianguo Rd.","lat":31.206734218175306,"lng":121.45537367997099,"neighborhood":"Xúhuì","city_fetched":"Changning,China","state":"上海市","country":"中国","canonicalUrl":"https://foursquare.com/v/grub--groove/4ea17fa077c8d0ce5d8787bc","categoryId":"4bf58dd8d48988d11b941735","category":"Pub","checkinsCount":654,"usersCount":156,"tipCount":43,"visitsCount":678,"tier":"","message":"","currency":"","rating":5.4},{"name":"The Bund Brewery","address":"11 Hankou Rd.","lat":31.23873698756048,"lng":121.48470581449968,"neighborhood":"Wàitān","city_fetched":"Changning,China","state":"上海市","country":"中国","canonicalUrl":"https://foursquare.com/v/the-bund-brewery/4bacd666f964a52094103be3","categoryId":"50327c8591d4c4b30a586d5d","category":"Brewery","checkinsCount":310,"usersCount":267,"tipCount":14,"visitsCount":312,"tier":"","message":"","currency":"","rating":5.3},{"name":"Luna","phone":"+862163361717","address":"North Block, Xintiandi, Lane 169, 15 Taicang Rd.","lat":31.222941214988467,"lng":121.47009646613685,"neighborhood":"Xīntiāndì","city_fetched":"Changning,China","state":"上海市","country":"中国","canonicalUrl":"https://foursquare.com/v/%E7%92%90%E5%A8%9C--luna/4bfa778a5efe2d7f649a6d34","categoryId":"4bf58dd8d48988d11b941735","category":"Pub","checkinsCount":1499,"usersCount":1013,"tipCount":18,"visitsCount":1506,"tier":"","message":"","currency":"","rating":5.3},{"name":"Park 91 Pub","phone":"+862163272160","address":"静安区大沽路433号","lat":31.227509484229135,"lng":121.46123735656889,"neighborhood":"Jìngān","city_fetched":"Changning,China","country":"中国","canonicalUrl":"https://foursquare.com/v/park-91-pub/53d78332498e74a50d3b0196","categoryId":"4bf58dd8d48988d116941735","category":"Bar","checkinsCount":55,"usersCount":28,"tipCount":3,"visitsCount":60,"tier":"","message":"","currency":"","rating":5.2},{"name":"鸟重 Torishige","address":"1959 West Nanjing Rd | 南京西路1959号","lat":31.22235059252671,"lng":121.43717820751282,"neighborhood":"Jìngān","city_fetched":"Changning,China","state":"上海市","country":"中国","canonicalUrl":"https://foursquare.com/v/%E9%B8%9F%E9%87%8D-torishige/4fd0bbd0e4b0cdb6e6940147","categoryId":"4bf58dd8d48988d11c941735","category":"Sake Bar","checkinsCount":82,"usersCount":85,"tipCount":2,"visitsCount":113,"tier":"","message":"","currency":"","rating":5.2},{"name":"Charlie's Bar","address":"400 Pan Yu Road","lat":31.204512101572536,"lng":121.424493806229,"neighborhood":"Zhǎngníng","city_fetched":"Changning,China","state":"上海市","country":"中国","canonicalUrl":"https://foursquare.com/v/charlies-bar/4b0588bef964a52018d722e3","categoryId":"4bf58dd8d48988d1d5941735","category":"Hotel Bar","checkinsCount":137,"usersCount":63,"tipCount":6,"visitsCount":138,"tier":"","message":"","currency":"","rating":5.2},{"name":"Harley's Bar","address":"265 Nandan Dong Lu","lat":31.191037041734084,"lng":121.43375193791492,"neighborhood":"Xújiāhuì","city_fetched":"Changning,China","state":"上海市","country":"中国","canonicalUrl":"https://foursquare.com/v/harleys-bar/4b0588bef964a5200ed722e3","categoryId":"4bf58dd8d48988d116941735","category":"Bar","checkinsCount":333,"usersCount":146,"tipCount":6,"visitsCount":334,"tier":"","message":"","currency":"","rating":5.2},{"name":"Ronchamp","address":"Yongkang Lu","lat":31.212826380197587,"lng":121.4534878671877,"neighborhood":"Xúhuì","city_fetched":"Changning,China","state":"上海市","country":"中国","canonicalUrl":"https://foursquare.com/v/ronchamp/522b17cb11d22df7303c29d1","categoryId":"4bf58dd8d48988d116941735","category":"Bar","checkinsCount":197,"usersCount":128,"tipCount":7,"visitsCount":200,"tier":"","message":"","currency":"","rating":5.1},{"name":"Ci5 Cafe & Champagne Bar","phone":"+862164718060","address":"上海卢湾区淮海中路1797号(近宛平路)  ","lat":31.207078301864268,"lng":121.43531999897581,"neighborhood":"Shànghǎi jiāotōng dàxué","city_fetched":"Changning,China","state":"上海市","country":"中国","canonicalUrl":"https://foursquare.com/v/ci5-cafe--champagne-bar/4f75e07ee4b08da1d6e1718c","categoryId":"4bf58dd8d48988d116941735","category":"Bar","checkinsCount":125,"usersCount":56,"tipCount":5,"visitsCount":126,"tier":"","message":"","currency":"","rating":5.1},{"name":"Eddy's Bar","address":"1887 Central Huaihai Rd","lat":31.20550157693904,"lng":121.43321064499766,"neighborhood":"Shànghǎi jiāotōng dàxué","city_fetched":"Changning,China","state":"上海市","country":"中国","canonicalUrl":"https://foursquare.com/v/eddys-bar/4c7930882d3ba143063f8dd0","categoryId":"4bf58dd8d48988d1d8941735","category":"Gay Bar","checkinsCount":601,"usersCount":287,"tipCount":7,"visitsCount":644,"tier":"","message":"","currency":"","rating":5.1}]