[{"name":"Beer Nest","address":"Jinxiu Road N 34-7","lat":30.62737911600081,"lng":104.07171637811943,"city_fetched":"Chengdu","state":"四川","country":"中国","canonicalUrl":"https://foursquare.com/v/%E5%95%A4%E9%85%92%E7%AA%9D/51a61929e4b0b30137f80364","category":"Bar","checkinsCount":120,"usersCount":93,"tipCount":5,"visitsCount":142,"tier":"","message":"","currency":"","rating":7.8},{"name":"世纪城洲际大酒店 InterContinental Hotel","phone":"+862885349999","twitter":"interconhotels","address":"88, Century City Boulevard","lat":30.562116504301013,"lng":104.06978833099174,"city_fetched":"Chengdu","state":"四川","country":"中国","canonicalUrl":"https://foursquare.com/v/%E4%B8%96%E7%BA%AA%E5%9F%8E%E6%B4%B2%E9%99%85%E5%A4%A7%E9%85%92%E5%BA%97-intercontinental-hotel/4cf1baf41c158cfa0835d3b5","category":"Hotel","checkinsCount":970,"usersCount":615,"tipCount":11,"visitsCount":1155,"url":"http://www.intercontinental.com","tier":"","message":"","currency":"","rating":7.3},{"name":"Jellyfish","address":"科华北路","lat":30.625921896894837,"lng":104.07439300514208,"city_fetched":"Chengdu","state":"四川","country":"中国","canonicalUrl":"https://foursquare.com/v/%E6%B0%B4%E6%AF%8D-jellyfish/4c810bc9d8086dcb9be16852","category":"Cocktail Bar","checkinsCount":156,"usersCount":91,"tipCount":4,"visitsCount":158,"tier":"","message":"","currency":"","rating":7.3},{"name":"McElroy's Irish Pub","lat":30.627319,"lng":104.070585,"city_fetched":"Chengdu","country":"中国","canonicalUrl":"https://foursquare.com/v/mcelroys-irish-pub/564f58f9498ef0c2b086f367","category":"Pub","checkinsCount":65,"usersCount":45,"tipCount":1,"visitsCount":121,"tier":"","message":"","currency":"","rating":7.3},{"name":"Kuan Alley and Zhai Alley","address":"Kuan Alley and Zhai Alley, Qingyang Dist.","lat":30.66587375483329,"lng":104.0513257883944,"city_fetched":"Chengdu","state":"四川","country":"中国","canonicalUrl":"https://foursquare.com/v/%E5%AE%BD%E7%AA%84%E5%B7%B7%E5%AD%90-kuan-alley-and-zhai-alley/4c79a414bd346dcbee42f6ef","category":"Plaza","checkinsCount":3248,"usersCount":2296,"tipCount":22,"visitsCount":3640,"url":"http://www.kzxz.com.cn","tier":"","message":"","currency":"","rating":7.3},{"name":"Lenbach","lat":30.646147792287344,"lng":104.0822870839214,"city_fetched":"Chengdu","state":"四川","country":"中国","canonicalUrl":"https://foursquare.com/v/lenbach/53e4cedc498ed3877e0f8cc0","category":"German Restaurant","checkinsCount":84,"usersCount":31,"tipCount":4,"visitsCount":84,"tier":"","message":"","currency":"","rating":7.1},{"name":"Flair","address":"269 Suncheng Avenue","lat":30.66636,"lng":104.06795,"city_fetched":"Chengdu","state":"四川","country":"中国","canonicalUrl":"https://foursquare.com/v/flair/526aa1f011d2a7431aa1371b","category":"Hotel Bar","checkinsCount":95,"usersCount":67,"tipCount":2,"visitsCount":95,"tier":"","message":"","currency":"","rating":7},{"name":"Shamrock","lat":30.628157,"lng":104.064372,"city_fetched":"Chengdu","state":"四川","country":"中国","canonicalUrl":"https://foursquare.com/v/shamrock/4d62828f5c39b1f7f9841b4a","category":"Bar","checkinsCount":588,"usersCount":308,"tipCount":8,"visitsCount":812,"tier":"","message":"","currency":"","rating":6.8},{"name":"Lan Kwai Fong Chengdu","phone":"+862865503399","lat":30.645430225775495,"lng":104.0896087850023,"city_fetched":"Chengdu","state":"四川","country":"中国","canonicalUrl":"https://foursquare.com/v/lan-kwai-fong-chengdu-%E5%85%B0%E6%A1%82%E5%9D%8A%E6%88%90%E9%83%BD/4d0240b79f9ea143a4548ea9","category":"Other Nightlife","checkinsCount":1879,"usersCount":476,"tipCount":4,"visitsCount":1925,"url":"http://www.lkfchengdu.com","tier":"","message":"","currency":"","rating":6.7},{"name":"Miu","address":"Lan Kwai Fong","lat":30.648121125396226,"lng":104.08225872795886,"city_fetched":"Chengdu","state":"四川","country":"中国","canonicalUrl":"https://foursquare.com/v/miu/5113d131e4b0b3b235b15343","category":"Lounge","checkinsCount":101,"usersCount":55,"tipCount":5,"visitsCount":103,"tier":"","message":"","currency":"","rating":6.3},{"name":"Mooney's","phone":"+862888889999","address":"Shangri-La Hotel","lat":30.645854380062335,"lng":104.08272943767825,"city_fetched":"Chengdu","state":"四川","country":"中国","canonicalUrl":"https://foursquare.com/v/mooneys/4d5bce419895b1f71730de0f","category":"Pub","checkinsCount":490,"usersCount":161,"tipCount":14,"visitsCount":510,"url":"http://www.shangri-la.com/chengdu/shangrila/dining/restaurants/mooneys-restaurant/","tier":"","message":"","currency":"","rating":6.3},{"name":"Underground Bar","phone":"85294142","address":"JiuYanQiao, Between Babi 2 and 1855, behind the Havana Cigar Shop","lat":30.640996047646603,"lng":104.08557074310177,"city_fetched":"Chengdu","state":"四川","country":"中国","canonicalUrl":"https://foursquare.com/v/underground-bar/4f4639e7e4b04ef91d58179d","category":"Bar","checkinsCount":380,"usersCount":82,"tipCount":10,"visitsCount":395,"url":"http://undergroundchengdu.com","tier":"","message":"","currency":"","rating":6.2},{"name":"Hooters","lat":30.625892,"lng":104.074217,"city_fetched":"Chengdu","country":"中国","canonicalUrl":"https://foursquare.com/v/hooters/4cdfb9097e2e236a1c5d871b","category":"Pub","checkinsCount":205,"usersCount":118,"tipCount":4,"visitsCount":207,"tier":"","message":"","currency":"","rating":5.9}]