[{"name":"the park","lat":38.89705970403259,"lng":121.58073312870336,"city_fetched":"Dalian","country":"中国","canonicalUrl":"https://foursquare.com/v/the-park/5494229c498ee0902b34514f","category":"Bar","checkinsCount":40,"usersCount":45,"tipCount":3,"visitsCount":122,"tier":"","message":"","currency":"","rating":7.9},{"name":"Brooklyn Bar","phone":"+8641186867426","address":"184 Bulao Street","lat":38.912854,"lng":121.601646,"city_fetched":"Dalian","state":"辽宁","country":"中国","canonicalUrl":"https://foursquare.com/v/brooklyn-bar/4bdfd9ec6316d13ae8e3a011","category":"Bar","checkinsCount":211,"usersCount":126,"tipCount":9,"visitsCount":238,"tier":"","message":"","currency":"","rating":7.9},{"name":"香格里拉大酒店 Shangri-La Hotel","phone":"+8641182525000","address":"66 Renmin Rd.","lat":38.92416066460569,"lng":121.64882183074951,"city_fetched":"Dalian","state":"辽宁","country":"中国","canonicalUrl":"https://foursquare.com/v/%E9%A6%99%E6%A0%BC%E9%87%8C%E6%8B%89%E5%A4%A7%E9%85%92%E5%BA%97-shangrila-hotel/4bb429f7643cd13ab77f395c","category":"Hotel","checkinsCount":1570,"usersCount":489,"tipCount":16,"visitsCount":1668,"tier":"","message":"","currency":"","rating":7.9},{"name":"Cafe Copenhagen","phone":"+8641182693339","address":"125 Tianjin Street","lat":38.924115213873556,"lng":121.63921982947808,"city_fetched":"Dalian","state":"辽宁","country":"中国","canonicalUrl":"https://foursquare.com/v/cafe-copenhagen/4edb46af9a5286d92069669f","category":"Café","checkinsCount":201,"usersCount":120,"tipCount":15,"visitsCount":260,"tier":"","message":"","currency":"","rating":7.2},{"name":"流浪者西餐厅 Stroller's Bar","phone":"+8641182698293","address":"吉庆街4号","lat":38.92711537077129,"lng":121.64156913757324,"city_fetched":"Dalian","state":"辽宁","country":"中国","canonicalUrl":"https://foursquare.com/v/%E6%B5%81%E6%B5%AA%E8%80%85%E8%A5%BF%E9%A4%90%E5%8E%85-strollers-bar/4cfb62160df3236a1fa5f9a9","category":"Bar","checkinsCount":122,"usersCount":51,"tipCount":6,"visitsCount":124,"tier":"","message":"","currency":"","rating":6.5},{"name":"JD's bar and club","lat":38.92585059680003,"lng":121.64215534937779,"city_fetched":"Dalian","country":"中国","canonicalUrl":"https://foursquare.com/v/jds-bar-and-club/4db1c8fe93a06157685d67e7","category":"Nightclub","checkinsCount":304,"usersCount":134,"tipCount":14,"visitsCount":336,"tier":"","message":"","currency":"","rating":6.3},{"name":"Alice Bar 艾丽丝西餐厅","address":"中山区文林街12号","lat":38.92715265176834,"lng":121.64233359481528,"city_fetched":"Dalian","state":"辽宁","country":"中国","canonicalUrl":"https://foursquare.com/v/alice-bar-%E8%89%BE%E4%B8%BD%E4%B8%9D%E8%A5%BF%E9%A4%90%E5%8E%85/4cdc1fc6d54954815ad33fb2","category":"Bar","checkinsCount":114,"usersCount":87,"tipCount":4,"visitsCount":126,"tier":"","message":"","currency":"","rating":5.9},{"name":"DLC VIP Lounge 贵宾休息室","address":"大连周水子国际机场 DLC","lat":38.96191360177316,"lng":121.54001930992963,"city_fetched":"Dalian","state":"辽宁","country":"中国","canonicalUrl":"https://foursquare.com/v/dlc-vip-lounge-%E8%B4%B5%E5%AE%BE%E4%BC%91%E6%81%AF%E5%AE%A4/4c6d2881f2846dcbb4bb64e9","category":"Lounge","checkinsCount":408,"usersCount":163,"tipCount":6,"visitsCount":409,"tier":"","message":"","currency":"","rating":5.3}]