[{"name":"One for the Road","phone":"+8676922030001","address":"IEO Dynatown, Bldg2, G/F","lat":23.02574134340235,"lng":113.77998232841492,"city_fetched":"Dongguan","state":"广东","country":"中国","canonicalUrl":"https://foursquare.com/v/one-for-the-road/4baa056af964a5206c443ae3","category":"Restaurant","checkinsCount":1736,"usersCount":461,"tipCount":38,"visitsCount":2374,"tier":"","message":"","currency":"","rating":8.5},{"name":"Shooters Bar & Grill","phone":"+8676923397996","lat":23.02240591312317,"lng":113.77530755379338,"city_fetched":"Dongguan","state":"广东","country":"中国","canonicalUrl":"https://foursquare.com/v/shooters-bar--grill/4ec252389a52cce4f4a54180","category":"Bar","checkinsCount":440,"usersCount":130,"tipCount":8,"visitsCount":526,"tier":"","message":"","currency":"","rating":7.7},{"name":"Helen's Hangout","address":"23 Dongcheng Avenue, Hilleview 103","lat":23.029253974596852,"lng":113.77978734588442,"city_fetched":"Dongguan","state":"广东","country":"中国","canonicalUrl":"https://foursquare.com/v/helens-hangout/500ac76ee4b0e954044e65ce","category":"Bar","checkinsCount":333,"usersCount":127,"tipCount":10,"visitsCount":382,"tier":"","message":"","currency":"","rating":7.5},{"name":"万达文华酒店 Wanda Vista Hotel","phone":"+8676922001888","address":"208 Dongzong Road, Dongcheng District","lat":23.03673168111842,"lng":113.77781182622233,"city_fetched":"Dongguan","state":"广东","country":"中国","canonicalUrl":"https://foursquare.com/v/%E4%B8%87%E8%BE%BE%E6%96%87%E5%8D%8E%E9%85%92%E5%BA%97-wanda-vista-hotel/53f9cf05498e59e1aea19ae4","category":"Hotel","checkinsCount":137,"usersCount":127,"tipCount":3,"visitsCount":292,"tier":"","message":"","currency":"","rating":7},{"name":"Hollywood Baby 2","lat":23.024902,"lng":113.774752,"city_fetched":"Dongguan","country":"中国","canonicalUrl":"https://foursquare.com/v/hollywood-baby-2/4bd30a65462cb713f85cdd07","category":"Bar","checkinsCount":325,"usersCount":112,"tipCount":7,"visitsCount":368,"tier":"","message":"","currency":"","rating":6.3},{"name":"B.B. Club","address":"Bar Street","lat":23.02245761527151,"lng":113.7753482265273,"city_fetched":"Dongguan","country":"中国","canonicalUrl":"https://foursquare.com/v/bb-club/4fbe3156e4b0fb79ac6a6137","category":"Karaoke Bar","checkinsCount":185,"usersCount":55,"tipCount":1,"visitsCount":198,"tier":"","message":"","currency":"","rating":6}]