[{"name":"The Brew Panyu","phone":"+862038049549","address":"Main entrance of Huanan Country Garden, Panyu","lat":22.99628380200277,"lng":113.34547519683838,"city_fetched":"Guangzhou,China","state":"广东","country":"中国","canonicalUrl":"https://foursquare.com/v/the-brew-panyu/4f3fa760e4b0be77fc9c8623","categoryId":"4bf58dd8d48988d11d941735","category":"Sports Bar","checkinsCount":602,"usersCount":150,"tipCount":16,"visitsCount":814,"url":"https://www.facebook.com/pages/The-Brew/100158890079848","tier":"","message":"","currency":"","rating":8.7},{"name":"Le Saint Tropez Cocktail Bar","address":"建设六马路｜Jiansheliuma Rd","lat":23.133809,"lng":113.279381,"city_fetched":"Guangzhou,China","state":"广东","country":"中国","canonicalUrl":"https://foursquare.com/v/le-saint-tropez-cocktail-bar/4e679920d22d12d83ad3a380","categoryId":"4bf58dd8d48988d11e941735","category":"Cocktail Bar","checkinsCount":1824,"usersCount":839,"tipCount":33,"visitsCount":2371,"url":"http://www.lesainttropez.com","tier":"","message":"","currency":"","rating":8.6},{"name":"The Happy Monk","phone":"+862038325317","address":"珠江新城兴盛路7号109铺","lat":23.122492111798604,"lng":113.3228749036789,"neighborhood":"天河区","city_fetched":"Guangzhou,China","state":"广东","country":"中国","canonicalUrl":"https://foursquare.com/v/the-happy-monk/5422b27a498ef05279dddbfd","categoryId":"4bf58dd8d48988d116941735","category":"Bar","checkinsCount":457,"usersCount":446,"tipCount":12,"visitsCount":892,"tier":"","message":"","currency":"","rating":8.2},{"name":"The Churchill Bar","address":"3 Xing An Rd, Pearl River New City","lat":23.118412872992597,"lng":113.32183867331804,"city_fetched":"Guangzhou,China","state":"广东","country":"中国","canonicalUrl":"https://foursquare.com/v/the-churchill-bar/4d2af6c477a2a1cda5dc78b7","categoryId":"4bf58dd8d48988d122941735","category":"Whisky Bar","checkinsCount":81,"usersCount":59,"tipCount":2,"visitsCount":82,"tier":"","message":"","currency":"","rating":7.9},{"name":"The Strand Beer Café","phone":"+862087357179","address":"寺右新马路南三街三巷6号","lat":23.119341259403615,"lng":113.30796998261268,"neighborhood":"越秀区","city_fetched":"Guangzhou,China","state":"广东","country":"中国","canonicalUrl":"https://foursquare.com/v/the-strand-beer-caf%C3%A9/51979222498e01d9f99aec3a","categoryId":"4bf58dd8d48988d11b941735","category":"Pub","checkinsCount":372,"usersCount":109,"tipCount":5,"visitsCount":427,"url":"http://strandbeer.com","tier":"","message":"","currency":"","rating":7.8},{"name":"Tian Bar Four Seasons","address":"Four Season Hotel Guangzhou","lat":23.12035914075473,"lng":113.31799501070351,"city_fetched":"Guangzhou,China","state":"广东","country":"中国","canonicalUrl":"https://foursquare.com/v/%E5%A4%A9%E5%90%A7--tian-bar-four-seasons/5019db00e4b0056e4fc5da05","categoryId":"4bf58dd8d48988d1d5941735","category":"Hotel Bar","checkinsCount":533,"usersCount":436,"tipCount":28,"visitsCount":547,"tier":"","message":"","currency":"","rating":7.8},{"name":"LOFT345","phone":"+862084238985","address":"前进路前桂街19号晓港花苑4楼","lat":23.100907385451517,"lng":113.27474792117889,"neighborhood":"海珠区","city_fetched":"Guangzhou,China","state":"广东","country":"中国","canonicalUrl":"https://foursquare.com/v/loft345/4db3f278f7b121c29f41c8fe","categoryId":"4bf58dd8d48988d116941735","category":"Bar","checkinsCount":161,"usersCount":97,"tipCount":14,"visitsCount":186,"url":"http://www.loft345gz.com","tier":"","message":"","currency":"","rating":7.8},{"name":"The Tavern Sports Bar","phone":"+862085503038","address":"天河区珠江新城华就路6号","lat":23.118737358993943,"lng":113.31217423262844,"city_fetched":"Guangzhou,China","state":"广东","country":"中国","canonicalUrl":"https://foursquare.com/v/the-tavern-sports-bar/4cfba4657945224b242387e7","categoryId":"4bf58dd8d48988d116941735","category":"Bar","checkinsCount":998,"usersCount":426,"tipCount":48,"visitsCount":1023,"url":"http://tavernchina.com","tier":"","message":"","currency":"","rating":7.8},{"name":"Hooley's Irish Pub & Restaurant","phone":"+862038862675","address":"101, 8 Xing Sheng Lu, Zhujiang New Town","lat":23.123422425112242,"lng":113.32425185401961,"city_fetched":"Guangzhou,China","state":"广东","country":"中国","canonicalUrl":"https://foursquare.com/v/hooleys-irish-pub--restaurant/4f477e39e4b0f85d06eceb7f","categoryId":"4bf58dd8d48988d11b941735","category":"Pub","checkinsCount":1415,"usersCount":762,"tipCount":37,"visitsCount":1628,"url":"http://www.hooleys-pub.com","tier":"","message":"","currency":"","rating":7.7},{"name":"Party Pier","lat":23.11033401366873,"lng":113.33421267274007,"city_fetched":"Guangzhou,China","state":"广东","country":"中国","canonicalUrl":"https://foursquare.com/v/party-pier/4da987eb6e81162ae7beb4d6","categoryId":"4bf58dd8d48988d121941735","category":"Lounge","checkinsCount":484,"usersCount":345,"tipCount":5,"visitsCount":540,"tier":"","message":"","currency":"","rating":7.7},{"name":"Executive Lounge China Hotel, Marriott Hotel","address":"Liu Hua Lu 122","lat":23.142161497931713,"lng":113.25453941268357,"city_fetched":"Guangzhou,China","state":"广东","country":"中国","canonicalUrl":"https://foursquare.com/v/executive-lounge-china-hotel-marriott-hotel/4f8c027be4b0af04c2d81e1d","categoryId":"4bf58dd8d48988d121941735","category":"Lounge","checkinsCount":434,"usersCount":155,"tipCount":5,"visitsCount":434,"tier":"","message":"","currency":"","rating":7.6},{"name":"SUNS Bar Lounge 尚酒吧","phone":"+8613640755929","address":"阅江西路琶醍啤酒文化B区","lat":23.110285164803656,"lng":113.33471274489442,"neighborhood":"Zhujiang Party Pier","city_fetched":"Guangzhou,China","state":"广东","country":"中国","canonicalUrl":"https://foursquare.com/v/suns-bar-lounge-%E5%B0%9A%E9%85%92%E5%90%A7/4df266b845dd4e26933cabb8","categoryId":"4bf58dd8d48988d11f941735","category":"Nightclub","checkinsCount":1065,"usersCount":508,"tipCount":18,"visitsCount":1221,"tier":"","message":"","currency":"","rating":7.6},{"name":"Duo Club","phone":"+8618702074849","address":"Jianshe Liu Ma Lu","lat":23.134456790747677,"lng":113.2799584208498,"city_fetched":"Guangzhou,China","state":"广东","country":"中国","canonicalUrl":"https://foursquare.com/v/duo-club/4db581f781543d71da59625f","categoryId":"4bf58dd8d48988d11f941735","category":"Nightclub","checkinsCount":1973,"usersCount":685,"tipCount":30,"visitsCount":2325,"tier":"","message":"","currency":"","rating":7.6},{"name":"McCawley's Irish Pub","phone":"+862038017000","address":"Shop 16, Hua Cheng Avenue | 花城大道16号101铺","lat":23.12125503018241,"lng":113.31119149883291,"city_fetched":"Guangzhou,China","state":"广东","country":"中国","canonicalUrl":"https://foursquare.com/v/mccawleys-irish-pub/4e6b341c45ddadf2d0cdfea4","categoryId":"4bf58dd8d48988d116941735","category":"Bar","checkinsCount":1946,"usersCount":914,"tipCount":53,"visitsCount":2655,"url":"http://www.mccawleys.com","tier":"","message":"","currency":"","rating":7.5},{"name":"FEI BAR | W Guangzhou","address":"2F W Guangzhou, Xiancun Rd.","lat":23.12436384022124,"lng":113.32275161259523,"city_fetched":"Guangzhou,China","state":"广东","country":"中国","canonicalUrl":"https://foursquare.com/v/fei-bar--w-guangzhou/51a0c822498e2c765c572422","categoryId":"4bf58dd8d48988d11f941735","category":"Nightclub","checkinsCount":492,"usersCount":287,"tipCount":21,"visitsCount":533,"tier":"","message":"","currency":"","rating":7.5},{"name":"SOOTHE-DS","phone":"+862087546182","address":"广州市天河北路460号沃凯街","lat":23.144249193829246,"lng":113.32805477631226,"city_fetched":"Guangzhou,China","state":"广东","country":"中国","canonicalUrl":"https://foursquare.com/v/sootheds/52884c2a498e74187532c5e2","categoryId":"4bf58dd8d48988d116941735","category":"Bar","checkinsCount":28,"usersCount":18,"tipCount":3,"visitsCount":28,"url":"http://www.soothe-ds.com","tier":"","message":"","currency":"","rating":7.5},{"name":"MAR TEA NI Sofitel Guangzhou","lat":23.14072237438082,"lng":113.30959237269208,"city_fetched":"Guangzhou,China","state":"广东","country":"中国","canonicalUrl":"https://foursquare.com/v/mar-tea-ni-sofitel-guangzhou/4e9d2ee5d22d27d0e80301ee","categoryId":"4bf58dd8d48988d1d5941735","category":"Hotel Bar","checkinsCount":175,"usersCount":90,"tipCount":3,"visitsCount":175,"tier":"","message":"","currency":"","rating":7.5},{"name":"faceclub","phone":"+862066637666","address":"Dashatou Cruise Terminal, 466 Yanjiang East Road","lat":23.115130350499005,"lng":113.28003983458983,"city_fetched":"Guangzhou,China","country":"中国","canonicalUrl":"https://foursquare.com/v/faceclub/52c44644498ecb82e1501599","categoryId":"4bf58dd8d48988d11f941735","category":"Nightclub","checkinsCount":205,"usersCount":156,"tipCount":5,"visitsCount":252,"tier":"","message":"","currency":"","rating":7.5},{"name":"Revolucion Cocktail","address":"珠江新城兴盛路9号","lat":23.123285212546243,"lng":113.32475774861564,"neighborhood":"天河区","city_fetched":"Guangzhou,China","state":"广东","country":"中国","canonicalUrl":"https://foursquare.com/v/revolucion-cocktail/52a05d8f11d2d386c107f303","categoryId":"4bf58dd8d48988d11e941735","category":"Cocktail Bar","checkinsCount":747,"usersCount":534,"tipCount":19,"visitsCount":1054,"tier":"","message":"","currency":"","rating":7.5},{"name":"Edge Bar","address":"26 Jian She 4 Ma Lu","lat":23.137260788244426,"lng":113.27877210524355,"city_fetched":"Guangzhou,China","state":"广东","country":"中国","canonicalUrl":"https://foursquare.com/v/edge-bar/4f6b19cde4b01b218ef44496","categoryId":"4bf58dd8d48988d116941735","category":"Bar","checkinsCount":204,"usersCount":94,"tipCount":7,"visitsCount":207,"tier":"","message":"","currency":"","rating":7.5},{"name":"Crowne Plaza Lounge","lat":23.140951249935092,"lng":113.2770740420421,"city_fetched":"Guangzhou,China","country":"中国","canonicalUrl":"https://foursquare.com/v/crowne-plaza-lounge/527276e3498e0388ca70f9d4","categoryId":"4bf58dd8d48988d11e941735","category":"Cocktail Bar","checkinsCount":110,"usersCount":57,"tipCount":2,"visitsCount":112,"tier":"","message":"","currency":"","rating":7.4},{"name":"露丝酒吧餐厅 Lucy Bar & Rest.","phone":"+862081366203","address":"3 Sha Mian Street S.","lat":23.108616528160194,"lng":113.23969232297704,"city_fetched":"Guangzhou,China","state":"广东","country":"中国","canonicalUrl":"https://foursquare.com/v/%E9%9C%B2%E4%B8%9D%E9%85%92%E5%90%A7%E9%A4%90%E5%8E%85-lucy-bar--rest/4c81de8f51ada1cd1d7c1710","categoryId":"4bf58dd8d48988d116941735","category":"Bar","checkinsCount":379,"usersCount":211,"tipCount":12,"visitsCount":409,"url":"http://www.lucyscafe.cn","tier":"","message":"","currency":"","rating":7.4},{"name":"CatWalk DISCO&CLUB | 国际跳舞俱乐部","phone":"+862062869999","address":"天河区天河北路163号","lat":23.143861612166614,"lng":113.31463978321516,"city_fetched":"Guangzhou,China","state":"广东","country":"中国","canonicalUrl":"https://foursquare.com/v/catwalk-discoclub--%E5%9B%BD%E9%99%85%E8%B7%B3%E8%88%9E%E4%BF%B1%E4%B9%90%E9%83%A8/4e9dd515b6348df6f7493975","categoryId":"4bf58dd8d48988d11f941735","category":"Nightclub","checkinsCount":605,"usersCount":474,"tipCount":24,"visitsCount":705,"url":"http://weibo.com/clubcatwalk","tier":"","message":"","currency":"","rating":7.4},{"name":"Sketch Cafe","lat":23.133969,"lng":113.279311,"city_fetched":"Guangzhou,China","country":"中国","canonicalUrl":"https://foursquare.com/v/sketch-cafe/517e7461498e5b4077f80cb6","categoryId":"4bf58dd8d48988d119941735","category":"Hookah Bar","checkinsCount":138,"usersCount":82,"tipCount":4,"visitsCount":143,"tier":"","message":"","currency":"","rating":7.3},{"name":"Crowne Plaza","phone":"+862088800999","twitter":"crowneplaza","address":"No.28 Ningcai Road","lat":23.175021041001532,"lng":113.44513194317572,"city_fetched":"Guangzhou,China","state":"广东","country":"中国","canonicalUrl":"https://foursquare.com/v/crowne-plaza/4dbba3be4df044e524d05f64","categoryId":"4bf58dd8d48988d1d5941735","category":"Hotel Bar","checkinsCount":403,"usersCount":199,"tipCount":6,"visitsCount":455,"url":"http://www.crowneplaza.com/redirect?path=hd&brandCode=cp&hotelCode=guhcp&regionCode=1&localeCode=en","tier":"","message":"","currency":"","rating":7.2},{"name":"The Brew","phone":"+862038049549","address":"Yu Hai Food Street","lat":23.133914525074214,"lng":113.27931874112373,"city_fetched":"Guangzhou,China","state":"广东","country":"中国","canonicalUrl":"https://foursquare.com/v/the-brew/502dbef1e4b047ef99ab3ca0","categoryId":"4bf58dd8d48988d11d941735","category":"Sports Bar","checkinsCount":575,"usersCount":225,"tipCount":10,"visitsCount":599,"url":"https://www.facebook.com/pages/The-Brew/100158890079848","tier":"","message":"","currency":"","rating":7.2},{"name":"Woobar","address":"26 Xiancun Rd","lat":23.12447927793519,"lng":113.32239690385379,"city_fetched":"Guangzhou,China","state":"广东","country":"中国","canonicalUrl":"https://foursquare.com/v/woobar/51cf0bbd498e6d359aa9003d","categoryId":"4bf58dd8d48988d116941735","category":"Bar","checkinsCount":151,"usersCount":106,"tipCount":5,"visitsCount":152,"tier":"","message":"","currency":"","rating":7.1},{"name":"The Paddy Field","address":"No. 38 Hua Le Lu","lat":23.13684302319333,"lng":113.28291838554108,"city_fetched":"Guangzhou,China","state":"广东","country":"中国","canonicalUrl":"https://foursquare.com/v/the-paddy-field/4b7be58ef964a52099722fe3","categoryId":"4bf58dd8d48988d11b941735","category":"Pub","checkinsCount":1059,"usersCount":634,"tipCount":31,"visitsCount":1228,"tier":"","message":"","currency":"","rating":7.1},{"name":"Executive Lounge and Bar - Hilton Guangzhou Tianhe","lat":23.148862792946336,"lng":113.3152619843942,"city_fetched":"Guangzhou,China","country":"中国","canonicalUrl":"https://foursquare.com/v/executive-lounge-and-bar--hilton-guangzhou-tianhe/4f8c277de4b057e282efe3d6","categoryId":"4bf58dd8d48988d121941735","category":"Lounge","checkinsCount":146,"usersCount":73,"tipCount":0,"visitsCount":149,"tier":"","message":"","currency":"","rating":7.1},{"name":"1920 Restaurant & Bar","phone":"+862083336156","address":"广州市沿江中路183号","lat":23.115636865641054,"lng":113.25979471206665,"city_fetched":"Guangzhou,China","state":"广东","country":"中国","canonicalUrl":"https://foursquare.com/v/1920-restaurant--bar/4b7fb3b4f964a520b73930e3","categoryId":"4bf58dd8d48988d116941735","category":"Bar","checkinsCount":563,"usersCount":396,"tipCount":28,"visitsCount":584,"tier":"","message":"","currency":"","rating":7.1},{"name":"TrueCOLOR - 本色","phone":"+862083735858","twitter":"supermary","address":"越秀区沿江中路276号","lat":23.11779782305748,"lng":113.26854139566422,"city_fetched":"Guangzhou,China","state":"广东","country":"中国","canonicalUrl":"https://foursquare.com/v/truecolor--%E6%9C%AC%E8%89%B2/4e00ea631f6ef39c29418abb","categoryId":"4bf58dd8d48988d11f941735","category":"Nightclub","checkinsCount":1051,"usersCount":932,"tipCount":23,"visitsCount":1474,"url":"http://www.truecolorclub.com","tier":"","message":"","currency":"","rating":7},{"name":"The Churchill Bar ~ Ritz Carlton","phone":"+862038136688","address":"3 Xing An Road, Pearl River New City, Tianhe District, Guangzhou 510623 China","lat":23.118606326647196,"lng":113.32195497138518,"city_fetched":"Guangzhou,China","state":"广东","country":"中国","canonicalUrl":"https://foursquare.com/v/the-churchill-bar--ritz-carlton/509e4f1ee4b0872dbd1fc58b","categoryId":"4bf58dd8d48988d1d5941735","category":"Hotel Bar","checkinsCount":62,"usersCount":52,"tipCount":1,"visitsCount":62,"url":"http://www.ritzcarlton.com/en/Properties/Guangzhou/Dining/TheChurchillBar/Default.htm","tier":"","message":"","currency":"","rating":7},{"name":"The Tavern Bar - Panyu","lat":22.997102130843384,"lng":113.34488273417261,"city_fetched":"Guangzhou,China","country":"中国","canonicalUrl":"https://foursquare.com/v/the-tavern-bar--panyu/4cf4ea741c158cfa6e27e6b5","categoryId":"4bf58dd8d48988d11b941735","category":"Pub","checkinsCount":236,"usersCount":127,"tipCount":7,"visitsCount":277,"tier":"","message":"","currency":"","rating":7},{"name":"Tomorrow Coffee&Bar","address":"珠江新城兴盛路兴盛会23铺","lat":23.12308217425417,"lng":113.32636265304454,"city_fetched":"Guangzhou,China","state":"广东","country":"中国","canonicalUrl":"https://foursquare.com/v/tomorrow-coffeebar/50aa5b0fe4b0a916ac6cf096","categoryId":"4bf58dd8d48988d116941735","category":"Bar","checkinsCount":68,"usersCount":48,"tipCount":3,"visitsCount":68,"tier":"","message":"","currency":"","rating":6.9},{"name":"HeiHei Club","phone":"+862083310012","address":"越秀区侨光路2号首层西面","lat":23.116971433633434,"lng":113.26225161552429,"city_fetched":"Guangzhou,China","state":"广东","country":"中国","canonicalUrl":"https://foursquare.com/v/%E5%96%9C%E5%96%9C%E9%85%92%E5%90%A7--heihei-club/4d5e16a4d979ba7ab24cb7c7","categoryId":"4bf58dd8d48988d11f941735","category":"Nightclub","checkinsCount":1272,"usersCount":554,"tipCount":16,"visitsCount":1519,"tier":"","message":"","currency":"","rating":6.9},{"name":"lili marleen","lat":23.140936031053478,"lng":113.27650995846389,"city_fetched":"Guangzhou,China","country":"中国","canonicalUrl":"https://foursquare.com/v/lili-marleen/4d783f4e0ddba35ddd313e76","categoryId":"4bf58dd8d48988d11f941735","category":"Nightclub","checkinsCount":233,"usersCount":136,"tipCount":4,"visitsCount":237,"tier":"","message":"","currency":"","rating":6.8},{"name":"Hyper Club | 汉派酒吧","phone":"+8613044232363","address":"越秀区沿江中路241号","lat":23.117991726758323,"lng":113.26688557385147,"city_fetched":"Guangzhou,China","state":"广东","country":"中国","canonicalUrl":"https://foursquare.com/v/hyper-club--%E6%B1%89%E6%B4%BE%E9%85%92%E5%90%A7/51b99217498e5d45cce4cf81","categoryId":"4bf58dd8d48988d11f941735","category":"Nightclub","checkinsCount":747,"usersCount":405,"tipCount":10,"visitsCount":1088,"tier":"","message":"","currency":"","rating":6.7},{"name":"Kama Club","phone":"+862087503183","address":"248号 Hengfu Road, 金怡楼,","lat":23.143719198429753,"lng":113.29066693782806,"city_fetched":"Guangzhou,China","state":"广东","country":"中国","canonicalUrl":"https://foursquare.com/v/kama-club/4e778533152037f9e18468d7","categoryId":"4bf58dd8d48988d11f941735","category":"Nightclub","checkinsCount":262,"usersCount":258,"tipCount":16,"visitsCount":372,"tier":"","message":"","currency":"","rating":6.6},{"name":"HAN LOUNGE","phone":"+8613044232363","address":"241 YANJIANG MIDDLE ROAD","lat":23.117971747942686,"lng":113.26694954301918,"neighborhood":"YUEXI","city_fetched":"Guangzhou,China","state":"广东","country":"中国","canonicalUrl":"https://foursquare.com/v/han-lounge/5352d77e498e84d389ffeea1","categoryId":"4bf58dd8d48988d11f941735","category":"Nightclub","checkinsCount":213,"usersCount":48,"tipCount":3,"visitsCount":228,"tier":"","message":"","currency":"","rating":6.6},{"name":"Perry's","phone":"+862084218845","address":"2/F, 61 Hongmei Road","lat":23.10482031875991,"lng":113.309069021485,"city_fetched":"Guangzhou,China","state":"广东","country":"中国","canonicalUrl":"https://foursquare.com/v/perrys/5040c986e4b0379866f0bf08","categoryId":"4bf58dd8d48988d116941735","category":"Bar","checkinsCount":1370,"usersCount":529,"tipCount":25,"visitsCount":1601,"tier":"","message":"","currency":"","rating":6.5},{"name":"Vincent Italian Restaurant 文森特意大利餐厅","phone":"+862038399949","address":"珠江新城兴盛路兴盛汇G11号铺","lat":23.12313233408466,"lng":113.32589746375662,"neighborhood":"天河区","city_fetched":"Guangzhou,China","state":"广东","country":"中国","canonicalUrl":"https://foursquare.com/v/vincent-italian-restaurant-%E6%96%87%E6%A3%AE%E7%89%B9%E6%84%8F%E5%A4%A7%E5%88%A9%E9%A4%90%E5%8E%85/50c464e7498ef1fd44e368af","categoryId":"4bf58dd8d48988d116941735","category":"Bar","checkinsCount":380,"usersCount":138,"tipCount":13,"visitsCount":388,"tier":"","message":"","currency":"","rating":6.4},{"name":"Westin Hotel Executive Club","lat":23.145904,"lng":113.320597,"city_fetched":"Guangzhou,China","country":"中国","canonicalUrl":"https://foursquare.com/v/westin-hotel-executive-club/4e6c8e7c45dd435bc1154a52","categoryId":"4bf58dd8d48988d121941735","category":"Lounge","checkinsCount":239,"usersCount":129,"tipCount":4,"visitsCount":241,"tier":"","message":"","currency":"","rating":6.4},{"name":"MUSIC BOX 堂会 量贩式KTV","phone":"+862034270999","address":"海珠区东晓路171号","lat":23.10603599863695,"lng":113.27981885441557,"city_fetched":"Guangzhou,China","state":"广东","country":"中国","canonicalUrl":"https://foursquare.com/v/music-box-%E5%A0%82%E4%BC%9A-%E9%87%8F%E8%B4%A9%E5%BC%8Fktv/4ecf03a200391535cc7753ec","categoryId":"4bf58dd8d48988d120941735","category":"Karaoke Bar","checkinsCount":127,"usersCount":125,"tipCount":1,"visitsCount":198,"tier":"","message":"","currency":"","rating":6.4},{"name":"Music Box KTV - 堂会","lat":23.14172787019326,"lng":113.31145317365394,"city_fetched":"Guangzhou,China","country":"中国","canonicalUrl":"https://foursquare.com/v/music-box-ktv--%E5%A0%82%E4%BC%9A/4f93e41be4b061a426337241","categoryId":"4bf58dd8d48988d120941735","category":"Karaoke Bar","checkinsCount":269,"usersCount":228,"tipCount":4,"visitsCount":331,"tier":"","message":"","currency":"","rating":6.4},{"name":"Gold Mango Bar","lat":23.13967446057644,"lng":113.28006891092319,"city_fetched":"Guangzhou,China","country":"中国","canonicalUrl":"https://foursquare.com/v/gold-mango-bar/4db597911e7248d135b78d9a","categoryId":"4bf58dd8d48988d116941735","category":"Bar","checkinsCount":132,"usersCount":91,"tipCount":2,"visitsCount":139,"tier":"","message":"","currency":"","rating":6.3},{"name":"Rebel Rebel","phone":"+862085201579","address":"No.42 Tiyu Dong Rd. 体育东路42号","lat":23.13235550555375,"lng":113.3232982125783,"city_fetched":"Guangzhou,China","state":"广东","country":"中国","canonicalUrl":"https://foursquare.com/v/rebel-rebel/4fdc8170e4b014c45b4fbeee","categoryId":"4bf58dd8d48988d116941735","category":"Bar","checkinsCount":352,"usersCount":172,"tipCount":11,"visitsCount":388,"tier":"","message":"","currency":"","rating":6.3},{"name":"The Clock","address":"Yuejiang West Rd, Haizhu, Guangzhou, Guangdong","lat":23.11026748877691,"lng":113.33486392942424,"city_fetched":"Guangzhou,China","state":"广东","country":"中国","canonicalUrl":"https://foursquare.com/v/the-clock/4f983432e4b04aec2d003cce","categoryId":"4bf58dd8d48988d11e941735","category":"Cocktail Bar","checkinsCount":213,"usersCount":143,"tipCount":4,"visitsCount":216,"tier":"","message":"","currency":"","rating":6.2},{"name":"The Atrium","address":"5 Zhujiang West Road","lat":23.12049386542176,"lng":113.31776241315808,"city_fetched":"Guangzhou,China","state":"广东","country":"中国","canonicalUrl":"https://foursquare.com/v/the-atrium/50435df6e4b0d3bcee45c568","categoryId":"4bf58dd8d48988d1d5941735","category":"Hotel Bar","checkinsCount":69,"usersCount":60,"tipCount":3,"visitsCount":69,"tier":"","message":"","currency":"","rating":6.2},{"name":"Wave Bar","address":"阅江西路 Yue Jiang Street","lat":23.11002262843979,"lng":113.3357652210911,"city_fetched":"Guangzhou,China","state":"广东","country":"中国","canonicalUrl":"https://foursquare.com/v/wave-bar/4f60d53ee4b0f4b0a39db371","categoryId":"4bf58dd8d48988d11f941735","category":"Nightclub","checkinsCount":633,"usersCount":415,"tipCount":18,"visitsCount":820,"tier":"","message":"","currency":"","rating":6.2},{"name":"Perry's 2 (Tianhe)","lat":23.14547701865809,"lng":113.32181541370217,"city_fetched":"Guangzhou,China","country":"中国","canonicalUrl":"https://foursquare.com/v/perrys-2-tianhe/51c45c81498e8a3a58a876f9","categoryId":"4bf58dd8d48988d116941735","category":"Bar","checkinsCount":527,"usersCount":314,"tipCount":11,"visitsCount":729,"tier":"","message":"","currency":"","rating":6.1},{"name":"New era Night Club","phone":"+8613640755929","address":"Zhongshan 3rd Rd 12号‎ Guangzhou‎ Guangdong China","lat":23.129372133197386,"lng":113.28130756156618,"city_fetched":"Guangzhou,China","state":"Guandong","country":"中国","canonicalUrl":"https://foursquare.com/v/new-era-night-club/4fd6dba77716469f62ec0ec8","categoryId":"4bf58dd8d48988d11f941735","category":"Nightclub","checkinsCount":129,"usersCount":56,"tipCount":1,"visitsCount":129,"tier":"","message":"","currency":"","rating":6},{"name":"HillBar","lat":23.139494,"lng":113.280626,"city_fetched":"Guangzhou,China","country":"中国","canonicalUrl":"https://foursquare.com/v/hillbar/4dba6d83f7b144688ff908e5","categoryId":"4bf58dd8d48988d116941735","category":"Bar","checkinsCount":163,"usersCount":108,"tipCount":2,"visitsCount":164,"tier":"","message":"","currency":"","rating":5.9},{"name":"C:Union","address":"水荫路115号天溢大厦广州城市会副大堂1楼","lat":23.14580949465997,"lng":113.30517876464044,"city_fetched":"Guangzhou,China","state":"广东","country":"中国","canonicalUrl":"https://foursquare.com/v/cunion/4e22f84daeb70263953eccfe","categoryId":"4bf58dd8d48988d116941735","category":"Bar","checkinsCount":229,"usersCount":115,"tipCount":6,"visitsCount":271,"tier":"","message":"","currency":"","rating":5.9},{"name":"V5","phone":"+862038051198","address":"兴盛路8号","lat":23.123657,"lng":113.324682,"neighborhood":"天河区","city_fetched":"Guangzhou,China","state":"广东","country":"中国","canonicalUrl":"https://foursquare.com/v/v5/510930bee4b026ea04772688","categoryId":"4bf58dd8d48988d121941735","category":"Lounge","checkinsCount":82,"usersCount":55,"tipCount":1,"visitsCount":82,"tier":"","message":"","currency":"","rating":5.8},{"name":"Vincent Coffee & Bar - 乐啡咖啡馆","address":"越秀区建设五马路29号好世界公寓105号(明月馆对面)","lat":23.137256,"lng":113.278633,"city_fetched":"Guangzhou,China","state":"广东","country":"中国","canonicalUrl":"https://foursquare.com/v/vincent-coffee--bar--%E4%B9%90%E5%95%A1%E5%92%96%E5%95%A1%E9%A6%86/4cbd4203f50e224b61b303fc","categoryId":"4bf58dd8d48988d116941735","category":"Bar","checkinsCount":196,"usersCount":120,"tipCount":6,"visitsCount":196,"tier":"","message":"","currency":"","rating":5.8},{"name":"斑馬星 Zebra Star Bar","lat":23.142512473844807,"lng":113.28308702754069,"city_fetched":"Guangzhou,China","country":"中国","canonicalUrl":"https://foursquare.com/v/%E6%96%91%E9%A6%AC%E6%98%9F-zebra-star-bar/4e10366952b1655efa3b2420","categoryId":"4bf58dd8d48988d116941735","category":"Bar","checkinsCount":104,"usersCount":43,"tipCount":5,"visitsCount":106,"tier":"","message":"","currency":"","rating":5.7},{"name":"RichBaby","lat":23.117693,"lng":113.264719,"city_fetched":"Guangzhou,China","country":"中国","canonicalUrl":"https://foursquare.com/v/richbaby/4ebce3c8be7bf3d84f01a139","categoryId":"4bf58dd8d48988d11f941735","category":"Nightclub","checkinsCount":208,"usersCount":137,"tipCount":5,"visitsCount":209,"tier":"","message":"","currency":"","rating":5.7},{"name":"Mr. Rocky 洛奇先生餐吧","address":"革新路124号太古仓电影院1楼","lat":23.092057810629044,"lng":113.24686874689586,"neighborhood":"海珠区","city_fetched":"Guangzhou,China","state":"广东","country":"中国","canonicalUrl":"https://foursquare.com/v/mr-rocky-%E6%B4%9B%E5%A5%87%E5%85%88%E7%94%9F%E9%A4%90%E5%90%A7/50027c97e4b02f063d32117d","categoryId":"4bf58dd8d48988d116941735","category":"Bar","checkinsCount":181,"usersCount":180,"tipCount":10,"visitsCount":229,"tier":"","message":"","currency":"","rating":5.7},{"name":"K歌王","address":"天河东路","lat":23.139558734905602,"lng":113.32754888424394,"city_fetched":"Guangzhou,China","state":"广东","country":"中国","canonicalUrl":"https://foursquare.com/v/k%E6%AD%8C%E7%8E%8B/4d4b5af19a8af04daf7b0caf","categoryId":"4bf58dd8d48988d120941735","category":"Karaoke Bar","checkinsCount":122,"usersCount":86,"tipCount":1,"visitsCount":126,"tier":"","message":"","currency":"","rating":5.6},{"name":"Soho Bar","lat":23.11416877212592,"lng":113.25605725228289,"city_fetched":"Guangzhou,China","state":"广东","country":"中国","canonicalUrl":"https://foursquare.com/v/soho-bar/4dff5cc61495f70219361732","categoryId":"4bf58dd8d48988d11f941735","category":"Nightclub","checkinsCount":140,"usersCount":126,"tipCount":4,"visitsCount":141,"tier":"","message":"","currency":"","rating":5.6},{"name":"Covent Garden","address":"Huaquiang Road 2","lat":23.12761778806681,"lng":113.31134850373786,"city_fetched":"Guangzhou,China","state":"广东","country":"中国","canonicalUrl":"https://foursquare.com/v/covent-garden/4f8ee500e4b0a59082986028","categoryId":"4bf58dd8d48988d11b941735","category":"Pub","checkinsCount":301,"usersCount":153,"tipCount":9,"visitsCount":310,"tier":"","message":"","currency":"","rating":5.4},{"name":"COCOtrack","lat":23.11754929582836,"lng":113.26533868124636,"city_fetched":"Guangzhou,China","country":"中国","canonicalUrl":"https://foursquare.com/v/cocotrack/4db4294f6a23c31a03114423","categoryId":"4bf58dd8d48988d11f941735","category":"Nightclub","checkinsCount":152,"usersCount":86,"tipCount":2,"visitsCount":152,"tier":"","message":"","currency":"","rating":5.4},{"name":"The Paddy Field","phone":"+862083986181","address":"28 Tiyu E Rd","lat":23.132506399240725,"lng":113.32319935942336,"city_fetched":"Guangzhou,China","state":"广东","country":"中国","canonicalUrl":"https://foursquare.com/v/the-paddy-field/5041f6ace4b03ccc16c1e0a7","categoryId":"4bf58dd8d48988d11b941735","category":"Pub","checkinsCount":68,"usersCount":56,"tipCount":1,"visitsCount":69,"url":"http://www.thepaddyfield.com","tier":"","message":"","currency":"","rating":5.4},{"name":"TU凸空间","phone":"+862036597623","address":"越秀区广州大道中361-365号东方花苑首层","lat":23.13169301599863,"lng":113.309319067113,"city_fetched":"Guangzhou,China","state":"广东","country":"中国","canonicalUrl":"https://foursquare.com/v/tu%E5%87%B8%E7%A9%BA%E9%97%B4/526bbca8498ef27f9f1df448","categoryId":"4bf58dd8d48988d116941735","category":"Bar","checkinsCount":139,"usersCount":91,"tipCount":1,"visitsCount":178,"tier":"","message":"","currency":"","rating":5.2},{"name":"Qba","twitter":"spg","address":"6 Lin He Zhong Road","lat":23.145490228619174,"lng":113.32046053966626,"city_fetched":"Guangzhou,China","state":"广东","country":"中国","canonicalUrl":"https://foursquare.com/v/qba/4bf5449594af2d7f6f7b3b72","categoryId":"4bf58dd8d48988d11e941735","category":"Cocktail Bar","checkinsCount":232,"usersCount":140,"tipCount":6,"visitsCount":232,"url":"http://www.spg.com/foursquare/","tier":"","message":"","currency":"","rating":5.2},{"name":"NOVA CLUB","lat":23.12922036120792,"lng":113.31583185038316,"city_fetched":"Guangzhou,China","country":"中国","canonicalUrl":"https://foursquare.com/v/nova-club/4d67d08b709bb60c575dae14","categoryId":"4bf58dd8d48988d11f941735","category":"Nightclub","checkinsCount":175,"usersCount":119,"tipCount":8,"visitsCount":175,"tier":"","message":"","currency":"","rating":5.1}]