[{"name":"Ночной клуб \"С2\" (си-ту)","twitter":"georitm","address":"ул. Ленина, 159,","lat":50.258743434818335,"lng":127.52770900726318,"city_fetched":"Heihe,China","state":"Амурская обл","country":"Россия","canonicalUrl":"https://foursquare.com/georitm","categoryId":"4bf58dd8d48988d11f941735","category":"Nightclub","checkinsCount":710,"usersCount":189,"tipCount":21,"visitsCount":725,"url":"http://amurshveik.ru","tier":"","message":"","currency":"","rating":7.5},{"name":"Billini","phone":"+74162316100","address":"ул. Ленина, 100","lat":50.25544947813544,"lng":127.54403007237617,"city_fetched":"Heihe,China","state":"Амурская обл","country":"Россия","canonicalUrl":"https://foursquare.com/v/billini/4f3778d4e4b08533d25829cc","categoryId":"4bf58dd8d48988d120941735","category":"Karaoke Bar","checkinsCount":577,"usersCount":185,"tipCount":9,"visitsCount":647,"tier":"","message":"","currency":"","rating":7.2},{"name":"У Швейка","phone":"+74162540111","address":"ул. Ленина, 159","lat":50.25857659847564,"lng":127.52787247382778,"city_fetched":"Heihe,China","state":"Амурская обл","country":"Россия","canonicalUrl":"https://foursquare.com/v/%D1%83-%D1%88%D0%B2%D0%B5%D0%B9%D0%BA%D0%B0/4ddba47718388dd692359b9c","categoryId":"4bf58dd8d48988d116941735","category":"Bar","checkinsCount":1151,"usersCount":397,"tipCount":31,"visitsCount":1334,"url":"http://amurshveik.ru","tier":"","message":"","currency":"","rating":7.2},{"name":"Рюмочная \"ПИПЛЗ\"","phone":"+74162512769","twitter":"piplz","address":"ул. Амурская, 191А","lat":50.2632509171964,"lng":127.53601849102056,"city_fetched":"Heihe,China","state":"Амурская обл","country":"Россия","canonicalUrl":"https://foursquare.com/v/%D1%80%D1%8E%D0%BC%D0%BE%D1%87%D0%BD%D0%B0%D1%8F-%D0%BF%D0%B8%D0%BF%D0%BB%D0%B7/4f03d9205c5c3b739df64189","categoryId":"4bf58dd8d48988d116941735","category":"Bar","checkinsCount":1768,"usersCount":462,"tipCount":37,"visitsCount":2201,"url":"http://www.piplz-bar.ru","tier":"","message":"","currency":"","rating":7.1},{"name":"Cash","address":"Ленина, 159","lat":50.25872574631951,"lng":127.52773459547701,"city_fetched":"Heihe,China","state":"Амурская обл","country":"Россия","canonicalUrl":"https://foursquare.com/v/cash/4f635061e4b08b476e44a52d","categoryId":"4bf58dd8d48988d11f941735","category":"Nightclub","checkinsCount":488,"usersCount":92,"tipCount":8,"visitsCount":497,"tier":"","message":"","currency":"","rating":7.1},{"name":"Тропикана","lat":50.26706321993743,"lng":127.53267400685961,"city_fetched":"Heihe,China","state":"Амурская обл","country":"Россия","canonicalUrl":"https://foursquare.com/v/%D1%82%D1%80%D0%BE%D0%BF%D0%B8%D0%BA%D0%B0%D0%BD%D0%B0/4f365335e4b0e313d2495e4d","categoryId":"4bf58dd8d48988d11f941735","category":"Nightclub","checkinsCount":89,"usersCount":56,"tipCount":2,"visitsCount":94,"tier":"","message":"","currency":"","rating":7},{"name":"Бирмания","lat":50.2733598053977,"lng":127.53059926869945,"city_fetched":"Heihe,China","country":"Россия","canonicalUrl":"https://foursquare.com/v/%D0%B1%D0%B8%D1%80%D0%BC%D0%B0%D0%BD%D0%B8%D1%8F/4f3e0aa1e4b090fd16ac088b","categoryId":"50327c8591d4c4b30a586d5d","category":"Brewery","checkinsCount":115,"usersCount":96,"tipCount":6,"visitsCount":138,"tier":"","message":"","currency":"","rating":6.6},{"name":"Ночной бар \"У Швейка\"","address":"ул. Ленина, 159","lat":50.258678688525265,"lng":127.52788164128046,"city_fetched":"Heihe,China","state":"Амурская обл","country":"Россия","canonicalUrl":"https://foursquare.com/v/%D0%BD%D0%BE%D1%87%D0%BD%D0%BE%D0%B9-%D0%B1%D0%B0%D1%80-%D1%83-%D1%88%D0%B2%D0%B5%D0%B9%D0%BA%D0%B0/4f74594ce4b04d68f07b3ee3","categoryId":"4bf58dd8d48988d116941735","category":"Bar","checkinsCount":1231,"usersCount":262,"tipCount":20,"visitsCount":1267,"url":"http://amurshveik.ru","tier":"","message":"","currency":"","rating":6.2},{"name":"Celebrity","twitter":"celebrity_bar","address":"ул. Ленина 161","lat":50.25871270614962,"lng":127.52652138046672,"city_fetched":"Heihe,China","state":"Амурская обл","country":"Россия","canonicalUrl":"https://foursquare.com/celebrity_bar","categoryId":"4bf58dd8d48988d116941735","category":"Bar","checkinsCount":317,"usersCount":123,"tipCount":5,"visitsCount":317,"tier":"","message":"","currency":"","rating":6},{"name":"50/50","phone":"+79145630758","twitter":"5050blg","address":"Горького 129","lat":50.26638385494954,"lng":127.53725767199856,"city_fetched":"Heihe,China","state":"Амурская обл","country":"Россия","canonicalUrl":"https://foursquare.com/v/5050/4f3f5f6ce4b09425fce44b68","categoryId":"4bf58dd8d48988d11f941735","category":"Nightclub","checkinsCount":423,"usersCount":88,"tipCount":2,"visitsCount":424,"url":"http://vk.com/new5050blg","tier":"","message":"","currency":"","rating":5.8},{"name":"Sixties","lat":50.25829932620448,"lng":127.51860954242309,"city_fetched":"Heihe,China","country":"Россия","canonicalUrl":"https://foursquare.com/v/sixties-%D1%88%D0%B5%D1%81%D1%82%D0%B8%D0%B4%D0%B5%D1%81%D1%8F%D1%82%D1%8B%D0%B5/4f05a9265c5c4a361ac32005","categoryId":"4bf58dd8d48988d116941735","category":"Bar","checkinsCount":208,"usersCount":117,"tipCount":2,"visitsCount":208,"tier":"","message":"","currency":"","rating":5.7},{"name":"Калиф","lat":50.262777907112024,"lng":127.53092747403858,"city_fetched":"Heihe,China","country":"Россия","canonicalUrl":"https://foursquare.com/v/%D0%BA%D0%B0%D0%BB%D0%B8%D1%84/4f06d145e4b039f5ab30955a","categoryId":"4bf58dd8d48988d119941735","category":"Hookah Bar","checkinsCount":475,"usersCount":249,"tipCount":15,"visitsCount":576,"tier":"","message":"","currency":"","rating":5.6},{"name":"Daddy's Pub","phone":"513777","address":"ул. Ленина, 161","lat":50.25867825882828,"lng":127.52657297700489,"city_fetched":"Heihe,China","state":"Province of Amur","country":"Россия","canonicalUrl":"https://foursquare.com/v/daddys-pub/4de0e4f47d8b84d5dc7702cb","categoryId":"4bf58dd8d48988d11f941735","category":"Nightclub","checkinsCount":498,"usersCount":253,"tipCount":16,"visitsCount":509,"tier":"","message":"","currency":"","rating":5.2},{"name":"Стейк Хаус","phone":"+74162513777","address":"ул. Ленина, 161","lat":50.25870297051468,"lng":127.52658129658764,"city_fetched":"Heihe,China","state":"Амурская обл","country":"Россия","canonicalUrl":"https://foursquare.com/v/%D1%81%D1%82%D0%B5%D0%B9%D0%BA-%D1%85%D0%B0%D1%83%D1%81/4f478ecae4b0d125f524e9e2","categoryId":"4bf58dd8d48988d116941735","category":"Bar","checkinsCount":249,"usersCount":118,"tipCount":9,"visitsCount":249,"tier":"","message":"","currency":"","rating":5},{"name":"Евразия, развлекательный центр","address":"Калинина 127","lat":50.277023025606084,"lng":127.52394869301017,"city_fetched":"Heihe,China","state":"Амурская обл","country":"Россия","canonicalUrl":"https://foursquare.com/v/%D0%B5%D0%B2%D1%80%D0%B0%D0%B7%D0%B8%D1%8F-%D1%80%D0%B0%D0%B7%D0%B2%D0%BB%D0%B5%D0%BA%D0%B0%D1%82%D0%B5%D0%BB%D1%8C%D0%BD%D1%8B%D0%B9-%D1%86%D0%B5%D0%BD%D1%82%D1%80/50e53902e4b03cb7f0d692da","categoryId":"4bf58dd8d48988d120941735","category":"Karaoke Bar","checkinsCount":84,"usersCount":57,"tipCount":2,"visitsCount":86,"tier":"","message":"","currency":"","rating":5}]