[{"name":"ON Dining Kitchen & Lounge","address":"29/F, 18 On Lan St","lat":22.280973118294057,"lng":114.15682148619565,"neighborhood":"中西区","city_fetched":"Hong Kong,China","state":"中西區","country":"香港","canonicalUrl":"https://foursquare.com/v/on-dining-kitchen--lounge/548c6373498e6b07088ca0f8","categoryId":"4bf58dd8d48988d116941735","category":"Bar","checkinsCount":559,"usersCount":329,"tipCount":13,"visitsCount":579,"tier":"","message":"","currency":"","rating":9.1},{"name":"T. A. P. - The Ale Project","phone":"+85224682010","address":"15 Hak Po Street","lat":22.317543379202778,"lng":114.1729902882876,"neighborhood":"旺角","city_fetched":"Hong Kong,China","state":"Kowloon","country":"香港","canonicalUrl":"https://foursquare.com/v/t-a-p--the-ale-project/54819bb2498e42756eb3fe49","categoryId":"4bf58dd8d48988d11b941735","category":"Pub","checkinsCount":712,"usersCount":450,"tipCount":31,"visitsCount":807,"tier":2,"message":"Moderate","currency":"$","rating":9},{"name":"Ping Pong 129","phone":"+85291581584","address":"Second St. 129 LG Nam Cheong House","lat":22.286341668992257,"lng":114.13977539070295,"neighborhood":"西湾","city_fetched":"Hong Kong,China","country":"香港","canonicalUrl":"https://foursquare.com/v/ping-pong-129/530edf2c11d21a36a74ebabf","categoryId":"4bf58dd8d48988d11e941735","category":"Cocktail Bar","checkinsCount":1168,"usersCount":1079,"tipCount":37,"visitsCount":1657,"tier":3,"message":"Expensive","currency":"$","rating":9},{"name":"121 BC","phone":"+85223950200","address":"42-44 Peel St.","lat":22.282789,"lng":114.152795,"neighborhood":"中区","city_fetched":"Hong Kong,China","country":"香港","canonicalUrl":"https://foursquare.com/v/121-bc/522f23f2498e616d9db10970","categoryId":"4bf58dd8d48988d123941735","category":"Wine Bar","checkinsCount":489,"usersCount":341,"tipCount":20,"visitsCount":500,"tier":"","message":"","currency":"","rating":8.9},{"name":"Sugar","phone":"+85239683738","address":"32/F, EAST, Hong Kong, 29 Taikoo Shing Rd","lat":22.286021435333986,"lng":114.21620070934296,"neighborhood":"Taikoo Shing, Hong Kong","city_fetched":"Hong Kong,China","country":"香港","canonicalUrl":"https://foursquare.com/v/sugar/4bc5d7a25935c9b6f76ea6d2","categoryId":"4bf58dd8d48988d1d5941735","category":"Hotel Bar","checkinsCount":3827,"usersCount":2094,"tipCount":66,"visitsCount":3968,"url":"http://www.east-hongkong.com","tier":"","message":"","currency":"","rating":8.9},{"name":"Bitters & Sweets","phone":"+85227880103","address":"1/F, Somptueux Central, 52-54 Wellington St","lat":22.282030039065642,"lng":114.15524231128923,"neighborhood":"中西区","city_fetched":"Hong Kong,China","country":"香港","canonicalUrl":"https://foursquare.com/v/bitters--sweets/5683cfad498e543c94c085bc","categoryId":"4bf58dd8d48988d11e941735","category":"Cocktail Bar","checkinsCount":455,"usersCount":198,"tipCount":8,"visitsCount":510,"url":"http://www.bittersandsweets.hk","tier":"","message":"","currency":"","rating":8.8},{"name":"Blue Bar","phone":"+85231968888","twitter":"fourseasons","address":"Lobby level, Four Seasons Hotel Hong Kong, 8 Finance St","lat":22.286645433998427,"lng":114.15733239452351,"neighborhood":"中西区","city_fetched":"Hong Kong,China","state":"中西區","country":"香港","canonicalUrl":"https://foursquare.com/v/blue-bar/4b0588d0f964a52049db22e3","categoryId":"4bf58dd8d48988d1d5941735","category":"Hotel Bar","checkinsCount":2152,"usersCount":1082,"tipCount":34,"visitsCount":2175,"url":"http://www.fourseasons.com/hongkong/dining/lounges/blue_bar","tier":"","message":"","currency":"","rating":8.8},{"name":"001","phone":"+85228106969","address":"Shop G1, LG/F, Welley Bldg, 97 Wellington St","lat":22.28349488504725,"lng":114.1542711853981,"neighborhood":"中区","city_fetched":"Hong Kong,China","state":"中西區","country":"香港","canonicalUrl":"https://foursquare.com/v/001/4cfde72fc51fa1cd7992f32b","categoryId":"4bf58dd8d48988d11e941735","category":"Cocktail Bar","checkinsCount":2027,"usersCount":1158,"tipCount":65,"visitsCount":2045,"tier":3,"message":"Expensive","currency":"$","rating":8.7},{"name":"Sky Lounge","phone":"+85223691111","address":"18/F, Sheraton Hong Kong Hotel & Towers, 20 Nathan Rd","lat":22.294803964164085,"lng":114.17284514906395,"neighborhood":"尖沙咀","city_fetched":"Hong Kong,China","country":"香港","canonicalUrl":"https://foursquare.com/v/sky-lounge/4b9b8be2f964a5206f0e36e3","categoryId":"4bf58dd8d48988d1d5941735","category":"Hotel Bar","checkinsCount":2648,"usersCount":1327,"tipCount":24,"visitsCount":2658,"tier":"","message":"","currency":"","rating":8.7},{"name":"The Chinnery at Mandarin Oriental, Hong Kong","phone":"+85228254009","twitter":"mo_hotels","address":"5 Connaught Road","lat":22.28180641754019,"lng":114.15942246793064,"neighborhood":"中西区","city_fetched":"Hong Kong,China","state":"中西區","country":"香港","canonicalUrl":"https://foursquare.com/v/the-chinnery-at-mandarin-oriental-hong-kong/4bf4c63b370e76b0eb9abd4a","categoryId":"4bf58dd8d48988d121941735","category":"Lounge","checkinsCount":436,"usersCount":264,"tipCount":9,"visitsCount":436,"url":"http://www.mandarinoriental.com","tier":"","message":"","currency":"","rating":8.7},{"name":"Le Boudoir","phone":"+85225303870","address":"65 Wyndham St","lat":22.28141937217797,"lng":114.15483009926965,"neighborhood":"中西区","city_fetched":"Hong Kong,China","state":"中西區","country":"香港","canonicalUrl":"https://foursquare.com/v/le-boudoir/4cbbf2b2352ebfb722808ef2","categoryId":"4bf58dd8d48988d11e941735","category":"Cocktail Bar","checkinsCount":1104,"usersCount":683,"tipCount":25,"visitsCount":1112,"tier":"","message":"","currency":"","rating":8.7},{"name":"Stockton Hong Kong","phone":"+85225655268","address":"32 Wyndham St","lat":22.280139432309884,"lng":114.15553840701126,"neighborhood":"中西区","city_fetched":"Hong Kong,China","country":"香港","canonicalUrl":"https://foursquare.com/v/stockton-hong-kong/52b42ba9498ec4ece8c9cca3","categoryId":"4bf58dd8d48988d116941735","category":"Bar","checkinsCount":2147,"usersCount":1019,"tipCount":30,"visitsCount":2272,"url":"http://reservations@stockton.com.hk","tier":"","message":"","currency":"","rating":8.6},{"name":"Ozone","phone":"+85222632270","twitter":"ritzcarlton","address":"118/F, The Ritz-Carlton Hong Kong, 1 Austin Rd W","lat":22.304373541273197,"lng":114.16114568710327,"neighborhood":"西区海底隧道","city_fetched":"Hong Kong,China","country":"香港","canonicalUrl":"https://foursquare.com/v/ozone/4d98ba6ad7366a31290e0e0b","categoryId":"4bf58dd8d48988d1d5941735","category":"Hotel Bar","checkinsCount":9553,"usersCount":7556,"tipCount":194,"visitsCount":9734,"tier":4,"message":"Very Expensive","currency":"$","rating":8.6},{"name":"MO Bar","phone":"+85221320077","twitter":"mo_hotels","address":"G/F, The Landmark Mandarin Oriental Hotel, 15 Queen’s Rd C","lat":22.280712615361164,"lng":114.15754720807692,"neighborhood":"中西区","city_fetched":"Hong Kong,China","country":"香港","canonicalUrl":"https://foursquare.com/v/mo-bar/4b0588d0f964a52042db22e3","categoryId":"4bf58dd8d48988d1d5941735","category":"Hotel Bar","checkinsCount":2948,"usersCount":1441,"tipCount":37,"visitsCount":2973,"url":"http://www.mandarinoriental.com","tier":"","message":"","currency":"","rating":8.6},{"name":"The Lounge & Bar","phone":"+85222632270","twitter":"ritzcarlton","address":"102/F, The Ritz-Carlton Hong Kong, 1 Austin Rd W","lat":22.3034032,"lng":114.1601917,"neighborhood":"西区海底隧道","city_fetched":"Hong Kong,China","country":"香港","canonicalUrl":"https://foursquare.com/v/the-lounge--bar/4d948663ca3f6ea8d561cb34","categoryId":"4bf58dd8d48988d121941735","category":"Lounge","checkinsCount":1074,"usersCount":834,"tipCount":30,"visitsCount":1077,"url":"http://www.ritzcarlton.com/en/Properties/HongKong/Default.htm","tier":"","message":"","currency":"","rating":8.6},{"name":"Captain's Bar","phone":"+85225220111","twitter":"mo_hotels","address":"Mandarin Oriental Hong Kong, 5 Connaught Rd C","lat":22.282304,"lng":114.159253,"neighborhood":"中西区","city_fetched":"Hong Kong,China","state":"中西區","country":"香港","canonicalUrl":"https://foursquare.com/v/captains-bar/4b0588cff964a52004db22e3","categoryId":"4bf58dd8d48988d1d5941735","category":"Hotel Bar","checkinsCount":1040,"usersCount":594,"tipCount":12,"visitsCount":1051,"url":"http://www.mandarinoriental.com","tier":"","message":"","currency":"","rating":8.5},{"name":"Quinary","phone":"+85228513223","address":"56-58 Hollywood Rd","lat":22.282815116737236,"lng":114.15295482005132,"neighborhood":"中区","city_fetched":"Hong Kong,China","state":"中西區","country":"香港","canonicalUrl":"https://foursquare.com/v/quinary/4f86ad32e4b05dd5645c7301","categoryId":"4bf58dd8d48988d11e941735","category":"Cocktail Bar","checkinsCount":3509,"usersCount":2087,"tipCount":77,"visitsCount":3721,"url":"http://www.quinary.hk","tier":"","message":"","currency":"","rating":8.5},{"name":"Hebe One O One Bar & Restaurant","phone":"+85223355515","address":"112 Pak Sha Wan","lat":22.364302,"lng":114.25908156,"neighborhood":"西贡区","city_fetched":"Hong Kong,China","state":"Sai Kung District","country":"香港","canonicalUrl":"https://foursquare.com/v/hebe-one-o-one-bar--restaurant/4b0588d1f964a5205fdb22e3","categoryId":"4bf58dd8d48988d116941735","category":"Bar","checkinsCount":421,"usersCount":250,"tipCount":12,"visitsCount":477,"tier":"","message":"","currency":"","rating":8.5},{"name":"Little Creatures","phone":"+85228335611","address":"5 New Praya","lat":22.283946,"lng":114.128243,"neighborhood":"西湾","city_fetched":"Hong Kong,China","country":"香港","canonicalUrl":"https://foursquare.com/v/little-creatures/57889cad498eb4b2f13f5f05","categoryId":"50327c8591d4c4b30a586d5d","category":"Brewery","checkinsCount":167,"usersCount":162,"tipCount":8,"visitsCount":213,"url":"https://littlecreatures.hk","tier":"","message":"","currency":"","rating":8.5},{"name":"Clipper Lounge","phone":"+85225220111","twitter":"mo_hotels","address":"Mandarin Oriental Hotel, 5 Connaught Rd","lat":22.282401404889807,"lng":114.15955600006416,"neighborhood":"中西区","city_fetched":"Hong Kong,China","state":"中西區","country":"香港","canonicalUrl":"https://foursquare.com/v/clipper-lounge/4b0588d9f964a520eedc22e3","categoryId":"4bf58dd8d48988d121941735","category":"Lounge","checkinsCount":1328,"usersCount":824,"tipCount":20,"visitsCount":1335,"url":"http://www.mandarinoriental.com","tier":"","message":"","currency":"","rating":8.5},{"name":"La Cabane Wine Bistro","phone":"+85227766070","address":"62 Hollywood Rd","lat":22.282990471697588,"lng":114.15289095591409,"neighborhood":"中区","city_fetched":"Hong Kong,China","state":"中西區","country":"香港","canonicalUrl":"https://foursquare.com/v/la-cabane-wine-bistro/505198e8e4b09819b925f00a","categoryId":"4bf58dd8d48988d123941735","category":"Wine Bar","checkinsCount":954,"usersCount":500,"tipCount":25,"visitsCount":959,"tier":"","message":"","currency":"","rating":8.4},{"name":"The Globe","phone":"+85225431941","twitter":"theglobehk","address":"45-53A Graham St","lat":22.282372603794585,"lng":114.15307674246971,"city_fetched":"Hong Kong,China","country":"香港","canonicalUrl":"https://foursquare.com/v/the-globe/4b7e7cc4f964a52028ef2fe3","categoryId":"56aa371ce4b08b9a8d57356c","category":"Beer Bar","checkinsCount":6178,"usersCount":2844,"tipCount":124,"visitsCount":6539,"url":"http://www.theglobe.com.hk","tier":"","message":"","currency":"","rating":8.4},{"name":"Executive Lounge","address":"JW Marriott Hotel Hong Kong, Pacific Place, 88 Queensway","lat":22.2779188393706,"lng":114.16612224801887,"neighborhood":"中西区","city_fetched":"Hong Kong,China","state":"中西區","country":"香港","canonicalUrl":"https://foursquare.com/v/executive-lounge/4bee8063d355a5932af00a60","categoryId":"4bf58dd8d48988d1d5941735","category":"Hotel Bar","checkinsCount":718,"usersCount":242,"tipCount":12,"visitsCount":719,"tier":"","message":"","currency":"","rating":8.4},{"name":"Butler","phone":"+85227243828","address":"5-6/F, 30 Mody Rd","lat":22.29695853836069,"lng":114.17410612106323,"neighborhood":"尖沙咀","city_fetched":"Hong Kong,China","state":"Kowloon City","country":"香港","canonicalUrl":"https://foursquare.com/v/butler/4e213333cc3fee7eee21de61","categoryId":"4bf58dd8d48988d11e941735","category":"Cocktail Bar","checkinsCount":753,"usersCount":423,"tipCount":29,"visitsCount":764,"tier":"","message":"","currency":"","rating":8.4},{"name":"Foxglove","phone":"+85221168949","address":"2/F, Printing House, 6 Duddell St","lat":22.279945,"lng":114.157252,"neighborhood":"中西区","city_fetched":"Hong Kong,China","country":"香港","canonicalUrl":"https://foursquare.com/v/foxglove/563b4943cd10392ea00d5f31","categoryId":"4bf58dd8d48988d1d4941735","category":"Speakeasy","checkinsCount":555,"usersCount":553,"tipCount":22,"visitsCount":772,"tier":3,"message":"Expensive","currency":"$","rating":8.4},{"name":"Djiboutii","phone":"+85294490777","address":"G/F, 2A Landale St","lat":22.27721802176168,"lng":114.16965633630753,"neighborhood":"中西区","city_fetched":"Hong Kong,China","country":"香港","canonicalUrl":"https://foursquare.com/v/djiboutii/5460af14498eb8c45068a976","categoryId":"4bf58dd8d48988d116941735","category":"Bar","checkinsCount":417,"usersCount":317,"tipCount":10,"visitsCount":471,"tier":"","message":"","currency":"","rating":8.4},{"name":"The Bar","phone":"+85223153163","address":"1/F, The Peninsula Hong Kong, 19-21 Salisbury Rd","lat":22.295052610580893,"lng":114.17174577713013,"neighborhood":"尖沙咀","city_fetched":"Hong Kong,China","state":"Kowloon City","country":"香港","canonicalUrl":"https://foursquare.com/v/the-bar/4be69589bcef2d7f6c4805e5","categoryId":"4bf58dd8d48988d1d5941735","category":"Hotel Bar","checkinsCount":216,"usersCount":172,"tipCount":6,"visitsCount":216,"url":"http://www.peninsula.com/Hong_Kong/en/Dining/The_Bar/default.aspx#","tier":"","message":"","currency":"","rating":8.3},{"name":"M Bar","phone":"+85228254002","twitter":"mo_hotels","address":"25/F, Mandarin Oriental, 5 Connaught Rd C","lat":22.282018360685807,"lng":114.1601888257161,"neighborhood":"中西区","city_fetched":"Hong Kong,China","country":"香港","canonicalUrl":"https://foursquare.com/v/m-bar/4b0588d0f964a52043db22e3","categoryId":"4bf58dd8d48988d1d5941735","category":"Hotel Bar","checkinsCount":780,"usersCount":571,"tipCount":19,"visitsCount":788,"url":"http://www.mandarinoriental.com","tier":"","message":"","currency":"","rating":8.3},{"name":"Kowloon taproom","phone":"+85228610355","address":"26 Ashley Road","lat":22.29735560337589,"lng":114.17056560516357,"neighborhood":"尖沙咀","city_fetched":"Hong Kong,China","country":"香港","canonicalUrl":"https://foursquare.com/v/kowloon-taproom/5659439f498eb87e0faf19b4","categoryId":"4bf58dd8d48988d11b941735","category":"Pub","checkinsCount":133,"usersCount":106,"tipCount":6,"visitsCount":140,"url":"http://www.kowloon-taproom.com","tier":"","message":"","currency":"","rating":8.3},{"name":"Dragon-i","phone":"+85231101222","address":"60 Wyndham St","lat":22.28075235982785,"lng":114.15487468242645,"neighborhood":"中西区","city_fetched":"Hong Kong,China","state":"中西區","country":"香港","canonicalUrl":"https://foursquare.com/v/dragoni/4b0588d0f964a52038db22e3","categoryId":"4bf58dd8d48988d116941735","category":"Bar","checkinsCount":8651,"usersCount":3735,"tipCount":83,"visitsCount":8776,"url":"http://dragon-i.com.hk","tier":"","message":"","currency":"","rating":8.3},{"name":"The Pawn","phone":"+85228663444","twitter":"thepawnhk","address":"1-3/F, 62 Johnston Rd","lat":22.27631208505294,"lng":114.17144536972046,"neighborhood":"中西区","city_fetched":"Hong Kong,China","state":"灣仔區","country":"香港","canonicalUrl":"https://foursquare.com/v/the-pawn/4b0e0a22f964a520445423e3","categoryId":"4bf58dd8d48988d11e941735","category":"Cocktail Bar","checkinsCount":6414,"usersCount":3663,"tipCount":123,"visitsCount":6703,"url":"http://www.thepawn.com.hk","tier":"","message":"","currency":"","rating":8.3},{"name":"Edition","address":"37 Peel St","lat":22.283230832628796,"lng":114.15316382989096,"neighborhood":"中区","city_fetched":"Hong Kong,China","state":"中西區","country":"香港","canonicalUrl":"https://foursquare.com/v/edition/54ec3ef0498ebc021ef9aa52","categoryId":"4bf58dd8d48988d116941735","category":"Bar","checkinsCount":747,"usersCount":195,"tipCount":8,"visitsCount":808,"tier":"","message":"","currency":"","rating":8.3},{"name":"Lobby Lounge","phone":"+85227211211","address":"Intercontinental Hong Kong, 18 Salisbury Rd","lat":22.2934,"lng":114.17403055555556,"neighborhood":"尖沙咀","city_fetched":"Hong Kong,China","state":"Kowloon","country":"香港","canonicalUrl":"https://foursquare.com/v/lobby-lounge/4db7bfb64b22f2ddb62d63a3","categoryId":"4bf58dd8d48988d121941735","category":"Lounge","checkinsCount":1465,"usersCount":847,"tipCount":27,"visitsCount":1466,"url":"http://www.hongkong-ic.intercontinental.com/dining/lobby_lounge.php","tier":"","message":"","currency":"","rating":8.3},{"name":"Above and Beyond","phone":"+85234001023","address":"28/F, Hotel ICON, 17 Science Museum Rd","lat":22.300723759222706,"lng":114.17971308482974,"neighborhood":"尖沙咀","city_fetched":"Hong Kong,China","state":"Kowloon City","country":"香港","canonicalUrl":"https://foursquare.com/v/above-and-beyond/4e1a4f6bd1648b8348449d5a","categoryId":"4bf58dd8d48988d11e941735","category":"Cocktail Bar","checkinsCount":1112,"usersCount":836,"tipCount":27,"visitsCount":1150,"tier":"","message":"","currency":"","rating":8.2},{"name":"Lobby Bar","address":"Intercontinental Hong Kong, 18 Salisbury Rd","lat":22.293300445645755,"lng":114.17356503914495,"neighborhood":"尖沙咀","city_fetched":"Hong Kong,China","state":"Kowloon City","country":"香港","canonicalUrl":"https://foursquare.com/v/lobby-bar/4bd11ad6a8b3a593945a655f","categoryId":"4bf58dd8d48988d1d5941735","category":"Hotel Bar","checkinsCount":577,"usersCount":381,"tipCount":8,"visitsCount":579,"tier":"","message":"","currency":"","rating":8.2},{"name":"Little Lab","phone":"+85228588580","address":"50 Staunton St","lat":22.282806863216088,"lng":114.15196782781655,"neighborhood":"中区","city_fetched":"Hong Kong,China","country":"香港","canonicalUrl":"https://foursquare.com/v/little-lab/52d0113411d23828e21c129a","categoryId":"4bf58dd8d48988d11e941735","category":"Cocktail Bar","checkinsCount":609,"usersCount":385,"tipCount":18,"visitsCount":657,"tier":"","message":"","currency":"","rating":8.2},{"name":"Fringe Club Roof Garden","phone":"+85225217251","address":"2 Lower Albert Rd","lat":22.280138,"lng":114.155997,"neighborhood":"中西区","city_fetched":"Hong Kong,China","state":"中西區","country":"香港","canonicalUrl":"https://foursquare.com/v/fringe-club-roof-garden/4b0588ccf964a520b0da22e3","categoryId":"4bf58dd8d48988d116941735","category":"Bar","checkinsCount":544,"usersCount":291,"tipCount":10,"visitsCount":544,"tier":"","message":"","currency":"","rating":8.2},{"name":"Club Lounge","phone":"+85228028888","address":"Renaissance Harbour View Hotel, 1 Harbour Rd","lat":22.281567150150824,"lng":114.17375081703992,"city_fetched":"Hong Kong,China","country":"香港","canonicalUrl":"https://foursquare.com/v/club-lounge/52974c53498e9a71284ec5ca","categoryId":"4bf58dd8d48988d121941735","category":"Lounge","checkinsCount":156,"usersCount":65,"tipCount":1,"visitsCount":157,"url":"http://renaissanceharbourviewhk.com","tier":"","message":"","currency":"","rating":8.2},{"name":"Caprice Bar","phone":"+85231968888","address":"6/F, Four Seasons Hong Kong, 8 Finance St","lat":22.286969018782607,"lng":114.15697243644453,"neighborhood":"中西区","city_fetched":"Hong Kong,China","state":"中西區","country":"香港","canonicalUrl":"https://foursquare.com/v/caprice-bar/5142ffc0e4b0654d30180d58","categoryId":"4bf58dd8d48988d123941735","category":"Wine Bar","checkinsCount":124,"usersCount":81,"tipCount":3,"visitsCount":124,"url":"http://www.fourseasons.com/hongkong/dining/lounges/caprice_bar","tier":"","message":"","currency":"","rating":8.1},{"name":"Assembly","phone":"+85227237298","address":"G/F-1/F, Mira Cube, 6 Knutsford Terrace","lat":22.301039387210146,"lng":114.17358245582591,"neighborhood":"尖沙咀","city_fetched":"Hong Kong,China","state":"Kowloon City","country":"香港","canonicalUrl":"https://foursquare.com/v/assembly/541bc859498e07904306d9e2","categoryId":"4bf58dd8d48988d11e941735","category":"Cocktail Bar","checkinsCount":392,"usersCount":295,"tipCount":7,"visitsCount":431,"tier":"","message":"","currency":"","rating":8.1},{"name":"Ophelia","phone":"+85225201117","address":"41A, 1/F, The Avenue, Lee Tung Avenue, 200 Queen's Rd E","lat":22.276362380333403,"lng":114.1722297582261,"neighborhood":"中西区","city_fetched":"Hong Kong,China","country":"香港","canonicalUrl":"https://foursquare.com/v/ophelia/572e042acd109a9f4dd794cd","categoryId":"4bf58dd8d48988d121941735","category":"Lounge","checkinsCount":288,"usersCount":243,"tipCount":8,"visitsCount":293,"tier":"","message":"","currency":"","rating":8.1},{"name":"Sevva","phone":"+85225371388","address":"25/F, Prince's Bldg, 10 Chater Rd","lat":22.281293423361177,"lng":114.15924668312073,"neighborhood":"中西区","city_fetched":"Hong Kong,China","state":"中西區","country":"香港","canonicalUrl":"https://foursquare.com/v/sevva/4b3cee31f964a520d48925e3","categoryId":"4bf58dd8d48988d121941735","category":"Lounge","checkinsCount":7177,"usersCount":4110,"tipCount":153,"visitsCount":7291,"url":"http://www.sevva.hk","tier":"","message":"","currency":"","rating":8.1},{"name":"Craft Brew & Co.","phone":"+85228850821","address":"17 Old Bailey St.","lat":22.281531689207306,"lng":114.1534960269928,"neighborhood":"中区","city_fetched":"Hong Kong,China","country":"香港","canonicalUrl":"https://foursquare.com/v/craft-brew--co/53a1a894498e7105f93f5f03","categoryId":"4bf58dd8d48988d117941735","category":"Beer Garden","checkinsCount":456,"usersCount":324,"tipCount":15,"visitsCount":494,"tier":"","message":"","currency":"","rating":8},{"name":"The Beer Bay","phone":"+85234817290","address":"Shop K4, Central Pier No. 3, Man Kwong St","lat":22.287855513470202,"lng":114.15754079818726,"city_fetched":"Hong Kong,China","state":"中西區","country":"香港","canonicalUrl":"https://foursquare.com/v/the-beer-bay/4b59a2f9f964a5202d9028e3","categoryId":"4bf58dd8d48988d117941735","category":"Beer Garden","checkinsCount":1756,"usersCount":583,"tipCount":21,"visitsCount":2034,"url":"http://www.thebeerbay.com.hk","tier":"","message":"","currency":"","rating":8},{"name":"Midnight & Co.","phone":"+85221472012","address":"Lower Basement, Harilela House, 79 Wyndham St","lat":22.281869231794307,"lng":114.15483713150024,"neighborhood":"中西区","city_fetched":"Hong Kong,China","state":"中西區","country":"香港","canonicalUrl":"https://foursquare.com/v/midnight--co/4f8d994cc2eea2e87fd0b166","categoryId":"4bf58dd8d48988d11f941735","category":"Nightclub","checkinsCount":224,"usersCount":147,"tipCount":7,"visitsCount":224,"tier":"","message":"","currency":"","rating":8},{"name":"Chateau Zoobeetle","phone":"+85225598555","twitter":"zoobeetle","address":"38 Sai St","lat":22.2850034042545,"lng":114.14873976735747,"neighborhood":"中区","city_fetched":"Hong Kong,China","country":"香港","canonicalUrl":"https://foursquare.com/v/chateau-zoobeetle/5516841d498ef09f78c2d18c","categoryId":"4bf58dd8d48988d123941735","category":"Wine Bar","checkinsCount":66,"usersCount":24,"tipCount":4,"visitsCount":68,"tier":"","message":"","currency":"","rating":8},{"name":"Angel's Share","phone":"+85228058388","address":"2/F, Amber Lodge, 23 Hollywood Rd","lat":22.2820517,"lng":114.1540252,"neighborhood":"中区","city_fetched":"Hong Kong,China","state":"中西區","country":"香港","canonicalUrl":"https://foursquare.com/v/angels-share/4cfdc26cc6cca35d08a19832","categoryId":"4bf58dd8d48988d122941735","category":"Whisky Bar","checkinsCount":1786,"usersCount":968,"tipCount":24,"visitsCount":1809,"tier":"","message":"","currency":"","rating":8},{"name":"Farmar","phone":"+85236564567","address":"Shop G4, G/F, Sincere Western House, 34-42 Davis St","lat":22.281613139320562,"lng":114.12711812847499,"neighborhood":"坚尼地城","city_fetched":"Hong Kong,China","country":"香港","canonicalUrl":"https://foursquare.com/v/farmar/56028d9f498efa5e4657c7b6","categoryId":"4bf58dd8d48988d116941735","category":"Bar","checkinsCount":78,"usersCount":55,"tipCount":6,"visitsCount":84,"tier":"","message":"","currency":"","rating":7.9},{"name":"Tastings Wine Bar","phone":"+85225236282","address":"B/F, Yuen Yick Bldg, 27-29 Wellington St","lat":22.281814427796096,"lng":114.15555001860419,"neighborhood":"中区","city_fetched":"Hong Kong,China","state":"中西區","country":"香港","canonicalUrl":"https://foursquare.com/v/tastings-wine-bar/4d70b77222e759416fdd4837","categoryId":"4bf58dd8d48988d123941735","category":"Wine Bar","checkinsCount":640,"usersCount":413,"tipCount":12,"visitsCount":640,"tier":"","message":"","currency":"","rating":7.9},{"name":"The Lounge","phone":"+85231968888","twitter":"fourseasons","address":"Four Seasons Hotel, 8 Finance St","lat":22.286801364295872,"lng":114.15676923417448,"neighborhood":"中西区","city_fetched":"Hong Kong,China","state":"中西區","country":"香港","canonicalUrl":"https://foursquare.com/v/the-lounge/4c0b093c009a0f470f90eabf","categoryId":"4bf58dd8d48988d1d5941735","category":"Hotel Bar","checkinsCount":1496,"usersCount":836,"tipCount":23,"visitsCount":1497,"url":"http://www.fourseasons.com/hongkong/","tier":"","message":"","currency":"","rating":7.9},{"name":"oma","address":"Lower Basement, Herilela House, 79 Wyham St","lat":22.281967840055547,"lng":114.154650119254,"city_fetched":"Hong Kong,China","country":"香港","canonicalUrl":"https://foursquare.com/v/oma/5494768a498ea9800f3d076f","categoryId":"4bf58dd8d48988d11f941735","category":"Nightclub","checkinsCount":101,"usersCount":61,"tipCount":0,"visitsCount":101,"tier":"","message":"","currency":"","rating":7.9},{"name":"The Woods","address":"17-19 Hollywood Rd","lat":22.281981942632196,"lng":114.15415662528929,"neighborhood":"中区","city_fetched":"Hong Kong,China","state":"中西區","country":"香港","canonicalUrl":"https://foursquare.com/v/the-woods/532684af498e0715a2462487","categoryId":"4bf58dd8d48988d11e941735","category":"Cocktail Bar","checkinsCount":1179,"usersCount":731,"tipCount":33,"visitsCount":1242,"tier":"","message":"","currency":"","rating":7.9},{"name":"King's Belly","lat":22.447382,"lng":114.168889,"neighborhood":"大埔","city_fetched":"Hong Kong,China","country":"香港","canonicalUrl":"https://foursquare.com/v/kings-belly/4c12389577cea593b298cc60","categoryId":"4bf58dd8d48988d11b941735","category":"Pub","checkinsCount":291,"usersCount":138,"tipCount":12,"visitsCount":345,"tier":"","message":"","currency":"","rating":7.9},{"name":"ThePontiac","phone":"+85225212033","twitter":"wearethepontiac","address":"13 Old Bailey Street","lat":22.281574541377577,"lng":114.15379085882118,"neighborhood":"中西区","city_fetched":"Hong Kong,China","country":"香港","canonicalUrl":"https://foursquare.com/v/thepontiac/555328d3498efed437e45886","categoryId":"4bf58dd8d48988d11e941735","category":"Cocktail Bar","checkinsCount":222,"usersCount":139,"tipCount":6,"visitsCount":226,"tier":"","message":"","currency":"","rating":7.9},{"name":"Sahara Mezz Bar","phone":"+85222916060","address":"11 Elgin St.","lat":22.282866963206697,"lng":114.15243655443192,"neighborhood":"中区","city_fetched":"Hong Kong,China","state":"中西區","country":"香港","canonicalUrl":"https://foursquare.com/v/sahara-mezz-bar/4b6d9576f964a5201a7e2ce3","categoryId":"4bf58dd8d48988d121941735","category":"Lounge","checkinsCount":1718,"usersCount":932,"tipCount":23,"visitsCount":1806,"url":"http://sahara-hk.com","tier":"","message":"","currency":"","rating":7.9},{"name":"Sense99","phone":"+85294664695","address":"2/F, 99 Wellington St","lat":22.28405425117821,"lng":114.15399986826831,"neighborhood":"中区","city_fetched":"Hong Kong,China","country":"香港","canonicalUrl":"https://foursquare.com/v/sense99/51d83240498ea1a3fada5c7a","categoryId":"4bf58dd8d48988d116941735","category":"Bar","checkinsCount":216,"usersCount":150,"tipCount":7,"visitsCount":218,"url":"http://www.sense99.com","tier":"","message":"","currency":"","rating":7.9},{"name":"Little Beer Room","phone":"+85227994899","twitter":"thebottleshophk","address":"Shop 1, 15 Bridges St","lat":22.283480966318113,"lng":114.15083568697209,"neighborhood":"中区","city_fetched":"Hong Kong,China","country":"香港","canonicalUrl":"https://foursquare.com/v/little-beer-room/5614d56a498ecc740ff6f76a","categoryId":"4bf58dd8d48988d116941735","category":"Bar","checkinsCount":191,"usersCount":132,"tipCount":5,"visitsCount":201,"tier":"","message":"","currency":"","rating":7.9},{"name":"Smugglers Inn","phone":"+85228138852","address":"90A Stanley Main St","lat":22.218527,"lng":114.211224,"neighborhood":"斯坦利","city_fetched":"Hong Kong,China","state":"Southern","country":"香港","canonicalUrl":"https://foursquare.com/v/smugglers-inn/4b0588cff964a52014db22e3","categoryId":"4bf58dd8d48988d116941735","category":"Bar","checkinsCount":711,"usersCount":413,"tipCount":8,"visitsCount":747,"tier":"","message":"","currency":"","rating":7.8},{"name":"WOFT Craft Beer","phone":"+85221161786","address":"Yim Po Fong Street, 7-8D","lat":22.31813056129905,"lng":114.17335023335649,"neighborhood":"旺角","city_fetched":"Hong Kong,China","country":"香港","canonicalUrl":"https://foursquare.com/v/woft-craft-beer/56362d97498e8f8d6ccf5510","categoryId":"4bf58dd8d48988d117941735","category":"Beer Garden","checkinsCount":46,"usersCount":52,"tipCount":2,"visitsCount":56,"tier":"","message":"","currency":"","rating":7.8},{"name":"K-Pocha","phone":"+85227700611","address":"7/F, Ho Lee Commercial Building","lat":22.281069939386214,"lng":114.15530036928948,"neighborhood":"中西区","city_fetched":"Hong Kong,China","state":"中西區","country":"香港","canonicalUrl":"https://foursquare.com/v/kpocha/55eb157d498e74a5badaad5f","categoryId":"4bf58dd8d48988d116941735","category":"Bar","checkinsCount":97,"usersCount":70,"tipCount":3,"visitsCount":101,"tier":"","message":"","currency":"","rating":7.8},{"name":"The Black Star","twitter":"theblackstar_hk","address":"81 Wing Lok St","lat":22.286072363262,"lng":114.15214780891652,"neighborhood":"中西区","city_fetched":"Hong Kong,China","state":"Hong Kong","country":"香港","canonicalUrl":"https://foursquare.com/v/the-black-star/523866a8498ef04b80c6a44c","categoryId":"4bf58dd8d48988d11e941735","category":"Cocktail Bar","checkinsCount":312,"usersCount":189,"tipCount":12,"visitsCount":330,"url":"http://www.theblackstar.hk","tier":"","message":"","currency":"","rating":7.8},{"name":"Executive Lounge","address":"Conrad Hong Kong, 88 Queensway","lat":22.2773038521135,"lng":114.16506561698111,"neighborhood":"中西区","city_fetched":"Hong Kong,China","state":"中西區","country":"香港","canonicalUrl":"https://foursquare.com/v/executive-lounge/4bc030b4461576b059e37932","categoryId":"4bf58dd8d48988d1d5941735","category":"Hotel Bar","checkinsCount":1084,"usersCount":393,"tipCount":8,"visitsCount":1090,"tier":"","message":"","currency":"","rating":7.8},{"name":"The Envoy","address":"3/F, The Pottinger Hong Kong, 74 Queen's Rd C","lat":22.283162531854245,"lng":114.15540487367082,"neighborhood":"中区","city_fetched":"Hong Kong,China","state":"中西區","country":"香港","canonicalUrl":"https://foursquare.com/v/the-envoy/537c8948498e3e9c9b80a348","categoryId":"4bf58dd8d48988d11e941735","category":"Cocktail Bar","checkinsCount":992,"usersCount":638,"tipCount":27,"visitsCount":1066,"tier":"","message":"","currency":"","rating":7.8},{"name":"OZU","address":"Shop 6, 1-13 Hollywood Rd","lat":22.28189732478481,"lng":114.15421468343118,"neighborhood":"中区","city_fetched":"Hong Kong,China","country":"香港","canonicalUrl":"https://foursquare.com/v/ozu/52ff6780498e2a3d2c068cd4","categoryId":"4bf58dd8d48988d11c941735","category":"Sake Bar","checkinsCount":543,"usersCount":340,"tipCount":14,"visitsCount":557,"tier":"","message":"","currency":"","rating":7.8},{"name":"California Vintage","phone":"+85225114028","twitter":"cvwinebar","address":"Shop 10, Causeway Centre, 28 Harbour Rd","lat":22.280524167331304,"lng":114.17669422513326,"city_fetched":"Hong Kong,China","state":"灣仔區","country":"香港","canonicalUrl":"https://foursquare.com/cvwinebar","categoryId":"4bf58dd8d48988d123941735","category":"Wine Bar","checkinsCount":512,"usersCount":279,"tipCount":9,"visitsCount":514,"url":"http://www.cvwanchai.com","tier":"","message":"","currency":"","rating":7.8},{"name":"Oyster & Wine Bar 蠔酒吧","phone":"+85223691111","twitter":"spg","address":"18/F, Sheraton Hong Kong Hotel & Towers, 20 Nathan Rd","lat":22.29479481136133,"lng":114.17325734433452,"neighborhood":"尖沙咀","city_fetched":"Hong Kong,China","state":"Kowloon City","country":"香港","canonicalUrl":"https://foursquare.com/v/oyster--wine-bar-%E8%A0%94%E9%85%92%E5%90%A7/4c4b0163959220a1d0b5f00e","categoryId":"4bf58dd8d48988d123941735","category":"Wine Bar","checkinsCount":1360,"usersCount":602,"tipCount":17,"visitsCount":1361,"url":"http://www.spg.com/foursquare/","tier":"","message":"","currency":"","rating":7.8},{"name":"Vibes","phone":"+85223155999","address":"5/F, The Mira Hong Kong, 118 Nathan Rd","lat":22.300039,"lng":114.172287,"neighborhood":"尖沙咀","city_fetched":"Hong Kong,China","state":"Kowloon City","country":"香港","canonicalUrl":"https://foursquare.com/v/vibes/4c8e445a58668cfa8d7bd0ec","categoryId":"4bf58dd8d48988d121941735","category":"Lounge","checkinsCount":1547,"usersCount":932,"tipCount":36,"visitsCount":1586,"tier":"","message":"","currency":"","rating":7.7},{"name":"Ben's Back Beach Bar","lat":22.231178283691406,"lng":114.25207,"city_fetched":"Hong Kong,China","country":"香港","canonicalUrl":"https://foursquare.com/v/bens-back-beach-bar/4ba46e55f964a520ea9c38e3","categoryId":"4bf58dd8d48988d116941735","category":"Bar","checkinsCount":200,"usersCount":151,"tipCount":5,"visitsCount":218,"tier":"","message":"","currency":"","rating":7.7},{"name":"Bar Buonasera","address":"7/F, Mody House, 30 Mody Rd","lat":22.297663557813465,"lng":114.17415140036007,"neighborhood":"尖沙咀","city_fetched":"Hong Kong,China","state":"Kowloon City","country":"香港","canonicalUrl":"https://foursquare.com/v/bar-buonasera/50f80af4e4b083eac26d3381","categoryId":"4bf58dd8d48988d11e941735","category":"Cocktail Bar","checkinsCount":138,"usersCount":80,"tipCount":8,"visitsCount":139,"tier":"","message":"","currency":"","rating":7.7},{"name":"The Grand Club 嘉賓軒","phone":"+85225881234","address":"Grand Hyatt Hong Kong, 1 Harbour Rd","lat":22.281517492018807,"lng":114.17238070322792,"city_fetched":"Hong Kong,China","state":"灣仔區","country":"香港","canonicalUrl":"https://foursquare.com/v/the-grand-club-%E5%98%89%E8%B3%93%E8%BB%92/4d8ede68d00a6ea87ecfc34f","categoryId":"4bf58dd8d48988d1d5941735","category":"Hotel Bar","checkinsCount":607,"usersCount":260,"tipCount":3,"visitsCount":607,"tier":"","message":"","currency":"","rating":7.7},{"name":"The Lounge","phone":"+85228108366","address":"Lobby, JW Marriott Hong Kong, 88 Queensway","lat":22.27797865591337,"lng":114.16644155910036,"neighborhood":"中西区","city_fetched":"Hong Kong,China","state":"中西區","country":"香港","canonicalUrl":"https://foursquare.com/v/the-lounge/4c8da949ad70a143de48830f","categoryId":"4bf58dd8d48988d121941735","category":"Lounge","checkinsCount":558,"usersCount":353,"tipCount":4,"visitsCount":563,"tier":"","message":"","currency":"","rating":7.7},{"name":"Club 71","phone":"+85228587071","address":"67 Hollywood Rd","lat":22.283334756800407,"lng":114.15296643171165,"neighborhood":"中区","city_fetched":"Hong Kong,China","state":"中西區","country":"香港","canonicalUrl":"https://foursquare.com/v/club-71/4b4c99fcf964a52046b726e3","categoryId":"4bf58dd8d48988d116941735","category":"Bar","checkinsCount":972,"usersCount":454,"tipCount":19,"visitsCount":1015,"tier":"","message":"","currency":"","rating":7.7},{"name":"Soiree","lat":22.282593,"lng":114.152451,"neighborhood":"中区","city_fetched":"Hong Kong,China","country":"香港","canonicalUrl":"https://foursquare.com/v/soiree/4b9bb6f0f964a520091d36e3","categoryId":"4bf58dd8d48988d121941735","category":"Lounge","checkinsCount":569,"usersCount":320,"tipCount":15,"visitsCount":574,"tier":"","message":"","currency":"","rating":7.7},{"name":"De België","phone":"+85228698388","twitter":"de_belgie","address":"21 Elgin St","lat":22.282226111990752,"lng":114.15229876075077,"neighborhood":"中区","city_fetched":"Hong Kong,China","state":"中西區","country":"香港","canonicalUrl":"https://foursquare.com/v/de-belgi%C3%AB/522b13c911d27ece1cfa0744","categoryId":"4bf58dd8d48988d116941735","category":"Bar","checkinsCount":585,"usersCount":416,"tipCount":20,"visitsCount":609,"url":"http://www.belgie-group.com","tier":"","message":"","currency":"","rating":7.7},{"name":"Varga","phone":"+85221049697","address":"36 Staunton S","lat":22.28250124917172,"lng":114.15238584832416,"neighborhood":"中区","city_fetched":"Hong Kong,China","state":"中西區","country":"香港","canonicalUrl":"https://foursquare.com/v/varga/4c07afaf8b4520a10c418797","categoryId":"4bf58dd8d48988d121941735","category":"Lounge","checkinsCount":850,"usersCount":422,"tipCount":17,"visitsCount":853,"url":"http://vargaloungehk.com","tier":"","message":"","currency":"","rating":7.7},{"name":"My House","phone":"+85223231715","address":"26/F, QRE Plaza, 202 Queen’s Rd E","lat":22.27468780823957,"lng":114.17225878611508,"neighborhood":"跑马地","city_fetched":"Hong Kong,China","country":"香港","canonicalUrl":"https://foursquare.com/v/my-house/56508275498ef83b9e424aa9","categoryId":"4bf58dd8d48988d11a941735","category":"Other Nightlife","checkinsCount":171,"usersCount":126,"tipCount":12,"visitsCount":177,"url":"http://www.myhousehk.com","tier":"","message":"","currency":"","rating":7.7},{"name":"Jaa Bar","phone":"+85228158887","address":"1 Pak Tsz Ln.","lat":22.283373271946537,"lng":114.15307223796844,"neighborhood":"中区","city_fetched":"Hong Kong,China","state":"中西區","country":"香港","canonicalUrl":"https://foursquare.com/v/jaa-bar/4d9c5ad15c33a35df6b9e7a0","categoryId":"4bf58dd8d48988d1d4941735","category":"Speakeasy","checkinsCount":393,"usersCount":229,"tipCount":14,"visitsCount":398,"tier":"","message":"","currency":"","rating":7.7},{"name":"Drop","phone":"+85225438856","address":"B/F, On Lok Mansion, 39-43 Hollywood Rd","lat":22.28223960276017,"lng":114.15377924718234,"neighborhood":"中区","city_fetched":"Hong Kong,China","state":"中西區","country":"香港","canonicalUrl":"https://foursquare.com/v/drop/4b0588d0f964a52050db22e3","categoryId":"4bf58dd8d48988d11f941735","category":"Nightclub","checkinsCount":1263,"usersCount":742,"tipCount":16,"visitsCount":1287,"url":"http://www.drophk.com","tier":"","message":"","currency":"","rating":7.7},{"name":"Nocturne","address":"35 Peel Street","lat":22.283231715434706,"lng":114.1532741406001,"neighborhood":"中区","city_fetched":"Hong Kong,China","state":"中西區","country":"香港","canonicalUrl":"https://foursquare.com/v/nocturne/52bee77b498e5a2af9d45a44","categoryId":"4bf58dd8d48988d122941735","category":"Whisky Bar","checkinsCount":404,"usersCount":250,"tipCount":13,"visitsCount":410,"url":"http://www.nocturnehk.com","tier":"","message":"","currency":"","rating":7.7},{"name":"Graffiti","address":"Lan Kwai Fong","lat":22.280858015092385,"lng":114.15549196063652,"neighborhood":"中西区","city_fetched":"Hong Kong,China","state":"中西區","country":"香港","canonicalUrl":"https://foursquare.com/v/graffiti/4dbdae17a86e0e98a200c304","categoryId":"4bf58dd8d48988d116941735","category":"Bar","checkinsCount":1121,"usersCount":869,"tipCount":17,"visitsCount":1126,"tier":"","message":"","currency":"","rating":7.6},{"name":"Salon No. 10","phone":"+85228016768","address":"10 Arbuthnot Rd","lat":22.280119461690806,"lng":114.15442949849034,"neighborhood":"中西区","city_fetched":"Hong Kong,China","state":"中西區","country":"香港","canonicalUrl":"https://foursquare.com/v/salon-no-10/4d1f328e2eb1f04d7983e6c1","categoryId":"4bf58dd8d48988d116941735","category":"Bar","checkinsCount":510,"usersCount":366,"tipCount":19,"visitsCount":522,"tier":3,"message":"Expensive","currency":"$","rating":7.6},{"name":"MASS Bar & Restaurant","phone":"+85237551698","address":"Shop 1, G/F, The Vela Hong Kong Causeway Bay Hotel, 84-86 Morrison Hill Rd","lat":22.275687618184957,"lng":114.17988724918146,"city_fetched":"Hong Kong,China","state":"灣仔區","country":"香港","canonicalUrl":"https://foursquare.com/v/mass-bar--restaurant/54413ee9498e5472ad7793d1","categoryId":"4bf58dd8d48988d116941735","category":"Bar","checkinsCount":147,"usersCount":79,"tipCount":6,"visitsCount":173,"tier":"","message":"","currency":"","rating":7.6},{"name":"Yu Club","phone":"+85228681833","address":"13/F, Luk Yu Bldg, 24-26 Stanley St","lat":22.282425863985303,"lng":114.15552679541803,"neighborhood":"中区","city_fetched":"Hong Kong,China","state":"中西區","country":"香港","canonicalUrl":"https://foursquare.com/v/yu-club/4b0d0472f964a5203c4323e3","categoryId":"4bf58dd8d48988d116941735","category":"Bar","checkinsCount":1021,"usersCount":445,"tipCount":11,"visitsCount":1030,"tier":"","message":"","currency":"","rating":7.6},{"name":"Ned Kelly's Last Stand","phone":"+85223760562","address":"11A Ashley Rd","lat":22.296874,"lng":114.170555,"neighborhood":"尖沙咀","city_fetched":"Hong Kong,China","state":"Kowloon City","country":"香港","canonicalUrl":"https://foursquare.com/v/ned-kellys-last-stand/4b0588cdf964a520c6da22e3","categoryId":"4bf58dd8d48988d11b941735","category":"Pub","checkinsCount":1252,"usersCount":878,"tipCount":39,"visitsCount":1282,"tier":"","message":"","currency":"","rating":7.6},{"name":"Le Tambour","address":"52A Peel St","lat":22.282422052206005,"lng":114.15261227593531,"neighborhood":"中区","city_fetched":"Hong Kong,China","state":"中西區","country":"香港","canonicalUrl":"https://foursquare.com/v/le-tambour/4ef5fb7593ad7cf2e93dd7e9","categoryId":"4bf58dd8d48988d123941735","category":"Wine Bar","checkinsCount":160,"usersCount":103,"tipCount":4,"visitsCount":160,"tier":"","message":"","currency":"","rating":7.6},{"name":"Lion Rock","phone":"+85226226167","address":"3/F, Royal Plaza Hotel, 193 Prince Edward Rd W","lat":22.32487712369635,"lng":114.17353020578093,"city_fetched":"Hong Kong,China","country":"香港","canonicalUrl":"https://foursquare.com/v/lion-rock/5084f49d498e54db9f14eacd","categoryId":"4bf58dd8d48988d1d5941735","category":"Hotel Bar","checkinsCount":242,"usersCount":188,"tipCount":6,"visitsCount":243,"tier":"","message":"","currency":"","rating":7.6},{"name":"Guay","phone":"+85226188782","address":"G/F, 9A Sun Chun Street, Tai Hang, Hong Kong","lat":22.27849,"lng":114.192279,"neighborhood":"大坑","city_fetched":"Hong Kong,China","country":"香港","canonicalUrl":"https://foursquare.com/v/guay/5336ebce498e6ecd92b51ada","categoryId":"4bf58dd8d48988d121941735","category":"Lounge","checkinsCount":367,"usersCount":139,"tipCount":6,"visitsCount":380,"tier":"","message":"","currency":"","rating":7.6},{"name":"何蘭正","address":"G/F, 65-65A Peel St","lat":22.28221968772442,"lng":114.15236843081085,"neighborhood":"中西区","city_fetched":"Hong Kong,China","state":"中西區","country":"香港","canonicalUrl":"https://foursquare.com/v/%E4%BD%95%E8%98%AD%E6%AD%A3/56d2d8a6498ec38d45fab245","categoryId":"4bf58dd8d48988d1d4941735","category":"Speakeasy","checkinsCount":209,"usersCount":169,"tipCount":9,"visitsCount":215,"tier":"","message":"","currency":"","rating":7.6},{"name":"Volume: BEAT","phone":"+85228577683","address":"62 Jervois St","lat":22.285139928401993,"lng":114.15174139987779,"neighborhood":"中西区","city_fetched":"Hong Kong,China","country":"香港","canonicalUrl":"https://foursquare.com/v/volume-beat/4eb52c99823131626f1f36f9","categoryId":"4bf58dd8d48988d1d8941735","category":"Gay Bar","checkinsCount":1121,"usersCount":483,"tipCount":7,"visitsCount":1164,"tier":"","message":"","currency":"","rating":7.6},{"name":"Delaney's","phone":"+85223013980","address":"Mary Bldg, 71-77 Peking Rd","lat":22.29660779883141,"lng":114.17171306148349,"neighborhood":"尖沙咀","city_fetched":"Hong Kong,China","state":"Kowloon City","country":"香港","canonicalUrl":"https://foursquare.com/v/delaneys/4b9a5827f964a520acad35e3","categoryId":"4bf58dd8d48988d11b941735","category":"Pub","checkinsCount":1709,"usersCount":1044,"tipCount":26,"visitsCount":1762,"url":"http://www.delaneys.com.hk","tier":"","message":"","currency":"","rating":7.5},{"name":"Mella","phone":"+85297200053","address":"1/F, 17 Lan Kwai Fong","lat":22.280794408126887,"lng":114.15552679541804,"neighborhood":"中西区","city_fetched":"Hong Kong,China","state":"中西區","country":"香港","canonicalUrl":"https://foursquare.com/v/mella/4fa9cf6ee4b06439cc316dc3","categoryId":"4bf58dd8d48988d11f941735","category":"Nightclub","checkinsCount":385,"usersCount":205,"tipCount":3,"visitsCount":385,"url":"http://www.mella.hk","tier":"","message":"","currency":"","rating":7.5},{"name":"Wyndham The 4th","address":"4/F, Winning Centre, 48 Wyndham St","lat":22.28035698958006,"lng":114.15503330242561,"neighborhood":"中西区","city_fetched":"Hong Kong,China","state":"中西區","country":"香港","canonicalUrl":"https://foursquare.com/v/wyndham-the-4th/4f0ea45ce4b0d2af730ff16a","categoryId":"4bf58dd8d48988d11e941735","category":"Cocktail Bar","checkinsCount":722,"usersCount":387,"tipCount":9,"visitsCount":727,"tier":"","message":"","currency":"","rating":7.5},{"name":"Topiary","phone":"+85228666485","address":"3/F, Hilltop Plaza, 49-51 Hollywood Road, Central","lat":22.282570520810246,"lng":114.15328575225212,"neighborhood":"中区","city_fetched":"Hong Kong,China","country":"香港","canonicalUrl":"https://foursquare.com/v/topiary/53ed97ae498e6ff5ac57324c","categoryId":"4bf58dd8d48988d116941735","category":"Bar","checkinsCount":288,"usersCount":191,"tipCount":4,"visitsCount":293,"tier":"","message":"","currency":"","rating":7.5},{"name":"Insomnia","phone":"+85225250957","address":"44 D'Aguilar St","lat":22.280968754809333,"lng":114.15554421280777,"neighborhood":"中西区","city_fetched":"Hong Kong,China","state":"中西區","country":"香港","canonicalUrl":"https://foursquare.com/v/insomnia/4b0588cef964a520f2da22e3","categoryId":"4bf58dd8d48988d116941735","category":"Bar","checkinsCount":2949,"usersCount":1669,"tipCount":31,"visitsCount":2975,"tier":"","message":"","currency":"","rating":7.5},{"name":"Club Feather Boa","phone":"+85228572586","address":"38 Staunton St","lat":22.28241525484227,"lng":114.15215492248535,"neighborhood":"中区","city_fetched":"Hong Kong,China","state":"中西區","country":"香港","canonicalUrl":"https://foursquare.com/v/club-feather-boa/4b228433f964a520264824e3","categoryId":"4bf58dd8d48988d121941735","category":"Lounge","checkinsCount":753,"usersCount":501,"tipCount":28,"visitsCount":757,"tier":"","message":"","currency":"","rating":7.5},{"name":"Club Lounge Hyatt Regency","address":"Hyatt Regency Hong Kong, 18 Chak Cheung St","lat":22.411747,"lng":114.211482,"neighborhood":"沙田区","city_fetched":"Hong Kong,China","state":"沙田區","country":"香港","canonicalUrl":"https://foursquare.com/v/club-lounge-hyatt-regency/4ccf5d906449a093d276c4cf","categoryId":"4bf58dd8d48988d1d5941735","category":"Hotel Bar","checkinsCount":648,"usersCount":183,"tipCount":5,"visitsCount":652,"tier":"","message":"","currency":"","rating":7.5},{"name":"Ruggers","phone":"+85227777638","address":"G/F, 6 Yiu Wa Street","lat":22.277526332086833,"lng":114.18231973743022,"city_fetched":"Hong Kong,China","country":"香港","canonicalUrl":"https://foursquare.com/v/ruggers/4d16027b81cea35d0a21deec","categoryId":"4bf58dd8d48988d123941735","category":"Wine Bar","checkinsCount":853,"usersCount":349,"tipCount":8,"visitsCount":866,"tier":"","message":"","currency":"","rating":7.4},{"name":"Malty","address":"G/F, 166 Tung Lo Wan Rd","lat":22.281497311668055,"lng":114.19185217508013,"neighborhood":"铜锣湾","city_fetched":"Hong Kong,China","country":"香港","canonicalUrl":"https://foursquare.com/v/malty/4ff09547e4b0cf9880f37449","categoryId":"4bf58dd8d48988d116941735","category":"Bar","checkinsCount":316,"usersCount":154,"tipCount":3,"visitsCount":319,"tier":"","message":"","currency":"","rating":7.4},{"name":"Hong Kong Café","address":"Luard Rd","lat":22.278803870429762,"lng":114.17224136938191,"city_fetched":"Hong Kong,China","state":"灣仔區","country":"香港","canonicalUrl":"https://foursquare.com/v/hong-kong-caf%C3%A9/51fa94c5498e4f3efa54c578","categoryId":"4bf58dd8d48988d116941735","category":"Bar","checkinsCount":256,"usersCount":106,"tipCount":3,"visitsCount":262,"tier":"","message":"","currency":"","rating":7.4},{"name":"Dada Bar + Lounge","phone":"+85237638778","twitter":"dadalounge","address":"2/F, The Luxe Manor, 39 Kimberley Rd","lat":22.300718849946733,"lng":114.1740991503824,"neighborhood":"尖沙咀","city_fetched":"Hong Kong,China","state":"Kowloon City","country":"香港","canonicalUrl":"https://foursquare.com/v/dada-bar--lounge/4bc5d14b5935c9b61765a6d2","categoryId":"4bf58dd8d48988d121941735","category":"Lounge","checkinsCount":499,"usersCount":321,"tipCount":9,"visitsCount":499,"url":"http://www.dadalounge.com.hk","tier":"","message":"","currency":"","rating":7.4},{"name":"The Swiss Chalet 瑞士餐廳","phone":"+85221919197","address":"12-14 Hart Ave","lat":22.29792,"lng":114.174891,"neighborhood":"尖沙咀","city_fetched":"Hong Kong,China","state":"Kowloon City","country":"香港","canonicalUrl":"https://foursquare.com/v/the-swiss-chalet-%E7%91%9E%E5%A3%AB%E9%A4%90%E5%BB%B3/4b0588cff964a5201bdb22e3","categoryId":"4bf58dd8d48988d123941735","category":"Wine Bar","checkinsCount":405,"usersCount":335,"tipCount":13,"visitsCount":407,"tier":"","message":"","currency":"","rating":7.4},{"name":"Alibi","phone":"+85235523232","address":"Level 5, Cordis, Hong Kong, 555 Shanghai St","lat":22.318085792554147,"lng":114.16816234588623,"city_fetched":"Hong Kong,China","country":"香港","canonicalUrl":"https://foursquare.com/v/alibi/4b94a264f964a520477f34e3","categoryId":"4bf58dd8d48988d1d5941735","category":"Hotel Bar","checkinsCount":709,"usersCount":404,"tipCount":15,"visitsCount":713,"url":"http://hongkong.langhamplacehotels.com/restaurants/portal_work_play.htm","tier":"","message":"","currency":"","rating":7.4},{"name":"Ori-gin","phone":"+85226685583","address":"48 Wyndham St","lat":22.280417886740665,"lng":114.15499266180184,"neighborhood":"中西区","city_fetched":"Hong Kong,China","state":"中西區","country":"香港","canonicalUrl":"https://foursquare.com/v/origin/511cdf07e4b0bc47d8acbb01","categoryId":"4bf58dd8d48988d11e941735","category":"Cocktail Bar","checkinsCount":1405,"usersCount":877,"tipCount":32,"visitsCount":1435,"tier":"","message":"","currency":"","rating":7.4},{"name":"Neo","phone":"+85228122280","address":"10 Shin Hing St","lat":22.283983046770935,"lng":114.152252314038,"neighborhood":"中西区","city_fetched":"Hong Kong,China","state":"Hong Kong","country":"香港","canonicalUrl":"https://foursquare.com/v/neo/5572de52498ef4e26c277f0c","categoryId":"4bf58dd8d48988d11e941735","category":"Cocktail Bar","checkinsCount":145,"usersCount":119,"tipCount":4,"visitsCount":148,"tier":"","message":"","currency":"","rating":7.4},{"name":"Mizunara: The Library","phone":"+85235719797","address":"4F, Kiu Yin Commercial Bldg, 361-363 Lockhart Rd.","lat":22.279253255432952,"lng":114.17915403842925,"neighborhood":"Wanchai","city_fetched":"Hong Kong,China","country":"香港","canonicalUrl":"https://foursquare.com/v/mizunara-the-library/54f6e1f4498ef86fc735171d","categoryId":"4bf58dd8d48988d122941735","category":"Whisky Bar","checkinsCount":148,"usersCount":88,"tipCount":4,"visitsCount":159,"url":"http://www.mizunarathelibrary.com","tier":"","message":"","currency":"","rating":7.4},{"name":"Sapphire","address":"33 Pottinger Street, Central","lat":22.282311084495344,"lng":114.15493460376146,"neighborhood":"中区","city_fetched":"Hong Kong,China","country":"香港","canonicalUrl":"https://foursquare.com/v/sapphire/4b6d97adf964a520a27e2ce3","categoryId":"4bf58dd8d48988d116941735","category":"Bar","checkinsCount":282,"usersCount":139,"tipCount":4,"visitsCount":282,"tier":"","message":"","currency":"","rating":7.4},{"name":"Armani / Privé","phone":"+85235832828","address":"2/F, Chater House, 8 Connaught Rd C","lat":22.281843763860937,"lng":114.15822067692275,"neighborhood":"中西区","city_fetched":"Hong Kong,China","state":"中西區","country":"香港","canonicalUrl":"https://foursquare.com/v/armani--priv%C3%A9/4e54fec61495ac3f023ad5d0","categoryId":"4bf58dd8d48988d11f941735","category":"Nightclub","checkinsCount":2925,"usersCount":1869,"tipCount":24,"visitsCount":3024,"tier":"","message":"","currency":"","rating":7.4},{"name":"Premium Sofa Club","phone":"+85291751402","address":"212 Wing Lok Street","lat":22.287798963115662,"lng":114.14807789595893,"neighborhood":"中区","city_fetched":"Hong Kong,China","country":"香港","canonicalUrl":"https://foursquare.com/v/premium-sofa-club/53120063498ec90f0c8f2053","categoryId":"4bf58dd8d48988d11f941735","category":"Nightclub","checkinsCount":87,"usersCount":68,"tipCount":5,"visitsCount":88,"tier":"","message":"","currency":"","rating":7.3},{"name":"Boom","phone":"+85293026220","address":"48 Sai St","lat":22.285024203279686,"lng":114.14878040855169,"neighborhood":"中西区","city_fetched":"Hong Kong,China","country":"香港","canonicalUrl":"https://foursquare.com/v/boom/4fbf8333e4b00e3f5b61ef08","categoryId":"4bf58dd8d48988d116941735","category":"Bar","checkinsCount":307,"usersCount":123,"tipCount":4,"visitsCount":311,"tier":"","message":"","currency":"","rating":7.3},{"name":"Amuse","phone":"+85223171988","address":"G/F, Austin Commercial Centre, 4 Austin Ave, Tsim Sha Tsui","lat":22.30222233180101,"lng":114.17629944964514,"neighborhood":"尖沙咀","city_fetched":"Hong Kong,China","country":"香港","canonicalUrl":"https://foursquare.com/v/amuse/51729b0ee4b07d59cc198d53","categoryId":"4bf58dd8d48988d116941735","category":"Bar","checkinsCount":119,"usersCount":71,"tipCount":1,"visitsCount":119,"tier":"","message":"","currency":"","rating":7.3},{"name":"Baby Buddha","phone":"+85221677244","address":"18 Wo On Ln","lat":22.281844,"lng":114.155154,"neighborhood":"中西区","city_fetched":"Hong Kong,China","state":"中西區","country":"香港","canonicalUrl":"https://foursquare.com/v/baby-buddha/4b780e4bf964a520c5b32ee3","categoryId":"4bf58dd8d48988d116941735","category":"Bar","checkinsCount":451,"usersCount":289,"tipCount":5,"visitsCount":457,"tier":"","message":"","currency":"","rating":7.3},{"name":"WOOBAR","phone":"+85237172222","twitter":"spg","address":"6/F, W Hong Kong, 1 Austin Rd W","lat":22.304411008141116,"lng":114.1604094436213,"neighborhood":"西区海底隧道","city_fetched":"Hong Kong,China","country":"香港","canonicalUrl":"https://foursquare.com/v/woobar/4baf05c0f964a5206be73be3","categoryId":"4bf58dd8d48988d1d5941735","category":"Hotel Bar","checkinsCount":2495,"usersCount":1516,"tipCount":17,"visitsCount":2518,"url":"http://www.spg.com/foursquare/","tier":"","message":"","currency":"","rating":7.3},{"name":"Alfie's by Kee","phone":"+85225304422","address":"Shop M18-19, M/F, Prince's Bldg, 10 Chater Rd","lat":22.28103530156972,"lng":114.15879607200623,"neighborhood":"中西区","city_fetched":"Hong Kong,China","state":"中西區","country":"香港","canonicalUrl":"https://foursquare.com/v/alfies-by-kee/4bc555244a9aa5937a6c067b","categoryId":"4bf58dd8d48988d116941735","category":"Bar","checkinsCount":1349,"usersCount":683,"tipCount":31,"visitsCount":1375,"tier":"","message":"","currency":"","rating":7.3},{"name":"Le 188° Restaurant & Lounge","phone":"+85221212688","address":"41/F, Harbour Grand Hong Kong, 23 Oil St","lat":22.289171303067118,"lng":114.19181153784358,"city_fetched":"Hong Kong,China","country":"香港","canonicalUrl":"https://foursquare.com/v/le-188-restaurant--lounge/4bbb30037421a593ef7fc440","categoryId":"4bf58dd8d48988d1d5941735","category":"Hotel Bar","checkinsCount":659,"usersCount":495,"tipCount":15,"visitsCount":697,"tier":"","message":"","currency":"","rating":7.3},{"name":"Breaks","address":"Shop A, G/F, May Bong Mansion, 221-225 Sai Yeung Choi St N","lat":22.32754520655321,"lng":114.16813680680458,"neighborhood":"深水埗区","city_fetched":"Hong Kong,China","state":"油尖旺區","country":"香港","canonicalUrl":"https://foursquare.com/v/breaks/4bd44f8fcaff95218771d6f0","categoryId":"4bf58dd8d48988d116941735","category":"Bar","checkinsCount":273,"usersCount":124,"tipCount":4,"visitsCount":385,"tier":"","message":"","currency":"","rating":7.3},{"name":"Honi Honi Tiki Cocktail Lounge","phone":"+85223530885","address":"3/F, Somptueux Central, 52 Wellington St","lat":22.28166401918546,"lng":114.15517844748021,"neighborhood":"中西区","city_fetched":"Hong Kong,China","state":"中西區","country":"香港","canonicalUrl":"https://foursquare.com/v/honi-honi-tiki-cocktail-lounge/50a0d6b4e4b0b72b9a59b4f9","categoryId":"4bf58dd8d48988d11e941735","category":"Cocktail Bar","checkinsCount":1952,"usersCount":1236,"tipCount":46,"visitsCount":1993,"tier":"","message":"","currency":"","rating":7.3},{"name":"Club Lounge","address":"Intercontinental Grand Stanford, 70 Mody Rd","lat":22.298776315724325,"lng":114.17937056140387,"neighborhood":"尖沙咀","city_fetched":"Hong Kong,China","state":"Kowloon City","country":"香港","canonicalUrl":"https://foursquare.com/v/club-lounge/4f7c2de2e4b02cdb82c0a380","categoryId":"4bf58dd8d48988d1d5941735","category":"Hotel Bar","checkinsCount":272,"usersCount":91,"tipCount":3,"visitsCount":273,"tier":"","message":"","currency":"","rating":7.3},{"name":"Mahalo","phone":"+85224888750","address":"29/F, QRE Plaza, 202 Queen's Rd E","lat":22.274806663558532,"lng":114.17200914620764,"neighborhood":"跑马地","city_fetched":"Hong Kong,China","country":"香港","canonicalUrl":"https://foursquare.com/v/mahalo/556851be498e10d4ea3dc901","categoryId":"4bf58dd8d48988d11e941735","category":"Cocktail Bar","checkinsCount":322,"usersCount":260,"tipCount":8,"visitsCount":333,"tier":"","message":"","currency":"","rating":7.3},{"name":"Barsmith","phone":"+85226132680","twitter":"barsmithhk","address":"60 Wellington St","lat":22.281988364277538,"lng":114.15520191192627,"neighborhood":"中西区","city_fetched":"Hong Kong,China","state":"中西區","country":"香港","canonicalUrl":"https://foursquare.com/v/barsmith/51f11989498e1f109d341f7d","categoryId":"4bf58dd8d48988d11e941735","category":"Cocktail Bar","checkinsCount":123,"usersCount":95,"tipCount":3,"visitsCount":124,"url":"http://www.barsmith.com.hk","tier":"","message":"","currency":"","rating":7.3},{"name":"Common Room","phone":"+85225253599","twitter":"commonroomhk","address":"1/F, Wo On Bldg, 8-13 Wo On Ln","lat":22.281563954342758,"lng":114.15521264076233,"neighborhood":"中西区","city_fetched":"Hong Kong,China","state":"中西區","country":"香港","canonicalUrl":"https://foursquare.com/v/common-room/51639bb1e4b0cbf2377e4afe","categoryId":"4bf58dd8d48988d11e941735","category":"Cocktail Bar","checkinsCount":1896,"usersCount":952,"tipCount":31,"visitsCount":1972,"url":"http://common-room.hk","tier":"","message":"","currency":"","rating":7.3},{"name":"Staunton's Wine Bar and Café","phone":"+85229736611","address":"10-12 Staunton Rd","lat":22.28176499078823,"lng":114.15289252996445,"neighborhood":"中西区","city_fetched":"Hong Kong,China","state":"中西區","country":"香港","canonicalUrl":"https://foursquare.com/v/stauntons-wine-bar-and-caf%C3%A9/4b0588cdf964a520b5da22e3","categoryId":"4bf58dd8d48988d123941735","category":"Wine Bar","checkinsCount":3032,"usersCount":1514,"tipCount":24,"visitsCount":3106,"url":"http://www.stauntonsgroup.com/staunton/","tier":"","message":"","currency":"","rating":7.2},{"name":"Bao Bei","address":"75-77 Wyndham Street","lat":22.281872352098475,"lng":114.15482429346382,"neighborhood":"中西区","city_fetched":"Hong Kong,China","country":"香港","canonicalUrl":"https://foursquare.com/v/bao-bei/55f949cc498ea31e31d8bb76","categoryId":"4bf58dd8d48988d121941735","category":"Lounge","checkinsCount":486,"usersCount":213,"tipCount":4,"visitsCount":544,"tier":"","message":"","currency":"","rating":7.2},{"name":"Figaro","phone":"+85227571777","address":"2 Shin Hing street","lat":22.284153,"lng":114.152207,"neighborhood":"中区","city_fetched":"Hong Kong,China","country":"香港","canonicalUrl":"https://foursquare.com/v/figaro/55faa664498e3cf080d4f42b","categoryId":"4bf58dd8d48988d123941735","category":"Wine Bar","checkinsCount":97,"usersCount":53,"tipCount":3,"visitsCount":98,"url":"http://figaro.com.hk","tier":"","message":"","currency":"","rating":7.2},{"name":"VCNCY","address":"B/F, 41 Staunton St","lat":22.282641832370555,"lng":114.15267033427861,"neighborhood":"中区","city_fetched":"Hong Kong,China","country":"香港","canonicalUrl":"https://foursquare.com/v/vcncy/55a928a4498e3cbb6c9978fb","categoryId":"4bf58dd8d48988d11e941735","category":"Cocktail Bar","checkinsCount":178,"usersCount":147,"tipCount":4,"visitsCount":180,"tier":"","message":"","currency":"","rating":7.2},{"name":"China Beach Club","phone":"+85229838931","address":"18 Tung Wan Tau Rd","lat":22.272894292918597,"lng":114.00192975997925,"neighborhood":"梅窝","city_fetched":"Hong Kong,China","state":"Lantau","country":"香港","canonicalUrl":"https://foursquare.com/v/china-beach-club/4bc151db920eb713b5b01a2c","categoryId":"4bf58dd8d48988d116941735","category":"Bar","checkinsCount":125,"usersCount":91,"tipCount":7,"visitsCount":139,"tier":"","message":"","currency":"","rating":7.2},{"name":"Le Quinze Vins","phone":"+85226737636","address":"9 Swatow St., Wanchai","lat":22.275802553822416,"lng":114.17164339446074,"city_fetched":"Hong Kong,China","country":"香港","canonicalUrl":"https://foursquare.com/v/le-quinze-vins/53e4b592498ec9c3ab328986","categoryId":"4bf58dd8d48988d123941735","category":"Wine Bar","checkinsCount":130,"usersCount":85,"tipCount":4,"visitsCount":130,"tier":"","message":"","currency":"","rating":7.2},{"name":"Ilan Cafe Bar","phone":"+85225218585","twitter":"ilanhk","address":"8 Wo On Lane, Lan Kwai Fong","lat":22.281462195044114,"lng":114.1553521156311,"neighborhood":"中西区","city_fetched":"Hong Kong,China","state":"中西區","country":"香港","canonicalUrl":"https://foursquare.com/ilanhk","categoryId":"4bf58dd8d48988d116941735","category":"Bar","checkinsCount":517,"usersCount":230,"tipCount":10,"visitsCount":520,"tier":"","message":"","currency":"","rating":7.2},{"name":"Paradis","phone":"+85231820105","address":"46-48 Wyndham St.","lat":22.28044054008624,"lng":114.15515522427467,"neighborhood":"中西区","city_fetched":"Hong Kong,China","country":"香港","canonicalUrl":"https://foursquare.com/v/paradis/56876f6b498ec1481cba48b4","categoryId":"4bf58dd8d48988d116941735","category":"Bar","checkinsCount":140,"usersCount":80,"tipCount":2,"visitsCount":145,"tier":"","message":"","currency":"","rating":7.2},{"name":"Joe Bananas","address":"23 Luard Road","lat":22.27877907879732,"lng":114.17163178328921,"neighborhood":"中西区","city_fetched":"Hong Kong,China","country":"香港","canonicalUrl":"https://foursquare.com/v/joe-bananas/53ee2a69498ed8855a0570f8","categoryId":"4bf58dd8d48988d116941735","category":"Bar","checkinsCount":476,"usersCount":251,"tipCount":7,"visitsCount":510,"tier":"","message":"","currency":"","rating":7.2},{"name":"Champagne Bar 香檳吧","phone":"+85225887321","address":"Grand Hyatt Hong Kong, 1 Harbour Rd","lat":22.280804389959226,"lng":114.17175370057501,"city_fetched":"Hong Kong,China","state":"灣仔區","country":"香港","canonicalUrl":"https://foursquare.com/v/champagne-bar-%E9%A6%99%E6%AA%B3%E5%90%A7/4bfd1613e529c9283356ba8c","categoryId":"4bf58dd8d48988d1d5941735","category":"Hotel Bar","checkinsCount":455,"usersCount":283,"tipCount":1,"visitsCount":455,"url":"http://www.hongkong.grand.hyattrestaurants.com/champagnebar/default-en.html","tier":"","message":"","currency":"","rating":7.1},{"name":"Eye Bar","address":"30/F, iSquare, 63 Nathan Rd","lat":22.297072627333314,"lng":114.17200914620764,"neighborhood":"尖沙咀","city_fetched":"Hong Kong,China","state":"Kowloon City","country":"香港","canonicalUrl":"https://foursquare.com/v/eye-bar/4cb082b4cbab236a4fdaa073","categoryId":"4bf58dd8d48988d11e941735","category":"Cocktail Bar","checkinsCount":1088,"usersCount":862,"tipCount":26,"visitsCount":1099,"tier":"","message":"","currency":"","rating":7.1},{"name":"Club L","phone":"+85235523361","address":"36/F, Cordis, Hong Kong, 555 Shanghai St","lat":22.317979357338228,"lng":114.16827614194364,"city_fetched":"Hong Kong,China","country":"香港","canonicalUrl":"https://foursquare.com/v/club-l/4d821d1cd95df04d5c2750bc","categoryId":"4bf58dd8d48988d121941735","category":"Lounge","checkinsCount":358,"usersCount":173,"tipCount":13,"visitsCount":358,"tier":"","message":"","currency":"","rating":7.1},{"name":"Beirut Bar & Restaurant","phone":"+85228046611","address":"27-39 D'Aguilar St","lat":22.281156076074044,"lng":114.15537584467847,"neighborhood":"中西区","city_fetched":"Hong Kong,China","state":"中西區","country":"香港","canonicalUrl":"https://foursquare.com/v/beirut-bar--restaurant/4b0588d9f964a52003dd22e3","categoryId":"4bf58dd8d48988d119941735","category":"Hookah Bar","checkinsCount":1350,"usersCount":664,"tipCount":12,"visitsCount":1378,"tier":"","message":"","currency":"","rating":7.1},{"name":"Carnegies","phone":"+85228666289","address":"55 Lockhart Rd","lat":22.278216685992376,"lng":114.17082480612115,"neighborhood":"中西区","city_fetched":"Hong Kong,China","country":"香港","canonicalUrl":"https://foursquare.com/v/carnegies/4b0588d0f964a52033db22e3","categoryId":"4bf58dd8d48988d118941735","category":"Dive Bar","checkinsCount":2153,"usersCount":1127,"tipCount":26,"visitsCount":2171,"tier":"","message":"","currency":"","rating":7.1},{"name":"Club 97","phone":"+85221861897","address":"9 Lan Kwai Fong","lat":22.280985895503715,"lng":114.1556951634902,"neighborhood":"中西区","city_fetched":"Hong Kong,China","state":"中西區","country":"香港","canonicalUrl":"https://foursquare.com/v/club-97/4b0588ccf964a5208ada22e3","categoryId":"4bf58dd8d48988d11f941735","category":"Nightclub","checkinsCount":1102,"usersCount":672,"tipCount":22,"visitsCount":1112,"tier":"","message":"","currency":"","rating":7.1},{"name":"LINQ","phone":"+85229710680","address":"37-43 Pottinger St","lat":22.282296122722755,"lng":114.15482640266418,"neighborhood":"中区","city_fetched":"Hong Kong,China","state":"中西區","country":"香港","canonicalUrl":"https://foursquare.com/v/linq/4b508070f964a520552527e3","categoryId":"4bf58dd8d48988d116941735","category":"Bar","checkinsCount":1324,"usersCount":721,"tipCount":9,"visitsCount":1451,"tier":"","message":"","currency":"","rating":7.1},{"name":"Belgica - Bar & Seafood","phone":"+85228177717","address":"Shop B2. G/F, 25-33 Hau Wo St","lat":22.282881854666382,"lng":114.12752151489258,"city_fetched":"Hong Kong,China","country":"香港","canonicalUrl":"https://foursquare.com/v/belgica--bar--seafood/50d344218055914c992e6dff","categoryId":"4bf58dd8d48988d117941735","category":"Beer Garden","checkinsCount":110,"usersCount":75,"tipCount":6,"visitsCount":114,"tier":"","message":"","currency":"","rating":7.1},{"name":"Zoo Bar","address":"33 Jervois St","lat":22.28517153332701,"lng":114.15189235184975,"neighborhood":"中西区","city_fetched":"Hong Kong,China","country":"香港","canonicalUrl":"https://foursquare.com/v/zoo-bar/4b72bd26f964a52039862de3","categoryId":"4bf58dd8d48988d1d8941735","category":"Gay Bar","checkinsCount":1092,"usersCount":549,"tipCount":6,"visitsCount":1140,"tier":"","message":"","currency":"","rating":7.1},{"name":"Ciacoe","phone":"+85225295661","address":"Shop A, 1 Moon St","lat":22.27652982102871,"lng":114.16820066874877,"neighborhood":"中西区","city_fetched":"Hong Kong,China","state":"灣仔區","country":"香港","canonicalUrl":"https://foursquare.com/v/ciacoe/5157e3bbe4b03caa213eae51","categoryId":"4bf58dd8d48988d123941735","category":"Wine Bar","checkinsCount":172,"usersCount":106,"tipCount":6,"visitsCount":172,"tier":"","message":"","currency":"","rating":7.1},{"name":"Lobby Lounge","phone":"+85225213838","address":"Conrad Hong Kong, 88 Queensway","lat":22.277374471747695,"lng":114.16508303399665,"neighborhood":"中西区","city_fetched":"Hong Kong,China","state":"中西區","country":"香港","canonicalUrl":"https://foursquare.com/v/lobby-lounge/4b0588d0f964a5204adb22e3","categoryId":"4bf58dd8d48988d1d5941735","category":"Hotel Bar","checkinsCount":462,"usersCount":283,"tipCount":7,"visitsCount":462,"tier":"","message":"","currency":"","rating":7.1},{"name":"Tazmania Ballroom","phone":"+85228015009","address":"1/F, LKF Tower, 33 Wyndham St","lat":22.28058766690119,"lng":114.15505071983466,"neighborhood":"中西区","city_fetched":"Hong Kong,China","state":"中西區","country":"香港","canonicalUrl":"https://foursquare.com/v/tazmania-ballroom/4b967e75f964a520d9cf34e3","categoryId":"4bf58dd8d48988d121941735","category":"Lounge","checkinsCount":7514,"usersCount":2356,"tipCount":31,"visitsCount":7707,"url":"http://www.tazmaniaballroom.com","tier":"","message":"","currency":"","rating":7.1},{"name":"Devil's Advocate","phone":"+85228657271","address":"48-50 Lockhart Rd","lat":22.2782678038403,"lng":114.17057516540397,"neighborhood":"中西区","city_fetched":"Hong Kong,China","state":"灣仔區","country":"香港","canonicalUrl":"https://foursquare.com/v/devils-advocate/4b0588ccf964a5209cda22e3","categoryId":"4bf58dd8d48988d11b941735","category":"Pub","checkinsCount":804,"usersCount":529,"tipCount":7,"visitsCount":815,"tier":"","message":"","currency":"","rating":7.1},{"name":"Uni-Bar","phone":"+85223351875","address":"G/F, Block C, The Hong Kong University of Science and Technology","lat":22.335863884499688,"lng":114.2648769543621,"neighborhood":"西贡区","city_fetched":"Hong Kong,China","country":"香港","canonicalUrl":"https://foursquare.com/v/unibar/4bea3c32b3352d7ffc0255d2","categoryId":"4bf58dd8d48988d11b941735","category":"Pub","checkinsCount":346,"usersCount":126,"tipCount":4,"visitsCount":377,"tier":"","message":"","currency":"","rating":7.1},{"name":"L'étage","phone":"+85225225300","address":"22/F, Macau Yat Yuen Centre, 525 Hennessy Rd","lat":22.28009945486784,"lng":114.18378270718412,"city_fetched":"Hong Kong,China","country":"香港","canonicalUrl":"https://foursquare.com/v/l%C3%A9tage/508be45ae4b09898c7869012","categoryId":"4bf58dd8d48988d11e941735","category":"Cocktail Bar","checkinsCount":322,"usersCount":149,"tipCount":8,"visitsCount":324,"tier":"","message":"","currency":"","rating":7.1},{"name":"The Blck Brd","phone":"+85225458555","address":"6/F & Roof, 8 Lyndhurst Terrace","lat":22.282509911353827,"lng":114.15500427340902,"neighborhood":"中区","city_fetched":"Hong Kong,China","state":"中西區","country":"香港","canonicalUrl":"https://foursquare.com/v/the-blck-brd/4d0a1f585edd5481b2f7039b","categoryId":"4bf58dd8d48988d116941735","category":"Bar","checkinsCount":1695,"usersCount":844,"tipCount":28,"visitsCount":1718,"url":"http://www.theblckbrd.com","tier":"","message":"","currency":"","rating":7},{"name":"Boba Bear","phone":"+85224681525","address":"31 Elgin Street","lat":22.282009,"lng":114.152355,"neighborhood":"中西区","city_fetched":"Hong Kong,China","country":"香港","canonicalUrl":"https://foursquare.com/v/boba-bear/53e20b69498ec6568c086f79","categoryId":"4bf58dd8d48988d119941735","category":"Hookah Bar","checkinsCount":518,"usersCount":236,"tipCount":9,"visitsCount":562,"tier":"","message":"","currency":"","rating":7},{"name":"Neway","phone":"+85227233223","address":"Shop 2, 11/F, apm (Millennium City 5), 418 Kwun Tong Rd","lat":22.31200557103973,"lng":114.22473226553552,"city_fetched":"Hong Kong,China","country":"香港","canonicalUrl":"https://foursquare.com/v/neway/4c56f64b4cc1ef3b5c884b12","categoryId":"4bf58dd8d48988d120941735","category":"Karaoke Bar","checkinsCount":216,"usersCount":154,"tipCount":3,"visitsCount":216,"url":"http://www.newaykb.com","tier":"","message":"","currency":"","rating":7},{"name":"Biergarten","phone":"+85227212302","address":"8 Hanoi Rd","lat":22.297623227427998,"lng":114.17391917818976,"neighborhood":"尖沙咀","city_fetched":"Hong Kong,China","state":"Kowloon City","country":"香港","canonicalUrl":"https://foursquare.com/v/biergarten/4b0588cef964a520d9da22e3","categoryId":"4bf58dd8d48988d117941735","category":"Beer Garden","checkinsCount":608,"usersCount":445,"tipCount":11,"visitsCount":612,"tier":"","message":"","currency":"","rating":7},{"name":"Brecht's Circle 布萊希特","phone":"+85225764785","address":"G/F, Lai Tat Bldg, 123 Leighton Rd","lat":22.278235642299578,"lng":114.18635979294777,"city_fetched":"Hong Kong,China","country":"香港","canonicalUrl":"https://foursquare.com/v/brechts-circle-%E5%B8%83%E8%90%8A%E5%B8%8C%E7%89%B9/4b0588cef964a520dfda22e3","categoryId":"4bf58dd8d48988d116941735","category":"Bar","checkinsCount":463,"usersCount":221,"tipCount":12,"visitsCount":466,"tier":"","message":"","currency":"","rating":7},{"name":"Langham Club","address":"11/F The Langham Hong Kong, 8 Peking Road, Tsimshatsui","lat":22.296895,"lng":114.169957,"neighborhood":"尖沙咀","city_fetched":"Hong Kong,China","state":"Kowloon City","country":"香港","canonicalUrl":"https://foursquare.com/v/langham-club/5295b513498e59feebee4a95","categoryId":"4bf58dd8d48988d121941735","category":"Lounge","checkinsCount":59,"usersCount":31,"tipCount":1,"visitsCount":60,"tier":"","message":"","currency":"","rating":6.9},{"name":"Slims","phone":"+85225281661","address":"1 Wing Fung St","lat":22.277093120534595,"lng":114.16824711379329,"neighborhood":"中西区","city_fetched":"Hong Kong,China","state":"灣仔區","country":"香港","canonicalUrl":"https://foursquare.com/v/slims/4b277aadf964a520cc8624e3","categoryId":"4bf58dd8d48988d116941735","category":"Bar","checkinsCount":1037,"usersCount":446,"tipCount":18,"visitsCount":1059,"url":"http://www.elgrande.com.hk/outlets/HongKong/slims/page1/","tier":"","message":"","currency":"","rating":6.9},{"name":"The Sky Bar","phone":"+85235144448","address":"Shop 1, 13/F, Langham Place, 8 Argyle St","lat":22.317792772131114,"lng":114.16885089892864,"city_fetched":"Hong Kong,China","country":"香港","canonicalUrl":"https://foursquare.com/v/the-sky-bar/4b05f98bf964a520c5e622e3","categoryId":"4bf58dd8d48988d116941735","category":"Bar","checkinsCount":782,"usersCount":578,"tipCount":8,"visitsCount":789,"tier":"","message":"","currency":"","rating":6.9},{"name":"Bar Q88","phone":"+85228108366","address":"JW Marriott Hotel Hong Kong, 88 Queensway","lat":22.278009841972008,"lng":114.16686537163484,"neighborhood":"中西区","city_fetched":"Hong Kong,China","state":"中西區","country":"香港","canonicalUrl":"https://foursquare.com/v/bar-q88/4c12627f77cea59394e9cc60","categoryId":"4bf58dd8d48988d1d5941735","category":"Hotel Bar","checkinsCount":531,"usersCount":292,"tipCount":11,"visitsCount":547,"tier":"","message":"","currency":"","rating":6.9},{"name":"Haven","address":"Shop 5, G/F, Leishun Court, 106-126 Leighton Rd","lat":22.278121066240843,"lng":114.18660994050101,"city_fetched":"Hong Kong,China","country":"香港","canonicalUrl":"https://foursquare.com/v/haven/4f79bf31e4b0b0466ba77fb9","categoryId":"4bf58dd8d48988d119941735","category":"Hookah Bar","checkinsCount":259,"usersCount":138,"tipCount":7,"visitsCount":263,"tier":"","message":"","currency":"","rating":6.9},{"name":"Times","address":"19/F, Sunshine Plaza, 353 Lockhart Rd.","lat":22.27972072277373,"lng":114.178935149885,"city_fetched":"Hong Kong,China","state":"灣仔區","country":"香港","canonicalUrl":"https://foursquare.com/v/times/4dbac5e05da389d2c243476a","categoryId":"4bf58dd8d48988d121941735","category":"Lounge","checkinsCount":359,"usersCount":238,"tipCount":0,"visitsCount":361,"tier":"","message":"","currency":"","rating":6.9},{"name":"Regency Club 嘉賓軒","address":"Hyatt Regency Hong Kong Tsim Sha Tsui, 18 Hanoi Rd","lat":22.297170010809314,"lng":114.17350117797551,"neighborhood":"尖沙咀","city_fetched":"Hong Kong,China","country":"香港","canonicalUrl":"https://foursquare.com/v/regency-club-%E5%98%89%E8%B3%93%E8%BB%92/4e215157d22d0a3f59f6db74","categoryId":"4bf58dd8d48988d1d5941735","category":"Hotel Bar","checkinsCount":674,"usersCount":223,"tipCount":3,"visitsCount":681,"tier":"","message":"","currency":"","rating":6.9},{"name":"PLAY","phone":"+85225251318","twitter":"playclubhk","address":"1/F, On Hing Bldg, 1 On Hing Terrace","lat":22.280733016407133,"lng":114.15628154834747,"neighborhood":"中西区","city_fetched":"Hong Kong,China","state":"中西區","country":"香港","canonicalUrl":"https://foursquare.com/v/play/4b139b43f964a520049823e3","categoryId":"4bf58dd8d48988d11f941735","category":"Nightclub","checkinsCount":10613,"usersCount":2018,"tipCount":35,"visitsCount":10785,"url":"http://www.playclub.asia","tier":"","message":"","currency":"","rating":6.9},{"name":"Illusion","address":"2/F, Cosmo Bldg, 8-10 Lan Kwai Fong","lat":22.28101138156984,"lng":114.15561388235987,"neighborhood":"中西区","city_fetched":"Hong Kong,China","state":"中西區","country":"香港","canonicalUrl":"https://foursquare.com/v/illusion/4d1f4f4e5c4ca1cd235c983d","categoryId":"4bf58dd8d48988d120941735","category":"Karaoke Bar","checkinsCount":1973,"usersCount":336,"tipCount":12,"visitsCount":2038,"tier":"","message":"","currency":"","rating":6.9},{"name":"B.A.R. Executive Bar","phone":"+85228932080","address":"27/F, Bartlock Centre, 3 Yiu Wa St","lat":22.2776822,"lng":114.1821833,"city_fetched":"Hong Kong,China","country":"香港","canonicalUrl":"https://foursquare.com/v/bar-executive-bar/4ce14ecddf986ea8f1e7eb16","categoryId":"4bf58dd8d48988d116941735","category":"Bar","checkinsCount":456,"usersCount":285,"tipCount":23,"visitsCount":457,"url":"http://executivebar-com-hk.blogspot.hk","tier":"","message":"","currency":"","rating":6.9},{"name":"Azure Restaurant & Bar","phone":"+85235189330","address":"29-30/F, Hotel LKF, 33 Wyndham St","lat":22.28054232967502,"lng":114.15523069968827,"neighborhood":"中西区","city_fetched":"Hong Kong,China","state":"中西區","country":"香港","canonicalUrl":"https://foursquare.com/v/azure-restaurant--bar/4b1935f4f964a52041d923e3","categoryId":"4bf58dd8d48988d1d5941735","category":"Hotel Bar","checkinsCount":3443,"usersCount":2266,"tipCount":50,"visitsCount":3464,"url":"http://www.azure.hk","tier":"","message":"","currency":"","rating":6.9},{"name":"Adrenaline","phone":"+85236903690","address":"Happy Valley Racecourse, Wong Nai Chung Rd","lat":22.273495784467865,"lng":114.180456185584,"city_fetched":"Hong Kong,China","country":"香港","canonicalUrl":"https://foursquare.com/v/adrenaline/4c3474c916adc928e11dc59c","categoryId":"4bf58dd8d48988d11f941735","category":"Nightclub","checkinsCount":185,"usersCount":143,"tipCount":2,"visitsCount":185,"tier":"","message":"","currency":"","rating":6.9},{"name":"SHOW Club","phone":"+85226569338","address":"G/F & 1/F, 29 Wyndham St","lat":22.280328425971362,"lng":114.15543970845916,"neighborhood":"中西区","city_fetched":"Hong Kong,China","country":"香港","canonicalUrl":"https://foursquare.com/v/show-club/51e62b87498e0536e6aecd7a","categoryId":"4bf58dd8d48988d116941735","category":"Bar","checkinsCount":874,"usersCount":260,"tipCount":6,"visitsCount":903,"url":"http://www.showclub.com.hk","tier":"","message":"","currency":"","rating":6.9},{"name":"Chin Chin Bar 請請吧","phone":"+85237217722","address":"3/F, Hyatt Regency Hong Kong, Tsim Sha Tsui, 18 Hanoi Rd","lat":22.297290624398183,"lng":114.17393659485677,"neighborhood":"尖沙咀","city_fetched":"Hong Kong,China","state":"Kowloon","country":"香港","canonicalUrl":"https://foursquare.com/v/chin-chin-bar-%E8%AB%8B%E8%AB%8B%E5%90%A7/4ba4da2ef964a52047bb38e3","categoryId":"4bf58dd8d48988d1d5941735","category":"Hotel Bar","checkinsCount":746,"usersCount":474,"tipCount":10,"visitsCount":753,"url":"http://hongkong.tsimshatsui.hyatt.com","tier":"","message":"","currency":"","rating":6.8},{"name":"Club Qing","phone":"+85225369773","address":"10/f, Cosmos Bldg, 8-11 Lan Kwai Fong","lat":22.280846262698457,"lng":114.15550357223067,"neighborhood":"中西区","city_fetched":"Hong Kong,China","state":"中西區","country":"香港","canonicalUrl":"https://foursquare.com/v/club-qing/4b0588d8f964a520e0dc22e3","categoryId":"4bf58dd8d48988d121941735","category":"Lounge","checkinsCount":134,"usersCount":111,"tipCount":3,"visitsCount":134,"url":"http://www.clubqing.com","tier":"","message":"","currency":"","rating":6.8},{"name":"Beer Garden 花園餐廳","phone":"+85229826168","address":"23B Yung Shue Wan Main St","lat":22.226491432130512,"lng":114.11210417747498,"neighborhood":"离岛区","city_fetched":"Hong Kong,China","country":"香港","canonicalUrl":"https://foursquare.com/v/beer-garden-%E8%8A%B1%E5%9C%92%E9%A4%90%E5%BB%B3/4bb9a7ce53649c74b02548fb","categoryId":"4bf58dd8d48988d117941735","category":"Beer Garden","checkinsCount":267,"usersCount":70,"tipCount":7,"visitsCount":270,"tier":"","message":"","currency":"","rating":6.8},{"name":"Back Bar","address":"1-7 Ship Street","lat":22.276309017612128,"lng":114.17109186347652,"neighborhood":"中西区","city_fetched":"Hong Kong,China","state":"灣仔區","country":"香港","canonicalUrl":"https://foursquare.com/v/back-bar/55a0f2a5498ebb1b4481687b","categoryId":"4bf58dd8d48988d11e941735","category":"Cocktail Bar","checkinsCount":105,"usersCount":94,"tipCount":4,"visitsCount":105,"tier":"","message":"","currency":"","rating":6.8},{"name":"The China Bar","phone":"+85225265992","address":"G/F, Ho Lee Commercial Bldg, 44 D'Aguilar St","lat":22.28096915547602,"lng":114.15538745627563,"neighborhood":"中西区","city_fetched":"Hong Kong,China","state":"中西區","country":"香港","canonicalUrl":"https://foursquare.com/v/the-china-bar/4dfe154145ddebdfeaaff1c8","categoryId":"4bf58dd8d48988d116941735","category":"Bar","checkinsCount":1745,"usersCount":1293,"tipCount":26,"visitsCount":1749,"tier":"","message":"","currency":"","rating":6.8},{"name":"Tivo","phone":"+85221168055","address":"43 Wyndham St.","lat":22.280936791521004,"lng":114.1547604295948,"neighborhood":"中西区","city_fetched":"Hong Kong,China","state":"中西區","country":"香港","canonicalUrl":"https://foursquare.com/v/tivo/4b0588d0f964a5204cdb22e3","categoryId":"4bf58dd8d48988d121941735","category":"Lounge","checkinsCount":1340,"usersCount":887,"tipCount":17,"visitsCount":1344,"tier":"","message":"","currency":"","rating":6.8},{"name":"Peak Café & Bar 山頂餐廳酒吧","phone":"+85221406877","address":"9-13 Shelley St","lat":22.281670544926993,"lng":114.15291417923777,"neighborhood":"中西区","city_fetched":"Hong Kong,China","state":"中西區","country":"香港","canonicalUrl":"https://foursquare.com/v/peak-caf%C3%A9--bar-%E5%B1%B1%E9%A0%82%E9%A4%90%E5%BB%B3%E9%85%92%E5%90%A7/4b114a18f964a520c97923e3","categoryId":"4bf58dd8d48988d116941735","category":"Bar","checkinsCount":2823,"usersCount":1638,"tipCount":41,"visitsCount":2841,"tier":"","message":"","currency":"","rating":6.8},{"name":"Craft Brew & Co","address":"36 High Street","lat":22.285206087417585,"lng":114.14208617338788,"neighborhood":"半山","city_fetched":"Hong Kong,China","country":"香港","canonicalUrl":"https://foursquare.com/v/craft-brew--co/54ce0e9a498e7737c9aff1e8","categoryId":"4bf58dd8d48988d116941735","category":"Bar","checkinsCount":249,"usersCount":178,"tipCount":5,"visitsCount":265,"tier":"","message":"","currency":"","rating":6.8},{"name":"Tiffany's New York Bar","phone":"+85227215161","address":"G/F, InterContinental Grand Stanford Hong Kong, 70 Mody Rd","lat":22.29899629080947,"lng":114.17908028710576,"neighborhood":"尖沙咀","city_fetched":"Hong Kong,China","state":"Kowloon City","country":"香港","canonicalUrl":"https://foursquare.com/v/tiffanys-new-york-bar/4c93861d94a0236ad6d88312","categoryId":"4bf58dd8d48988d1d5941735","category":"Hotel Bar","checkinsCount":376,"usersCount":204,"tipCount":4,"visitsCount":376,"tier":"","message":"","currency":"","rating":6.8},{"name":"Studio Lounge 影廠酒廊","address":"G/F, Disney Hollywood Hotel","lat":22.308679,"lng":114.036959,"city_fetched":"Hong Kong,China","country":"香港","canonicalUrl":"https://foursquare.com/v/studio-lounge-%E5%BD%B1%E5%BB%A0%E9%85%92%E5%BB%8A/4c20c55b4889a59346de2620","categoryId":"4bf58dd8d48988d1d5941735","category":"Hotel Bar","checkinsCount":444,"usersCount":334,"tipCount":4,"visitsCount":446,"tier":"","message":"","currency":"","rating":6.8},{"name":"Café Deco Bar & Grill","phone":"+85228495111","address":"Shop 101 & 201, 1-2/F, The Peak Galleria, 118 Peak Rd","lat":22.27108909286602,"lng":114.15021445974811,"city_fetched":"Hong Kong,China","country":"香港","canonicalUrl":"https://foursquare.com/v/caf%C3%A9-deco-bar--grill/4b497c20f964a520737026e3","categoryId":"4bf58dd8d48988d116941735","category":"Bar","checkinsCount":1826,"usersCount":1545,"tipCount":43,"visitsCount":1840,"tier":"","message":"","currency":"","rating":6.8},{"name":"Temple Street Night Market","address":"Temple St","lat":22.30716388888889,"lng":114.17013055555556,"neighborhood":"Yau Ma Tei","city_fetched":"Hong Kong,China","country":"香港","canonicalUrl":"https://foursquare.com/v/temple-street-night-market-%E5%BB%9F%E8%A1%97%E5%A4%9C%E5%B8%82%E5%A0%B4/4b190256f964a52021d723e3","categoryId":"53e510b7498ebcb1801b55d4","category":"Night Market","checkinsCount":10225,"usersCount":9975,"tipCount":131,"visitsCount":12605,"tier":1,"message":"Cheap","currency":"$","rating":6.8},{"name":"RA Restaurant & Bar","phone":"+85227213600","address":"Shop 1, G/F, Wing On Plaza, 62 Mody Rd","lat":22.296482600126794,"lng":114.17665358649637,"neighborhood":"尖沙咀","city_fetched":"Hong Kong,China","state":"Kowloon","country":"香港","canonicalUrl":"https://foursquare.com/v/ra-restaurant--bar/4e21ad1022717a5245ccfcc1","categoryId":"4bf58dd8d48988d119941735","category":"Hookah Bar","checkinsCount":1091,"usersCount":692,"tipCount":33,"visitsCount":1167,"tier":"","message":"","currency":"","rating":6.8},{"name":"Volar","phone":"+85228101272","address":"38-44 D'Aguilar St","lat":22.28084667380542,"lng":114.15529310703278,"neighborhood":"中西区","city_fetched":"Hong Kong,China","state":"中西區","country":"香港","canonicalUrl":"https://foursquare.com/v/volar/4b0588d0f964a52055db22e3","categoryId":"4bf58dd8d48988d11f941735","category":"Nightclub","checkinsCount":5769,"usersCount":1784,"tipCount":24,"visitsCount":5899,"tier":"","message":"","currency":"","rating":6.8},{"name":"Otto Bar & Lounge","phone":"+85228690399","address":"4/F, Grand Progress Bldg, 15-16 Lan Kwai Fong","lat":22.28059201945019,"lng":114.155364233081,"neighborhood":"中西区","city_fetched":"Hong Kong,China","state":"中西區","country":"香港","canonicalUrl":"https://foursquare.com/v/otto-bar--lounge/4bfe9014bf6576b02edbaeb8","categoryId":"4bf58dd8d48988d116941735","category":"Bar","checkinsCount":360,"usersCount":220,"tipCount":5,"visitsCount":362,"tier":"","message":"","currency":"","rating":6.7},{"name":"Roadside Bar","phone":"+85223112018","address":"2A Hart Ave","lat":22.29789997137528,"lng":114.17443006680325,"neighborhood":"尖沙咀","city_fetched":"Hong Kong,China","state":"Kowloon","country":"香港","canonicalUrl":"https://foursquare.com/v/roadside-bar/4b0588cef964a520d8da22e3","categoryId":"4bf58dd8d48988d116941735","category":"Bar","checkinsCount":489,"usersCount":181,"tipCount":2,"visitsCount":494,"tier":"","message":"","currency":"","rating":6.7},{"name":"Alabar","phone":"+85228380533","address":"38 King Kwong St","lat":22.268883,"lng":114.184331,"city_fetched":"Hong Kong,China","country":"香港","canonicalUrl":"https://foursquare.com/v/alabar/4c06a79f0ed3c928805e787d","categoryId":"4bf58dd8d48988d120941735","category":"Karaoke Bar","checkinsCount":1075,"usersCount":217,"tipCount":5,"visitsCount":1212,"tier":"","message":"","currency":"","rating":6.7},{"name":"Gecko","phone":"+85225374680","address":"LG/F, Ezra's Ln","lat":22.28208281931491,"lng":114.15419726598941,"neighborhood":"中区","city_fetched":"Hong Kong,China","state":"中西區","country":"香港","canonicalUrl":"https://foursquare.com/v/gecko/4b0588d0f964a52052db22e3","categoryId":"4bf58dd8d48988d116941735","category":"Bar","checkinsCount":350,"usersCount":221,"tipCount":9,"visitsCount":350,"tier":"","message":"","currency":"","rating":6.7},{"name":"Push Bar","phone":"+85228663277","twitter":"pushbarhk","address":"5/F, The Phoenix, 21-25 Luard Rd","lat":22.27873453165297,"lng":114.17162017211739,"neighborhood":"中西区","city_fetched":"Hong Kong,China","state":"灣仔區","country":"香港","canonicalUrl":"https://foursquare.com/pushbarhk","categoryId":"4bf58dd8d48988d116941735","category":"Bar","checkinsCount":168,"usersCount":90,"tipCount":3,"visitsCount":168,"url":"http://www.pushbar.hk","tier":"","message":"","currency":"","rating":6.7},{"name":"Yayakiya","phone":"+85227239833","address":"Shop 10-12B, G/F, Windsor Mansion, 29-31 Chatham Rd S","lat":22.297964815218684,"lng":114.17513253768166,"neighborhood":"尖沙咀","city_fetched":"Hong Kong,China","state":"Kowloon City","country":"香港","canonicalUrl":"https://foursquare.com/v/yayakiya/553a6cab498eb1b18ec8507c","categoryId":"4bf58dd8d48988d116941735","category":"Bar","checkinsCount":97,"usersCount":84,"tipCount":3,"visitsCount":97,"tier":"","message":"","currency":"","rating":6.7},{"name":"Andante","address":"Novotel Citygate Hong Kong, 51 Man Tung Rd","lat":22.291162,"lng":113.942342,"neighborhood":"东涌","city_fetched":"Hong Kong,China","country":"香港","canonicalUrl":"https://foursquare.com/v/andante/4c9cc031f565236a502b4865","categoryId":"4bf58dd8d48988d1d5941735","category":"Hotel Bar","checkinsCount":449,"usersCount":185,"tipCount":10,"visitsCount":449,"tier":"","message":"","currency":"","rating":6.7},{"name":"Room One","address":"The Mira, 118 Nathan Rd","lat":22.300371247360108,"lng":114.17225298053744,"neighborhood":"尖沙咀","city_fetched":"Hong Kong,China","state":"Kowloon City","country":"香港","canonicalUrl":"https://foursquare.com/v/room-one/4c49443b9e3e2d7fabaa8948","categoryId":"4bf58dd8d48988d1d5941735","category":"Hotel Bar","checkinsCount":372,"usersCount":263,"tipCount":6,"visitsCount":375,"tier":"","message":"","currency":"","rating":6.7},{"name":"Dickens Bar at The Excelsior, Hong Kong","phone":"+85228948888","twitter":"mo_hotels","address":"281 Gloucester Road","lat":22.282227989911174,"lng":114.18422391932985,"city_fetched":"Hong Kong,China","country":"香港","canonicalUrl":"https://foursquare.com/v/dickens-bar-at-the-excelsior-hong-kong/4b2ba487f964a5209bb824e3","categoryId":"4bf58dd8d48988d1d5941735","category":"Hotel Bar","checkinsCount":1964,"usersCount":1103,"tipCount":33,"visitsCount":1993,"url":"http://www.mandarinoriental.com","tier":"","message":"","currency":"","rating":6.7},{"name":"Cé La Vi","phone":"+85237002300","address":"25/F, California Tower, 32 D'Aguillar Street","lat":22.280884383732793,"lng":114.15550357223067,"neighborhood":"中西区","city_fetched":"Hong Kong,China","country":"香港","canonicalUrl":"https://foursquare.com/v/c%C3%A9-la-vi/55c2c3f9498e536d7692bee6","categoryId":"4bf58dd8d48988d11f941735","category":"Nightclub","checkinsCount":786,"usersCount":588,"tipCount":10,"visitsCount":808,"tier":"","message":"","currency":"","rating":6.7},{"name":"Red MR","phone":"+85231253333","address":"2/F, Tonnochy Towers, 5 Tonnochy Rd","lat":22.279205800625054,"lng":114.17746055301349,"city_fetched":"Hong Kong,China","state":"灣仔區","country":"香港","canonicalUrl":"https://foursquare.com/v/red-mr/4ebd8a08722e45315e5a080b","categoryId":"4bf58dd8d48988d120941735","category":"Karaoke Bar","checkinsCount":1692,"usersCount":914,"tipCount":8,"visitsCount":1857,"url":"http://www.redmr.com","tier":"","message":"","currency":"","rating":6.7},{"name":"Flutes Champagne & Cocktail Bar","phone":"+85228100005","twitter":"fluteshk","address":"27 Elgin Street","lat":22.28207353207936,"lng":114.15235681913492,"neighborhood":"中西区","city_fetched":"Hong Kong,China","state":"中西區","country":"香港","canonicalUrl":"https://foursquare.com/fluteshk","categoryId":"4bf58dd8d48988d11e941735","category":"Cocktail Bar","checkinsCount":637,"usersCount":244,"tipCount":34,"visitsCount":642,"url":"http://www.flutes.com.hk","tier":"","message":"","currency":"","rating":6.7},{"name":"Shelter Lounge","phone":"+85225176211","address":"Shop A, G/F, Universal Bldg, 5-13 New St","lat":22.285971716370604,"lng":114.14664383789393,"neighborhood":"中西区","city_fetched":"Hong Kong,China","country":"香港","canonicalUrl":"https://foursquare.com/v/shelter-lounge/51f35e43498ee86fa752c3dd","categoryId":"4bf58dd8d48988d121941735","category":"Lounge","checkinsCount":588,"usersCount":548,"tipCount":23,"visitsCount":801,"tier":"","message":"","currency":"","rating":6.6},{"name":"The Tonno","phone":"+85231253888","address":"1/F, Tonnochy Towers, 5 Tonnochy Rd","lat":22.27915730372407,"lng":114.17746055301349,"city_fetched":"Hong Kong,China","state":"灣仔區","country":"香港","canonicalUrl":"https://foursquare.com/v/the-tonno/4eb7b5cabe7bfc284b402b3d","categoryId":"4bf58dd8d48988d11f941735","category":"Nightclub","checkinsCount":779,"usersCount":389,"tipCount":3,"visitsCount":789,"tier":"","message":"","currency":"","rating":6.6},{"name":"Neway","phone":"+85227213303","address":"3/F, Harbour Crystal Centre, 100 Granville Rd","lat":22.3008745427565,"lng":114.178386926651,"neighborhood":"尖沙咀","city_fetched":"Hong Kong,China","state":"Kowloon City","country":"香港","canonicalUrl":"https://foursquare.com/v/neway/4b894efff964a520572a32e3","categoryId":"4bf58dd8d48988d120941735","category":"Karaoke Bar","checkinsCount":733,"usersCount":528,"tipCount":7,"visitsCount":757,"url":"http://www.newaykb.com.hk","tier":"","message":"","currency":"","rating":6.6},{"name":"Boujis","address":"Pottinger Steps","lat":22.28236114339095,"lng":114.15476623540145,"neighborhood":"中区","city_fetched":"Hong Kong,China","state":"中西區","country":"香港","canonicalUrl":"https://foursquare.com/v/boujis/50798c5de4b018ca95e08478","categoryId":"4bf58dd8d48988d11f941735","category":"Nightclub","checkinsCount":832,"usersCount":492,"tipCount":8,"visitsCount":840,"tier":"","message":"","currency":"","rating":6.6},{"name":"Brick Lane","phone":"+85227368893","address":"G/F, 2 Blenheim Ave","lat":22.296923795118172,"lng":114.1745138168335,"neighborhood":"尖沙咀","city_fetched":"Hong Kong,China","state":"Kowloon City","country":"香港","canonicalUrl":"https://foursquare.com/v/brick-lane/4df09bded4c04d0392c67f5e","categoryId":"4bf58dd8d48988d123941735","category":"Wine Bar","checkinsCount":1549,"usersCount":1008,"tipCount":39,"visitsCount":1566,"url":"http://www.bricklane.com.hk/main/gallery-view/bricklane-tst/","tier":"","message":"","currency":"","rating":6.6},{"name":"Dusk Till Dawn","phone":"+85225284689","address":"76-84 Jaffe Rd","lat":22.27877896379316,"lng":114.1709989739799,"neighborhood":"中西区","city_fetched":"Hong Kong,China","state":"灣仔區","country":"香港","canonicalUrl":"https://foursquare.com/v/dusk-till-dawn/4b0588ccf964a520a1da22e3","categoryId":"4bf58dd8d48988d11f941735","category":"Nightclub","checkinsCount":1736,"usersCount":934,"tipCount":20,"visitsCount":1838,"tier":"","message":"","currency":"","rating":6.6},{"name":"Awtar","address":"Staunton St 23","lat":22.282151,"lng":114.152786,"neighborhood":"中区","city_fetched":"Hong Kong,China","country":"香港","canonicalUrl":"https://foursquare.com/v/awtar/564f3385498e58f2bec66a2c","categoryId":"4bf58dd8d48988d119941735","category":"Hookah Bar","checkinsCount":163,"usersCount":63,"tipCount":6,"visitsCount":168,"tier":"","message":"","currency":"","rating":6.6},{"name":"Felfela","phone":"+85228401140","address":"Wing Wah Ln","lat":22.281182039999997,"lng":114.155258,"neighborhood":"中西区","city_fetched":"Hong Kong,China","state":"中西區","country":"香港","canonicalUrl":"https://foursquare.com/v/felfela/4cd435c1607a6dcb5b351454","categoryId":"4bf58dd8d48988d119941735","category":"Hookah Bar","checkinsCount":641,"usersCount":468,"tipCount":13,"visitsCount":647,"tier":"","message":"","currency":"","rating":6.6},{"name":"Marlins","phone":"+85221218070","address":"56 D'Aguilar St","lat":22.28054019579145,"lng":114.15533520408599,"neighborhood":"中西区","city_fetched":"Hong Kong,China","state":"中西區","country":"香港","canonicalUrl":"https://foursquare.com/v/marlins/4c2b1e1ad1a10f47b563f764","categoryId":"4bf58dd8d48988d116941735","category":"Bar","checkinsCount":298,"usersCount":174,"tipCount":5,"visitsCount":299,"tier":"","message":"","currency":"","rating":6.6},{"name":"G & T Cocktail Bar","address":"Unit A, UG/F, Shama Place, 30 Hollywood Rd","lat":22.282219628421245,"lng":114.15348315028986,"neighborhood":"中区","city_fetched":"Hong Kong,China","state":"中西區","country":"香港","canonicalUrl":"https://foursquare.com/v/g--t-cocktail-bar/51434027e4b096dc0283bd83","categoryId":"4bf58dd8d48988d11e941735","category":"Cocktail Bar","checkinsCount":177,"usersCount":115,"tipCount":3,"visitsCount":177,"tier":"","message":"","currency":"","rating":6.6},{"name":"Doghouse","phone":"+85225280868","address":"72-88 Lockhart Rd.","lat":22.278194852268324,"lng":114.17133569831229,"neighborhood":"中西区","city_fetched":"Hong Kong,China","state":"灣仔區","country":"香港","canonicalUrl":"https://foursquare.com/v/doghouse/4b41c4d8f964a520cdc825e3","categoryId":"4bf58dd8d48988d116941735","category":"Bar","checkinsCount":1286,"usersCount":525,"tipCount":13,"visitsCount":1292,"url":"http://www.thedoghouse.hk","tier":"","message":"","currency":"","rating":6.5},{"name":"Quay West","address":"25 New Praya","lat":22.28396764621185,"lng":114.12755939682968,"city_fetched":"Hong Kong,China","country":"香港","canonicalUrl":"https://foursquare.com/v/quay-west/4f64366de4b06cb9fb01f325","categoryId":"4bf58dd8d48988d116941735","category":"Bar","checkinsCount":267,"usersCount":81,"tipCount":3,"visitsCount":275,"tier":"","message":"","currency":"","rating":6.5},{"name":"Bungalow","phone":"+85226237868","address":"Shop 2, G/F, The Centrium, 60 Wyndham Street","lat":22.280882987461926,"lng":114.15498105019438,"neighborhood":"中西区","city_fetched":"Hong Kong,China","state":"中西區","country":"香港","canonicalUrl":"https://foursquare.com/v/bungalow/541ac13f498e44b6f4c3d474","categoryId":"4bf58dd8d48988d11f941735","category":"Nightclub","checkinsCount":1210,"usersCount":635,"tipCount":8,"visitsCount":1247,"tier":"","message":"","currency":"","rating":6.5},{"name":"Vosé Bar","address":"G/F, Wing Wah Building, 128 Electric Road, Tin Hau","lat":22.2854126365821,"lng":114.19158513031388,"neighborhood":"北角","city_fetched":"Hong Kong,China","country":"香港","canonicalUrl":"https://foursquare.com/v/vos%C3%A9-bar/5469fbbc498e0d4b2e0350dd","categoryId":"4bf58dd8d48988d116941735","category":"Bar","checkinsCount":68,"usersCount":54,"tipCount":2,"visitsCount":69,"tier":"","message":"","currency":"","rating":6.5},{"name":"NARA Thai Restaurant Bar","phone":"+85223322238","address":"75 Mody Rd, South Sea Centre","lat":22.29945873335725,"lng":114.17819204656617,"neighborhood":"尖沙咀","city_fetched":"Hong Kong,China","state":"Kowloon City","country":"香港","canonicalUrl":"https://foursquare.com/v/nara-thai-restaurant-bar/4be2cbc1d27a20a1d558905b","categoryId":"4bf58dd8d48988d116941735","category":"Bar","checkinsCount":740,"usersCount":412,"tipCount":16,"visitsCount":749,"tier":"","message":"","currency":"","rating":6.5},{"name":"BrewDog Hong Kong","phone":"+85222199905","twitter":"brewdoghongkong","address":"19 Hollywood Rd","lat":22.28205474632058,"lng":114.1540753438779,"neighborhood":"中区","city_fetched":"Hong Kong,China","state":"中西區","country":"香港","canonicalUrl":"https://foursquare.com/v/brewdog-hong-kong/56b1f8e9498e1c8d71695733","categoryId":"56aa371ce4b08b9a8d57356c","category":"Beer Bar","checkinsCount":191,"usersCount":132,"tipCount":8,"visitsCount":197,"url":"https://www.brewdog.com/bars/worldwide/hong-kong","tier":"","message":"","currency":"","rating":6.5},{"name":"Quench K-Town","address":"1 Sands Street","lat":22.283015504984256,"lng":114.13029408973813,"neighborhood":"西湾","city_fetched":"Hong Kong,China","country":"香港","canonicalUrl":"https://foursquare.com/v/quench-ktown/5488164a498ef680284b20f7","categoryId":"4bf58dd8d48988d116941735","category":"Bar","checkinsCount":84,"usersCount":26,"tipCount":1,"visitsCount":111,"tier":"","message":"","currency":"","rating":6.5},{"name":"Neway CEO","phone":"+85223590123","address":"17/F, MegaBox, 38 Wang Chiu Rd","lat":22.31959276216388,"lng":114.20837380178548,"neighborhood":"九龙湾","city_fetched":"Hong Kong,China","country":"香港","canonicalUrl":"https://foursquare.com/v/neway-ceo/4ba4d8cef964a520ccba38e3","categoryId":"4bf58dd8d48988d120941735","category":"Karaoke Bar","checkinsCount":507,"usersCount":360,"tipCount":5,"visitsCount":509,"url":"http://www.newaykb.com.hk","tier":"","message":"","currency":"","rating":6.5},{"name":"Maya Bar & Lounge","phone":"+85228666200","address":"68-70 Lockhart Rd","lat":22.278208217414154,"lng":114.17111508584763,"neighborhood":"中西区","city_fetched":"Hong Kong,China","state":"灣仔區","country":"香港","canonicalUrl":"https://foursquare.com/v/maya-bar--lounge/4b4094fef964a52020b925e3","categoryId":"4bf58dd8d48988d11e941735","category":"Cocktail Bar","checkinsCount":499,"usersCount":238,"tipCount":6,"visitsCount":499,"tier":"","message":"","currency":"","rating":6.5},{"name":"The Keg","lat":22.28065,"lng":114.155337,"neighborhood":"中西区","city_fetched":"Hong Kong,China","country":"香港","canonicalUrl":"https://foursquare.com/v/the-keg/4c42bc23520fa5937eb5cbac","categoryId":"4bf58dd8d48988d116941735","category":"Bar","checkinsCount":500,"usersCount":387,"tipCount":8,"visitsCount":508,"tier":"","message":"","currency":"","rating":6.5},{"name":"Tin Tin Bar 天天吧","phone":"+85237231234","address":"4/F, Hyatt Regency Hong Kong Sha Tin, 18 Chak Cheung St","lat":22.411989623489724,"lng":114.21110219017673,"neighborhood":"沙田区","city_fetched":"Hong Kong,China","state":"沙田區","country":"香港","canonicalUrl":"https://foursquare.com/v/tin-tin-bar-%E5%A4%A9%E5%A4%A9%E5%90%A7/4b978e21f964a520980835e3","categoryId":"4bf58dd8d48988d1d5941735","category":"Hotel Bar","checkinsCount":423,"usersCount":186,"tipCount":7,"visitsCount":424,"tier":"","message":"","currency":"","rating":6.5},{"name":"JC Café‎ & Bar","phone":"+85223013339","address":"G/F, Hody Commercial Bldg, 6 Hart Ave","lat":22.297765,"lng":114.174317,"neighborhood":"尖沙咀","city_fetched":"Hong Kong,China","state":"Kowloon City","country":"香港","canonicalUrl":"https://foursquare.com/v/jc-caf%C3%A9--bar/51ea9898498ecb556f13c5d0","categoryId":"4bf58dd8d48988d116941735","category":"Bar","checkinsCount":258,"usersCount":133,"tipCount":4,"visitsCount":261,"url":"http://www.jccafebar.com.hk","tier":"","message":"","currency":"","rating":6.5},{"name":"Cielo 星幕","phone":"+85239830688","address":"47/F, Crowne Plaza Hong Kong Kowloon East, 3 Tong Tak St","lat":22.308690600064633,"lng":114.2599316287876,"neighborhood":"西贡区","city_fetched":"Hong Kong,China","country":"香港","canonicalUrl":"https://foursquare.com/v/cielo-%E6%98%9F%E5%B9%95/4e5094f81f6eae4d252b77b2","categoryId":"4bf58dd8d48988d1d5941735","category":"Hotel Bar","checkinsCount":367,"usersCount":238,"tipCount":7,"visitsCount":379,"tier":"","message":"","currency":"","rating":6.5},{"name":"Happy Valley Bar & Grill","phone":"+85222505722","address":"38 Wong Nai Chung Rd","lat":22.270368836488803,"lng":114.184758017651,"city_fetched":"Hong Kong,China","country":"香港","canonicalUrl":"https://foursquare.com/v/happy-valley-bar--grill/4c99e60ab8e9224b28c7483d","categoryId":"4bf58dd8d48988d11b941735","category":"Pub","checkinsCount":1337,"usersCount":455,"tipCount":25,"visitsCount":1473,"tier":"","message":"","currency":"","rating":6.5},{"name":"Havana Bar","phone":"+85228514880","address":"4/F, The Plaza LKF, 21 D'Aguilar St","lat":22.28117882152402,"lng":114.1551842532814,"neighborhood":"中西区","city_fetched":"Hong Kong,China","state":"中西區","country":"香港","canonicalUrl":"https://foursquare.com/v/havana-bar/50cb59c5e4b046174b2fa66e","categoryId":"4bf58dd8d48988d11e941735","category":"Cocktail Bar","checkinsCount":604,"usersCount":373,"tipCount":16,"visitsCount":615,"tier":"","message":"","currency":"","rating":6.4},{"name":"One+One","phone":"+85226943869","address":"G/F, Royal Park Hotel, 8 Pak Hok Ting St","lat":22.38025051013493,"lng":114.18862440571164,"neighborhood":"沙田","city_fetched":"Hong Kong,China","state":"沙田區","country":"香港","canonicalUrl":"https://foursquare.com/v/oneone/4ba45da3f964a520d89838e3","categoryId":"4bf58dd8d48988d1d5941735","category":"Hotel Bar","checkinsCount":297,"usersCount":142,"tipCount":9,"visitsCount":298,"url":"http://www.royalpark.com.hk","tier":"","message":"","currency":"","rating":6.4},{"name":"Time Bar","phone":"+85223326565","address":"65 Hollywood Rd","lat":22.28332011029662,"lng":114.15303029583805,"neighborhood":"中区","city_fetched":"Hong Kong,China","state":"中西區","country":"香港","canonicalUrl":"https://foursquare.com/v/time-bar/4bfa98bf633d9c7480190843","categoryId":"4bf58dd8d48988d1d8941735","category":"Gay Bar","checkinsCount":803,"usersCount":401,"tipCount":17,"visitsCount":813,"tier":"","message":"","currency":"","rating":6.4},{"name":"Vice Bar","phone":"+85225210833","address":"38-44 D'Aguilar St.","lat":22.280701055593212,"lng":114.15553840701126,"neighborhood":"中西区","city_fetched":"Hong Kong,China","state":"中西區","country":"香港","canonicalUrl":"https://foursquare.com/v/vice-bar/4e0cce13fa76eaf8b3a0d8c6","categoryId":"4bf58dd8d48988d123941735","category":"Wine Bar","checkinsCount":448,"usersCount":205,"tipCount":9,"visitsCount":450,"tier":"","message":"","currency":"","rating":6.4},{"name":"Chocolate Bar","phone":"+85228101788","twitter":"drinkchocolate","address":"G/F, 2 Lan Kwai Fong","lat":22.28106865566216,"lng":114.15559065917705,"neighborhood":"中西区","city_fetched":"Hong Kong,China","state":"中西區","country":"香港","canonicalUrl":"https://foursquare.com/v/chocolate-bar/4b912063f964a5203ba533e3","categoryId":"4bf58dd8d48988d121941735","category":"Lounge","checkinsCount":703,"usersCount":322,"tipCount":13,"visitsCount":703,"tier":"","message":"","currency":"","rating":6.4},{"name":"Hong Kong Brew House","phone":"+85225225559","address":"B/F-G/F, 21 D'Aguilar St","lat":22.281243977532693,"lng":114.15556163019681,"neighborhood":"中西区","city_fetched":"Hong Kong,China","state":"中西區","country":"香港","canonicalUrl":"https://foursquare.com/v/hong-kong-brew-house/4b069ee5f964a520d1ed22e3","categoryId":"4bf58dd8d48988d116941735","category":"Bar","checkinsCount":2429,"usersCount":1502,"tipCount":56,"visitsCount":2466,"url":"http://www.elgrande.com.hk/outlets/HongKong/HongKongBrewHouseLKF/page1/","tier":"","message":"","currency":"","rating":6.4},{"name":"Pavilion","phone":"+85239803980","address":"27/F, Crowne Plaza Hong Kong Causeway Bay, 8 Leighton Rd","lat":22.277064,"lng":114.182755,"city_fetched":"Hong Kong,China","country":"香港","canonicalUrl":"https://foursquare.com/v/pavilion/4d1b135683c5a1cd75c3284e","categoryId":"4bf58dd8d48988d1d5941735","category":"Hotel Bar","checkinsCount":656,"usersCount":370,"tipCount":5,"visitsCount":659,"url":"http://www.cphongkong.com/en/facilities_2_1.asp","tier":"","message":"","currency":"","rating":6.4},{"name":"Red MR","phone":"+85231253111","address":"8/F, Windsor House, 311 Gloucester Rd","lat":22.28083896642936,"lng":114.18696406906021,"neighborhood":"Causeway Bay","city_fetched":"Hong Kong,China","country":"香港","canonicalUrl":"https://foursquare.com/v/red-mr/4d0cd417257d6dcb792b9867","categoryId":"4bf58dd8d48988d120941735","category":"Karaoke Bar","checkinsCount":2059,"usersCount":1216,"tipCount":9,"visitsCount":2101,"url":"http://www.redmr.com","tier":"","message":"","currency":"","rating":6.4},{"name":"Red MR","phone":"+85231253555","address":"3-4/F, MPM, 240-244 Portland St","lat":22.31843789377293,"lng":114.16878703707827,"neighborhood":"Mong Kok","city_fetched":"Hong Kong,China","country":"香港","canonicalUrl":"https://foursquare.com/v/red-mr-%E7%B4%85%E4%BA%BA%E6%B4%BE%E5%B0%8D/4fed6d6ee4b01127cb37777b","categoryId":"4bf58dd8d48988d120941735","category":"Karaoke Bar","checkinsCount":300,"usersCount":193,"tipCount":3,"visitsCount":300,"url":"http://www.redmr.com","tier":"","message":"","currency":"","rating":6.4},{"name":"The Stadium","address":"4/F, The Wave, 4 Hing Yip St","lat":22.309986476551874,"lng":114.22461036301142,"neighborhood":"观塘","city_fetched":"Hong Kong,China","state":"Kowloon","country":"香港","canonicalUrl":"https://foursquare.com/v/the-stadium/56ca9932498e72a4a37d6ee7","categoryId":"4bf58dd8d48988d11d941735","category":"Sports Bar","checkinsCount":118,"usersCount":83,"tipCount":3,"visitsCount":124,"tier":"","message":"","currency":"","rating":6.4},{"name":"Solas","phone":"+85231623710","address":"G/F, Centrium, 60 Wydham St","lat":22.28066503758271,"lng":114.1549636327826,"neighborhood":"中西区","city_fetched":"Hong Kong,China","state":"中西區","country":"香港","canonicalUrl":"https://foursquare.com/v/solas/4b33c9bcf964a5202e1f25e3","categoryId":"4bf58dd8d48988d11f941735","category":"Nightclub","checkinsCount":2437,"usersCount":1202,"tipCount":21,"visitsCount":2453,"url":"http://www.solas.com.hk","tier":"","message":"","currency":"","rating":6.3},{"name":"Zentro Garden","phone":"+85228028000","address":"8 Tung Chung Waterfront Rd","lat":22.292884,"lng":113.943053,"neighborhood":"Seaview Crescent","city_fetched":"Hong Kong,China","country":"香港","canonicalUrl":"https://foursquare.com/v/zentro-garden/4bb46eff737d76b0685f3b7c","categoryId":"4bf58dd8d48988d117941735","category":"Beer Garden","checkinsCount":1079,"usersCount":384,"tipCount":15,"visitsCount":1147,"tier":"","message":"","currency":"","rating":6.3},{"name":"Steamer's Bar & Restaurant 火船","phone":"+85227926991","address":"32 Chan Man St","lat":22.38067416090713,"lng":114.27137776459288,"neighborhood":"西贡","city_fetched":"Hong Kong,China","state":"Sai Kung District","country":"香港","canonicalUrl":"https://foursquare.com/v/steamers-bar--restaurant-%E7%81%AB%E8%88%B9/4b0588d0f964a52039db22e3","categoryId":"4bf58dd8d48988d116941735","category":"Bar","checkinsCount":800,"usersCount":299,"tipCount":15,"visitsCount":963,"tier":"","message":"","currency":"","rating":6.3},{"name":"Skyzone Deck & Lounge 星域酒廊","phone":"+85239198338","address":"30/F Rosedale Hotel Kowloon","lat":22.320991665387517,"lng":114.16210471439226,"city_fetched":"Hong Kong,China","country":"香港","canonicalUrl":"https://foursquare.com/v/skyzone-deck--lounge-%E6%98%9F%E5%9F%9F%E9%85%92%E5%BB%8A/50827d9ae4b0ad74a81f46de","categoryId":"4bf58dd8d48988d1d5941735","category":"Hotel Bar","checkinsCount":244,"usersCount":185,"tipCount":9,"visitsCount":244,"url":"http://kowloon.rosedalehotels.com/en/dining/SkyzoneDeckLounge/","tier":"","message":"","currency":"","rating":6.3},{"name":"Ladies' Market","address":"1A-91A Tung Choi St","lat":22.317972222222224,"lng":114.17082777777777,"neighborhood":"Mong Kok","city_fetched":"Hong Kong,China","country":"香港","canonicalUrl":"https://foursquare.com/v/ladies-market-%E5%A5%B3%E4%BA%BA%E8%A1%97/4bc3dbe52a89ef3bfbb0f588","categoryId":"53e510b7498ebcb1801b55d4","category":"Night Market","checkinsCount":15374,"usersCount":14523,"tipCount":163,"visitsCount":18108,"tier":1,"message":"Cheap","currency":"$","rating":6.3},{"name":"Intime","phone":"+85221110800","address":"21A Ashley Rd","lat":22.29716612111172,"lng":114.17058097100364,"neighborhood":"尖沙咀","city_fetched":"Hong Kong,China","state":"Kowloon City","country":"香港","canonicalUrl":"https://foursquare.com/v/intime/4b9c7747f964a520a96a36e3","categoryId":"4bf58dd8d48988d123941735","category":"Wine Bar","checkinsCount":481,"usersCount":280,"tipCount":9,"visitsCount":498,"tier":"","message":"","currency":"","rating":6.3},{"name":"Levels","phone":"+85228111568","twitter":"levelshk","address":"2/F, On Hing Bldg, 1 On Hing Terrace","lat":22.280786357064557,"lng":114.15624090783774,"neighborhood":"中西区","city_fetched":"Hong Kong,China","state":"中西區","country":"香港","canonicalUrl":"https://foursquare.com/levelshk","categoryId":"4bf58dd8d48988d11f941735","category":"Nightclub","checkinsCount":2520,"usersCount":1072,"tipCount":6,"visitsCount":2570,"url":"http://www.levels.hk","tier":"","message":"","currency":"","rating":6.3},{"name":"The Jockey","phone":"+85225722266","address":"33 Wong Nai Chung Rd","lat":22.270286727713817,"lng":114.18481026636499,"city_fetched":"Hong Kong,China","country":"香港","canonicalUrl":"https://foursquare.com/v/the-jockey/4b2359ebf964a520595524e3","categoryId":"4bf58dd8d48988d11b941735","category":"Pub","checkinsCount":1129,"usersCount":453,"tipCount":12,"visitsCount":1246,"tier":"","message":"","currency":"","rating":6.3},{"name":"Trafalgar","phone":"+85221101535","address":"5/F, The Broadway, 54-62 Lockhart Rd","lat":22.278114024624884,"lng":114.17086869478226,"neighborhood":"中西区","city_fetched":"Hong Kong,China","state":"灣仔區","country":"香港","canonicalUrl":"https://foursquare.com/v/trafalgar/4b211555f964a520af3624e3","categoryId":"4bf58dd8d48988d11b941735","category":"Pub","checkinsCount":1460,"usersCount":689,"tipCount":16,"visitsCount":1487,"tier":"","message":"","currency":"","rating":6.3},{"name":"ZerveHK","phone":"+85295656304","twitter":"zervehk","address":"9/F., Bigfoot Centre","lat":22.277604400266448,"lng":114.18151858526647,"neighborhood":"铜锣湾","city_fetched":"Hong Kong,China","country":"香港","canonicalUrl":"https://foursquare.com/v/zervehk/53253ff511d23a014ea78298","categoryId":"4bf58dd8d48988d11d941735","category":"Sports Bar","checkinsCount":891,"usersCount":291,"tipCount":3,"visitsCount":956,"tier":"","message":"","currency":"","rating":6.3},{"name":"The Habitat Lounge","phone":"+85229070888","address":"29/F, QRE Plaza, 202 Queen's Rd E","lat":22.274926,"lng":114.171954,"neighborhood":"中西区","city_fetched":"Hong Kong,China","state":"灣仔區","country":"香港","canonicalUrl":"https://foursquare.com/v/the-habitat-lounge/4b41ecc5f964a52042ca25e3","categoryId":"4bf58dd8d48988d121941735","category":"Lounge","checkinsCount":502,"usersCount":366,"tipCount":1,"visitsCount":504,"tier":"","message":"","currency":"","rating":6.2},{"name":"Medusa","address":"49 Staunton St","lat":22.282469,"lng":114.152286,"neighborhood":"中区","city_fetched":"Hong Kong,China","state":"中西區","country":"香港","canonicalUrl":"https://foursquare.com/v/medusa/4f4f91b5e4b008082c796aeb","categoryId":"4bf58dd8d48988d116941735","category":"Bar","checkinsCount":267,"usersCount":172,"tipCount":6,"visitsCount":268,"tier":"","message":"","currency":"","rating":6.2},{"name":"Sohome","phone":"+85225460438","address":"10 Elgin St","lat":22.282657,"lng":114.152599,"neighborhood":"中区","city_fetched":"Hong Kong,China","state":"中西區","country":"香港","canonicalUrl":"https://foursquare.com/v/sohome/4ccada8c82bfa35d945b55c9","categoryId":"4bf58dd8d48988d119941735","category":"Hookah Bar","checkinsCount":177,"usersCount":127,"tipCount":1,"visitsCount":177,"tier":"","message":"","currency":"","rating":6.2},{"name":"Rúla Búla","phone":"+85221795552","twitter":"rulubuluhk","address":"58-62 D'Aguilar St","lat":22.280464866963392,"lng":114.15538745627563,"neighborhood":"中西区","city_fetched":"Hong Kong,China","state":"中西區","country":"香港","canonicalUrl":"https://foursquare.com/v/r%C3%BAla-b%C3%BAla/50bf5ef3e4b07d7ef33b7faf","categoryId":"4bf58dd8d48988d116941735","category":"Bar","checkinsCount":996,"usersCount":679,"tipCount":6,"visitsCount":1017,"tier":"","message":"","currency":"","rating":6.2},{"name":"Magnum Club","phone":"+85221161602","address":"3-4/F, Silver Fortune Plaza, 1 Wellington St","lat":22.2811235,"lng":114.1561885,"neighborhood":"中西区","city_fetched":"Hong Kong,China","state":"中西區","country":"香港","canonicalUrl":"https://foursquare.com/v/magnum-club/4ef1e02877c810388c456204","categoryId":"4bf58dd8d48988d11f941735","category":"Nightclub","checkinsCount":1771,"usersCount":1058,"tipCount":18,"visitsCount":1785,"tier":"","message":"","currency":"","rating":6.2},{"name":"Le Jardin","phone":"+85228771100","address":"10 Wing Wah Ln","lat":22.281205375124106,"lng":114.15529456348979,"neighborhood":"中西区","city_fetched":"Hong Kong,China","state":"中西區","country":"香港","canonicalUrl":"https://foursquare.com/v/le-jardin/4b0588ccf964a52093da22e3","categoryId":"4bf58dd8d48988d116941735","category":"Bar","checkinsCount":1114,"usersCount":642,"tipCount":11,"visitsCount":1128,"tier":"","message":"","currency":"","rating":6.2},{"name":"After 5","phone":"+85226633551","address":"Shop A, 5 Mei Sun Ln","lat":22.45336085837884,"lng":114.1651643133935,"neighborhood":"大埔","city_fetched":"Hong Kong,China","state":"Tai Po District","country":"香港","canonicalUrl":"https://foursquare.com/v/after-5/4cd4357f2561a35daeb235dd","categoryId":"4bf58dd8d48988d123941735","category":"Wine Bar","checkinsCount":193,"usersCount":80,"tipCount":4,"visitsCount":195,"tier":"","message":"","currency":"","rating":6.2},{"name":"The Bali","phone":"+85223885141","address":"15/F, Nathan Hotel, 378 Nathan Rd","lat":22.30777071199402,"lng":114.17173236608505,"city_fetched":"Hong Kong,China","country":"香港","canonicalUrl":"https://foursquare.com/v/the-bali/4bc84e5a92b376b0011b513a","categoryId":"4bf58dd8d48988d121941735","category":"Lounge","checkinsCount":191,"usersCount":133,"tipCount":1,"visitsCount":192,"tier":"","message":"","currency":"","rating":6.2},{"name":"The Backyard","phone":"+85235523250","address":"Level 4, Cordis, Hong Kong, 555 Shanghai St","lat":22.318712510237727,"lng":114.16799166598808,"city_fetched":"Hong Kong,China","country":"香港","canonicalUrl":"https://foursquare.com/v/the-backyard/4b95bf6df964a520d2b134e3","categoryId":"4bf58dd8d48988d1d5941735","category":"Hotel Bar","checkinsCount":423,"usersCount":281,"tipCount":11,"visitsCount":425,"url":"http://hongkong.langhamplacehotels.com/restaurants/the_backyard.htm","tier":"","message":"","currency":"","rating":6.2},{"name":"Alhambra","phone":"+85221047200","address":"4/F, Ho Lee Bldg, 44 D'Aguilar St","lat":22.2809955904826,"lng":114.15533065795898,"neighborhood":"中西区","city_fetched":"Hong Kong,China","state":"中西區","country":"香港","canonicalUrl":"https://foursquare.com/v/alhambra/4b92e572f964a520302534e3","categoryId":"4bf58dd8d48988d119941735","category":"Hookah Bar","checkinsCount":1287,"usersCount":435,"tipCount":7,"visitsCount":1293,"tier":"","message":"","currency":"","rating":6.1},{"name":"The Central Wine Club","phone":"+85221473448","address":"3/F Sea Bird House, 22-28 Wyndham Street","lat":22.280577,"lng":114.156198,"neighborhood":"中西区","city_fetched":"Hong Kong,China","state":"中西區","country":"香港","canonicalUrl":"https://foursquare.com/v/the-central-wine-club/4cb8479f7148f04da85cceab","categoryId":"4bf58dd8d48988d123941735","category":"Wine Bar","checkinsCount":915,"usersCount":205,"tipCount":2,"visitsCount":918,"url":"http://www.thecentralwineclub.com","tier":"","message":"","currency":"","rating":6.1},{"name":"The Derby","address":"80-82 Morrison Hill Rd","lat":22.27597662419713,"lng":114.18015430105375,"city_fetched":"Hong Kong,China","state":"灣仔區","country":"香港","canonicalUrl":"https://foursquare.com/v/the-derby/4d5d2c29e7f7548178e82197","categoryId":"4bf58dd8d48988d11b941735","category":"Pub","checkinsCount":339,"usersCount":253,"tipCount":10,"visitsCount":355,"tier":"","message":"","currency":"","rating":6.1},{"name":"The Roundhouse - Chicken + Beer","address":"G/F 29 Amoy Street","lat":22.276044,"lng":114.172062,"neighborhood":"中西区","city_fetched":"Hong Kong,China","state":"灣仔區","country":"香港","canonicalUrl":"https://foursquare.com/v/the-roundhouse--chicken--beer/5645aee0498e1318f8784f3d","categoryId":"56aa371ce4b08b9a8d57356c","category":"Beer Bar","checkinsCount":293,"usersCount":154,"tipCount":5,"visitsCount":308,"tier":"","message":"","currency":"","rating":6.1},{"name":"All Night Long","phone":"+85223679487","address":"9 Knutsford Terrace","lat":22.301132,"lng":114.173902,"neighborhood":"尖沙咀","city_fetched":"Hong Kong,China","state":"Kowloon City","country":"香港","canonicalUrl":"https://foursquare.com/v/all-night-long/4ba8ca10f964a520f3ee39e3","categoryId":"4bf58dd8d48988d116941735","category":"Bar","checkinsCount":693,"usersCount":511,"tipCount":12,"visitsCount":696,"tier":"","message":"","currency":"","rating":6.1},{"name":"Lobby Lounge 萬麗海景酒店大堂酒廊","phone":"+85228028888","address":"Lobby, Renaissance Harbour View Hotel Hong Kong, 1 Harbour Road","lat":22.281481025973687,"lng":114.1745171500307,"city_fetched":"Hong Kong,China","state":"灣仔區","country":"香港","canonicalUrl":"https://foursquare.com/v/lobby-lounge-%E8%90%AC%E9%BA%97%E6%B5%B7%E6%99%AF%E9%85%92%E5%BA%97%E5%A4%A7%E5%A0%82%E9%85%92%E5%BB%8A/4e958fd5dab450040c6093d2","categoryId":"4bf58dd8d48988d1d5941735","category":"Hotel Bar","checkinsCount":278,"usersCount":187,"tipCount":2,"visitsCount":278,"url":"http://renaissanceharbourviewhk.com","tier":"","message":"","currency":"","rating":6},{"name":"McSorley's","phone":"+85229878280","address":"G11A-1 Discovery Bay Plaza","lat":22.296214,"lng":114.016489,"neighborhood":"愉景湾","city_fetched":"Hong Kong,China","country":"香港","canonicalUrl":"https://foursquare.com/v/mcsorleys/4b7902fff964a520e3e82ee3","categoryId":"4bf58dd8d48988d11b941735","category":"Pub","checkinsCount":678,"usersCount":199,"tipCount":13,"visitsCount":688,"url":"http://www.mcsorelys.com.hk","tier":"","message":"","currency":"","rating":6},{"name":"The Dog House","lat":22.29646334795514,"lng":114.17664778097652,"neighborhood":"尖沙咀","city_fetched":"Hong Kong,China","state":"Kowloon City","country":"香港","canonicalUrl":"https://foursquare.com/v/the-dog-house/4ef06904be7ba3ed7b980f26","categoryId":"4bf58dd8d48988d11b941735","category":"Pub","checkinsCount":480,"usersCount":364,"tipCount":8,"visitsCount":484,"tier":"","message":"","currency":"","rating":6},{"name":"Hair of the Dog","address":"Hart Avenue","lat":22.297917274633413,"lng":114.17448231674179,"neighborhood":"尖沙咀","city_fetched":"Hong Kong,China","state":"Kowloon City","country":"香港","canonicalUrl":"https://foursquare.com/v/hair-of-the-dog/4dfe5e7752b1267800ce15ea","categoryId":"4bf58dd8d48988d11b941735","category":"Pub","checkinsCount":146,"usersCount":132,"tipCount":0,"visitsCount":146,"tier":"","message":"","currency":"","rating":6},{"name":"The Queen Victoria","phone":"+85225297800","address":"108 Lockhart Rd","lat":22.278307,"lng":114.172148,"city_fetched":"Hong Kong,China","state":"灣仔區","country":"香港","canonicalUrl":"https://foursquare.com/v/the-queen-victoria/4d1df1840901721e7b1b7da5","categoryId":"4bf58dd8d48988d116941735","category":"Bar","checkinsCount":2029,"usersCount":537,"tipCount":20,"visitsCount":2066,"tier":"","message":"","currency":"","rating":6},{"name":"Bloop Shisha Lounge","phone":"+85226861234","address":"21/F, Ho Lee Commercial Bldg, 38-44 D'Aguilar St","lat":22.281039586699233,"lng":114.15489396312867,"neighborhood":"中西区","city_fetched":"Hong Kong,China","state":"中西區","country":"香港","canonicalUrl":"https://foursquare.com/v/bloop-shisha-lounge/4f7cca946d86fe2cd8aef8ce","categoryId":"4bf58dd8d48988d119941735","category":"Hookah Bar","checkinsCount":1510,"usersCount":657,"tipCount":25,"visitsCount":1521,"url":"http://www.bloop.com.hk","tier":"","message":"","currency":"","rating":6},{"name":"Fly","phone":"+85228109902","address":"24-30 Ice House St","lat":22.280334,"lng":114.156521,"neighborhood":"中区","city_fetched":"Hong Kong,China","state":"中西區","country":"香港","canonicalUrl":"https://foursquare.com/v/fly/4d132cecd0fda0931815b157","categoryId":"4bf58dd8d48988d121941735","category":"Lounge","checkinsCount":2994,"usersCount":1194,"tipCount":18,"visitsCount":3049,"url":"http://www.clubfly.com.hk","tier":"","message":"","currency":"","rating":6},{"name":"Insiders","address":"Fenwick St","lat":22.278692181735565,"lng":114.17038938617414,"neighborhood":"中西区","city_fetched":"Hong Kong,China","state":"灣仔區","country":"香港","canonicalUrl":"https://foursquare.com/v/insiders/4e7e4a298b818296907dafff","categoryId":"4bf58dd8d48988d116941735","category":"Bar","checkinsCount":436,"usersCount":176,"tipCount":6,"visitsCount":438,"tier":"","message":"","currency":"","rating":6},{"name":"Penthouse Sky Lounge","phone":"+85228339992","address":"29/F, The Sun's Group Centre, 200 Gloucester Rd","lat":22.280642239019638,"lng":114.17938797785567,"city_fetched":"Hong Kong,China","state":"灣仔區","country":"香港","canonicalUrl":"https://foursquare.com/v/penthouse-sky-lounge/4bb41b7bf187a59350e913f8","categoryId":"4bf58dd8d48988d121941735","category":"Lounge","checkinsCount":2372,"usersCount":540,"tipCount":5,"visitsCount":2422,"tier":"","message":"","currency":"","rating":6},{"name":"The Junk Pub","phone":"+85228650609","address":"118 Jaffe Road, G/F, Shop B","lat":22.27873499186252,"lng":114.17274645436463,"city_fetched":"Hong Kong,China","state":"灣仔區","country":"香港","canonicalUrl":"https://foursquare.com/v/the-junk-pub/4b793776f964a5206eef2ee3","categoryId":"4bf58dd8d48988d11b941735","category":"Pub","checkinsCount":282,"usersCount":79,"tipCount":4,"visitsCount":282,"tier":"","message":"","currency":"","rating":5.9},{"name":"Zentral","address":"California Tower","lat":22.281358433007004,"lng":114.15556743599302,"neighborhood":"中西区","city_fetched":"Hong Kong,China","country":"香港","canonicalUrl":"https://foursquare.com/v/zentral/549974d4498ed095ccedb89a","categoryId":"4bf58dd8d48988d11f941735","category":"Nightclub","checkinsCount":478,"usersCount":312,"tipCount":3,"visitsCount":486,"tier":"","message":"","currency":"","rating":5.9},{"name":"Quench","phone":"+85225377277","address":"49 Staunton St","lat":22.282606784390964,"lng":114.15220006148031,"neighborhood":"中区","city_fetched":"Hong Kong,China","state":"中西區","country":"香港","canonicalUrl":"https://foursquare.com/v/quench/4b0d38e1f964a520c74423e3","categoryId":"4bf58dd8d48988d116941735","category":"Bar","checkinsCount":892,"usersCount":163,"tipCount":5,"visitsCount":898,"tier":"","message":"","currency":"","rating":5.9},{"name":"Club @28","phone":"+85239803300","address":"28/F, Crowne Plaza Hotel, 8 Leighton Rd","lat":22.277039316902908,"lng":114.18259263038635,"city_fetched":"Hong Kong,China","country":"香港","canonicalUrl":"https://foursquare.com/v/club-28/4bbf5d5d85fbb713210b7267","categoryId":"4bf58dd8d48988d1d5941735","category":"Hotel Bar","checkinsCount":1052,"usersCount":683,"tipCount":10,"visitsCount":1067,"url":"http://www.cphongkong.com","tier":"","message":"","currency":"","rating":5.9},{"name":"China Bear 中國熊","phone":"+85229849720","address":"G/F, Mui Wo Centre, 3 Ngan Wan Rd","lat":22.26434179703365,"lng":114.00195491672778,"neighborhood":"梅窝","city_fetched":"Hong Kong,China","country":"香港","canonicalUrl":"https://foursquare.com/v/china-bear-%E4%B8%AD%E5%9C%8B%E7%86%8A/4beff1f525afb7137dca4a6f","categoryId":"4bf58dd8d48988d11b941735","category":"Pub","checkinsCount":732,"usersCount":359,"tipCount":15,"visitsCount":828,"tier":"","message":"","currency":"","rating":5.9},{"name":"Al's Diner","phone":"+85225218714","address":"G/F, 27-30 D'Aguilar St","lat":22.28086404742592,"lng":114.15514558553696,"neighborhood":"中西区","city_fetched":"Hong Kong,China","state":"中西區","country":"香港","canonicalUrl":"https://foursquare.com/v/als-diner/4b192672f964a52084d823e3","categoryId":"4bf58dd8d48988d116941735","category":"Bar","checkinsCount":1494,"usersCount":841,"tipCount":12,"visitsCount":1501,"tier":"","message":"","currency":"","rating":5.9},{"name":"The White Stag","phone":"+85228664244","address":"54-62 Lockhart Rd","lat":22.27802715479248,"lng":114.17087137699127,"neighborhood":"中西区","city_fetched":"Hong Kong,China","state":"灣仔區","country":"香港","canonicalUrl":"https://foursquare.com/v/the-white-stag/4b1a4772f964a52097e823e3","categoryId":"4bf58dd8d48988d11b941735","category":"Pub","checkinsCount":1054,"usersCount":472,"tipCount":18,"visitsCount":1092,"tier":"","message":"","currency":"","rating":5.9},{"name":"Muse Bar","address":"Shop D, Block A, 27-35, Winner Building","lat":22.28094981775318,"lng":114.15542229106534,"neighborhood":"中西区","city_fetched":"Hong Kong,China","country":"香港","canonicalUrl":"https://foursquare.com/v/muse-bar/4f63206de4b0aa8f65c89bec","categoryId":"4bf58dd8d48988d116941735","category":"Bar","checkinsCount":649,"usersCount":480,"tipCount":7,"visitsCount":654,"tier":"","message":"","currency":"","rating":5.9},{"name":"Forever Lounge 濃情酒吧","phone":"+85228876543","address":"176-178 Tung Lo Wan Rd","lat":22.281757761774276,"lng":114.19189861763157,"neighborhood":"铜锣湾","city_fetched":"Hong Kong,China","country":"香港","canonicalUrl":"https://foursquare.com/v/forever-lounge-%E6%BF%83%E6%83%85%E9%85%92%E5%90%A7/4c14f90d7f7f2d7feb9fe168","categoryId":"4bf58dd8d48988d11b941735","category":"Pub","checkinsCount":173,"usersCount":106,"tipCount":5,"visitsCount":176,"tier":"","message":"","currency":"","rating":5.9},{"name":"Where Bar","phone":"+85221359999","address":"4/F, Century House, 3-4 Hanoi Rd","lat":22.297909,"lng":114.174016,"neighborhood":"尖沙咀","city_fetched":"Hong Kong,China","state":"Kowloon City","country":"香港","canonicalUrl":"https://foursquare.com/v/where-bar/4b2e0b17f964a5207fdc24e3","categoryId":"4bf58dd8d48988d116941735","category":"Bar","checkinsCount":610,"usersCount":393,"tipCount":12,"visitsCount":615,"tier":"","message":"","currency":"","rating":5.8},{"name":"Taboo","address":"25 Luard Rd","lat":22.278357259868525,"lng":114.17183965444565,"city_fetched":"Hong Kong,China","state":"灣仔區","country":"香港","canonicalUrl":"https://foursquare.com/v/taboo/565ed5b2498e8dedbd00ec37","categoryId":"4bf58dd8d48988d11b941735","category":"Pub","checkinsCount":87,"usersCount":53,"tipCount":2,"visitsCount":90,"tier":"","message":"","currency":"","rating":5.8},{"name":"6 Degrees","address":"55 Wyhdham St","lat":22.280999393140032,"lng":114.15476623540145,"neighborhood":"中西区","city_fetched":"Hong Kong,China","state":"中西區","country":"香港","canonicalUrl":"https://foursquare.com/v/6-degrees/524c1517498ece3c11ecae2f","categoryId":"4bf58dd8d48988d121941735","category":"Lounge","checkinsCount":289,"usersCount":196,"tipCount":1,"visitsCount":290,"tier":"","message":"","currency":"","rating":5.8},{"name":"Cali Cali","phone":"+85223685698","address":"28 Hart Ave","lat":22.297819,"lng":114.174397,"neighborhood":"尖沙咀","city_fetched":"Hong Kong,China","state":"Kowloon City","country":"香港","canonicalUrl":"https://foursquare.com/v/cali-cali/4bcdd4d968f976b0f9df6483","categoryId":"4bf58dd8d48988d116941735","category":"Bar","checkinsCount":399,"usersCount":235,"tipCount":8,"visitsCount":402,"tier":"","message":"","currency":"","rating":5.8},{"name":"Bar 109","phone":"+85228613336","twitter":"rajgrghk","address":"G/F 109 Lockhart Rd","lat":22.27823438853714,"lng":114.17222395264808,"city_fetched":"Hong Kong,China","state":"灣仔區","country":"香港","canonicalUrl":"https://foursquare.com/v/bar-109/4b20da7ff964a520eb3424e3","categoryId":"4bf58dd8d48988d116941735","category":"Bar","checkinsCount":1443,"usersCount":420,"tipCount":17,"visitsCount":1447,"url":"http://www.bar109.com","tier":"","message":"","currency":"","rating":5.8},{"name":"Geronimo","phone":"+85228339951","address":"2/F, Winner Bldg, 27-39 D'Aguilar St","lat":22.28108601265981,"lng":114.15544551425694,"neighborhood":"中西区","city_fetched":"Hong Kong,China","state":"中西區","country":"香港","canonicalUrl":"https://foursquare.com/v/geronimo/549ee8e1498ed550217b7353","categoryId":"4bf58dd8d48988d116941735","category":"Bar","checkinsCount":268,"usersCount":147,"tipCount":2,"visitsCount":269,"url":"http://www.geronimoshotbar.com.hk","tier":"","message":"","currency":"","rating":5.8},{"name":"Boo","address":"5/F, Pearl Oriental Tower, No.225 Nathan Rd","lat":22.304204849793127,"lng":114.17167822797347,"neighborhood":"尖沙咀","city_fetched":"Hong Kong,China","country":"香港","canonicalUrl":"https://foursquare.com/v/boo/4caec32acbab236aeaf29273","categoryId":"4bf58dd8d48988d1d8941735","category":"Gay Bar","checkinsCount":545,"usersCount":201,"tipCount":4,"visitsCount":558,"tier":"","message":"","currency":"","rating":5.8},{"name":"Bar Six","lat":22.281465776347467,"lng":114.15448175078635,"neighborhood":"中西区","city_fetched":"Hong Kong,China","country":"香港","canonicalUrl":"https://foursquare.com/v/bar-six/4e3d7c8cd164b52911ad44b0","categoryId":"4bf58dd8d48988d121941735","category":"Lounge","checkinsCount":365,"usersCount":216,"tipCount":6,"visitsCount":366,"tier":"","message":"","currency":"","rating":5.8},{"name":"Billion Club","phone":"+85229739018","address":"3/F, On Hing Bldg, 1-9 On Hing Terrace","lat":22.280703814113515,"lng":114.15644411034923,"neighborhood":"中西区","city_fetched":"Hong Kong,China","state":"中西區","country":"香港","canonicalUrl":"https://foursquare.com/v/billion-club/4c10e31ba6c19521a86536dd","categoryId":"4bf58dd8d48988d11f941735","category":"Nightclub","checkinsCount":488,"usersCount":298,"tipCount":6,"visitsCount":489,"tier":"","message":"","currency":"","rating":5.7},{"name":"Waterfront Bar & Terrace 水雲間","phone":"+85229968455","address":"18 Tak Fung St, One Harbourfront","lat":22.302284078942357,"lng":114.19177651405334,"city_fetched":"Hong Kong,China","country":"香港","canonicalUrl":"https://foursquare.com/v/waterfront-bar--terrace-%E6%B0%B4%E9%9B%B2%E9%96%93/4cb3f6c239458cfaeb9c1da0","categoryId":"4bf58dd8d48988d1d5941735","category":"Hotel Bar","checkinsCount":454,"usersCount":286,"tipCount":4,"visitsCount":471,"tier":"","message":"","currency":"","rating":5.7},{"name":"Stormies","phone":"+85228455533","address":"48 D'Aguilar St","lat":22.28076725151275,"lng":114.15520191192627,"neighborhood":"中西区","city_fetched":"Hong Kong,China","state":"中西區","country":"香港","canonicalUrl":"https://foursquare.com/v/stormies/4b66e5f2f964a5204f2f2be3","categoryId":"4bf58dd8d48988d116941735","category":"Bar","checkinsCount":1627,"usersCount":1131,"tipCount":21,"visitsCount":1635,"tier":"","message":"","currency":"","rating":5.7},{"name":"Makumba","phone":"+85225220544","address":"2/F, Ho Lee Commercial Bldg, 38-44 D'Aguilar St","lat":22.281044360998226,"lng":114.15534100988515,"neighborhood":"中西区","city_fetched":"Hong Kong,China","country":"香港","canonicalUrl":"https://foursquare.com/v/makumba/4b9bc54bf964a5203f2336e3","categoryId":"4bf58dd8d48988d116941735","category":"Bar","checkinsCount":337,"usersCount":210,"tipCount":8,"visitsCount":337,"tier":"","message":"","currency":"","rating":5.7},{"name":"Neptune III","address":"Lockhart Road","lat":22.27833,"lng":114.170482,"neighborhood":"中西区","city_fetched":"Hong Kong,China","state":"灣仔區","country":"香港","canonicalUrl":"https://foursquare.com/v/neptune-iii/4c93630dfc9a224b18fff9f1","categoryId":"4bf58dd8d48988d118941735","category":"Dive Bar","checkinsCount":165,"usersCount":113,"tipCount":1,"visitsCount":166,"tier":"","message":"","currency":"","rating":5.7},{"name":"Tonic","phone":"+85225378010","address":"43 Wyndham St","lat":22.280662266471364,"lng":114.15491138054317,"neighborhood":"中西区","city_fetched":"Hong Kong,China","state":"中西區","country":"香港","canonicalUrl":"https://foursquare.com/v/tonic/4b194bf2f964a520cbda23e3","categoryId":"4bf58dd8d48988d121941735","category":"Lounge","checkinsCount":1743,"usersCount":990,"tipCount":10,"visitsCount":1766,"tier":"","message":"","currency":"","rating":5.7},{"name":"Red MR 紅人派對","phone":"+85231253222","address":"1-2/F, BCC Bldg, 25-31 Carnarvon Rd","lat":22.29815712818223,"lng":114.1736172891858,"neighborhood":"尖沙咀","city_fetched":"Hong Kong,China","state":"Kowloon City","country":"香港","canonicalUrl":"https://foursquare.com/v/red-mr-%E7%B4%85%E4%BA%BA%E6%B4%BE%E5%B0%8D/4d1b54982a52b60ce988f6ff","categoryId":"4bf58dd8d48988d120941735","category":"Karaoke Bar","checkinsCount":981,"usersCount":678,"tipCount":2,"visitsCount":1000,"url":"http://www.redmr.com","tier":"","message":"","currency":"","rating":5.7},{"name":"Cloud Nine","phone":"+85227236383","address":"8 Minden Ave","lat":22.296879,"lng":114.174018,"neighborhood":"尖沙咀","city_fetched":"Hong Kong,China","state":"Kowloon City","country":"香港","canonicalUrl":"https://foursquare.com/v/cloud-nine/4c753f98db52b1f7212578dc","categoryId":"4bf58dd8d48988d123941735","category":"Wine Bar","checkinsCount":1611,"usersCount":302,"tipCount":2,"visitsCount":1702,"tier":"","message":"","currency":"","rating":5.7},{"name":"Dakotas Bar and Lounge","phone":"+85227474782","address":"Cathay City","lat":22.29706018128327,"lng":113.93415053829783,"neighborhood":"赤腊角机场","city_fetched":"Hong Kong,China","state":"New Territories","country":"香港","canonicalUrl":"https://foursquare.com/v/dakotas-bar-and-lounge/4c189cd5834e2d7fce112980","categoryId":"4bf58dd8d48988d116941735","category":"Bar","checkinsCount":675,"usersCount":156,"tipCount":5,"visitsCount":675,"tier":"","message":"","currency":"","rating":5.6},{"name":"Privé","phone":"+85228108199","twitter":"privehkg","address":"B/F, Century Square, 1-13 D'Aguilar St","lat":22.28142248407822,"lng":114.15608167648315,"neighborhood":"中西区","city_fetched":"Hong Kong,China","state":"中西區","country":"香港","canonicalUrl":"https://foursquare.com/privehkg","categoryId":"4bf58dd8d48988d11f941735","category":"Nightclub","checkinsCount":3096,"usersCount":1235,"tipCount":9,"visitsCount":3118,"url":"http://www.prive.hk","tier":"","message":"","currency":"","rating":5.6},{"name":"Velocity Bar and Grill","phone":"+85239692583","address":"Hong Kong SkyCity Marriott Hotel, 1 Sky City Rd E","lat":22.318973857688757,"lng":113.94379265430275,"neighborhood":"赤腊角机场","city_fetched":"Hong Kong,China","country":"香港","canonicalUrl":"https://foursquare.com/v/velocity-bar-and-grill/4c2ddd97260bc928c49f1ad3","categoryId":"4bf58dd8d48988d116941735","category":"Bar","checkinsCount":213,"usersCount":163,"tipCount":6,"visitsCount":213,"tier":"","message":"","currency":"","rating":5.6},{"name":"Billy Boozer 比利吧","phone":"+85223390980","address":"Shop 20-22, G/F, Franki Centre, 320 Junction Rd","lat":22.339596098918683,"lng":114.18061293323929,"city_fetched":"Hong Kong,China","country":"香港","canonicalUrl":"https://foursquare.com/v/billy-boozer-%E6%AF%94%E5%88%A9%E5%90%A7/4bb186fff964a52032983ce3","categoryId":"4bf58dd8d48988d116941735","category":"Bar","checkinsCount":152,"usersCount":76,"tipCount":5,"visitsCount":153,"tier":"","message":"","currency":"","rating":5.6},{"name":"Rude Bar & Lounge","phone":"+85229509608","twitter":"rudebarhk","address":"79 Wyndham Street, Upper Basement (Top of Pottinger Street)","lat":22.28211773840076,"lng":114.15466173087012,"neighborhood":"中西区","city_fetched":"Hong Kong,China","country":"香港","canonicalUrl":"https://foursquare.com/v/rude-bar--lounge/54dda312498e8315459fade0","categoryId":"4bf58dd8d48988d11d941735","category":"Sports Bar","checkinsCount":137,"usersCount":99,"tipCount":1,"visitsCount":140,"url":"http://rudehk.com","tier":"","message":"","currency":"","rating":5.6},{"name":"Jagger","phone":"+85223126686","address":"Shop 26-30, FHP Shopping Centre, 31-43 Mody Rd","lat":22.297608590227934,"lng":114.17444167790124,"neighborhood":"尖沙咀","city_fetched":"Hong Kong,China","state":"Kowloon City","country":"香港","canonicalUrl":"https://foursquare.com/v/jagger/527d00e9498e1581ca8713cf","categoryId":"4bf58dd8d48988d11e941735","category":"Cocktail Bar","checkinsCount":161,"usersCount":81,"tipCount":5,"visitsCount":164,"tier":"","message":"","currency":"","rating":5.6},{"name":"Zinc","phone":"+85228683448","address":"35 D'Aguilar St","lat":22.28101689363497,"lng":114.15558485338116,"neighborhood":"中西区","city_fetched":"Hong Kong,China","state":"中西區","country":"香港","canonicalUrl":"https://foursquare.com/v/zinc/4b20c291f964a520743424e3","categoryId":"4bf58dd8d48988d116941735","category":"Bar","checkinsCount":1455,"usersCount":1075,"tipCount":19,"visitsCount":1462,"tier":"","message":"","currency":"","rating":5.6},{"name":"Fizz","phone":"+85224411000","address":"G/F, 77 Wyndham St","lat":22.28165589909997,"lng":114.15441788686817,"city_fetched":"Hong Kong,China","country":"香港","canonicalUrl":"https://foursquare.com/v/fizz/50d5d4c0e4b0f4383e0200a8","categoryId":"4bf58dd8d48988d121941735","category":"Lounge","checkinsCount":204,"usersCount":136,"tipCount":3,"visitsCount":204,"url":"http://www.fizz.com.hk","tier":"","message":"","currency":"","rating":5.6},{"name":"Typhoon","phone":"+85225272077","address":"37-39 Lockhart Rd","lat":22.27828,"lng":114.1703529,"neighborhood":"中西区","city_fetched":"Hong Kong,China","state":"灣仔區","country":"香港","canonicalUrl":"https://foursquare.com/v/typhoon/4b238ed4f964a520be5624e3","categoryId":"4bf58dd8d48988d116941735","category":"Bar","checkinsCount":1871,"usersCount":849,"tipCount":14,"visitsCount":1890,"tier":"","message":"","currency":"","rating":5.6},{"name":"Wink","address":"Ground Floor 79 Bonham Strand","lat":22.28566222074848,"lng":114.15146852502947,"neighborhood":"中西区","city_fetched":"Hong Kong,China","state":"Hong Kong","country":"香港","canonicalUrl":"https://foursquare.com/v/wink/5460bfbc498ee488a1e29afb","categoryId":"4bf58dd8d48988d11e941735","category":"Cocktail Bar","checkinsCount":134,"usersCount":94,"tipCount":4,"visitsCount":139,"tier":"","message":"","currency":"","rating":5.6},{"name":"The Parlour","phone":"+85239880101","address":"G/F, Hullett House, 2A Canton Rd","lat":22.295558875182994,"lng":114.16978776454926,"neighborhood":"尖沙咀","city_fetched":"Hong Kong,China","state":"Kowloon City","country":"香港","canonicalUrl":"https://foursquare.com/v/the-parlour/4b88e469f964a5204c1232e3","categoryId":"4bf58dd8d48988d121941735","category":"Lounge","checkinsCount":487,"usersCount":428,"tipCount":15,"visitsCount":487,"url":"http://www.hulletthouse.com/index.html#/theparlour/concept","tier":"","message":"","currency":"","rating":5.6},{"name":"Big Tree Pub 大樹吧","phone":"+85227211686","address":"4-5 Knutsford Terrace","lat":22.30102570340892,"lng":114.17341409454774,"neighborhood":"尖沙咀","city_fetched":"Hong Kong,China","state":"Kowloon City","country":"香港","canonicalUrl":"https://foursquare.com/v/big-tree-pub-%E5%A4%A7%E6%A8%B9%E5%90%A7/4b0588cef964a520efda22e3","categoryId":"4bf58dd8d48988d116941735","category":"Bar","checkinsCount":497,"usersCount":437,"tipCount":12,"visitsCount":500,"tier":"","message":"","currency":"","rating":5.5},{"name":"Neway","phone":"+85228279229","address":"B2/F, Novotel Hong Kong Century, 238 Jaffe Rd","lat":22.27873669187999,"lng":114.17661875337608,"city_fetched":"Hong Kong,China","country":"香港","canonicalUrl":"https://foursquare.com/v/neway/4dc7553545dd2645529fea59","categoryId":"4bf58dd8d48988d120941735","category":"Karaoke Bar","checkinsCount":651,"usersCount":450,"tipCount":2,"visitsCount":662,"tier":"","message":"","currency":"","rating":5.5},{"name":"Beijing Club","phone":"+85225268298","address":"2-5/F, Wellington Place, 2-8 Wellington St","lat":22.280813,"lng":114.156056,"neighborhood":"中西区","city_fetched":"Hong Kong,China","state":"中西區","country":"香港","canonicalUrl":"https://foursquare.com/v/beijing-club/4b0588d1f964a52059db22e3","categoryId":"4bf58dd8d48988d11f941735","category":"Nightclub","checkinsCount":1354,"usersCount":860,"tipCount":16,"visitsCount":1358,"url":"http://www.beijingclub.com.hk","tier":"","message":"","currency":"","rating":5.5},{"name":"D'Aguilar 26","address":"26 D'Aguilar Street","lat":22.281196752250047,"lng":114.15555582440054,"neighborhood":"中西区","city_fetched":"Hong Kong,China","state":"中西區","country":"香港","canonicalUrl":"https://foursquare.com/v/daguilar-26/4b0588ccf964a5208bda22e3","categoryId":"4bf58dd8d48988d116941735","category":"Bar","checkinsCount":835,"usersCount":273,"tipCount":6,"visitsCount":841,"tier":"","message":"","currency":"","rating":5.5},{"name":"Neway CEO","phone":"+85221379777","address":"2-8 Sugar St","lat":22.279712,"lng":114.186931,"city_fetched":"Hong Kong,China","country":"香港","canonicalUrl":"https://foursquare.com/v/neway-ceo/4b2bae8af964a52012b924e3","categoryId":"4bf58dd8d48988d120941735","category":"Karaoke Bar","checkinsCount":5125,"usersCount":2085,"tipCount":22,"visitsCount":5268,"url":"http://www.newaykb.com.hk","tier":"","message":"","currency":"","rating":5.5},{"name":"Neway","phone":"+85223833381","address":"4-5/F, Argyle Centre 1, 65 Argyle St","lat":22.319926893476254,"lng":114.16968584060669,"city_fetched":"Hong Kong,China","country":"香港","canonicalUrl":"https://foursquare.com/v/neway/4ba36b52f964a5208d3b38e3","categoryId":"4bf58dd8d48988d120941735","category":"Karaoke Bar","checkinsCount":684,"usersCount":519,"tipCount":3,"visitsCount":702,"url":"http://www.newaykb.com","tier":"","message":"","currency":"","rating":5.5},{"name":"Billidart","phone":"+85221443000","address":"8/F, Kwan Chart Tower, 6 Tonnochy Rd","lat":22.27924332753572,"lng":114.17787730693817,"city_fetched":"Hong Kong,China","state":"灣仔區","country":"香港","canonicalUrl":"https://foursquare.com/v/billidart/4beeb90de8c3c9286b039992","categoryId":"4bf58dd8d48988d116941735","category":"Bar","checkinsCount":1558,"usersCount":706,"tipCount":14,"visitsCount":1596,"tier":"","message":"","currency":"","rating":5.5},{"name":"Hair of the Dog II","address":"Hart Ave","lat":22.29803224276828,"lng":114.17560278615747,"neighborhood":"尖沙咀","city_fetched":"Hong Kong,China","state":"Kowloon City","country":"香港","canonicalUrl":"https://foursquare.com/v/hair-of-the-dog-ii/4d9f12467f1b721e604f950f","categoryId":"4bf58dd8d48988d116941735","category":"Bar","checkinsCount":349,"usersCount":215,"tipCount":5,"visitsCount":349,"tier":"","message":"","currency":"","rating":5.5},{"name":"Karma Lounge","address":"14 Lan Kwai Fong","lat":22.280838,"lng":114.155478,"neighborhood":"中西区","city_fetched":"Hong Kong,China","country":"香港","canonicalUrl":"https://foursquare.com/v/karma-lounge/4e8f0cd1b63430010c2a9187","categoryId":"4bf58dd8d48988d121941735","category":"Lounge","checkinsCount":181,"usersCount":130,"tipCount":3,"visitsCount":181,"tier":"","message":"","currency":"","rating":5.5},{"name":"Starz Wine Bar","phone":"+85221090612","address":"G/F, Citygate Outlets, 20 Tat Tung Rd","lat":22.288961427459427,"lng":113.94071997665567,"neighborhood":"东涌","city_fetched":"Hong Kong,China","country":"香港","canonicalUrl":"https://foursquare.com/v/starz-wine-bar/4c398a2c1a38ef3ba5e89221","categoryId":"4bf58dd8d48988d123941735","category":"Wine Bar","checkinsCount":629,"usersCount":373,"tipCount":7,"visitsCount":630,"tier":"","message":"","currency":"","rating":5.4},{"name":"Marouche","phone":"+85225418282","address":"48 Cochrane St","lat":22.282451,"lng":114.154002,"neighborhood":"中区","city_fetched":"Hong Kong,China","state":"中西區","country":"香港","canonicalUrl":"https://foursquare.com/v/marouche/4be59b18bcef2d7f550104e5","categoryId":"4bf58dd8d48988d119941735","category":"Hookah Bar","checkinsCount":967,"usersCount":382,"tipCount":7,"visitsCount":973,"tier":"","message":"","currency":"","rating":5.4},{"name":"Mes Amis","phone":"+85225276680","address":"83 Lockhart Rd","lat":22.278255498236433,"lng":114.17154729366302,"neighborhood":"中西区","city_fetched":"Hong Kong,China","state":"灣仔區","country":"香港","canonicalUrl":"https://foursquare.com/v/mes-amis/4b9cfff3f964a520a48736e3","categoryId":"4bf58dd8d48988d116941735","category":"Bar","checkinsCount":2171,"usersCount":1278,"tipCount":22,"visitsCount":2205,"tier":"","message":"","currency":"","rating":5.4},{"name":"Lotus","phone":"+85225436290","address":"5 Staunton St","lat":22.281830280025904,"lng":114.15308254829831,"neighborhood":"中区","city_fetched":"Hong Kong,China","state":"中西區","country":"香港","canonicalUrl":"https://foursquare.com/v/lotus/4d31ba4998336dcb1e5a1bf0","categoryId":"4bf58dd8d48988d11e941735","category":"Cocktail Bar","checkinsCount":1051,"usersCount":722,"tipCount":32,"visitsCount":1057,"url":"http://www.lotus.hk","tier":"","message":"","currency":"","rating":5.4},{"name":"Neway CEO","phone":"+85221962196","address":"3/F, Emperor Group Centre, 288 Hennessy Rd","lat":22.277785606904363,"lng":114.17665939201615,"city_fetched":"Hong Kong,China","state":"灣仔區","country":"香港","canonicalUrl":"https://foursquare.com/v/neway-ceo/524a57e211d2a2c985490544","categoryId":"4bf58dd8d48988d120941735","category":"Karaoke Bar","checkinsCount":480,"usersCount":242,"tipCount":4,"visitsCount":500,"url":"http://www.newaykb.com.hk","tier":"","message":"","currency":"","rating":5.3},{"name":"laluna bar & lounge","address":"17 Hart Avenue","lat":22.297987765713323,"lng":114.17472614970646,"neighborhood":"尖沙咀","city_fetched":"Hong Kong,China","state":"Kowloon City","country":"香港","canonicalUrl":"https://foursquare.com/v/laluna-bar--lounge/5358f940498ee741e290f2f2","categoryId":"4bf58dd8d48988d121941735","category":"Lounge","checkinsCount":134,"usersCount":96,"tipCount":7,"visitsCount":136,"tier":"","message":"","currency":"","rating":5.3},{"name":"Neway CEO","phone":"+85227322234","address":"B1/F, Auto Plaza, 65 Mody Rd","lat":22.298626484098403,"lng":114.17692064032734,"neighborhood":"尖沙咀","city_fetched":"Hong Kong,China","state":"Kowloon City","country":"香港","canonicalUrl":"https://foursquare.com/v/neway-ceo/4b1811d5f964a5207acc23e3","categoryId":"4bf58dd8d48988d120941735","category":"Karaoke Bar","checkinsCount":1059,"usersCount":831,"tipCount":7,"visitsCount":1179,"url":"http://www.newaykb.com","tier":"","message":"","currency":"","rating":5.3},{"name":"Pier 7 Café & Bar","phone":"+85221678377","address":"Upper Deck, Pier 7 (Star Ferry)","lat":22.286745491819598,"lng":114.1609842108068,"neighborhood":"中西区","city_fetched":"Hong Kong,China","state":"中西區","country":"香港","canonicalUrl":"https://foursquare.com/v/pier-7-caf%C3%A9--bar/4b442f37f964a52073f225e3","categoryId":"4bf58dd8d48988d116941735","category":"Bar","checkinsCount":528,"usersCount":381,"tipCount":15,"visitsCount":528,"tier":"","message":"","currency":"","rating":5.3},{"name":"7 Heaven Club","phone":"+85228101100","address":"1/F, 17-19 Lan Kwai Fong","lat":22.280765206395387,"lng":114.15556163019681,"neighborhood":"中西区","city_fetched":"Hong Kong,China","state":"中西區","country":"香港","canonicalUrl":"https://foursquare.com/v/7-heaven-club/519790f0498e8a6beb321fe1","categoryId":"4bf58dd8d48988d11f941735","category":"Nightclub","checkinsCount":482,"usersCount":290,"tipCount":7,"visitsCount":483,"tier":"","message":"","currency":"","rating":5.2},{"name":"McSorley's Ale House","address":"55 Elgin St","lat":22.28125202335986,"lng":114.15270516928095,"neighborhood":"中西区","city_fetched":"Hong Kong,China","state":"中西區","country":"香港","canonicalUrl":"https://foursquare.com/v/mcsorleys-ale-house/4b3f4deef964a52060a525e3","categoryId":"4bf58dd8d48988d116941735","category":"Bar","checkinsCount":1166,"usersCount":688,"tipCount":25,"visitsCount":1171,"tier":"","message":"","currency":"","rating":5.2},{"name":"B & W","phone":"+85228380004","address":"G/F, 20-22 Yiu Wa St","lat":22.277450414683464,"lng":114.1819946323801,"city_fetched":"Hong Kong,China","country":"香港","canonicalUrl":"https://foursquare.com/v/b--w/4bec04eab3352d7ffd1b57d2","categoryId":"4bf58dd8d48988d116941735","category":"Bar","checkinsCount":713,"usersCount":265,"tipCount":4,"visitsCount":721,"tier":"","message":"","currency":"","rating":5.2},{"name":"Zentro","phone":"+85228028000","address":"IFC Mall, 8 Finance St","lat":22.28564171114352,"lng":114.15890336036682,"neighborhood":"中西区","city_fetched":"Hong Kong,China","state":"中西區","country":"香港","canonicalUrl":"https://foursquare.com/v/zentro/4bbf1ee7b083a593ecdca2e9","categoryId":"4bf58dd8d48988d116941735","category":"Bar","checkinsCount":1219,"usersCount":725,"tipCount":20,"visitsCount":1231,"tier":"","message":"","currency":"","rating":5.2},{"name":"Propaganda","phone":"+85228681316","address":"B/F, 1 Hollywood Rd","lat":22.28194071186441,"lng":114.15441788686817,"neighborhood":"中区","city_fetched":"Hong Kong,China","state":"中西區","country":"香港","canonicalUrl":"https://foursquare.com/v/propaganda/4b0588cef964a520e0da22e3","categoryId":"4bf58dd8d48988d1d8941735","category":"Gay Bar","checkinsCount":583,"usersCount":401,"tipCount":12,"visitsCount":608,"tier":"","message":"","currency":"","rating":5.1},{"name":"Boba Bear","address":"30/F, Zing, 38 Yiu Wa St","lat":22.277423541248414,"lng":114.18162888891179,"neighborhood":"Causeway Bay","city_fetched":"Hong Kong,China","country":"香港","canonicalUrl":"https://foursquare.com/v/boba-bear/56741c1b498e29c629c348a8","categoryId":"4bf58dd8d48988d119941735","category":"Hookah Bar","checkinsCount":142,"usersCount":91,"tipCount":5,"visitsCount":144,"tier":"","message":"","currency":"","rating":5.1},{"name":"Hooray Bar & Restaurant","phone":"+85228950885","address":"Unit P502, 5/F, World Trade Centre, 280 Gloucester Rd","lat":22.282035937444626,"lng":114.18386978856373,"city_fetched":"Hong Kong,China","country":"香港","canonicalUrl":"https://foursquare.com/v/hooray-bar--restaurant/4cdb767a99026dcb7d4b0d81","categoryId":"4bf58dd8d48988d116941735","category":"Bar","checkinsCount":2473,"usersCount":1513,"tipCount":38,"visitsCount":2498,"url":"http://www.jcgroup.hk/restaurant.php?name=hooray","tier":"","message":"","currency":"","rating":5.1},{"name":"Main Street U.S.A.","phone":"+85228136599","address":"Stanley Main St","lat":22.218492,"lng":114.211268,"neighborhood":"斯坦利","city_fetched":"Hong Kong,China","state":"Southern","country":"香港","canonicalUrl":"https://foursquare.com/v/main-street-usa/4b1b825cf964a520bffb23e3","categoryId":"4bf58dd8d48988d117941735","category":"Beer Garden","checkinsCount":351,"usersCount":310,"tipCount":7,"visitsCount":353,"tier":"","message":"","currency":"","rating":5.1},{"name":"Bahama Mama's Caribbean Bar","phone":"+85223682121","address":"4-5 Knutsford Terrace","lat":22.301045,"lng":114.173457,"neighborhood":"尖沙咀","city_fetched":"Hong Kong,China","state":"Kowloon City","country":"香港","canonicalUrl":"https://foursquare.com/v/bahama-mamas-caribbean-bar/4b0588cdf964a520c8da22e3","categoryId":"4bf58dd8d48988d118941735","category":"Dive Bar","checkinsCount":698,"usersCount":519,"tipCount":6,"visitsCount":701,"tier":"","message":"","currency":"","rating":5.1},{"name":"Club Havana","phone":"+85223126565","address":"3/F, Knutsford Commercial Bldg, 10 Knutsford Terrace","lat":22.30155758240745,"lng":114.1740527059526,"neighborhood":"尖沙咀","city_fetched":"Hong Kong,China","state":"Kowloon City","country":"香港","canonicalUrl":"https://foursquare.com/v/club-havana/4bd58a5a637ba593ee80f670","categoryId":"4bf58dd8d48988d1d4941735","category":"Speakeasy","checkinsCount":480,"usersCount":270,"tipCount":5,"visitsCount":483,"tier":"","message":"","currency":"","rating":5.1},{"name":"V-King Lounge","address":"Shop K2 & K6, Hung Hom Ferry Pier","lat":22.30116223833545,"lng":114.19006993845382,"city_fetched":"Hong Kong,China","country":"香港","canonicalUrl":"https://foursquare.com/v/vking-lounge-%E6%B5%B7%E6%99%AF%E5%BB%8A/4b0588d1f964a5205edb22e3","categoryId":"4bf58dd8d48988d116941735","category":"Bar","checkinsCount":165,"usersCount":88,"tipCount":7,"visitsCount":165,"tier":"","message":"","currency":"","rating":5},{"name":"Neway CEO","phone":"+85226120171","address":"13/F & 15/F, Tai Hung Fai (Tsuen Wan) Centre, 55 Chung On St","lat":22.369946381103944,"lng":114.11702109366483,"neighborhood":"荃湾","city_fetched":"Hong Kong,China","state":"Tsuen Wan District","country":"香港","canonicalUrl":"https://foursquare.com/v/neway-ceo/4c66488c19f3c9b6bb979fff","categoryId":"4bf58dd8d48988d120941735","category":"Karaoke Bar","checkinsCount":232,"usersCount":165,"tipCount":3,"visitsCount":232,"url":"http://www.newaykb.com","tier":"","message":"","currency":"","rating":4.9},{"name":"Taj Bar & Restaurant","phone":"+85225226061","address":"Shop C-D, 31 Wyndham St, Lan Kwai Fong","lat":22.280352998257065,"lng":114.15532939828675,"neighborhood":"中西区","city_fetched":"Hong Kong,China","country":"香港","canonicalUrl":"https://foursquare.com/v/taj-bar--restaurant/51420850e4b0ed426fb4990d","categoryId":"4bf58dd8d48988d119941735","category":"Hookah Bar","checkinsCount":93,"usersCount":82,"tipCount":3,"visitsCount":93,"tier":"","message":"","currency":"","rating":4.9}]