[{"name":"Blue Frog 蓝蛙","phone":"+862585656022","address":"中山路100号","lat":32.049462139874954,"lng":118.77892125264557,"city_fetched":"Nanjing","state":"江苏","country":"中国","canonicalUrl":"https://foursquare.com/v/blue-frog-%E8%93%9D%E8%9B%99/50867b66e4b0c8911eb09c2f","category":"Burger Joint","checkinsCount":1073,"usersCount":355,"tipCount":24,"visitsCount":1227,"url":"http://www.bluefrog.com.cn","tier":"","message":"","currency":"","rating":9},{"name":"Jimmy's 吉米来吧","address":"No. 193 Shigu Road","lat":32.042556,"lng":118.767773,"city_fetched":"Nanjing","state":"江苏","country":"中国","canonicalUrl":"https://foursquare.com/v/jimmys-%E5%90%89%E7%B1%B3%E6%9D%A5%E5%90%A7/4c7f59a94a03bfb7df96c9d4","category":"Bar","checkinsCount":281,"usersCount":134,"tipCount":15,"visitsCount":382,"tier":"","message":"","currency":"","rating":7.8},{"name":"Finnegan's Wake 芬尼根酒吧","address":"熙南里街区6号","lat":32.02732553338764,"lng":118.77601255219477,"city_fetched":"Nanjing","state":"江苏","country":"中国","canonicalUrl":"https://foursquare.com/v/finnegans-wake-%E8%8A%AC%E5%B0%BC%E6%A0%B9%E9%85%92%E5%90%A7/4b9b946bf964a520111136e3","category":"Bar","checkinsCount":154,"usersCount":112,"tipCount":13,"visitsCount":189,"tier":"","message":"","currency":"","rating":7.4},{"name":"Paulaner Bräuhaus 宝莱纳啤酒花园餐厅","phone":"+862583117188","address":"广州路123号","lat":32.05262018804386,"lng":118.77010391242816,"city_fetched":"Nanjing","state":"江苏","country":"中国","canonicalUrl":"https://foursquare.com/v/paulaner-br%C3%A4uhaus-%E5%AE%9D%E8%8E%B1%E7%BA%B3%E5%95%A4%E9%85%92%E8%8A%B1%E5%9B%AD%E9%A4%90%E5%8E%85/4b9bb311f964a520681b36e3","category":"Beer Garden","checkinsCount":326,"usersCount":188,"tipCount":14,"visitsCount":334,"tier":"","message":"","currency":"","rating":7.3},{"name":"Brewsell's","lat":32.05316571048346,"lng":118.77035437946218,"city_fetched":"Nanjing","country":"中国","canonicalUrl":"https://foursquare.com/v/brewsells/522b0f7311d2348a20f170d6","category":"Bar","checkinsCount":125,"usersCount":41,"tipCount":3,"visitsCount":153,"tier":"","message":"","currency":"","rating":7},{"name":"MAZZO Night Club 玛索国际娱乐","phone":"+862584537399","address":"玄武区太平北路52号","lat":32.04720819579147,"lng":118.79072627200131,"city_fetched":"Nanjing","state":"江苏","country":"中国","canonicalUrl":"https://foursquare.com/v/mazzo-night-club-%E7%8E%9B%E7%B4%A2%E5%9B%BD%E9%99%85%E5%A8%B1%E4%B9%90/4f10299d00392d01a696a31e","category":"Nightclub","checkinsCount":274,"usersCount":136,"tipCount":6,"visitsCount":274,"tier":"","message":"","currency":"","rating":6.9},{"name":"蓝蛙 Blue Frog","phone":"+862582233882","address":"1 Jiankang Rd","lat":32.02531328625832,"lng":118.78103870749722,"city_fetched":"Nanjing","state":"江苏","country":"中国","canonicalUrl":"https://foursquare.com/v/%E8%93%9D%E8%9B%99-blue-frog/5395a008498e574c69cff7db","category":"Burger Joint","checkinsCount":62,"usersCount":51,"tipCount":3,"visitsCount":69,"url":"http://www.bluefrog.com.cn","tier":"","message":"","currency":"","rating":6.9},{"name":"Blue Marlin","address":"1912酒吧一条街","lat":32.0482101713106,"lng":118.79181338240873,"city_fetched":"Nanjing","state":"江苏","country":"中国","canonicalUrl":"https://foursquare.com/v/blue-marlin/4e2985911f6e88a1546d0385","category":"Beer Garden","checkinsCount":90,"usersCount":63,"tipCount":3,"visitsCount":90,"tier":"","message":"","currency":"","rating":6.8},{"name":"亂世佳人酒吧 Scarlet","phone":"+862584407656","address":"Backstreet Changjiang","lat":32.048122629038595,"lng":118.792052431864,"city_fetched":"Nanjing","state":"江苏","country":"中国","canonicalUrl":"https://foursquare.com/v/%E4%BA%82%E4%B8%96%E4%BD%B3%E4%BA%BA%E9%85%92%E5%90%A7-scarlet/504a28e1e4b0982c456529d8","category":"Nightclub","checkinsCount":308,"usersCount":161,"tipCount":14,"visitsCount":345,"tier":"","message":"","currency":"","rating":6.6},{"name":"Ellen's Café & Bar","address":"碑亭巷","lat":32.050269537529424,"lng":118.78216003638705,"city_fetched":"Nanjing","state":"江苏","country":"中国","canonicalUrl":"https://foursquare.com/v/ellens-caf%C3%A9--bar/51b4bf3a498eab8b4ac84a74","category":"Bar","checkinsCount":98,"usersCount":58,"tipCount":5,"visitsCount":112,"tier":"","message":"","currency":"","rating":6.5},{"name":"翠贝卡 Tribeca","address":"1 Zhonghua Rd","lat":32.02946024727024,"lng":118.78081671758908,"city_fetched":"Nanjing","country":"中国","canonicalUrl":"https://foursquare.com/v/%E7%BF%A0%E8%B4%9D%E5%8D%A1-tribeca/50e6e755e4b06958b172bb26","category":"Bar","checkinsCount":101,"usersCount":87,"tipCount":4,"visitsCount":111,"tier":"","message":"","currency":"","rating":6.1},{"name":"1912","phone":"+864009991912","address":"8 Changjiang Backstreet","lat":32.0462484963323,"lng":118.79020263500637,"city_fetched":"Nanjing","state":"江苏","country":"中国","canonicalUrl":"https://foursquare.com/v/1912/4be141c30365c9b67b2fb338","category":"Other Nightlife","checkinsCount":1217,"usersCount":719,"tipCount":11,"visitsCount":1306,"url":"http://www.in1912.com","tier":"","message":"","currency":"","rating":5.9},{"name":"Ellen's Café & Bar","phone":"+862583641119","address":"广州路132-3号","lat":32.05214217222973,"lng":118.77258010325542,"city_fetched":"Nanjing","state":"江苏","country":"中国","canonicalUrl":"https://foursquare.com/v/ellens-caf%C3%A9--bar/4dd5d3ded1647fcf3e243ea7","category":"Bar","checkinsCount":387,"usersCount":184,"tipCount":7,"visitsCount":416,"tier":"","message":"","currency":"","rating":5.9},{"name":"Blue Marlin 1912 Club","lat":32.048139,"lng":118.791722,"city_fetched":"Nanjing","state":"china","country":"中国","canonicalUrl":"https://foursquare.com/v/blue-marlin-1912-club/4c8a2c859ef0224b4e41587b","category":"Nightclub","checkinsCount":208,"usersCount":151,"tipCount":7,"visitsCount":208,"tier":"","message":"","currency":"","rating":5.8},{"name":"Talking #2","address":"Jinyin St.","lat":32.059814612483514,"lng":118.76958020735366,"city_fetched":"Nanjing","state":"江苏","country":"中国","canonicalUrl":"https://foursquare.com/v/talking-2/4cf7790d71538cfa0d92bb2e","category":"Restaurant","checkinsCount":251,"usersCount":73,"tipCount":6,"visitsCount":251,"tier":"","message":"","currency":"","rating":5.8},{"name":"The BASSMENT","address":"140 Guangzhou Rd.","lat":32.05264872399972,"lng":118.7712675333023,"city_fetched":"Nanjing","state":"江苏","country":"中国","canonicalUrl":"https://foursquare.com/v/the-bassment/4fe49af0e4b037f4b63ebe8e","category":"Nightclub","checkinsCount":230,"usersCount":55,"tipCount":7,"visitsCount":233,"tier":"","message":"","currency":"","rating":5.7},{"name":"t-Rex","phone":"+864008091912","address":"1912","lat":32.04817022736672,"lng":118.79276388644094,"city_fetched":"Nanjing","state":"江苏","country":"中国","canonicalUrl":"https://foursquare.com/v/trex/50aa43b4e4b0d062c6bb9a71","category":"Nightclub","checkinsCount":197,"usersCount":82,"tipCount":5,"visitsCount":215,"tier":"","message":"","currency":"","rating":5.5},{"name":"答案吧 Behind The Wall","phone":"+862583915630","address":"上海路150-1号","lat":32.057881792015756,"lng":118.76920759677886,"city_fetched":"Nanjing","state":"江苏","country":"中国","canonicalUrl":"https://foursquare.com/v/%E7%AD%94%E6%A1%88%E5%90%A7-behind-the-wall/4e0f2075ae603a50b549472e","category":"Mexican Restaurant","checkinsCount":170,"usersCount":81,"tipCount":7,"visitsCount":174,"tier":"","message":"","currency":"","rating":5.2},{"name":"Blue Sky","address":"77 Shanghai Road","lat":32.05352682830459,"lng":118.77020637626254,"city_fetched":"Nanjing","state":"江苏","country":"中国","canonicalUrl":"https://foursquare.com/v/blue-sky/4cfcc2c3c6cca35d7f279332","category":"Bar","checkinsCount":214,"usersCount":87,"tipCount":5,"visitsCount":215,"tier":"","message":"","currency":"","rating":5.1}]