[{"name":"Intercontinental Resort | 半岛洲际度假酒店","phone":"+8689888618888","twitter":"interconhotels","address":"洲际路1号","lat":18.212399014360273,"lng":109.4977388129022,"city_fetched":"Sanya,China","state":"海南","country":"中国","canonicalUrl":"https://foursquare.com/v/intercontinental-resort--%E5%8D%8A%E5%B2%9B%E6%B4%B2%E9%99%85%E5%BA%A6%E5%81%87%E9%85%92%E5%BA%97/4c5c23dc9b28d13a12e15570","categoryId":"4bf58dd8d48988d1d5941735","category":"Hotel Bar","checkinsCount":374,"usersCount":253,"tipCount":0,"visitsCount":447,"url":"http://www.intercontinental.com","tier":"","message":"","currency":"","rating":8.1},{"name":"Club InterContinental Lounge","address":"InterContinental Sanya","lat":18.21198568796686,"lng":109.5007370462354,"city_fetched":"Sanya,China","state":"海南","country":"中国","canonicalUrl":"https://foursquare.com/v/club-intercontinental-lounge/4d81b97d6476a09394b61453","categoryId":"4bf58dd8d48988d1d5941735","category":"Hotel Bar","checkinsCount":81,"usersCount":54,"tipCount":1,"visitsCount":103,"tier":"","message":"","currency":"","rating":7.4},{"name":"Beach Bar","address":"InterContinental Sanya","lat":18.21203917342911,"lng":109.49816298052,"city_fetched":"Sanya,China","state":"海南","country":"中国","canonicalUrl":"https://foursquare.com/v/beach-bar/4d835d3b7e8ef04dce7af4bd","categoryId":"4bf58dd8d48988d1d5941735","category":"Hotel Bar","checkinsCount":96,"usersCount":68,"tipCount":3,"visitsCount":96,"tier":"","message":"","currency":"","rating":6.9},{"name":"Dolphin","address":"99 Yuya Rd.","lat":18.226087,"lng":109.519173,"city_fetched":"Sanya,China","state":"海南","country":"中国","canonicalUrl":"https://foursquare.com/v/dolphin/4cb549ec52edb1f7827c66fe","categoryId":"4bf58dd8d48988d116941735","category":"Bar","checkinsCount":819,"usersCount":436,"tipCount":42,"visitsCount":1012,"tier":"","message":"","currency":"","rating":6.8},{"name":"MJ club","address":"Hainan, Sanya","lat":18.235556531486147,"lng":109.509330915449,"city_fetched":"Sanya,China","state":"海南","country":"中国","canonicalUrl":"https://foursquare.com/v/mj-club/4f098c29e4b0596c8fcbb687","categoryId":"4bf58dd8d48988d11f941735","category":"Nightclub","checkinsCount":253,"usersCount":94,"tipCount":7,"visitsCount":258,"tier":"","message":"","currency":"","rating":5.9},{"name":"Soho","lat":18.235956230110006,"lng":109.50848256235133,"city_fetched":"Sanya,China","state":"海南","country":"中国","canonicalUrl":"https://foursquare.com/v/soho/50dc470de4b0cc8388a997ac","categoryId":"4bf58dd8d48988d11f941735","category":"Nightclub","checkinsCount":130,"usersCount":115,"tipCount":5,"visitsCount":139,"tier":"","message":"","currency":"","rating":5.6}]