[{"name":"CHAR Bar","phone":"+862133029995","address":"30/F, Hotel Indigo, 585 Zhongshan Rd. E-2","lat":31.22822248797292,"lng":121.49558213187858,"neighborhood":"Lǎo běi mén","city_fetched":"Shanghai,China","state":"上海市","country":"中国","canonicalUrl":"https://foursquare.com/v/char-bar/4e57af31d22d61e8f33d2c6d","categoryId":"4bf58dd8d48988d1d5941735","category":"Hotel Bar","checkinsCount":1422,"usersCount":1060,"tipCount":39,"visitsCount":1485,"url":"http://www.char-thebund.com/en/char_bar.asp","tier":"","message":"","currency":"","rating":9},{"name":"Speak Low","address":"579 Fuxing Lu","lat":31.216873867583164,"lng":121.46119272457092,"neighborhood":"Xīntiāndì","city_fetched":"Shanghai,China","state":"上海市","country":"中国","canonicalUrl":"https://foursquare.com/v/speak-low/53ad6fd9498ef536312f3fc8","categoryId":"4bf58dd8d48988d116941735","category":"Bar","checkinsCount":611,"usersCount":756,"tipCount":24,"visitsCount":1098,"tier":"","message":"","currency":"","rating":8.9},{"name":"The Union Trading Co.","address":"64 Fenyang Road (Front Entrance on Middle Fuxing Rd.)","lat":31.21356096975006,"lng":121.44962129672314,"neighborhood":"Xúhuì","city_fetched":"Shanghai,China","country":"中国","canonicalUrl":"https://foursquare.com/v/the-union-trading-co/53a5bede498e35d5abb9bd77","categoryId":"4bf58dd8d48988d11e941735","category":"Cocktail Bar","checkinsCount":1096,"usersCount":739,"tipCount":30,"visitsCount":1796,"tier":"","message":"","currency":"","rating":8.9},{"name":"The Nest","address":"Beijing Lu 130 6f","lat":31.242816365977024,"lng":121.48314400244418,"neighborhood":"Wàitān","city_fetched":"Shanghai,China","country":"中国","canonicalUrl":"https://foursquare.com/v/the-nest/548c4f32498ea6aa0e8ada60","categoryId":"4bf58dd8d48988d121941735","category":"Lounge","checkinsCount":1514,"usersCount":1363,"tipCount":38,"visitsCount":2901,"tier":"","message":"","currency":"","rating":8.9},{"name":"酒池星座 Constellation","phone":"+862154040970","address":"新乐路86号","lat":31.219591322014907,"lng":121.45064949989319,"neighborhood":"Jìngān","city_fetched":"Shanghai,China","state":"上海市","country":"中国","canonicalUrl":"https://foursquare.com/v/%E9%85%92%E6%B1%A0%E6%98%9F%E5%BA%A7-constellation/4b586ab4f964a520cd5628e3","categoryId":"4bf58dd8d48988d11e941735","category":"Cocktail Bar","checkinsCount":1070,"usersCount":618,"tipCount":14,"visitsCount":1150,"tier":"","message":"","currency":"","rating":8.9},{"name":"Senator Saloon","phone":"+862154231330","address":"98 Wuyuan Rd","lat":31.21492104921403,"lng":121.44245266914368,"neighborhood":"Xúhuì","city_fetched":"Shanghai,China","state":"上海市","country":"中国","canonicalUrl":"https://foursquare.com/v/senator-saloon/4fe45d5fe4b023504e597994","categoryId":"4bf58dd8d48988d122941735","category":"Whisky Bar","checkinsCount":3355,"usersCount":1277,"tipCount":66,"visitsCount":3873,"url":"http://www.senatorsaloon.com","tier":2,"message":"Moderate","currency":"¥","rating":8.8},{"name":"Bar Rouge","phone":"+862163391199","twitter":"bar_rouge","address":"7/F, Bund 18, 18 Zhongshan Rd. East-1","lat":31.24032491359998,"lng":121.4854645729065,"neighborhood":"Wàitān","city_fetched":"Shanghai,China","state":"上海市","country":"中国","canonicalUrl":"https://foursquare.com/v/bar-rouge/4b0588bff964a5208fd722e3","categoryId":"4bf58dd8d48988d121941735","category":"Lounge","checkinsCount":8947,"usersCount":4849,"tipCount":142,"visitsCount":9611,"url":"http://www.bar-rouge-shanghai.com","tier":3,"message":"Expensive","currency":"¥","rating":8.8},{"name":"Flair","phone":"+862120201778","address":"58/F, The Ritz-Carlton Shanghai Pudong, 8 Century Ave.","lat":31.238684325203547,"lng":121.4967143252836,"neighborhood":"Lùjiāzuǐ","city_fetched":"Shanghai,China","state":"上海市","country":"中国","canonicalUrl":"https://foursquare.com/v/flair/4ce10c0041ed224bc114e83c","categoryId":"4bf58dd8d48988d1d5941735","category":"Hotel Bar","checkinsCount":1915,"usersCount":1424,"tipCount":38,"visitsCount":1988,"url":"http://www.ritzcarlton.com/en/Properties/ShanghaiPudong/Dining/flair","tier":"","message":"","currency":"","rating":8.7},{"name":"The Cannery","address":"1107 Yuyuan Road","lat":31.220395688215458,"lng":121.42381853076044,"neighborhood":"Zhǎngníng","city_fetched":"Shanghai,China","state":"上海市","country":"中国","canonicalUrl":"https://foursquare.com/v/the-cannery/574c154e498e43b1dc810eac","categoryId":"4bf58dd8d48988d121941735","category":"Lounge","checkinsCount":220,"usersCount":252,"tipCount":4,"visitsCount":443,"tier":3,"message":"Expensive","currency":"¥","rating":8.7},{"name":"el Ocho","address":"99, Taixing Lu","lat":31.230424,"lng":121.45534,"neighborhood":"Jìngān","city_fetched":"Shanghai,China","state":"上海市","country":"中国","canonicalUrl":"https://foursquare.com/v/el-ocho/53b56561498e7e8bccf00ac7","categoryId":"4bf58dd8d48988d11e941735","category":"Cocktail Bar","checkinsCount":766,"usersCount":437,"tipCount":23,"visitsCount":847,"tier":"","message":"","currency":"","rating":8.7},{"name":"Bar No.3","address":"兴国路277号 277 XinGuo Lu","lat":31.206621341013644,"lng":121.43316149711607,"neighborhood":"Xúhuì","city_fetched":"Shanghai,China","state":"上海市","country":"中国","canonicalUrl":"https://foursquare.com/v/bar-no3/5406f276498ee2d256d24a18","categoryId":"4bf58dd8d48988d11e941735","category":"Cocktail Bar","checkinsCount":348,"usersCount":369,"tipCount":14,"visitsCount":688,"tier":"","message":"","currency":"","rating":8.7},{"name":"Magpie Cocktail & Mom's Cuisine","address":"Yongkang Lu","lat":31.21173241955045,"lng":121.45035779631765,"neighborhood":"Xúhuì","city_fetched":"Shanghai,China","state":"上海市","country":"中国","canonicalUrl":"https://foursquare.com/v/magpie-cocktail--moms-cuisine/5151b6b0e4b0351d5c6e98e9","categoryId":"4bf58dd8d48988d11e941735","category":"Cocktail Bar","checkinsCount":265,"usersCount":171,"tipCount":13,"visitsCount":319,"tier":"","message":"","currency":"","rating":8.7},{"name":"Vue Bar","address":"Hyatt on the Bund","lat":31.24687988654831,"lng":121.48829790177993,"neighborhood":"Tílán qiáo","city_fetched":"Shanghai,China","state":"上海市","country":"中国","canonicalUrl":"https://foursquare.com/v/vue-bar/4e0361b16284217c7f127902","categoryId":"4bf58dd8d48988d1d5941735","category":"Hotel Bar","checkinsCount":2691,"usersCount":2176,"tipCount":68,"visitsCount":2870,"url":"http://www.shanghai.bund.hyatt.com/en/hotel/dining/VueBar.html","tier":"","message":"","currency":"","rating":8.6},{"name":"Bund Club","address":"Hyatt On The bund","lat":31.24718937000067,"lng":121.48870507229812,"neighborhood":"Tílán qiáo","city_fetched":"Shanghai,China","state":"上海市","country":"中国","canonicalUrl":"https://foursquare.com/v/bund-club/4dee0a6f45dd3aa41d725f12","categoryId":"4bf58dd8d48988d121941735","category":"Lounge","checkinsCount":647,"usersCount":212,"tipCount":7,"visitsCount":690,"tier":"","message":"","currency":"","rating":8.6},{"name":"Logan's Punch Bar","address":"99泰兴路","lat":31.230383430682846,"lng":121.45510029482016,"neighborhood":"Jìngān","city_fetched":"Shanghai,China","country":"中国","canonicalUrl":"https://foursquare.com/v/logans-punch-bar/539c1fc3498e35589f792ead","categoryId":"4bf58dd8d48988d116941735","category":"Bar","checkinsCount":501,"usersCount":286,"tipCount":16,"visitsCount":517,"url":"http://www.loganspunch.com","tier":"","message":"","currency":"","rating":8.6},{"name":"Park Hyatt 87th Floor","phone":"+862168881234","address":"世纪大道100号 | 100 Century Ave.","lat":31.236625932213776,"lng":121.5028770543606,"neighborhood":"Lùjiāzuǐ","city_fetched":"Shanghai,China","state":"上海市","country":"中国","canonicalUrl":"https://foursquare.com/v/park-hyatt-87th-floor/4edc883ab6344371f95fa077","categoryId":"4bf58dd8d48988d121941735","category":"Lounge","checkinsCount":1171,"usersCount":956,"tipCount":19,"visitsCount":1196,"url":"http://http://shanghai.park.hyatt.com/hyatt/","tier":"","message":"","currency":"","rating":8.5},{"name":"T8 Restaurant & Bar","phone":"+862163558999","address":"House 8, North Block, Xintiandi, 181 Taicang Rd.","lat":31.22257111803726,"lng":121.4706877930407,"neighborhood":"Xīntiāndì","city_fetched":"Shanghai,China","state":"上海市","country":"中国","canonicalUrl":"https://foursquare.com/v/t8-restaurant--bar/4c9591caf6c8ef3b275f7dcf","categoryId":"4bf58dd8d48988d116941735","category":"Bar","checkinsCount":903,"usersCount":682,"tipCount":25,"visitsCount":906,"url":"http://www.t8shanghai.com","tier":"","message":"","currency":"","rating":8.4},{"name":"啤酒阿姨 (Beer Lady)","address":"法华真路455号","lat":31.206686728730023,"lng":121.42185965154312,"neighborhood":"Zhǎngníng","city_fetched":"Shanghai,China","state":"上海市","country":"中国","canonicalUrl":"https://foursquare.com/v/%E5%95%A4%E9%85%92%E9%98%BF%E5%A7%A8-beer-lady/56bda766498e8e42f096a41e","categoryId":"4bf58dd8d48988d116941735","category":"Bar","checkinsCount":110,"usersCount":85,"tipCount":3,"visitsCount":156,"tier":"","message":"","currency":"","rating":8.4},{"name":"O Theatre","phone":"+862160960505","address":"57 Mao Ming Nan Lu","lat":31.222621,"lng":121.455481,"neighborhood":"Jìngān","city_fetched":"Shanghai,China","state":"上海市","country":"中国","canonicalUrl":"https://foursquare.com/v/o-theatre/52fb59b1498eb7dde7c0017f","categoryId":"4bf58dd8d48988d11e941735","category":"Cocktail Bar","checkinsCount":119,"usersCount":83,"tipCount":4,"visitsCount":127,"tier":"","message":"","currency":"","rating":8.4},{"name":"Heyday","phone":"+862162366075","address":"Taian Lu","lat":31.207654,"lng":121.432509,"neighborhood":"Zhǎngníng","city_fetched":"Shanghai,China","state":"上海市","country":"中国","canonicalUrl":"https://foursquare.com/v/heyday/54afca7b498e6aa485f3a447","categoryId":"4bf58dd8d48988d11e941735","category":"Cocktail Bar","checkinsCount":222,"usersCount":162,"tipCount":11,"visitsCount":265,"url":"http://www.heydayjazz.cn","tier":"","message":"","currency":"","rating":8.4},{"name":"The Roof At Waterhouse","address":"Mao Jia Yuan Road","lat":31.22227872026733,"lng":121.50119279381038,"neighborhood":"Xiǎo dōng mén","city_fetched":"Shanghai,China","state":"上海市","country":"中国","canonicalUrl":"https://foursquare.com/v/the-roof-at-waterhouse/4dee249dd164f9a5c688bd9f","categoryId":"4bf58dd8d48988d1d5941735","category":"Hotel Bar","checkinsCount":243,"usersCount":178,"tipCount":6,"visitsCount":244,"tier":"","message":"","currency":"","rating":8.4},{"name":"el CÓCTEL","phone":"+862164336511","address":"2/F, 47 Yongfu Rd.","lat":31.21334283022319,"lng":121.43941640853882,"neighborhood":"Xúhuì","city_fetched":"Shanghai,China","state":"上海市","country":"中国","canonicalUrl":"https://foursquare.com/v/el-c%C3%B3ctel/4b4de597f964a52071da26e3","categoryId":"4bf58dd8d48988d11e941735","category":"Cocktail Bar","checkinsCount":3795,"usersCount":1662,"tipCount":101,"visitsCount":3858,"url":"http://www.el-coctel.com","tier":3,"message":"Expensive","currency":"¥","rating":8.4},{"name":"Long Bar","phone":"+862163229988","address":"Lobby Level, Waldorf Astoria Club, 2 Zhongshan Rd. E-1","lat":31.235866657964863,"lng":121.48688077926636,"neighborhood":"Wàitān","city_fetched":"Shanghai,China","state":"上海市","country":"中国","canonicalUrl":"https://foursquare.com/v/long-bar/4c810bafe602b1f739c18e7a","categoryId":"4bf58dd8d48988d1d5941735","category":"Hotel Bar","checkinsCount":1608,"usersCount":1004,"tipCount":36,"visitsCount":1626,"url":"http://www.waldorfastoriashanghai.com/english/dine_in_style/Long_Bar","tier":"","message":"","currency":"","rating":8.4},{"name":"Uva","phone":"+862132030023","address":"819 N. Shaanxi Rd. | 陕西北路819号","lat":31.237543038993106,"lng":121.44419783691328,"neighborhood":"Jìngān","city_fetched":"Shanghai,China","state":"上海市","country":"中国","canonicalUrl":"https://foursquare.com/v/uva/4fb61c1fe4b064d537ff0d6f","categoryId":"4bf58dd8d48988d123941735","category":"Wine Bar","checkinsCount":1498,"usersCount":901,"tipCount":32,"visitsCount":2015,"tier":"","message":"","currency":"","rating":8.3},{"name":"Kartel","phone":"+862154042899","address":"1 Xiangyang Rd. 襄阳路1号","lat":31.222888036248545,"lng":121.4497273083178,"neighborhood":"Jìngān","city_fetched":"Shanghai,China","state":"上海市","country":"中国","canonicalUrl":"https://foursquare.com/v/kartel/4e3aae2d1f6e7952f3298d62","categoryId":"4bf58dd8d48988d123941735","category":"Wine Bar","checkinsCount":3078,"usersCount":1880,"tipCount":62,"visitsCount":3796,"tier":"","message":"","currency":"","rating":8.3},{"name":"Southern Cross | 南十字星","phone":"+862154047211","address":"1276 Huaihai Rd. Middle","lat":31.215608531249934,"lng":121.44693749709836,"neighborhood":"Xúhuì","city_fetched":"Shanghai,China","state":"上海市","country":"中国","canonicalUrl":"https://foursquare.com/v/southern-cross--%E5%8D%97%E5%8D%81%E5%AD%97%E6%98%9F/4b69728af964a520a9a22be3","categoryId":"4bf58dd8d48988d11e941735","category":"Cocktail Bar","checkinsCount":903,"usersCount":359,"tipCount":20,"visitsCount":1027,"tier":"","message":"","currency":"","rating":8.3},{"name":"Justcool 玖库","address":"291 番禺路","lat":31.207420083346125,"lng":121.42464448699444,"neighborhood":"Zhǎngníng","city_fetched":"Shanghai,China","country":"中国","canonicalUrl":"https://foursquare.com/v/justcool-%E7%8E%96%E5%BA%93/53ca7ddb498ec00d435bd737","categoryId":"4bf58dd8d48988d116941735","category":"Bar","checkinsCount":111,"usersCount":81,"tipCount":4,"visitsCount":159,"tier":"","message":"","currency":"","rating":8.3},{"name":"Mokkos Bar","phone":"+862162121114","address":"Room 103 1245 Wuding Road West","lat":31.226875,"lng":121.428802,"neighborhood":"Jìngān","city_fetched":"Shanghai,China","state":"上海市","country":"中国","canonicalUrl":"https://foursquare.com/v/mokkos-bar/4b0bf924f964a5203d3523e3","categoryId":"4bf58dd8d48988d116941735","category":"Bar","checkinsCount":625,"usersCount":429,"tipCount":19,"visitsCount":740,"tier":"","message":"","currency":"","rating":8.3},{"name":"Le Royal Club Lounge - Le Royal Méridien Shanghai","phone":"+862133189999","twitter":"royalmeridiensh","address":"789 East Nanjing Road","lat":31.23643087279901,"lng":121.47149110020011,"neighborhood":"Běixīn qiáo","city_fetched":"Shanghai,China","state":"上海市","country":"中国","canonicalUrl":"https://foursquare.com/v/le-royal-club-lounge--le-royal-m%C3%A9ridien-shanghai/4c9fd5fe54c8a1cdefb39a4b","categoryId":"4bf58dd8d48988d121941735","category":"Lounge","checkinsCount":1015,"usersCount":439,"tipCount":12,"visitsCount":1022,"url":"http://www.leroyalmeridienshanghai.com","tier":"","message":"","currency":"","rating":8.3},{"name":"LAB","phone":"+862162551195","address":"1093 Wuding Rd","lat":31.231641563645614,"lng":121.43719494799456,"neighborhood":"Jìngān","city_fetched":"Shanghai,China","state":"上海市","country":"中国","canonicalUrl":"https://foursquare.com/v/lab/50c2e95ce4b0fe852d18650f","categoryId":"4bf58dd8d48988d122941735","category":"Whisky Bar","checkinsCount":1008,"usersCount":565,"tipCount":20,"visitsCount":1069,"tier":"","message":"","currency":"","rating":8.2},{"name":"Jackie's Beer Nest","address":"肇周路76号","lat":31.218863457085217,"lng":121.4780066068655,"neighborhood":"Xīntiāndì","city_fetched":"Shanghai,China","state":"上海市","country":"中国","canonicalUrl":"https://foursquare.com/v/jackies-beer-nest/4c0cd4db98102d7fda2de106","categoryId":"4bf58dd8d48988d116941735","category":"Bar","checkinsCount":287,"usersCount":171,"tipCount":10,"visitsCount":315,"tier":"","message":"","currency":"","rating":8.2},{"name":"The Brew","address":"1/F, Kerry Parkside, 1388 Huamu Rd","lat":31.215345565757623,"lng":121.55890086622874,"neighborhood":"Pǔdōng","city_fetched":"Shanghai,China","state":"上海市","country":"中国","canonicalUrl":"https://foursquare.com/v/the-brew/4d7ec9ec95c1a14337bad8f2","categoryId":"4bf58dd8d48988d1d5941735","category":"Hotel Bar","checkinsCount":1962,"usersCount":793,"tipCount":44,"visitsCount":1983,"url":"http://www.shangri-la.com/shanghai/kerryhotelpudong/dining/bars-lounges/the-brew/","tier":"","message":"","currency":"","rating":8.2},{"name":"M1NT","phone":"+862163912811","address":"24/F, 318 Fuzhou Rd.","lat":31.236744131549496,"lng":121.48000358048391,"neighborhood":"Běixīn qiáo","city_fetched":"Shanghai,China","state":"上海市","country":"中国","canonicalUrl":"https://foursquare.com/v/m1nt/4b0588c5f964a52074d922e3","categoryId":"4bf58dd8d48988d11f941735","category":"Nightclub","checkinsCount":12550,"usersCount":4985,"tipCount":153,"visitsCount":14347,"url":"http://www.m1ntglobal.com","tier":3,"message":"Expensive","currency":"¥","rating":8.2},{"name":"Kangaroo Bar","phone":"+862154666066","address":"33 Yongjia Rd.","lat":31.2126918396339,"lng":121.45833624078601,"neighborhood":"Xīntiāndì","city_fetched":"Shanghai,China","state":"上海市","country":"中国","canonicalUrl":"https://foursquare.com/v/kangaroo-bar/4b62e7d1f964a5202f582ae3","categoryId":"4bf58dd8d48988d118941735","category":"Dive Bar","checkinsCount":693,"usersCount":192,"tipCount":14,"visitsCount":735,"tier":"","message":"","currency":"","rating":8.2},{"name":"Lost Heaven Lounge","phone":"+862163300967","address":"3-4/F, 17 Yan'an Rd. East","lat":31.23446308949748,"lng":121.48638725280762,"neighborhood":"Wàitān","city_fetched":"Shanghai,China","state":"上海市","country":"中国","canonicalUrl":"https://foursquare.com/v/%E8%8A%B1%E9%A9%AC%E5%A4%A9%E5%A0%82%E9%85%92%E5%90%A7--lost-heaven-lounge/4ed0e2a60e61efa33195e8d0","categoryId":"4bf58dd8d48988d121941735","category":"Lounge","checkinsCount":972,"usersCount":778,"tipCount":23,"visitsCount":977,"url":"http://www.lostheaven.com.cn/outlets-restaurant.aspx?type=restaurant-lounge","tier":"","message":"","currency":"","rating":8.2},{"name":"DAGA Brewpub","address":"Fuxing Xi Lu 100","lat":31.212543132400107,"lng":121.43819937246387,"neighborhood":"Xúhuì","city_fetched":"Shanghai,China","state":"上海市","country":"中国","canonicalUrl":"https://foursquare.com/v/daga-brewpub/56360ea2498e155dab6bc97d","categoryId":"4bf58dd8d48988d116941735","category":"Bar","checkinsCount":220,"usersCount":199,"tipCount":7,"visitsCount":316,"tier":"","message":"","currency":"","rating":8.1},{"name":"Dada Bar","phone":"+8615901969600","address":"115 Xingfu Rd","lat":31.20711812231016,"lng":121.42659215775748,"neighborhood":"Zhǎngníng","city_fetched":"Shanghai,China","state":"上海市","country":"中国","canonicalUrl":"https://foursquare.com/v/dada-bar/4b56e9e3f964a520101f28e3","categoryId":"4bf58dd8d48988d116941735","category":"Bar","checkinsCount":1872,"usersCount":1134,"tipCount":24,"visitsCount":2519,"url":"http://www.weibo.com/dadabar","tier":"","message":"","currency":"","rating":8.1},{"name":"Tap House","phone":"+862152926990","address":"99 Taixing Rd.","lat":31.230473806933162,"lng":121.45532904570489,"neighborhood":"Jìngān","city_fetched":"Shanghai,China","state":"上海市","country":"中国","canonicalUrl":"https://foursquare.com/v/tap-house/55bb706d498e8d9d9e5ca8a8","categoryId":"4bf58dd8d48988d117941735","category":"Beer Garden","checkinsCount":202,"usersCount":143,"tipCount":4,"visitsCount":209,"tier":"","message":"","currency":"","rating":8.1},{"name":"Le Bordelais","phone":"+862162170377","address":"武定路550号","lat":31.235242852331464,"lng":121.44522070884705,"neighborhood":"Jìngān","city_fetched":"Shanghai,China","state":"上海市","country":"中国","canonicalUrl":"https://foursquare.com/v/le-bordelais/4fd5e7a6e4b00a1643e9fb59","categoryId":"4bf58dd8d48988d123941735","category":"Wine Bar","checkinsCount":621,"usersCount":393,"tipCount":18,"visitsCount":749,"url":"http://www.theburdigala.com","tier":"","message":"","currency":"","rating":8.1},{"name":"Salute","phone":"+862134619828","address":"59 Fuxing Rd. (W)","lat":31.21237404088658,"lng":121.44001847456853,"neighborhood":"Xúhuì","city_fetched":"Shanghai,China","state":"上海市","country":"中国","canonicalUrl":"https://foursquare.com/v/salute/4e07290c18a8382643b26310","categoryId":"4bf58dd8d48988d123941735","category":"Wine Bar","checkinsCount":1878,"usersCount":783,"tipCount":38,"visitsCount":1964,"tier":"","message":"","currency":"","rating":8.1},{"name":"I Love Shanghai Lounge","phone":"+862152286899","address":"3F, 1788 Xinzha Rd.","lat":31.230031,"lng":121.438933,"neighborhood":"Jìngān","city_fetched":"Shanghai,China","state":"上海市","country":"中国","canonicalUrl":"https://foursquare.com/v/i-love-shanghai-lounge/4b0588bef964a5205cd722e3","categoryId":"4bf58dd8d48988d118941735","category":"Dive Bar","checkinsCount":2051,"usersCount":435,"tipCount":28,"visitsCount":2193,"url":"http://iloveshanghailounge.com","tier":"","message":"","currency":"","rating":8.1},{"name":"The Roof","phone":"+862160737628","address":"4/F, Bldg 5, Surpass Court, 570 YougJia Rd.","lat":31.20787907769916,"lng":121.44628467154484,"neighborhood":"Xúhuì","city_fetched":"Shanghai,China","state":"上海市","country":"中国","canonicalUrl":"https://foursquare.com/v/the-roof/4cd3fb0b558a37041c55c4a6","categoryId":"4bf58dd8d48988d121941735","category":"Lounge","checkinsCount":1382,"usersCount":599,"tipCount":21,"visitsCount":1406,"tier":"","message":"","currency":"","rating":8},{"name":"Shanty","phone":"+862162258635","address":"武夷路84号","lat":31.21545323339964,"lng":121.42486810684204,"neighborhood":"Zhǎngníng","city_fetched":"Shanghai,China","state":"上海市","country":"中国","canonicalUrl":"https://foursquare.com/v/shanty/4b6d752ef964a52090752ce3","categoryId":"4bf58dd8d48988d1d4941735","category":"Speakeasy","checkinsCount":200,"usersCount":122,"tipCount":8,"visitsCount":206,"tier":"","message":"","currency":"","rating":8},{"name":"Panda Restaurant & Bar","lat":31.21024066945739,"lng":121.4636307221635,"neighborhood":"Xīntiāndì","city_fetched":"Shanghai,China","state":"上海市","country":"中国","canonicalUrl":"https://foursquare.com/v/panda-restaurant--bar/4ebfd56930f82a2e1322ebfe","categoryId":"4bf58dd8d48988d116941735","category":"Bar","checkinsCount":92,"usersCount":79,"tipCount":1,"visitsCount":92,"tier":"","message":"","currency":"","rating":8},{"name":"Pocho","phone":"+862154198727","address":"建国西路376号 | 376 West Jianguo Road","lat":31.206405,"lng":121.451536,"neighborhood":"Xúhuì","city_fetched":"Shanghai,China","state":"上海市","country":"中国","canonicalUrl":"https://foursquare.com/v/pocho/523357d411d2cfc54fa88b9f","categoryId":"4bf58dd8d48988d11e941735","category":"Cocktail Bar","checkinsCount":464,"usersCount":222,"tipCount":15,"visitsCount":519,"tier":"","message":"","currency":"","rating":8},{"name":"The Shelter","address":"5 Yongfu Rd","lat":31.21336503122539,"lng":121.4394046703095,"neighborhood":"Xúhuì","city_fetched":"Shanghai,China","state":"上海市","country":"中国","canonicalUrl":"https://foursquare.com/v/the-shelter/4b0588bff964a52098d722e3","categoryId":"4bf58dd8d48988d11f941735","category":"Nightclub","checkinsCount":1626,"usersCount":787,"tipCount":25,"visitsCount":1641,"tier":"","message":"","currency":"","rating":8},{"name":"Barbarossa","phone":"+862163180220","address":"Inside People's Park, 231 Nanjing Rd. W.","lat":31.2332813547054,"lng":121.46709515639547,"neighborhood":"Rénmín Guǎngchǎng","city_fetched":"Shanghai,China","state":"上海市","country":"中国","canonicalUrl":"https://foursquare.com/v/barbarossa/4dd3e9f3d4c05dc63acd76f2","categoryId":"4bf58dd8d48988d121941735","category":"Lounge","checkinsCount":4119,"usersCount":2716,"tipCount":96,"visitsCount":4553,"tier":"","message":"","currency":"","rating":8},{"name":"Shen","address":"7 Yan'an Dong Lu, 7th Floor","lat":31.234785976848052,"lng":121.48682538267,"neighborhood":"Wàitān","city_fetched":"Shanghai,China","state":"上海市","country":"中国","canonicalUrl":"https://foursquare.com/v/shen/55424a17498e2914edb5b28f","categoryId":"4bf58dd8d48988d11e941735","category":"Cocktail Bar","checkinsCount":124,"usersCount":81,"tipCount":6,"visitsCount":130,"tier":"","message":"","currency":"","rating":8},{"name":"Constellation 2 | 酒池星座","phone":"+862154655993","address":"33 Yongjia Rd","lat":31.212988466452007,"lng":121.45901689373125,"neighborhood":"Xīntiāndì","city_fetched":"Shanghai,China","state":"上海市","country":"中国","canonicalUrl":"https://foursquare.com/v/constellation-2--%E9%85%92%E6%B1%A0%E6%98%9F%E5%BA%A7/4b1926ecf964a52089d823e3","categoryId":"4bf58dd8d48988d122941735","category":"Whisky Bar","checkinsCount":1351,"usersCount":857,"tipCount":33,"visitsCount":1568,"tier":"","message":"","currency":"","rating":8},{"name":"Captain Bar","phone":"+862163237869","address":"福州路37号船长酒店6搂 | 37 Fuzhou Lu (6F)","lat":31.23727937902522,"lng":121.485013961792,"neighborhood":"Wàitān","city_fetched":"Shanghai,China","state":"上海市","country":"中国","canonicalUrl":"https://foursquare.com/v/%E8%88%B9%E9%95%BF%E9%85%92%E5%90%A7--captain-bar/4b0d2233f964a520034423e3","categoryId":"4bf58dd8d48988d121941735","category":"Lounge","checkinsCount":1010,"usersCount":872,"tipCount":43,"visitsCount":1130,"tier":"","message":"","currency":"","rating":8},{"name":"Shanghai Brewery","phone":"+862164065919","address":"21C,  3338 Hongmei Pedestrian Lane","lat":31.193245969902193,"lng":121.38341762482688,"neighborhood":"Mǐnxíng qū","city_fetched":"Shanghai,China","state":"上海市","country":"中国","canonicalUrl":"https://foursquare.com/v/shanghai-brewery/4d9fe746a77d816e26cd0d09","categoryId":"50327c8591d4c4b30a586d5d","category":"Brewery","checkinsCount":1726,"usersCount":840,"tipCount":34,"visitsCount":1785,"tier":"","message":"","currency":"","rating":7.9},{"name":"Roosevelt Sky Bar","address":"27 Zhongshan East 1st Rd","lat":31.2424234850559,"lng":121.48545324562687,"neighborhood":"Wàitān","city_fetched":"Shanghai,China","state":"上海市","country":"中国","canonicalUrl":"https://foursquare.com/v/roosevelt-sky-bar/51938fd5498edd6f4f576889","categoryId":"4bf58dd8d48988d11e941735","category":"Cocktail Bar","checkinsCount":364,"usersCount":320,"tipCount":10,"visitsCount":368,"tier":"","message":"","currency":"","rating":7.9},{"name":"The Mansion","address":"2388 Hongqiao Rd","lat":31.17899715093946,"lng":121.36251951988191,"neighborhood":"Mǐnxíng qū","city_fetched":"Shanghai,China","state":"上海市","country":"中国","canonicalUrl":"https://foursquare.com/v/the-mansion/51435c88e4b0fb9a38dee998","categoryId":"4bf58dd8d48988d11f941735","category":"Nightclub","checkinsCount":282,"usersCount":217,"tipCount":9,"visitsCount":411,"tier":"","message":"","currency":"","rating":7.9},{"name":"Time Passage","phone":"+862162402588","address":"华山路 1038 弄 173 号","lat":31.213833798638014,"lng":121.43152536629525,"neighborhood":"Jìngān","city_fetched":"Shanghai,China","state":"上海市","country":"中国","canonicalUrl":"https://foursquare.com/v/%E6%98%A8%E5%A4%A9%E4%BB%8A%E5%A4%A9%E6%98%8E%E5%A4%A9--time-passage/4b892698f964a520851f32e3","categoryId":"4bf58dd8d48988d11b941735","category":"Pub","checkinsCount":884,"usersCount":354,"tipCount":11,"visitsCount":1114,"tier":"","message":"","currency":"","rating":7.9},{"name":"The Ritz-Carlton Club Lounge","phone":"+862120201888","address":"8 Century Ave., The Ritz-Carlton Pudong","lat":31.238723731225186,"lng":121.49690395264528,"neighborhood":"Lùjiāzuǐ","city_fetched":"Shanghai,China","state":"上海市","country":"中国","canonicalUrl":"https://foursquare.com/v/the-ritzcarlton-club-lounge/4e62bdc7b0fb188e8dd8ca5a","categoryId":"4bf58dd8d48988d1d5941735","category":"Hotel Bar","checkinsCount":338,"usersCount":209,"tipCount":5,"visitsCount":338,"tier":"","message":"","currency":"","rating":7.9},{"name":"Cotton's","phone":"+862164337995","address":"132 Anting Rd.","lat":31.203469,"lng":121.443316,"neighborhood":"Xújiāhuì","city_fetched":"Shanghai,China","state":"上海市","country":"中国","canonicalUrl":"https://foursquare.com/v/cottons/4b0588bef964a5203ad722e3","categoryId":"4bf58dd8d48988d116941735","category":"Bar","checkinsCount":2189,"usersCount":1354,"tipCount":37,"visitsCount":2758,"tier":"","message":"","currency":"","rating":7.9},{"name":"台北纯K","phone":"+862131155888","address":"徐家汇路618号日月光3楼","lat":31.209061139506954,"lng":121.46315651614262,"neighborhood":"Dǎ pǔ qiáo","city_fetched":"Shanghai,China","state":"上海市","country":"中国","canonicalUrl":"https://foursquare.com/v/%E5%8F%B0%E5%8C%97%E7%BA%AFk/50530d0ce4b0a13301868186","categoryId":"4bf58dd8d48988d120941735","category":"Karaoke Bar","checkinsCount":2649,"usersCount":1097,"tipCount":20,"visitsCount":3140,"tier":"","message":"","currency":"","rating":7.9},{"name":"CITIZEN Café & Bar","phone":"+862162581620","address":"222 Jinxian Rd","lat":31.223100102496343,"lng":121.45337070028819,"neighborhood":"Jìngān","city_fetched":"Shanghai,China","state":"上海市","country":"中国","canonicalUrl":"https://foursquare.com/v/citizen-caf%C3%A9--bar/4b0588bef964a52039d722e3","categoryId":"4bf58dd8d48988d11e941735","category":"Cocktail Bar","checkinsCount":2451,"usersCount":1212,"tipCount":51,"visitsCount":2520,"url":"http://www.citizenshanghai.com","tier":"","message":"","currency":"","rating":7.8},{"name":"UNÏCO","phone":"+862153085399","address":"2/F, Three on the Bund, 3 Zhongshan Rd. East-1","lat":31.236445576533654,"lng":121.48664131645603,"neighborhood":"Wàitān","city_fetched":"Shanghai,China","state":"上海市","country":"中国","canonicalUrl":"https://foursquare.com/v/un%C3%AFco/5013ca26e4b07f20b30e1ceb","categoryId":"4bf58dd8d48988d121941735","category":"Lounge","checkinsCount":4691,"usersCount":2098,"tipCount":64,"visitsCount":5378,"url":"http://www.unico.cn.com","tier":"","message":"","currency":"","rating":7.8},{"name":"JZ Lounge","address":"河南南路159号豫园万丽大酒店22楼","lat":31.229646658709417,"lng":121.48363485994554,"neighborhood":"Lǎo běi mén","city_fetched":"Shanghai,China","state":"上海市","country":"中国","canonicalUrl":"https://foursquare.com/v/jz-lounge/50af7862e4b034c5d7651e64","categoryId":"4bf58dd8d48988d121941735","category":"Lounge","checkinsCount":114,"usersCount":89,"tipCount":7,"visitsCount":115,"tier":"","message":"","currency":"","rating":7.8},{"name":"Mr Shaker","lat":31.218458,"lng":121.468715,"neighborhood":"Xīntiāndì","city_fetched":"Shanghai,China","country":"中国","canonicalUrl":"https://foursquare.com/v/mr-shaker/5231c23311d20c953f502c81","categoryId":"4bf58dd8d48988d116941735","category":"Bar","checkinsCount":102,"usersCount":85,"tipCount":8,"visitsCount":107,"tier":"","message":"","currency":"","rating":7.8},{"name":"Ginseng","phone":"+862164160069","address":"39 Yongkang Rd","lat":31.213027,"lng":121.453953,"neighborhood":"Xúhuì","city_fetched":"Shanghai,China","state":"上海市","country":"中国","canonicalUrl":"https://foursquare.com/v/ginseng/4f85659be4b047432f2775f5","categoryId":"4bf58dd8d48988d11e941735","category":"Cocktail Bar","checkinsCount":559,"usersCount":151,"tipCount":18,"visitsCount":566,"tier":"","message":"","currency":"","rating":7.7},{"name":"Tiki China","phone":"+862164150363","address":"320 Tianping Rd","lat":31.197988433756887,"lng":121.43508004794907,"neighborhood":"Shànghǎi jiāotōng dàxué","city_fetched":"Shanghai,China","state":"上海市","country":"中国","canonicalUrl":"https://foursquare.com/v/tiki-china/53ad908c498e4de5ea716600","categoryId":"4bf58dd8d48988d11e941735","category":"Cocktail Bar","checkinsCount":160,"usersCount":94,"tipCount":13,"visitsCount":170,"url":"http://www.tikichina.cn","tier":"","message":"","currency":"","rating":7.7},{"name":"Labella Wine House","lat":31.21250030910515,"lng":121.43461130497242,"neighborhood":"Xúhuì","city_fetched":"Shanghai,China","country":"中国","canonicalUrl":"https://foursquare.com/v/labella-wine-house/4ea6d08229c2c61b4520bc6d","categoryId":"4bf58dd8d48988d123941735","category":"Wine Bar","checkinsCount":180,"usersCount":85,"tipCount":4,"visitsCount":215,"tier":"","message":"","currency":"","rating":7.7},{"name":"Boxing Cat Brewery | 拳击猫餐厅","phone":"+862164312091","twitter":"boxingcatbeer","address":"82 W Fuxing Rd","lat":31.212639120343354,"lng":121.4384393170182,"neighborhood":"Xúhuì","city_fetched":"Shanghai,China","state":"上海市","country":"中国","canonicalUrl":"https://foursquare.com/v/boxing-cat-brewery--%E6%8B%B3%E5%87%BB%E7%8C%AB%E9%A4%90%E5%8E%85/4bd1d4d6caff9521136bd1f0","categoryId":"50327c8591d4c4b30a586d5d","category":"Brewery","checkinsCount":4596,"usersCount":2166,"tipCount":76,"visitsCount":5580,"url":"http://www.boxingcatbrewery.com","tier":"","message":"","currency":"","rating":7.7},{"name":"The Tailor Bar","address":"4/F 2 Huashan Lu","lat":31.22520493005188,"lng":121.44001847456853,"neighborhood":"Jìngān","city_fetched":"Shanghai,China","country":"中国","canonicalUrl":"https://foursquare.com/v/the-tailor-bar/5382f200498eefac456bee29","categoryId":"4bf58dd8d48988d11e941735","category":"Cocktail Bar","checkinsCount":142,"usersCount":110,"tipCount":6,"visitsCount":150,"tier":"","message":"","currency":"","rating":7.7},{"name":"Burdigala Bordeaux Wine Bar","phone":"+862164229826","address":"嘉善路301号2楼","lat":31.208557114378046,"lng":121.45557453395489,"neighborhood":"Xúhuì","city_fetched":"Shanghai,China","state":"上海市","country":"中国","canonicalUrl":"https://foursquare.com/v/burdigala-bordeaux-wine-bar/5226b4c411d2a197caf33904","categoryId":"4bf58dd8d48988d123941735","category":"Wine Bar","checkinsCount":408,"usersCount":338,"tipCount":7,"visitsCount":559,"url":"http://www.theburdigala.com","tier":"","message":"","currency":"","rating":7.7},{"name":"I Love Shanghai Lounge TZF","phone":"+862164228116","address":"248 Taikang Rd Lane 1 Building 1","lat":31.209747821157247,"lng":121.46433365926566,"neighborhood":"Xīntiāndì","city_fetched":"Shanghai,China","state":"上海市","country":"中国","canonicalUrl":"https://foursquare.com/v/i-love-shanghai-lounge-tzf/558902b4498ec9509ee0c727","categoryId":"4bf58dd8d48988d121941735","category":"Lounge","checkinsCount":1014,"usersCount":100,"tipCount":11,"visitsCount":1071,"tier":"","message":"","currency":"","rating":7.7},{"name":"The Lobby Lounge @ Parkyard Hotel","phone":"+862161621160","address":"699 bi bo road","lat":31.20124331169197,"lng":121.57998631922293,"neighborhood":"Zhāng jiāng","city_fetched":"Shanghai,China","state":"上海市","country":"中国","canonicalUrl":"https://foursquare.com/v/the-lobby-lounge--parkyard-hotel/4e5511c6aeb7b18559d91cc7","categoryId":"4bf58dd8d48988d116941735","category":"Bar","checkinsCount":469,"usersCount":46,"tipCount":2,"visitsCount":478,"tier":"","message":"","currency":"","rating":7.7},{"name":"Dr. Wine","phone":"+862154035771","address":"177 Fumin Rd.","lat":31.221160665035395,"lng":121.44650786018329,"neighborhood":"Jìngān","city_fetched":"Shanghai,China","state":"上海市","country":"中国","canonicalUrl":"https://foursquare.com/v/dr-wine/4bfbe6ea5244c9b68f79bbeb","categoryId":"4bf58dd8d48988d123941735","category":"Wine Bar","checkinsCount":3521,"usersCount":1644,"tipCount":42,"visitsCount":3977,"tier":"","message":"","currency":"","rating":7.7},{"name":"Crocus","lat":31.2246780509197,"lng":121.4380766099412,"neighborhood":"Jìngān","city_fetched":"Shanghai,China","country":"中国","canonicalUrl":"https://foursquare.com/v/crocus/539af380498e2eba58091976","categoryId":"4bf58dd8d48988d116941735","category":"Bar","checkinsCount":274,"usersCount":165,"tipCount":9,"visitsCount":355,"tier":"","message":"","currency":"","rating":7.7},{"name":"Le Petit Franck","phone":"+862164331213","address":"376 Wukang Rd | 武康路376号","lat":31.208707326674357,"lng":121.43463362610962,"neighborhood":"Xúhuì","city_fetched":"Shanghai,China","state":"上海市","country":"中国","canonicalUrl":"https://foursquare.com/v/le-petit-franck/4ceccd3cd7268cfa3366bf4e","categoryId":"4bf58dd8d48988d121941735","category":"Lounge","checkinsCount":1303,"usersCount":637,"tipCount":27,"visitsCount":1315,"url":"http://www.franck.com.cn","tier":"","message":"","currency":"","rating":7.6},{"name":"OLÁ Bar & Restaurant","phone":"+862152762772","twitter":"olashanghai","address":"1105 Wuding Road","lat":31.231520138192966,"lng":121.43675411450035,"neighborhood":"Jìngān","city_fetched":"Shanghai,China","state":"上海市","country":"中国","canonicalUrl":"https://foursquare.com/olashanghai","categoryId":"4bf58dd8d48988d116941735","category":"Bar","checkinsCount":462,"usersCount":366,"tipCount":11,"visitsCount":814,"url":"http://www.smartshanghai.com/wire/dining/first-bite-ola-new-portuguese-in-jing-an","tier":"","message":"","currency":"","rating":7.6},{"name":"SWFC 93 Sky Bar","address":"世纪大道100号 | 100 Century Ave.","lat":31.236618172853333,"lng":121.5030722485228,"neighborhood":"Lùjiāzuǐ","city_fetched":"Shanghai,China","state":"上海市","country":"中国","canonicalUrl":"https://foursquare.com/v/swfc-93-sky-bar/4efb32929911b01ddecf7f21","categoryId":"4bf58dd8d48988d121941735","category":"Lounge","checkinsCount":449,"usersCount":392,"tipCount":13,"visitsCount":457,"tier":"","message":"","currency":"","rating":7.6},{"name":"Mural","address":"10 Heng Shan Road","lat":31.207341565454843,"lng":121.4424401795753,"neighborhood":"Xújiāhuì","city_fetched":"Shanghai,China","country":"中国","canonicalUrl":"https://foursquare.com/v/mural/509a903be4b09c10ff374fb0","categoryId":"4bf58dd8d48988d116941735","category":"Bar","checkinsCount":252,"usersCount":154,"tipCount":12,"visitsCount":254,"tier":"","message":"","currency":"","rating":7.6},{"name":"Revolucion Cocktail","address":"58 Yongkang Rd","lat":31.212802624578643,"lng":121.45378915295463,"neighborhood":"Xúhuì","city_fetched":"Shanghai,China","state":"上海市","country":"中国","canonicalUrl":"https://foursquare.com/v/revolucion-cocktail/508a7730e4b017e577228d3f","categoryId":"4bf58dd8d48988d11e941735","category":"Cocktail Bar","checkinsCount":1622,"usersCount":563,"tipCount":29,"visitsCount":1656,"tier":"","message":"","currency":"","rating":7.6},{"name":"Lola Club Shanghai","address":"46 Yueyang Lu 岳阳路46号","lat":31.20949423080645,"lng":121.44719974222225,"neighborhood":"Xúhuì","city_fetched":"Shanghai,China","state":"上海市","country":"中国","canonicalUrl":"https://foursquare.com/v/lola-club-shanghai/4d2d8ec1bd60a0934c801ece","categoryId":"4bf58dd8d48988d11f941735","category":"Nightclub","checkinsCount":3525,"usersCount":1502,"tipCount":42,"visitsCount":4096,"tier":"","message":"","currency":"","rating":7.6},{"name":"Kaiba Tap House | 开吧","phone":"+862164182252","address":"Taikang Terrace, 2F, 169 Middle Jianguo Road | 建国中路169弄202号","lat":31.210507475284675,"lng":121.46308422088623,"neighborhood":"Xīntiāndì","city_fetched":"Shanghai,China","state":"上海市","country":"中国","canonicalUrl":"https://foursquare.com/v/kaiba-tap-house--%E5%BC%80%E5%90%A7/4e5e17a914954da39fea6194","categoryId":"4bf58dd8d48988d116941735","category":"Bar","checkinsCount":1993,"usersCount":940,"tipCount":42,"visitsCount":2173,"url":"http://www.kaiba-beerbar.com/en/location_3.aspx","tier":"","message":"","currency":"","rating":7.6},{"name":"Arkham","address":"1 Wulumuqi Road South","lat":31.209478731009554,"lng":121.44354499587986,"neighborhood":"Xújiāhuì","city_fetched":"Shanghai,China","state":"上海市","country":"中国","canonicalUrl":"https://foursquare.com/v/arkham/50aae5c9222fa210acf2e40a","categoryId":"4bf58dd8d48988d11f941735","category":"Nightclub","checkinsCount":1036,"usersCount":637,"tipCount":18,"visitsCount":1287,"url":"http://www.arkhamshanghai.com","tier":"","message":"","currency":"","rating":7.6},{"name":"Horizon Club - Shangri-La Pudong","phone":"+862168828888","address":"33 Fu Cheng Road","lat":31.237712423785467,"lng":121.49407624159662,"neighborhood":"Lùjiāzuǐ","city_fetched":"Shanghai,China","state":"上海市","country":"中国","canonicalUrl":"https://foursquare.com/v/horizon-club--shangrila-pudong/4d3ab4556de7721e352bf149","categoryId":"4bf58dd8d48988d121941735","category":"Lounge","checkinsCount":253,"usersCount":108,"tipCount":3,"visitsCount":253,"tier":"","message":"","currency":"","rating":7.6},{"name":"Club InterContinental","address":"1188 Xueye Rd, InterContinental Expo","lat":31.201342547143913,"lng":121.50078009043854,"neighborhood":"Pǔdōng","city_fetched":"Shanghai,China","state":"上海市","country":"中国","canonicalUrl":"https://foursquare.com/v/club-intercontinental/5126cdc5e4b0f676542c71e3","categoryId":"4bf58dd8d48988d121941735","category":"Lounge","checkinsCount":109,"usersCount":59,"tipCount":1,"visitsCount":110,"tier":"","message":"","currency":"","rating":7.6},{"name":"Epic","address":"17 Gao You Road","lat":31.212123,"lng":121.434012,"neighborhood":"Xúhuì","city_fetched":"Shanghai,China","state":"上海市","country":"中国","canonicalUrl":"https://foursquare.com/v/epic/53ad5be8498e53a18724d948","categoryId":"4bf58dd8d48988d11e941735","category":"Cocktail Bar","checkinsCount":172,"usersCount":177,"tipCount":1,"visitsCount":250,"tier":"","message":"","currency":"","rating":7.6},{"name":"台北纯K","phone":"+862131155888","address":"浙江南路68号","lat":31.23092828723994,"lng":121.47731490960379,"city_fetched":"Shanghai,China","state":"上海市","country":"中国","canonicalUrl":"https://foursquare.com/v/%E5%8F%B0%E5%8C%97%E7%BA%AFk/5120a788e4b0e90c663e44bc","categoryId":"4bf58dd8d48988d120941735","category":"Karaoke Bar","checkinsCount":499,"usersCount":481,"tipCount":5,"visitsCount":726,"tier":"","message":"","currency":"","rating":7.6},{"name":"The Long Bar @ The PuLi","address":"静安区 常德路1号","lat":31.22399261021166,"lng":121.44368449213704,"neighborhood":"Jìngān","city_fetched":"Shanghai,China","state":"上海市","country":"中国","canonicalUrl":"https://foursquare.com/v/the-long-bar--the-puli/4f8ea40ae4b0036b6f3faef9","categoryId":"4bf58dd8d48988d123941735","category":"Wine Bar","checkinsCount":240,"usersCount":161,"tipCount":3,"visitsCount":244,"tier":"","message":"","currency":"","rating":7.6},{"name":"Dogtown","address":"409 Shaanxi Bei Lu","lat":31.232274930243577,"lng":121.44839936658094,"neighborhood":"Jìngān","city_fetched":"Shanghai,China","country":"中国","canonicalUrl":"https://foursquare.com/v/dogtown/5385b82d498efc318a91ce86","categoryId":"4bf58dd8d48988d117941735","category":"Beer Garden","checkinsCount":466,"usersCount":245,"tipCount":13,"visitsCount":489,"tier":"","message":"","currency":"","rating":7.6},{"name":"De Refter","phone":"+862132302595","twitter":"dereftersh","address":"181 Jinxian Rd","lat":31.223249366249416,"lng":121.45455352257594,"neighborhood":"Jìngān","city_fetched":"Shanghai,China","state":"上海市","country":"中国","canonicalUrl":"https://foursquare.com/dereftersh","categoryId":"4bf58dd8d48988d116941735","category":"Bar","checkinsCount":582,"usersCount":307,"tipCount":23,"visitsCount":586,"url":"http://www.derefter.com","tier":"","message":"","currency":"","rating":7.6},{"name":"Café Des Stagiaires 3","address":"386 Dagu Rd","lat":31.22747951878828,"lng":121.46140472640732,"neighborhood":"Jìngān","city_fetched":"Shanghai,China","state":"上海市","country":"中国","canonicalUrl":"https://foursquare.com/v/caf%C3%A9-des-stagiaires-3/51a8999a498e0d9e4e5d6daa","categoryId":"4bf58dd8d48988d116941735","category":"Bar","checkinsCount":1338,"usersCount":749,"tipCount":16,"visitsCount":1734,"url":"http://cafestagiaires.com","tier":"","message":"","currency":"","rating":7.5},{"name":"CLOSLESS","address":"Jinxian Road No. 169","lat":31.223299400000002,"lng":121.454588,"neighborhood":"Jìngān","city_fetched":"Shanghai,China","state":"上海市","country":"中国","canonicalUrl":"https://foursquare.com/v/closless/4dc7ec4cae608779d175adff","categoryId":"4bf58dd8d48988d11e941735","category":"Cocktail Bar","checkinsCount":312,"usersCount":118,"tipCount":8,"visitsCount":323,"tier":"","message":"","currency":"","rating":7.5},{"name":"Constellation 3 | 酒池星座","phone":"+862153752712","address":"黄陂北路251号","lat":31.231701652691708,"lng":121.46597382917311,"neighborhood":"Rénmín Guǎngchǎng","city_fetched":"Shanghai,China","state":"上海市","country":"中国","canonicalUrl":"https://foursquare.com/v/constellation-3--%E9%85%92%E6%B1%A0%E6%98%9F%E5%BA%A7/4bcdb994937ca593c029ad92","categoryId":"4bf58dd8d48988d122941735","category":"Whisky Bar","checkinsCount":683,"usersCount":418,"tipCount":22,"visitsCount":691,"tier":"","message":"","currency":"","rating":7.5},{"name":"巧薈 hoF Dessert Lounge","phone":"+862160932058","address":"30-1 Sinan Rd.","lat":31.22085748588822,"lng":121.46150708198547,"neighborhood":"Xīntiāndì","city_fetched":"Shanghai,China","state":"上海市","country":"中国","canonicalUrl":"https://foursquare.com/v/%E5%B7%A7%E8%96%88-hof-dessert-lounge/4b1a6537f964a520c6e923e3","categoryId":"4bf58dd8d48988d121941735","category":"Lounge","checkinsCount":1041,"usersCount":706,"tipCount":26,"visitsCount":1066,"url":"http://www.houseofflour.com/hofLounge/OurPhilosophy.aspx","tier":"","message":"","currency":"","rating":7.5},{"name":"Club Lounge","address":"44/F, The Portman Ritz-Carlton, Shanghai, 1376 Nanjing Rd W","lat":31.229103874516568,"lng":121.44709930798983,"neighborhood":"Jìngān","city_fetched":"Shanghai,China","state":"上海市","country":"中国","canonicalUrl":"https://foursquare.com/v/club-lounge/4f659355e4b015497c4333d9","categoryId":"4bf58dd8d48988d121941735","category":"Lounge","checkinsCount":325,"usersCount":109,"tipCount":2,"visitsCount":325,"tier":"","message":"","currency":"","rating":7.5},{"name":"Kaiba Belgian Beer Bar | 开巴","phone":"+862162805688","address":"定西路739号","lat":31.209544936159926,"lng":121.41915846460638,"neighborhood":"Zhǎngníng","city_fetched":"Shanghai,China","state":"上海市","country":"中国","canonicalUrl":"https://foursquare.com/v/kaiba-belgian-beer-bar--%E5%BC%80%E5%B7%B4/4c8e10f4d68c6dcbd6b0f8a1","categoryId":"4bf58dd8d48988d116941735","category":"Bar","checkinsCount":1062,"usersCount":678,"tipCount":21,"visitsCount":1314,"tier":"","message":"","currency":"","rating":7.5},{"name":"Barber Shop","address":"615 Yongjia Road","lat":31.20638103428032,"lng":121.44413645885354,"neighborhood":"Xújiāhuì","city_fetched":"Shanghai,China","state":"上海市","country":"中国","canonicalUrl":"https://foursquare.com/v/barber-shop/563e1693cd1017136e32535e","categoryId":"4bf58dd8d48988d121941735","category":"Lounge","checkinsCount":124,"usersCount":179,"tipCount":6,"visitsCount":227,"tier":"","message":"","currency":"","rating":7.5},{"name":"Gilligan's","address":"176 Yongkang Lu","lat":31.2121,"lng":121.451777,"neighborhood":"Xúhuì","city_fetched":"Shanghai,China","country":"中国","canonicalUrl":"https://foursquare.com/v/gilligans/54797c8d498e71c5f35815b2","categoryId":"4bf58dd8d48988d116941735","category":"Bar","checkinsCount":97,"usersCount":56,"tipCount":9,"visitsCount":107,"tier":"","message":"","currency":"","rating":7.5},{"name":"仁恒滨江园会所 Yanlord Garden Clubhouse","address":"浦明路99弄","lat":31.23136042665099,"lng":121.5028937853018,"neighborhood":"Lùjiāzuǐ","city_fetched":"Shanghai,China","state":"上海市","country":"中国","canonicalUrl":"https://foursquare.com/v/%E4%BB%81%E6%81%92%E6%BB%A8%E6%B1%9F%E5%9B%AD%E4%BC%9A%E6%89%80-yanlord-garden-clubhouse/4d5fc19029ef236a098f9c59","categoryId":"4bf58dd8d48988d1d4941735","category":"Speakeasy","checkinsCount":248,"usersCount":65,"tipCount":2,"visitsCount":257,"tier":"","message":"","currency":"","rating":7.5},{"name":"Friends Bar","address":"248 Taikang Rd","lat":31.210224,"lng":121.463509,"neighborhood":"Xīntiāndì","city_fetched":"Shanghai,China","state":"上海市","country":"中国","canonicalUrl":"https://foursquare.com/v/friends-bar/51948c22498eb34210f058ca","categoryId":"4bf58dd8d48988d116941735","category":"Bar","checkinsCount":163,"usersCount":105,"tipCount":11,"visitsCount":164,"tier":"","message":"","currency":"","rating":7.5},{"name":"Le Café des Stagiaires","phone":"+862134250210","address":"54-56 Yongkang Rd.","lat":31.212945,"lng":121.453777,"neighborhood":"Xúhuì","city_fetched":"Shanghai,China","state":"上海市","country":"中国","canonicalUrl":"https://foursquare.com/v/le-caf%C3%A9-des-stagiaires/4e896b077ee683a9f98b323d","categoryId":"4bf58dd8d48988d116941735","category":"Bar","checkinsCount":3985,"usersCount":1341,"tipCount":53,"visitsCount":4100,"url":"http://cafestagiaires.com","tier":"","message":"","currency":"","rating":7.5},{"name":"上海国际啤酒节 | Shanghai International Beer Festival","address":"Wharf 1846","lat":31.22078323569431,"lng":121.50250339603903,"neighborhood":"Xiǎo dōng mén","city_fetched":"Shanghai,China","country":"中国","canonicalUrl":"https://foursquare.com/v/%E4%B8%8A%E6%B5%B7%E5%9B%BD%E9%99%85%E5%95%A4%E9%85%92%E8%8A%82--shanghai-international-beer-festival/5080ecf3e4b07ddb6048df3a","categoryId":"4bf58dd8d48988d117941735","category":"Beer Garden","checkinsCount":490,"usersCount":474,"tipCount":6,"visitsCount":631,"tier":"","message":"","currency":"","rating":7.4},{"name":"Koala Bar","phone":"52588779","address":"淮海西路280号 | 280 Huaihai Rd. W.","lat":31.201654196939945,"lng":121.42457193702073,"neighborhood":"Zhǎngníng","city_fetched":"Shanghai,China","state":"上海市","country":"中国","canonicalUrl":"https://foursquare.com/v/koala-bar/4bdd6377f219c9b6a77c1210","categoryId":"4bf58dd8d48988d116941735","category":"Bar","checkinsCount":828,"usersCount":312,"tipCount":12,"visitsCount":1039,"tier":"","message":"","currency":"","rating":7.4},{"name":"Craft","address":"7 Donghu Rd., Donghu Hotel S. Wing","lat":31.21770092744316,"lng":121.44984447891446,"neighborhood":"Xúhuì","city_fetched":"Shanghai,China","state":"上海市","country":"中国","canonicalUrl":"https://foursquare.com/v/craft/4dda11b2d4c05d5097286e4d","categoryId":"4bf58dd8d48988d11e941735","category":"Cocktail Bar","checkinsCount":2127,"usersCount":880,"tipCount":31,"visitsCount":2195,"tier":"","message":"","currency":"","rating":7.4},{"name":"The Tipsy Fiddler","address":"Xingfu Lu","lat":31.205420640875737,"lng":121.42630754315732,"neighborhood":"Zhǎngníng","city_fetched":"Shanghai,China","state":"上海市","country":"中国","canonicalUrl":"https://foursquare.com/v/the-tipsy-fiddler/536cf91d498e77ab22a28d9a","categoryId":"4bf58dd8d48988d116941735","category":"Bar","checkinsCount":268,"usersCount":145,"tipCount":5,"visitsCount":408,"tier":"","message":"","currency":"","rating":7.4},{"name":"Cloud 9","address":"87/F, Jin Mao Tower, 88 Century Ave.","lat":31.237316260721112,"lng":121.50111471490779,"neighborhood":"Lùjiāzuǐ","city_fetched":"Shanghai,China","state":"上海市","country":"中国","canonicalUrl":"https://foursquare.com/v/cloud-9/4b0588bef964a5200bd722e3","categoryId":"4bf58dd8d48988d1d5941735","category":"Hotel Bar","checkinsCount":1623,"usersCount":1402,"tipCount":53,"visitsCount":1629,"url":"http://www.shanghai.grand.hyatt.com/en/hotel/dining/Cloud9.html","tier":"","message":"","currency":"","rating":7.4},{"name":"hoF Bar & Brasserie","phone":"+862150100800","address":"Unit B1-08, DBS Bank Tower, 1318 Lujiazui Ring Rd.","lat":31.24332448570414,"lng":121.49957299232483,"neighborhood":"Lùjiāzuǐ","city_fetched":"Shanghai,China","state":"上海市","country":"中国","canonicalUrl":"https://foursquare.com/v/hof-bar--brasserie/4d229859dd6a236a7a454938","categoryId":"4bf58dd8d48988d123941735","category":"Wine Bar","checkinsCount":322,"usersCount":161,"tipCount":5,"visitsCount":324,"url":"http://www.houseofflour.com/hof/OurPhilosophy.aspx","tier":"","message":"","currency":"","rating":7.4},{"name":"Hongmei Pedestrian | 老外街","lat":31.193255962091307,"lng":121.3833283008131,"neighborhood":"Mǐnxíng qū","city_fetched":"Shanghai,China","country":"中国","canonicalUrl":"https://foursquare.com/v/hongmei-pedestrian--%E8%80%81%E5%A4%96%E8%A1%97/4d897de27d4c5481605a5571","categoryId":"4bf58dd8d48988d117941735","category":"Beer Garden","checkinsCount":1846,"usersCount":642,"tipCount":13,"visitsCount":1932,"tier":"","message":"","currency":"","rating":7.4},{"name":"Ying Yang (YY's)","address":"125 Nanchang Rd","lat":31.219362568357923,"lng":121.45908942208705,"neighborhood":"Xīntiāndì","city_fetched":"Shanghai,China","state":"上海市","country":"中国","canonicalUrl":"https://foursquare.com/v/ying-yang-yys/4b0588bef964a52027d722e3","categoryId":"4bf58dd8d48988d116941735","category":"Bar","checkinsCount":722,"usersCount":236,"tipCount":7,"visitsCount":746,"tier":"","message":"","currency":"","rating":7.3},{"name":"Vita Bistro & Bar","address":"557 Yongjia Rd.","lat":31.206684,"lng":121.446128,"neighborhood":"Xúhuì","city_fetched":"Shanghai,China","state":"上海市","country":"中国","canonicalUrl":"https://foursquare.com/v/vita-bistro--bar/502101d5e4b07d65770f9d3b","categoryId":"4bf58dd8d48988d116941735","category":"Bar","checkinsCount":426,"usersCount":325,"tipCount":17,"visitsCount":569,"tier":"","message":"","currency":"","rating":7.3},{"name":"Adam's","address":"448-5 Xinhua Lu","lat":31.206046915495676,"lng":121.4191863697521,"neighborhood":"Zhǎngníng","city_fetched":"Shanghai,China","state":"上海市","country":"中国","canonicalUrl":"https://foursquare.com/v/adams/4f3fb631e4b031299dcebb73","categoryId":"4bf58dd8d48988d11e941735","category":"Cocktail Bar","checkinsCount":119,"usersCount":66,"tipCount":19,"visitsCount":119,"tier":"","message":"","currency":"","rating":7.3},{"name":"Arcade","address":"57 W. Fuxing Rd","lat":31.212517737178267,"lng":121.4403142154572,"neighborhood":"Xúhuì","city_fetched":"Shanghai,China","state":"上海市","country":"中国","canonicalUrl":"https://foursquare.com/v/arcade/4ea579cb6c25b62f3ea4fb13","categoryId":"4bf58dd8d48988d11e941735","category":"Cocktail Bar","checkinsCount":1825,"usersCount":633,"tipCount":31,"visitsCount":1950,"tier":"","message":"","currency":"","rating":7.3},{"name":"100 Century Ave. Bar","phone":"+862168881234","address":"世纪大道100号","lat":31.236629676252967,"lng":121.50299974787272,"neighborhood":"Lùjiāzuǐ","city_fetched":"Shanghai,China","state":"上海市","country":"中国","canonicalUrl":"https://foursquare.com/v/%E4%B8%96%E7%BA%AA100%E9%85%92%E5%90%A7--100-century-ave-bar/4be17ff340d676b0eae404ee","categoryId":"4bf58dd8d48988d1d5941735","category":"Hotel Bar","checkinsCount":731,"usersCount":560,"tipCount":24,"visitsCount":733,"url":"http://shanghai.park.hyatt.com/zh-Hans/hotel/dining/100CenturyAvenueRestaurant.html","tier":"","message":"","currency":"","rating":7.3},{"name":"C'est La Vie","phone":"+862133665846","address":"205 W. Nanjing Rd.","lat":31.23355,"lng":121.466075,"neighborhood":"Běixīn qiáo","city_fetched":"Shanghai,China","country":"中国","canonicalUrl":"https://foursquare.com/v/cest-la-vie/4bf8a2575317a593d13a007f","categoryId":"4bf58dd8d48988d116941735","category":"Bar","checkinsCount":340,"usersCount":241,"tipCount":11,"visitsCount":345,"url":"http://www.smartshanghai.com/venue/5688/Cest_la_Vie","tier":"","message":"","currency":"","rating":7.3},{"name":"XTD elevated","phone":"+862123302288","address":"5/F, The Langham Xintiandi, 99 Madang Rd.","lat":31.223830151808407,"lng":121.46940350532532,"neighborhood":"Xīntiāndì","city_fetched":"Shanghai,China","state":"上海市","country":"中国","canonicalUrl":"https://foursquare.com/v/xtd-elevated/4e65f4148877954de9a90a15","categoryId":"4bf58dd8d48988d121941735","category":"Lounge","checkinsCount":225,"usersCount":160,"tipCount":7,"visitsCount":225,"url":"http://xintiandi.langhamhotels.com/restaurants/xtd_shanghai.htm","tier":"","message":"","currency":"","rating":7.3},{"name":"The Fennel Lounge","address":"镇宁路217号","lat":31.22031414183966,"lng":121.43186577225008,"neighborhood":"Jìngān","city_fetched":"Shanghai,China","country":"中国","canonicalUrl":"https://foursquare.com/v/the-fennel-lounge/4ece4dd5f5b9832ad7cd65a9","categoryId":"4bf58dd8d48988d116941735","category":"Bar","checkinsCount":612,"usersCount":392,"tipCount":23,"visitsCount":693,"tier":"","message":"","currency":"","rating":7.3},{"name":"Drink Up","phone":"+8613916349520","address":"建国中路169号","lat":31.2107402953438,"lng":121.46252609806048,"neighborhood":"Xīntiāndì","city_fetched":"Shanghai,China","state":"上海市","country":"中国","canonicalUrl":"https://foursquare.com/v/drink-up--%E9%85%92%E8%B5%B7%E9%87%8F%E8%B4%A9%E5%BA%97/55fabefa498e42670410f0d9","categoryId":"4bf58dd8d48988d116941735","category":"Bar","checkinsCount":69,"usersCount":46,"tipCount":1,"visitsCount":90,"tier":"","message":"","currency":"","rating":7.3},{"name":"Sky Dome Bar","address":"88 Nanjing Road West","lat":31.23671914292625,"lng":121.46830015259557,"neighborhood":"Běixīn qiáo","city_fetched":"Shanghai,China","state":"上海市","country":"中国","canonicalUrl":"https://foursquare.com/v/sky-dome-bar/4bcad76a511f95217c78b0c7","categoryId":"4bf58dd8d48988d1d5941735","category":"Hotel Bar","checkinsCount":805,"usersCount":593,"tipCount":15,"visitsCount":807,"tier":"","message":"","currency":"","rating":7.3},{"name":"The Shed","phone":"+862162376381","twitter":"shedsh","address":"698 Shaanxi Bei Lu","lat":31.236426041765206,"lng":121.44550908767376,"neighborhood":"Jìngān","city_fetched":"Shanghai,China","state":"上海市","country":"中国","canonicalUrl":"https://foursquare.com/shedsh","categoryId":"4bf58dd8d48988d116941735","category":"Bar","checkinsCount":2470,"usersCount":827,"tipCount":32,"visitsCount":2976,"url":"http://www.shedsh.com","tier":"","message":"","currency":"","rating":7.3},{"name":"Jumeirah Lobby Bar","address":"Jumeirah Himalayas Hotel, 1108 Mei Hua Rd","lat":31.21255665198012,"lng":121.5575463145986,"neighborhood":"Pǔdōng","city_fetched":"Shanghai,China","state":"上海市","country":"中国","canonicalUrl":"https://foursquare.com/v/jumeirah-lobby-bar/4e14f410b0fb1946c78fb18e","categoryId":"4bf58dd8d48988d1d5941735","category":"Hotel Bar","checkinsCount":371,"usersCount":137,"tipCount":3,"visitsCount":374,"tier":"","message":"","currency":"","rating":7.3},{"name":"789 Nanjing Lu Bar + Lounge - Le Royal Méridien Shanghai","phone":"+862133189999","twitter":"royalmeridiensh","address":"Le Royal Meridien Shanghai, Executive Office, 789 East Nanjing Road","lat":31.236333994188694,"lng":121.47146878618796,"neighborhood":"Běixīn qiáo","city_fetched":"Shanghai,China","state":"上海市","country":"中国","canonicalUrl":"https://foursquare.com/v/789-nanjing-lu-bar--lounge--le-royal-m%C3%A9ridien-shanghai/4e00acbfb0fbdf39a454d768","categoryId":"4bf58dd8d48988d121941735","category":"Lounge","checkinsCount":681,"usersCount":475,"tipCount":14,"visitsCount":691,"url":"http://www.leroyalmeridienshanghai.com","tier":"","message":"","currency":"","rating":7.3},{"name":"The Chalet","address":"385 Yongjia Rd.","lat":31.20961712048661,"lng":121.45132862951537,"neighborhood":"Xúhuì","city_fetched":"Shanghai,China","state":"上海市","country":"中国","canonicalUrl":"https://foursquare.com/v/the-chalet/4b55b325f964a52056ec27e3","categoryId":"4bf58dd8d48988d121941735","category":"Lounge","checkinsCount":1055,"usersCount":578,"tipCount":15,"visitsCount":1276,"tier":"","message":"","currency":"","rating":7.3},{"name":"Shanghai Brewery","phone":"+862134610717","address":"18 Dongping Rd","lat":31.21048407935896,"lng":121.44464980162192,"neighborhood":"Xúhuì","city_fetched":"Shanghai,China","state":"上海市","country":"中国","canonicalUrl":"https://foursquare.com/v/shanghai-brewery/4f197745e4b0a339fb0cc1b2","categoryId":"50327c8591d4c4b30a586d5d","category":"Brewery","checkinsCount":6168,"usersCount":3280,"tipCount":132,"visitsCount":7699,"url":"http://shanghaibrewery.com","tier":"","message":"","currency":"","rating":7.3},{"name":"Luce dela Vita","phone":"+862153832708","address":"$th Floor, 88 Middle Jīnlín Road","lat":31.228838262342183,"lng":121.47356628444106,"neighborhood":"Huángpǔ","city_fetched":"Shanghai,China","state":"上海市","country":"中国","canonicalUrl":"https://foursquare.com/v/luce-dela-vita/54ba9273498e7951949b8d8d","categoryId":"4bf58dd8d48988d11f941735","category":"Nightclub","checkinsCount":270,"usersCount":85,"tipCount":1,"visitsCount":290,"tier":"","message":"","currency":"","rating":7.3},{"name":"Wine Must","phone":"+862161761378","address":"881 Wuding Rd","lat":31.232184591735773,"lng":121.44025841534744,"neighborhood":"Jìngān","city_fetched":"Shanghai,China","state":"上海市","country":"中国","canonicalUrl":"https://foursquare.com/v/wine-must/4fbba373e4b0c28e72d528f6","categoryId":"4bf58dd8d48988d123941735","category":"Wine Bar","checkinsCount":515,"usersCount":268,"tipCount":13,"visitsCount":555,"tier":"","message":"","currency":"","rating":7.3},{"name":"Brownstone","phone":"+862160737740","address":"Suite 311, Bldg 3, Surpass Court, 570 Yongjia Rd.","lat":31.20792818446355,"lng":121.4464632224901,"neighborhood":"Xúhuì","city_fetched":"Shanghai,China","state":"上海市","country":"中国","canonicalUrl":"https://foursquare.com/v/brownstone/4d64e90389238cfa19669236","categoryId":"4bf58dd8d48988d11e941735","category":"Cocktail Bar","checkinsCount":1228,"usersCount":714,"tipCount":18,"visitsCount":1240,"url":"http://www.brownstone.asia","tier":"","message":"","currency":"","rating":7.3},{"name":"Muya","address":"定西路447号 | 447 Dingxi Rd.","lat":31.205703328493712,"lng":121.41841618526301,"neighborhood":"Zhǎngníng","city_fetched":"Shanghai,China","state":"上海市","country":"中国","canonicalUrl":"https://foursquare.com/v/muya/4e0733af62e100e5816e2cb3","categoryId":"4bf58dd8d48988d116941735","category":"Bar","checkinsCount":190,"usersCount":78,"tipCount":5,"visitsCount":190,"tier":"","message":"","currency":"","rating":7.3},{"name":"Choir Wine Bar & Kitchen","phone":"+862163212336","address":"19 Fuzhou Road","lat":31.237516984591835,"lng":121.48531379988944,"neighborhood":"Wàitān","city_fetched":"Shanghai,China","state":"上海市","country":"中国","canonicalUrl":"https://foursquare.com/v/choir-wine-bar--kitchen/509bd0abe4b00c69be06095e","categoryId":"4bf58dd8d48988d123941735","category":"Wine Bar","checkinsCount":246,"usersCount":189,"tipCount":10,"visitsCount":246,"tier":"","message":"","currency":"","rating":7.2},{"name":"Zapfler Craft Beer","address":"42 Yongkang Lu","lat":31.21304322828283,"lng":121.45405138251914,"neighborhood":"Xúhuì","city_fetched":"Shanghai,China","state":"上海市","country":"中国","canonicalUrl":"https://foursquare.com/v/zapfler-craft-beer/554220fb498ed0aa606c5546","categoryId":"4bf58dd8d48988d117941735","category":"Beer Garden","checkinsCount":157,"usersCount":89,"tipCount":4,"visitsCount":160,"tier":"","message":"","currency":"","rating":7.2},{"name":"Rooster 2","address":"455 Shanxi Nan Lu","lat":31.232406748449975,"lng":121.44829893339154,"neighborhood":"Jìngān","city_fetched":"Shanghai,China","state":"上海市","country":"中国","canonicalUrl":"https://foursquare.com/v/rooster-2/55f2b53d498ef2e5e4789067","categoryId":"4bf58dd8d48988d11d941735","category":"Sports Bar","checkinsCount":309,"usersCount":109,"tipCount":2,"visitsCount":335,"tier":"","message":"","currency":"","rating":7.2},{"name":"The Rooster","phone":"+8613764535978","twitter":"roosterchina","address":"51 Yongkang Rd","lat":31.212982053038182,"lng":121.45385052588483,"neighborhood":"Xúhuì","city_fetched":"Shanghai,China","state":"上海市","country":"中国","canonicalUrl":"https://foursquare.com/roosterchina","categoryId":"4bf58dd8d48988d116941735","category":"Bar","checkinsCount":2249,"usersCount":481,"tipCount":17,"visitsCount":2377,"url":"http://www.roosterchina.com","tier":"","message":"","currency":"","rating":7.2},{"name":"The Tap House","phone":"+862154488337","address":"74 Yongkang Rd","lat":31.212812006077847,"lng":121.45350460530646,"neighborhood":"Xúhuì","city_fetched":"Shanghai,China","state":"上海市","country":"中国","canonicalUrl":"https://foursquare.com/v/the-tap-house/518cdf5f498ebb3f71da3a68","categoryId":"4bf58dd8d48988d11b941735","category":"Pub","checkinsCount":1321,"usersCount":538,"tipCount":20,"visitsCount":1387,"tier":"","message":"","currency":"","rating":7.2},{"name":"Maltfun","phone":"+862162128728","address":"123 Hunan Lu","lat":31.21018314327676,"lng":121.43608449078775,"neighborhood":"Xúhuì","city_fetched":"Shanghai,China","state":"上海市","country":"中国","canonicalUrl":"https://foursquare.com/v/maltfun/4e32d6111495d5790bea1d42","categoryId":"4bf58dd8d48988d122941735","category":"Whisky Bar","checkinsCount":628,"usersCount":418,"tipCount":20,"visitsCount":731,"tier":"","message":"","currency":"","rating":7.2},{"name":"Bounty Rhumerie","phone":"+862126619368","address":"1/F, 47 Yongfu Rd.","lat":31.213324478684655,"lng":121.43940567970276,"neighborhood":"Xúhuì","city_fetched":"Shanghai,China","state":"上海市","country":"中国","canonicalUrl":"https://foursquare.com/v/bounty-rhumerie/4bbddb19f57ba5936e85aeb9","categoryId":"4bf58dd8d48988d116941735","category":"Bar","checkinsCount":1871,"usersCount":627,"tipCount":21,"visitsCount":1894,"url":"http://www.bountybar.cn","tier":"","message":"","currency":"","rating":7.2},{"name":"Kaiba | 开吧","phone":"+862164182252","address":"479 Wuding Rd.","lat":31.23581272453462,"lng":121.4464632224901,"neighborhood":"Jìngān","city_fetched":"Shanghai,China","state":"上海市","country":"中国","canonicalUrl":"https://foursquare.com/v/kaiba--%E5%BC%80%E5%90%A7/4b962995f964a520f6be34e3","categoryId":"4bf58dd8d48988d116941735","category":"Bar","checkinsCount":2278,"usersCount":915,"tipCount":63,"visitsCount":2441,"tier":"","message":"","currency":"","rating":7.2},{"name":"Modu","address":"527 Huaihai Lu 5F","lat":31.222578682236506,"lng":121.46424439764891,"neighborhood":"Xīntiāndì","city_fetched":"Shanghai,China","country":"中国","canonicalUrl":"https://foursquare.com/v/modu/55cb616c498e3c20da28bdd2","categoryId":"4bf58dd8d48988d11f941735","category":"Nightclub","checkinsCount":189,"usersCount":104,"tipCount":1,"visitsCount":237,"tier":"","message":"","currency":"","rating":7.2},{"name":"Bar Constellation","phone":"+862162898007","address":"202A West Retail Plaza Shanghai Centre 1376 Nanjing Road West","lat":31.22836053559092,"lng":121.44693749709836,"neighborhood":"Jìngān","city_fetched":"Shanghai,China","state":"上海市","country":"中国","canonicalUrl":"https://foursquare.com/v/bar-constellation/54dc1609498efbce6913210c","categoryId":"4bf58dd8d48988d122941735","category":"Whisky Bar","checkinsCount":103,"usersCount":54,"tipCount":3,"visitsCount":106,"tier":"","message":"","currency":"","rating":7.2},{"name":"Rambler漫步者","address":"建国中路155弄38号（泰康路田子坊内）","lat":31.21011909052327,"lng":121.46351914445165,"neighborhood":"Xīntiāndì","city_fetched":"Shanghai,China","country":"中国","canonicalUrl":"https://foursquare.com/v/rambler%E6%BC%AB%E6%AD%A5%E8%80%85/53d6520c498e2d67264ea7d0","categoryId":"4bf58dd8d48988d116941735","category":"Bar","checkinsCount":52,"usersCount":50,"tipCount":1,"visitsCount":52,"tier":"","message":"","currency":"","rating":7.2},{"name":"URVC","twitter":"udancecn","address":"999 Xikang Road","lat":31.242235078353804,"lng":121.4371112455616,"neighborhood":"Wǔ níng","city_fetched":"Shanghai,China","state":"上海市","country":"中国","canonicalUrl":"https://foursquare.com/v/urvc/541da648498e3d028ff2bb0b","categoryId":"4bf58dd8d48988d11f941735","category":"Nightclub","checkinsCount":291,"usersCount":274,"tipCount":10,"visitsCount":585,"tier":"","message":"","currency":"","rating":7.1},{"name":"Devil's Share","address":"No. 25, Lane 181, Taichang Rd","lat":31.222159352808706,"lng":121.47029729448217,"neighborhood":"Xīntiāndì","city_fetched":"Shanghai,China","state":"上海市","country":"中国","canonicalUrl":"https://foursquare.com/v/devils-share/549019f3498ed58c1fff4553","categoryId":"4bf58dd8d48988d11e941735","category":"Cocktail Bar","checkinsCount":162,"usersCount":140,"tipCount":12,"visitsCount":165,"tier":"","message":"","currency":"","rating":7.1},{"name":"El Camino","lat":31.223153497146665,"lng":121.4634689344461,"neighborhood":"Jìngān","city_fetched":"Shanghai,China","country":"中国","canonicalUrl":"https://foursquare.com/v/el-camino/4f327ac6e4b0ef2eb782d761","categoryId":"4bf58dd8d48988d11e941735","category":"Cocktail Bar","checkinsCount":130,"usersCount":75,"tipCount":8,"visitsCount":130,"tier":"","message":"","currency":"","rating":7.1},{"name":"urbn beergrdn","lat":31.22897121220097,"lng":121.4390698666128,"neighborhood":"Jìngān","city_fetched":"Shanghai,China","country":"中国","canonicalUrl":"https://foursquare.com/v/urbn-beergrdn/543a20d7498e1b6b7d77152b","categoryId":"4bf58dd8d48988d117941735","category":"Beer Garden","checkinsCount":96,"usersCount":71,"tipCount":5,"visitsCount":99,"tier":"","message":"","currency":"","rating":7.1},{"name":"Pentalounge","phone":"+862162521111","address":"1525 Dingxi Lu","lat":31.21996242541331,"lng":121.41714927645145,"neighborhood":"Zhǎngníng","city_fetched":"Shanghai,China","country":"中国","canonicalUrl":"https://foursquare.com/v/pentalounge/4db3a3cb4b226b343d7e1422","categoryId":"4bf58dd8d48988d121941735","category":"Lounge","checkinsCount":963,"usersCount":364,"tipCount":20,"visitsCount":995,"tier":"","message":"","currency":"","rating":7.1},{"name":"Swiss Executive Club Lounge","phone":"+862153559898","twitter":"swissotel","address":"Swissôtel Grand Shanghai, 1 Yuyuan Rd.","lat":31.226674281683557,"lng":121.44278526306152,"neighborhood":"Jìngān","city_fetched":"Shanghai,China","state":"上海市","country":"中国","canonicalUrl":"https://foursquare.com/v/swiss-executive-club-lounge/4cfb7b20d8468cfa20e3f46b","categoryId":"4bf58dd8d48988d1d5941735","category":"Hotel Bar","checkinsCount":566,"usersCount":145,"tipCount":4,"visitsCount":566,"url":"http://www.swissotel.com/swissotelhotelsresorts","tier":"","message":"","currency":"","rating":7.1},{"name":"Lucca lounge & cafe","address":"390 Panyu Lu 番禺路390号","lat":31.20601481580017,"lng":121.42524720809539,"neighborhood":"Zhǎngníng","city_fetched":"Shanghai,China","state":"上海市","country":"中国","canonicalUrl":"https://foursquare.com/v/lucca-lounge--cafe/54dcca48498ee59badadb964","categoryId":"4bf58dd8d48988d1d8941735","category":"Gay Bar","checkinsCount":161,"usersCount":157,"tipCount":1,"visitsCount":260,"tier":"","message":"","currency":"","rating":7.1},{"name":"台北纯K","address":"翔殷路","lat":31.30342815235756,"lng":121.5140973914695,"neighborhood":"Yángpǔ","city_fetched":"Shanghai,China","state":"上海市","country":"中国","canonicalUrl":"https://foursquare.com/v/%E5%8F%B0%E5%8C%97%E7%BA%AFk/50ed5882e4b00ef14b3d330d","categoryId":"4bf58dd8d48988d120941735","category":"Karaoke Bar","checkinsCount":129,"usersCount":148,"tipCount":2,"visitsCount":220,"tier":"","message":"","currency":"","rating":7.1},{"name":"Avenue Joffre Bar","address":"570 Yongjia Rd.","lat":31.207912080354163,"lng":121.4465022804726,"neighborhood":"Xúhuì","city_fetched":"Shanghai,China","state":"上海市","country":"中国","canonicalUrl":"https://foursquare.com/v/avenue-joffre-bar/51a4f10b498e034cede9ce3d","categoryId":"4bf58dd8d48988d11e941735","category":"Cocktail Bar","checkinsCount":237,"usersCount":149,"tipCount":9,"visitsCount":239,"tier":"","message":"","currency":"","rating":7.1},{"name":"Karma","address":"7 Donghu Rd","lat":31.218076244757626,"lng":121.45000628573345,"neighborhood":"Jìngān","city_fetched":"Shanghai,China","state":"上海市","country":"中国","canonicalUrl":"https://foursquare.com/v/karma/5267fe7811d2db45a24ea28d","categoryId":"4bf58dd8d48988d11e941735","category":"Cocktail Bar","checkinsCount":299,"usersCount":154,"tipCount":9,"visitsCount":301,"tier":"","message":"","currency":"","rating":7.1},{"name":"Dr. Beer","phone":"+862154681077","address":"83 Fumin Rd | 富民路83号","lat":31.22250715285636,"lng":121.4456932195677,"neighborhood":"Jìngān","city_fetched":"Shanghai,China","state":"上海市","country":"中国","canonicalUrl":"https://foursquare.com/v/dr-beer/4ea933c929c2fa4821aad506","categoryId":"4bf58dd8d48988d116941735","category":"Bar","checkinsCount":3288,"usersCount":2117,"tipCount":59,"visitsCount":3816,"tier":"","message":"","currency":"","rating":7.1},{"name":"M2 Ballanties Club","lat":31.228403833020067,"lng":121.46886359557075,"neighborhood":"Rénmín Guǎngchǎng","city_fetched":"Shanghai,China","country":"中国","canonicalUrl":"https://foursquare.com/v/m2-ballanties-club/4f4e34bfe4b0577d819dd9db","categoryId":"4bf58dd8d48988d11f941735","category":"Nightclub","checkinsCount":161,"usersCount":140,"tipCount":0,"visitsCount":161,"tier":"","message":"","currency":"","rating":7},{"name":"Wooden Paradise","phone":"+862134280468","address":"63 West Fuxing Road","lat":31.2125186920166,"lng":121.43952178955078,"neighborhood":"Xúhuì","city_fetched":"Shanghai,China","state":"上海市","country":"中国","canonicalUrl":"https://foursquare.com/v/wooden-paradise/53eb67ac498eaa482e6681b1","categoryId":"4bf58dd8d48988d11e941735","category":"Cocktail Bar","checkinsCount":55,"usersCount":63,"tipCount":1,"visitsCount":90,"tier":"","message":"","currency":"","rating":7},{"name":"Puli Terrace","lat":31.223968,"lng":121.443577,"neighborhood":"Jìngān","city_fetched":"Shanghai,China","state":"上海市","country":"中国","canonicalUrl":"https://foursquare.com/v/puli-terrace/4e9e9c009a52cd825cf350ce","categoryId":"4bf58dd8d48988d121941735","category":"Lounge","checkinsCount":153,"usersCount":91,"tipCount":5,"visitsCount":153,"tier":"","message":"","currency":"","rating":7},{"name":"The Irishmans Pub","phone":"+862150339163","address":"芳甸路199弄20号 | 20, Lane 199 Fangdian Rd.","lat":31.229342040119153,"lng":121.55586285767517,"neighborhood":"Pǔdōng","city_fetched":"Shanghai,China","state":"上海市","country":"中国","canonicalUrl":"https://foursquare.com/v/the-irishmans-pub/4b373c24f964a5200d4025e3","categoryId":"4bf58dd8d48988d11b941735","category":"Pub","checkinsCount":517,"usersCount":274,"tipCount":19,"visitsCount":528,"tier":"","message":"","currency":"","rating":7},{"name":"Bell Cafe & Bar","phone":"+8613817778890","address":"泰康路248弄11号后门","lat":31.21009332434434,"lng":121.464249976502,"neighborhood":"Xīntiāndì","city_fetched":"Shanghai,China","state":"上海市","country":"中国","canonicalUrl":"https://foursquare.com/v/bell-cafe--bar/4bb610461344b71361e89c04","categoryId":"4bf58dd8d48988d119941735","category":"Hookah Bar","checkinsCount":1031,"usersCount":572,"tipCount":22,"visitsCount":1058,"url":"http://www.bellbar.cn","tier":"","message":"","currency":"","rating":7},{"name":"Yuan Oyster & Cocktail Lounge","phone":"+862164330538","address":"17-2 North XiangYang Road","lat":31.2219722465638,"lng":121.45003527402876,"neighborhood":"Jìngān","city_fetched":"Shanghai,China","state":"上海市","country":"中国","canonicalUrl":"https://foursquare.com/v/yuan-oyster--cocktail-lounge/51ab093e8bbd94087901941f","categoryId":"4bf58dd8d48988d11e941735","category":"Cocktail Bar","checkinsCount":807,"usersCount":388,"tipCount":152,"visitsCount":916,"url":"http://www.yuanlounge.com","tier":"","message":"","currency":"","rating":7},{"name":"OH MY KEBAB@ONE FLASH","address":"No.762, Yongjia Rd.","lat":31.205731010917383,"lng":121.44175942891671,"neighborhood":"Xújiāhuì","city_fetched":"Shanghai,China","state":"上海市","country":"中国","canonicalUrl":"https://foursquare.com/v/oh-my-kebabone-flash/53b7b562498eafad585c23ac","categoryId":"4bf58dd8d48988d116941735","category":"Bar","checkinsCount":640,"usersCount":179,"tipCount":3,"visitsCount":970,"tier":"","message":"","currency":"","rating":7},{"name":"HEPCAT","address":"Kanding Lu No.359 2/F","lat":31.236706069297608,"lng":121.44490089236285,"neighborhood":"Jìngān","city_fetched":"Shanghai,China","state":"上海市","country":"中国","canonicalUrl":"https://foursquare.com/v/hepcat/53295701498ebc7455803360","categoryId":"4bf58dd8d48988d11e941735","category":"Cocktail Bar","checkinsCount":105,"usersCount":66,"tipCount":5,"visitsCount":109,"tier":"","message":"","currency":"","rating":7},{"name":"PaPaYa Bar No. 2","phone":"+862154042815","address":"185 Fumin Lu","lat":31.22096255512704,"lng":121.44659155581155,"neighborhood":"Jìngān","city_fetched":"Shanghai,China","country":"中国","canonicalUrl":"https://foursquare.com/v/papaya-bar-no-2/4f7affc0e4b0f9b696f2e05c","categoryId":"4bf58dd8d48988d11e941735","category":"Cocktail Bar","checkinsCount":146,"usersCount":103,"tipCount":9,"visitsCount":146,"tier":"","message":"","currency":"","rating":7},{"name":"glo London Lounge Bar","phone":"+862164666565","twitter":"glolondon","address":"3/F, 1 Wulumuqi Rd. South","lat":31.210717655823363,"lng":121.44348361747338,"neighborhood":"Xúhuì","city_fetched":"Shanghai,China","state":"上海市","country":"中国","canonicalUrl":"https://foursquare.com/v/glo-london-lounge-bar/4e171018b61c2903bf06f002","categoryId":"4bf58dd8d48988d121941735","category":"Lounge","checkinsCount":665,"usersCount":351,"tipCount":10,"visitsCount":676,"url":"http://www.glolondon.com/shanghai-wulumuqi/loungebar","tier":"","message":"","currency":"","rating":7},{"name":"Botanist","phone":"+862164330538","address":"17-2 North Xiangyang Road","lat":31.22188278198787,"lng":121.45009555836415,"neighborhood":"Jìngān","city_fetched":"Shanghai,China","state":"上海市","country":"中国","canonicalUrl":"https://foursquare.com/v/botanist/57065090498e74a8ef1ebeb2","categoryId":"4bf58dd8d48988d121941735","category":"Lounge","checkinsCount":128,"usersCount":104,"tipCount":5,"visitsCount":134,"tier":"","message":"","currency":"","rating":7},{"name":"Shanghai Beer Factory","lat":31.18354148566685,"lng":121.43285350189218,"neighborhood":"Xúhuì","city_fetched":"Shanghai,China","country":"中国","canonicalUrl":"https://foursquare.com/v/shanghai-beer-factory/536ba653498ee2572cbdcdeb","categoryId":"50327c8591d4c4b30a586d5d","category":"Brewery","checkinsCount":89,"usersCount":73,"tipCount":3,"visitsCount":96,"tier":"","message":"","currency":"","rating":7},{"name":"萤七人间 People 7","phone":"+862154040707","address":"805 Julu Rd","lat":31.221374689935423,"lng":121.44587735116818,"neighborhood":"Jìngān","city_fetched":"Shanghai,China","state":"上海市","country":"中国","canonicalUrl":"https://foursquare.com/v/%E8%90%A4%E4%B8%83%E4%BA%BA%E9%97%B4-people-7/4b9ba8adf964a5208c1736e3","categoryId":"4bf58dd8d48988d121941735","category":"Lounge","checkinsCount":1409,"usersCount":980,"tipCount":28,"visitsCount":1426,"tier":"","message":"","currency":"","rating":7},{"name":"Le Baron","address":"20 Donghu Lu. 7/F","lat":31.21787827324631,"lng":121.45027968294696,"neighborhood":"Xúhuì","city_fetched":"Shanghai,China","state":"上海市","country":"中国","canonicalUrl":"https://foursquare.com/v/le-baron/541dbe0d498ee8757ee17bd3","categoryId":"4bf58dd8d48988d11f941735","category":"Nightclub","checkinsCount":1341,"usersCount":501,"tipCount":15,"visitsCount":1508,"url":"http://www.lebaronshanghai.com","tier":"","message":"","currency":"","rating":7},{"name":"Epicure On The 45","address":"Radisson Blu","lat":31.236294414823742,"lng":121.4690978977793,"neighborhood":"Rénmín Guǎngchǎng","city_fetched":"Shanghai,China","state":"上海市","country":"中国","canonicalUrl":"https://foursquare.com/v/epicure-on-the-45/4ef9d6ce490124bf9b84f7be","categoryId":"4bf58dd8d48988d11e941735","category":"Cocktail Bar","checkinsCount":84,"usersCount":78,"tipCount":4,"visitsCount":84,"tier":"","message":"","currency":"","rating":6.9},{"name":"Daga Brewpub","address":"37 Taian Rd","lat":31.207754390968365,"lng":121.43287582336859,"neighborhood":"Xúhuì","city_fetched":"Shanghai,China","state":"上海市","country":"中国","canonicalUrl":"https://foursquare.com/v/daga-brewpub/53b04471498ed1411b961aa1","categoryId":"50327c8591d4c4b30a586d5d","category":"Brewery","checkinsCount":249,"usersCount":224,"tipCount":4,"visitsCount":401,"tier":"","message":"","currency":"","rating":6.9},{"name":"Lobby Lounge","phone":"+862158882957","address":"L1, Rive Wing, Pudong Shangri-La, 33 Fucheng Rd.","lat":31.237522907991487,"lng":121.49516383100129,"neighborhood":"Lùjiāzuǐ","city_fetched":"Shanghai,China","state":"上海市","country":"中国","canonicalUrl":"https://foursquare.com/v/lobby-lounge/4e81a2304901931a05becaed","categoryId":"4bf58dd8d48988d121941735","category":"Lounge","checkinsCount":1096,"usersCount":247,"tipCount":7,"visitsCount":1096,"url":"http://www.shangri-la.com/shanghai/pudongshangrila/dining/bars-lounges/lobby-lounge","tier":"","message":"","currency":"","rating":6.9},{"name":"Constellation 4","address":"398 Zizhong Rd","lat":31.220165353969765,"lng":121.46877991609512,"neighborhood":"Xīntiāndì","city_fetched":"Shanghai,China","state":"上海市","country":"中国","canonicalUrl":"https://foursquare.com/v/constellation-4/522f37eb498ef1051bccea54","categoryId":"4bf58dd8d48988d122941735","category":"Whisky Bar","checkinsCount":189,"usersCount":130,"tipCount":4,"visitsCount":211,"tier":"","message":"","currency":"","rating":6.9},{"name":"Walkers","phone":"+862164455618","address":"Number 12, Lane 248, Taikang Rd.","lat":31.21000186030259,"lng":121.464249976502,"neighborhood":"Xīntiāndì","city_fetched":"Shanghai,China","state":"上海市","country":"中国","canonicalUrl":"https://foursquare.com/v/walkers/51fe3c80498e1f00799fdfdf","categoryId":"4bf58dd8d48988d116941735","category":"Bar","checkinsCount":53,"usersCount":39,"tipCount":2,"visitsCount":53,"tier":"","message":"","currency":"","rating":6.9},{"name":"Big Bamboo Sports Bar","phone":"+862164058720","address":"20 Hongmei Pedestrian St.","lat":31.19316,"lng":121.383231,"neighborhood":"Mǐnxíng qū","city_fetched":"Shanghai,China","state":"上海市","country":"中国","canonicalUrl":"https://foursquare.com/v/big-bamboo-sports-bar/4b599f56f964a5206b8f28e3","categoryId":"4bf58dd8d48988d11d941735","category":"Sports Bar","checkinsCount":1820,"usersCount":782,"tipCount":17,"visitsCount":1890,"tier":"","message":"","currency":"","rating":6.9},{"name":"District Bar and Restaurant","address":"284 yuyuan Lu","lat":31.225149569862662,"lng":121.43816031167536,"neighborhood":"Jìngān","city_fetched":"Shanghai,China","country":"中国","canonicalUrl":"https://foursquare.com/v/district-bar-and-restaurant/55e1734c498ea6ed7b48bc79","categoryId":"4bf58dd8d48988d116941735","category":"Bar","checkinsCount":130,"usersCount":87,"tipCount":1,"visitsCount":173,"tier":"","message":"","currency":"","rating":6.9},{"name":"Haoledi Ktv","address":"Yishan Road 425","lat":31.198750922332117,"lng":121.43287582336859,"neighborhood":"Shànghǎi jiāotōng dàxué","city_fetched":"Shanghai,China","state":"上海市","country":"中国","canonicalUrl":"https://foursquare.com/v/haoledi-ktv/50a3dec7e4b0b66c17e34752","categoryId":"4bf58dd8d48988d120941735","category":"Karaoke Bar","checkinsCount":72,"usersCount":56,"tipCount":0,"visitsCount":73,"tier":"","message":"","currency":"","rating":6.9},{"name":"habibi","address":"131 Yong Kang Lu","lat":31.212387138433787,"lng":121.45216554813446,"neighborhood":"Xúhuì","city_fetched":"Shanghai,China","state":"上海市","country":"中国","canonicalUrl":"https://foursquare.com/v/habibi/53a993c8498e98d78b751e3d","categoryId":"4bf58dd8d48988d119941735","category":"Hookah Bar","checkinsCount":93,"usersCount":50,"tipCount":6,"visitsCount":95,"tier":"","message":"","currency":"","rating":6.9},{"name":"The Lobby Lounge","address":"1376 Nanjing Xi Lu","lat":31.229392109938935,"lng":121.4469988736701,"neighborhood":"Jìngān","city_fetched":"Shanghai,China","state":"上海市","country":"中国","canonicalUrl":"https://foursquare.com/v/the-lobby-lounge/4c9f23792fb1a143c924f140","categoryId":"4bf58dd8d48988d1d5941735","category":"Hotel Bar","checkinsCount":315,"usersCount":79,"tipCount":3,"visitsCount":315,"tier":"","message":"","currency":"","rating":6.9},{"name":"Penthouse Bar | 吧三十九","phone":"+862162480000","twitter":"hiltonsh","address":"250 Hua Shan Rd.","lat":31.22127488049364,"lng":121.44115679384046,"neighborhood":"Jìngān","city_fetched":"Shanghai,China","state":"上海市","country":"中国","canonicalUrl":"https://foursquare.com/v/penthouse-bar--%E5%90%A7%E4%B8%89%E5%8D%81%E4%B9%9D/4d9eb37447ad3704573340e5","categoryId":"4bf58dd8d48988d11e941735","category":"Cocktail Bar","checkinsCount":526,"usersCount":308,"tipCount":9,"visitsCount":526,"tier":"","message":"","currency":"","rating":6.9},{"name":"JustGrapes | 葡醉","phone":"+862164182970","twitter":"justgrapescn","address":"41 Yong Kang Rd.","lat":31.21306747405548,"lng":121.45397327164734,"neighborhood":"Xúhuì","city_fetched":"Shanghai,China","state":"上海市","country":"中国","canonicalUrl":"https://foursquare.com/v/justgrapes--%E8%91%A1%E9%86%89/4eb6648ff5b94bd85c388ec1","categoryId":"4bf58dd8d48988d123941735","category":"Wine Bar","checkinsCount":249,"usersCount":178,"tipCount":6,"visitsCount":250,"tier":"","message":"","currency":"","rating":6.9},{"name":"Shanghai Brewery Donghu","phone":"+862133563996","address":"20 Donghu Lu","lat":31.217916175443897,"lng":121.45034105774266,"neighborhood":"Jìngān","city_fetched":"Shanghai,China","state":"上海市","country":"中国","canonicalUrl":"https://foursquare.com/v/shanghai-brewery-donghu/55684e03498eb8bd02d40a0b","categoryId":"50327c8591d4c4b30a586d5d","category":"Brewery","checkinsCount":599,"usersCount":309,"tipCount":14,"visitsCount":626,"tier":"","message":"","currency":"","rating":6.8},{"name":"Taste Buds Cocktail Palace","address":"368 Wukang Lu","lat":31.208936334663196,"lng":121.43510236899581,"neighborhood":"Xúhuì","city_fetched":"Shanghai,China","state":"上海市","country":"中国","canonicalUrl":"https://foursquare.com/v/taste-buds-cocktail-palace/5586be63498ee57013b94aaf","categoryId":"4bf58dd8d48988d11e941735","category":"Cocktail Bar","checkinsCount":108,"usersCount":125,"tipCount":5,"visitsCount":193,"tier":"","message":"","currency":"","rating":6.8},{"name":"FUSION night club","address":"Xintiandi, South Block, Building 6, Floor 5","lat":31.221032424154117,"lng":121.47028055880011,"neighborhood":"Xīntiāndì","city_fetched":"Shanghai,China","state":"上海市","country":"中国","canonicalUrl":"https://foursquare.com/v/fusion-night-club/54ef3675498ec34117184ab7","categoryId":"4bf58dd8d48988d11f941735","category":"Nightclub","checkinsCount":544,"usersCount":353,"tipCount":6,"visitsCount":687,"tier":"","message":"","currency":"","rating":6.8},{"name":"Big Bamboo","phone":"+862150301779","address":"红枫路381号 | 381 Hongfeng Rd.","lat":31.243931405674203,"lng":121.58903130164445,"neighborhood":"Pǔdōng","city_fetched":"Shanghai,China","state":"上海市","country":"中国","canonicalUrl":"https://foursquare.com/v/big-bamboo/4cf21e7e1c158cfac3ddd5b5","categoryId":"4bf58dd8d48988d11b941735","category":"Pub","checkinsCount":1329,"usersCount":475,"tipCount":17,"visitsCount":1510,"tier":"","message":"","currency":"","rating":6.8},{"name":"Jenny's Blue Bar","address":"7 Donghu Rd","lat":31.217902866666662,"lng":121.450173875,"neighborhood":"Xúhuì","city_fetched":"Shanghai,China","state":"上海市","country":"中国","canonicalUrl":"https://foursquare.com/v/jennys-blue-bar/4b5edae5f964a520139b29e3","categoryId":"4bf58dd8d48988d116941735","category":"Bar","checkinsCount":357,"usersCount":177,"tipCount":7,"visitsCount":357,"tier":"","message":"","currency":"","rating":6.8},{"name":"台北纯K","phone":"+862132585558","address":"天山路341号缤谷广场东侧6楼","lat":31.21645336454061,"lng":121.38285398483276,"neighborhood":"Zhǎngníng","city_fetched":"Shanghai,China","state":"上海市","country":"中国","canonicalUrl":"https://foursquare.com/v/%E5%8F%B0%E5%8C%97%E7%BA%AFk/4e58b5ec18a8c204750154ca","categoryId":"4bf58dd8d48988d120941735","category":"Karaoke Bar","checkinsCount":860,"usersCount":555,"tipCount":4,"visitsCount":911,"tier":"","message":"","currency":"","rating":6.8},{"name":"The Monk","lat":31.204979366503984,"lng":121.28018603187695,"neighborhood":"Mǐnxíng qū","city_fetched":"Shanghai,China","state":"上海市","country":"中国","canonicalUrl":"https://foursquare.com/v/the-monk/4d328a64b6093704c98df8df","categoryId":"4bf58dd8d48988d116941735","category":"Bar","checkinsCount":364,"usersCount":82,"tipCount":8,"visitsCount":444,"tier":"","message":"","currency":"","rating":6.8},{"name":"Café des Stagiaires 2","address":"1085 Wuding Lu","lat":31.231658844540416,"lng":121.43755765783716,"neighborhood":"Jìngān","city_fetched":"Shanghai,China","state":"上海市","country":"中国","canonicalUrl":"https://foursquare.com/v/caf%C3%A9-des-stagiaires-2/50532aafe4b01f3aa481b7b2","categoryId":"4bf58dd8d48988d116941735","category":"Bar","checkinsCount":1958,"usersCount":789,"tipCount":23,"visitsCount":2067,"url":"http://www.cafedesstagiaires.com","tier":"","message":"","currency":"","rating":6.8},{"name":"The White Horse","lat":31.22957782910754,"lng":121.55628093704122,"neighborhood":"Pǔdōng","city_fetched":"Shanghai,China","country":"中国","canonicalUrl":"https://foursquare.com/v/the-white-horse/526cb6a5498e909377c0ad89","categoryId":"4bf58dd8d48988d11b941735","category":"Pub","checkinsCount":217,"usersCount":63,"tipCount":5,"visitsCount":239,"tier":"","message":"","currency":"","rating":6.8},{"name":"Myst","address":"1123 M. Yan'an Rd","lat":31.222723804109688,"lng":121.443070707346,"neighborhood":"Jìngān","city_fetched":"Shanghai,China","state":"上海市","country":"中国","canonicalUrl":"https://foursquare.com/v/myst/5231e0c611d27690af873119","categoryId":"4bf58dd8d48988d11f941735","category":"Nightclub","checkinsCount":2582,"usersCount":1774,"tipCount":24,"visitsCount":4280,"tier":"","message":"","currency":"","rating":6.7},{"name":"Horizon Club Lounge","address":"55F, Jingan Shangri-la","lat":31.22493690353485,"lng":121.44576017654731,"neighborhood":"Jìngān","city_fetched":"Shanghai,China","state":"上海市","country":"中国","canonicalUrl":"https://foursquare.com/v/horizon-club-lounge/520f1d85498e3a0689d2b250","categoryId":"4bf58dd8d48988d11e941735","category":"Cocktail Bar","checkinsCount":118,"usersCount":41,"tipCount":6,"visitsCount":119,"tier":"","message":"","currency":"","rating":6.7},{"name":"Sky Club","phone":"+862162555626","address":"74 Yuyao Road","lat":31.238531385142142,"lng":121.43849511800596,"neighborhood":"Jìngān","city_fetched":"Shanghai,China","state":"上海市","country":"中国","canonicalUrl":"https://foursquare.com/v/sky-club/4b0588bff964a5209cd722e3","categoryId":"4bf58dd8d48988d11f941735","category":"Nightclub","checkinsCount":436,"usersCount":312,"tipCount":5,"visitsCount":582,"tier":"","message":"","currency":"","rating":6.7},{"name":"Handle Bar","address":"50 Yongkang Rd","lat":31.212959897520662,"lng":121.4538728433059,"neighborhood":"Xúhuì","city_fetched":"Shanghai,China","state":"上海市","country":"中国","canonicalUrl":"https://foursquare.com/v/handle-bar/4fec344ae4b0044db3e73200","categoryId":"4bf58dd8d48988d11d941735","category":"Sports Bar","checkinsCount":1138,"usersCount":291,"tipCount":9,"visitsCount":1148,"url":"http://www.handlebarshanghai.com","tier":"","message":"","currency":"","rating":6.7},{"name":"Wine Connection","phone":"+862162360579","address":"433 Yuyuan Lu","lat":31.224217679522532,"lng":121.43572735655566,"neighborhood":"Jìngān","city_fetched":"Shanghai,China","state":"上海市","country":"中国","canonicalUrl":"https://foursquare.com/v/wine-connection/507fe4bee4b0e454e287c58a","categoryId":"4bf58dd8d48988d123941735","category":"Wine Bar","checkinsCount":537,"usersCount":281,"tipCount":19,"visitsCount":608,"tier":"","message":"","currency":"","rating":6.7},{"name":"Maison Camus","phone":"+862162898298","address":"# 208 Retail Plaza, Shanghai Centre, 1376 Nanjing Rd.W","lat":31.23241180717601,"lng":121.45547968628384,"neighborhood":"Jìngān","city_fetched":"Shanghai,China","state":"上海市","country":"中国","canonicalUrl":"https://foursquare.com/v/maison-camus/526e255611d29a2b26d19e35","categoryId":"4bf58dd8d48988d121941735","category":"Lounge","checkinsCount":233,"usersCount":112,"tipCount":9,"visitsCount":243,"url":"http://www.camus-shanghai.cn","tier":"","message":"","currency":"","rating":6.7},{"name":"The Ritz Bar","phone":"+862162797686","address":"1376 Nanjing Xi Rd.","lat":31.22894540260043,"lng":121.4471718438331,"neighborhood":"Jìngān","city_fetched":"Shanghai,China","state":"上海市","country":"中国","canonicalUrl":"https://foursquare.com/v/the-ritz-bar/4e2d3a3ab61cd010838777d6","categoryId":"4bf58dd8d48988d11e941735","category":"Cocktail Bar","checkinsCount":400,"usersCount":198,"tipCount":6,"visitsCount":402,"tier":"","message":"","currency":"","rating":6.7},{"name":"金色三麥 Le Ble d'or","address":"愚园路108号2楼 108 Yuyuan Road, 2nd floor","lat":31.226538551157326,"lng":121.44110099413743,"neighborhood":"Jìngān","city_fetched":"Shanghai,China","state":"上海市","country":"中国","canonicalUrl":"https://foursquare.com/v/%E9%87%91%E8%89%B2%E4%B8%89%E9%BA%A5-le-ble-dor/55a79f25498e639432ec80fb","categoryId":"50327c8591d4c4b30a586d5d","category":"Brewery","checkinsCount":82,"usersCount":66,"tipCount":4,"visitsCount":84,"tier":"","message":"","currency":"","rating":6.7},{"name":"The Parrot","address":"7 Donghu Lu","lat":31.21789233204516,"lng":121.45040801202806,"neighborhood":"Xúhuì","city_fetched":"Shanghai,China","state":"上海市","country":"中国","canonicalUrl":"https://foursquare.com/v/the-parrot/570d0b37498e6d2a641ebac2","categoryId":"4bf58dd8d48988d116941735","category":"Bar","checkinsCount":106,"usersCount":57,"tipCount":6,"visitsCount":106,"tier":"","message":"","currency":"","rating":6.7},{"name":"Shiraz","address":"Shop8 No.3338","lat":31.193016,"lng":121.381625,"neighborhood":"Mǐnxíng qū","city_fetched":"Shanghai,China","state":"Chain","country":"中国","canonicalUrl":"https://foursquare.com/v/shiraz/4c24ad3a136d20a10b29e261","categoryId":"4bf58dd8d48988d119941735","category":"Hookah Bar","checkinsCount":114,"usersCount":96,"tipCount":7,"visitsCount":114,"tier":"","message":"","currency":"","rating":6.7},{"name":"The Apartment","phone":"+862164379478","address":"3/F, 47 Yongfu Rd","lat":31.21327859982272,"lng":121.43935203552246,"neighborhood":"Xúhuì","city_fetched":"Shanghai,China","state":"上海市","country":"中国","canonicalUrl":"https://foursquare.com/v/the-apartment/4c014d3d9a950f475ae608c6","categoryId":"4bf58dd8d48988d121941735","category":"Lounge","checkinsCount":6065,"usersCount":2595,"tipCount":66,"visitsCount":6395,"tier":"","message":"","currency":"","rating":6.7},{"name":"Light & Salt","phone":"+862163611086","address":"133 Yuanmingyuan Rd","lat":31.24367873701245,"lng":121.48372968444885,"neighborhood":"Wàitān","city_fetched":"Shanghai,China","state":"上海市","country":"中国","canonicalUrl":"https://foursquare.com/v/light--salt/527e4d5b498ec141546a24db","categoryId":"4bf58dd8d48988d1d4941735","category":"Speakeasy","checkinsCount":601,"usersCount":439,"tipCount":6,"visitsCount":690,"url":"http://www.light-n-salt.com","tier":"","message":"","currency":"","rating":6.6},{"name":"Aura","phone":"+862120201888","address":"52/F, The Ritz-Carlton Shanghai Pudong, 8 Century Ave.","lat":31.238661917988658,"lng":121.49697645714207,"neighborhood":"Lùjiāzuǐ","city_fetched":"Shanghai,China","state":"上海市","country":"中国","canonicalUrl":"https://foursquare.com/v/aura/4df75f521838c789e8b92d5f","categoryId":"4bf58dd8d48988d121941735","category":"Lounge","checkinsCount":365,"usersCount":205,"tipCount":6,"visitsCount":367,"tier":"","message":"","currency":"","rating":6.6},{"name":"Enoterra","phone":"+862154040050","address":"53-57 Anfu Rd.","lat":31.216900458904078,"lng":121.44231184164309,"neighborhood":"Jìngān","city_fetched":"Shanghai,China","state":"上海市","country":"中国","canonicalUrl":"https://foursquare.com/v/enoterra/4cc3e0f442d1b60cdd661a13","categoryId":"4bf58dd8d48988d123941735","category":"Wine Bar","checkinsCount":2160,"usersCount":779,"tipCount":31,"visitsCount":2234,"url":"http://www.enoterra.com.cn","tier":"","message":"","currency":"","rating":6.6},{"name":"Take It Easy","address":"159 Yanping Road","lat":31.231844792907193,"lng":121.43565481353001,"neighborhood":"Jìngān","city_fetched":"Shanghai,China","state":"上海市","country":"中国","canonicalUrl":"https://foursquare.com/v/take-it-easy/551d82ef498e667476c25490","categoryId":"4bf58dd8d48988d116941735","category":"Bar","checkinsCount":77,"usersCount":45,"tipCount":2,"visitsCount":106,"tier":"","message":"","currency":"","rating":6.6},{"name":"The Camel Sports Bar","phone":"+862164379446","address":"岳阳路1号 | 1 Yueyang Rd.","lat":31.210839649584607,"lng":121.44723879995571,"neighborhood":"Xúhuì","city_fetched":"Shanghai,China","state":"上海市","country":"中国","canonicalUrl":"https://foursquare.com/v/the-camel-sports-bar/4d1f291a86e15481c60db03a","categoryId":"4bf58dd8d48988d11d941735","category":"Sports Bar","checkinsCount":6428,"usersCount":1815,"tipCount":69,"visitsCount":6923,"tier":"","message":"","currency":"","rating":6.6},{"name":"Project Wine","phone":"+862154979519","address":"17 N. Xiangyang Rd.","lat":31.2218410521834,"lng":121.4498835357536,"neighborhood":"Jìngān","city_fetched":"Shanghai,China","state":"上海市","country":"中国","canonicalUrl":"https://foursquare.com/v/project-wine/50d449afe4b09b35138e173c","categoryId":"4bf58dd8d48988d123941735","category":"Wine Bar","checkinsCount":681,"usersCount":387,"tipCount":15,"visitsCount":697,"tier":"","message":"","currency":"","rating":6.6},{"name":"Dr Bar","address":"Madang Rd.","lat":31.222649712821624,"lng":121.47045907261699,"neighborhood":"Xīntiāndì","city_fetched":"Shanghai,China","state":"上海市","country":"中国","canonicalUrl":"https://foursquare.com/v/dr-bar/4be97101ee96c928032dffbf","categoryId":"4bf58dd8d48988d116941735","category":"Bar","checkinsCount":463,"usersCount":297,"tipCount":12,"visitsCount":466,"tier":"","message":"","currency":"","rating":6.6},{"name":"Bubbly Nation","phone":"+862151669533","address":"537 Haifang Rd","lat":31.238816601318458,"lng":121.43899732568403,"neighborhood":"Jìngān","city_fetched":"Shanghai,China","state":"上海市","country":"中国","canonicalUrl":"https://foursquare.com/v/bubbly-nation/545c9cb6498ea4e09bbf6ea8","categoryId":"4bf58dd8d48988d121941735","category":"Lounge","checkinsCount":151,"usersCount":173,"tipCount":4,"visitsCount":263,"url":"http://www.bubblynation.com","tier":"","message":"","currency":"","rating":6.6},{"name":"The Camel Bar Pudong","lat":31.224936857295443,"lng":121.51252482581955,"neighborhood":"Wéifang","city_fetched":"Shanghai,China","state":"上海市","country":"中国","canonicalUrl":"https://foursquare.com/v/the-camel-bar-pudong/4f6ca09be4b08d8da504ac13","categoryId":"4bf58dd8d48988d11d941735","category":"Sports Bar","checkinsCount":698,"usersCount":406,"tipCount":21,"visitsCount":1221,"tier":"","message":"","currency":"","rating":6.5},{"name":"Grand Yard Cafe and Bar","address":"608 Xikang Rd","lat":31.23677615975502,"lng":121.44175384897672,"neighborhood":"Jìngān","city_fetched":"Shanghai,China","state":"上海市","country":"中国","canonicalUrl":"https://foursquare.com/v/grand-yard-cafe-and-bar/4f9bde77e4b008dde14b618d","categoryId":"4bf58dd8d48988d116941735","category":"Bar","checkinsCount":948,"usersCount":403,"tipCount":22,"visitsCount":1192,"tier":"","message":"","currency":"","rating":6.5},{"name":"Ellen's Café","address":"366 Nujiang Rd","lat":31.23396821349463,"lng":121.39644702997309,"neighborhood":"Pǔtuó","city_fetched":"Shanghai,China","country":"中国","canonicalUrl":"https://foursquare.com/v/ellens-caf%C3%A9/4fddf880e4b0e078037ebada","categoryId":"4bf58dd8d48988d116941735","category":"Bar","checkinsCount":218,"usersCount":100,"tipCount":6,"visitsCount":237,"tier":"","message":"","currency":"","rating":6.5},{"name":"Barules","phone":"+8613817131574","address":"51 Fenyang Rd.","lat":31.213672429207033,"lng":121.44971056965144,"neighborhood":"Xúhuì","city_fetched":"Shanghai,China","state":"上海市","country":"中国","canonicalUrl":"https://foursquare.com/v/barules/54411f14498e3ab129b0eea9","categoryId":"4bf58dd8d48988d116941735","category":"Bar","checkinsCount":125,"usersCount":104,"tipCount":2,"visitsCount":133,"tier":"","message":"","currency":"","rating":6.5},{"name":"OTS Monkey Champagne Room","phone":"+862162556000","twitter":"monkeylounge_sh","address":"38 Donghu Rd.","lat":31.218449462173766,"lng":121.44969383098264,"neighborhood":"Jìngān","city_fetched":"Shanghai,China","state":"上海市","country":"中国","canonicalUrl":"https://foursquare.com/v/ots-monkey-champagne-room/4d0f636b71e8a1cd71657abd","categoryId":"4bf58dd8d48988d121941735","category":"Lounge","checkinsCount":4239,"usersCount":1202,"tipCount":43,"visitsCount":4560,"url":"http://iamots.com/shanghai","tier":"","message":"","currency":"","rating":6.5},{"name":"La Cava Bar","address":"216 Yongjia Rd","lat":31.211241,"lng":121.454029,"neighborhood":"Xúhuì","city_fetched":"Shanghai,China","state":"上海市","country":"中国","canonicalUrl":"https://foursquare.com/v/la-cava-bar/521d9ca8498ed9ffe2c9990b","categoryId":"4bf58dd8d48988d123941735","category":"Wine Bar","checkinsCount":238,"usersCount":149,"tipCount":6,"visitsCount":269,"tier":"","message":"","currency":"","rating":6.5},{"name":"SKYLINE","address":"455-4 Fahuazhen Rd","lat":31.20636382776187,"lng":121.42174245259073,"neighborhood":"Zhǎngníng","city_fetched":"Shanghai,China","state":"上海市","country":"中国","canonicalUrl":"https://foursquare.com/v/skyline/4cc035b3a0c4f04dfe4c5931","categoryId":"4bf58dd8d48988d116941735","category":"Bar","checkinsCount":316,"usersCount":137,"tipCount":8,"visitsCount":352,"tier":"","message":"","currency":"","rating":6.5},{"name":"Oscar's Pub","address":"1377 Fuxing Rd","lat":31.212539313383264,"lng":121.44549792815559,"neighborhood":"Xúhuì","city_fetched":"Shanghai,China","state":"上海市","country":"中国","canonicalUrl":"https://foursquare.com/v/oscars-pub/4b6812f2f964a5202e662be3","categoryId":"4bf58dd8d48988d11b941735","category":"Pub","checkinsCount":1031,"usersCount":497,"tipCount":16,"visitsCount":1156,"tier":"","message":"","currency":"","rating":6.5},{"name":"Zapata's","phone":"+8615221035065","address":"5 Hengshan Rd.","lat":31.210091836804295,"lng":121.44480045613197,"neighborhood":"Xúhuì","city_fetched":"Shanghai,China","state":"上海市","country":"中国","canonicalUrl":"https://foursquare.com/v/zapatas/4b0588bff964a52084d722e3","categoryId":"4bf58dd8d48988d11f941735","category":"Nightclub","checkinsCount":2697,"usersCount":1462,"tipCount":58,"visitsCount":2818,"url":"http://www.zapatas-shanghai.com","tier":"","message":"","currency":"","rating":6.5},{"name":"Manhattan","address":"905 Julu Rd","lat":31.229954220194138,"lng":121.44645206306411,"neighborhood":"Jìngān","city_fetched":"Shanghai,China","state":"上海市","country":"中国","canonicalUrl":"https://foursquare.com/v/manhattan/4d921bdc939e548148f7db9e","categoryId":"4bf58dd8d48988d116941735","category":"Bar","checkinsCount":776,"usersCount":386,"tipCount":19,"visitsCount":914,"tier":"","message":"","currency":"","rating":6.5},{"name":"Helen's","address":"茂名北路148号","lat":31.228226966950235,"lng":121.45550758266576,"neighborhood":"Jìngān","city_fetched":"Shanghai,China","state":"上海市","country":"中国","canonicalUrl":"https://foursquare.com/v/helens/52208f8811d2b0342039fa41","categoryId":"4bf58dd8d48988d118941735","category":"Dive Bar","checkinsCount":439,"usersCount":322,"tipCount":14,"visitsCount":616,"tier":"","message":"","currency":"","rating":6.4},{"name":"M18","phone":"+862153029589","address":"4/F Bund 18, Zhongshan Dong Yi Lu","lat":31.240376554248396,"lng":121.48549229040307,"neighborhood":"Wàitān","city_fetched":"Shanghai,China","state":"上海市","country":"中国","canonicalUrl":"https://foursquare.com/v/m18/533ee0ec498e12ffea39662d","categoryId":"4bf58dd8d48988d11f941735","category":"Nightclub","checkinsCount":764,"usersCount":349,"tipCount":8,"visitsCount":819,"tier":"","message":"","currency":"","rating":6.4},{"name":"Max Pub","address":"180 Fujian Zhong Lu","lat":31.235859755032056,"lng":121.47701926353905,"neighborhood":"Běixīn qiáo","city_fetched":"Shanghai,China","state":"上海市","country":"中国","canonicalUrl":"https://foursquare.com/v/max-pub/505598cfe4b0a13302f77706","categoryId":"4bf58dd8d48988d11d941735","category":"Sports Bar","checkinsCount":155,"usersCount":113,"tipCount":3,"visitsCount":177,"tier":"","message":"","currency":"","rating":6.4},{"name":"Perry's","phone":"+862132558117","address":"3F, 1139 Kaixuan Rd.","lat":31.206442274095835,"lng":121.41387869011385,"neighborhood":"Zhǎngníng","city_fetched":"Shanghai,China","state":"上海市","country":"中国","canonicalUrl":"https://foursquare.com/v/perrys/4e7b57222271813db0a2ebbe","categoryId":"4bf58dd8d48988d116941735","category":"Bar","checkinsCount":1359,"usersCount":699,"tipCount":18,"visitsCount":1592,"tier":"","message":"","currency":"","rating":6.4},{"name":"The Beer Shelf","address":"232 Danshui Rd","lat":31.219047,"lng":121.468642,"neighborhood":"Xīntiāndì","city_fetched":"Shanghai,China","state":"上海市","country":"中国","canonicalUrl":"https://foursquare.com/v/the-beer-shelf/525a3dbf11d290c13b9ce401","categoryId":"4bf58dd8d48988d116941735","category":"Bar","checkinsCount":82,"usersCount":58,"tipCount":5,"visitsCount":84,"url":"http://www.beershelf.com.cn","tier":"","message":"","currency":"","rating":6.4},{"name":"Boxing Cat Brewery","phone":"+862164260360","twitter":"boxingcatbeer","address":"Unit 26A, Sinan Mansions, 519-521 Fuxing Rd. Middle","lat":31.21727669463987,"lng":121.46437271120125,"neighborhood":"Xīntiāndì","city_fetched":"Shanghai,China","state":"上海市","country":"中国","canonicalUrl":"https://foursquare.com/v/%E6%8B%B3%E5%87%BB%E7%8C%AB%E9%A4%90%E5%8E%85--boxing-cat-brewery/4cd9360aa99d3704ef8b09ce","categoryId":"50327c8591d4c4b30a586d5d","category":"Brewery","checkinsCount":3655,"usersCount":1943,"tipCount":58,"visitsCount":4091,"url":"http://www.boxingcatbrewery.com","tier":"","message":"","currency":"","rating":6.4},{"name":"Black Bird","address":"Wulumuqi South Road 1, 2/F 乌鲁木齐南路1号， 2娄","lat":31.210484520419236,"lng":121.44332180151815,"neighborhood":"Xúhuì","city_fetched":"Shanghai,China","state":"上海市","country":"中国","canonicalUrl":"https://foursquare.com/v/black-bird/5665825a498eeb477fa91832","categoryId":"4bf58dd8d48988d116941735","category":"Bar","checkinsCount":195,"usersCount":218,"tipCount":4,"visitsCount":286,"tier":"","message":"","currency":"","rating":6.4},{"name":"FLASK","address":"432 Shaanxi South Rd.","lat":31.213339,"lng":121.45664,"neighborhood":"Xúhuì","city_fetched":"Shanghai,China","country":"中国","canonicalUrl":"https://foursquare.com/v/flask/5422cb46498e2277be51fce2","categoryId":"4bf58dd8d48988d11e941735","category":"Cocktail Bar","checkinsCount":365,"usersCount":326,"tipCount":12,"visitsCount":444,"tier":"","message":"","currency":"","rating":6.3},{"name":"Executive Lounge","phone":"+862153594969","address":"399 Nanjing West Rd","lat":31.23231620532892,"lng":121.46523742924353,"neighborhood":"Rénmín Guǎngchǎng","city_fetched":"Shanghai,China","state":"上海市","country":"中国","canonicalUrl":"https://foursquare.com/v/executive-lounge/4b3c7cacf964a520a38425e3","categoryId":"4bf58dd8d48988d1d5941735","category":"Hotel Bar","checkinsCount":549,"usersCount":259,"tipCount":9,"visitsCount":552,"tier":"","message":"","currency":"","rating":6.3},{"name":"Wooden Box","phone":"+862152132965","address":"No 9, Qinghai Rd","lat":31.232170458549998,"lng":121.45988723099158,"neighborhood":"Jìngān","city_fetched":"Shanghai,China","state":"上海市","country":"中国","canonicalUrl":"https://foursquare.com/v/wooden-box/4bfa7440633d9c740d100843","categoryId":"4bf58dd8d48988d116941735","category":"Bar","checkinsCount":860,"usersCount":493,"tipCount":19,"visitsCount":923,"tier":"","message":"","currency":"","rating":6.3},{"name":"Boxing Cat Brewery | 拳击猫餐厅","address":"100 Zunyi Rd. | 遵义路100号","lat":31.209197,"lng":121.403753,"neighborhood":"Xian xiá","city_fetched":"Shanghai,China","state":"上海市","country":"中国","canonicalUrl":"https://foursquare.com/v/boxing-cat-brewery--%E6%8B%B3%E5%87%BB%E7%8C%AB%E9%A4%90%E5%8E%85/553a2ae4498e5acdfa9dba5a","categoryId":"50327c8591d4c4b30a586d5d","category":"Brewery","checkinsCount":176,"usersCount":120,"tipCount":2,"visitsCount":200,"tier":"","message":"","currency":"","rating":6.3},{"name":"Red Lion","address":"84 W. Weifang Rd.","lat":31.224704711493363,"lng":121.51135375229256,"neighborhood":"Wéifang","city_fetched":"Shanghai,China","state":"上海市","country":"中国","canonicalUrl":"https://foursquare.com/v/red-lion/4da2da3463b5a35d38f5041a","categoryId":"4bf58dd8d48988d11b941735","category":"Pub","checkinsCount":193,"usersCount":98,"tipCount":3,"visitsCount":213,"tier":"","message":"","currency":"","rating":6.3},{"name":"Linx Club Shanghai","phone":"+862156066666","address":"淮海中路98号","lat":31.227225002604243,"lng":121.47479910469141,"neighborhood":"Lúwān","city_fetched":"Shanghai,China","state":"上海市","country":"中国","canonicalUrl":"https://foursquare.com/v/linx-club-shanghai/5311aa4b11d2518c9ca43ea9","categoryId":"4bf58dd8d48988d11f941735","category":"Nightclub","checkinsCount":625,"usersCount":417,"tipCount":13,"visitsCount":820,"tier":"","message":"","currency":"","rating":6.3},{"name":"Enoterra","phone":"+862162565005","address":"343 Jiaozhou Rd.","lat":31.231860701550108,"lng":121.43791478641675,"neighborhood":"Jìngān","city_fetched":"Shanghai,China","state":"上海市","country":"中国","canonicalUrl":"https://foursquare.com/v/enoterra/4ff96c26e4b01d0821446f30","categoryId":"4bf58dd8d48988d123941735","category":"Wine Bar","checkinsCount":1398,"usersCount":574,"tipCount":12,"visitsCount":1447,"tier":"","message":"","currency":"","rating":6.3},{"name":"TMSK","phone":"+862163262227","address":"Unit 2, Bldg 11, North Block, Xintiandi, Lane 181, Taicang Rd","lat":31.220496,"lng":121.474914,"neighborhood":"Xīntiāndì","city_fetched":"Shanghai,China","state":"上海市","country":"中国","canonicalUrl":"https://foursquare.com/v/tmsk/4b0588bef964a52037d722e3","categoryId":"4bf58dd8d48988d121941735","category":"Lounge","checkinsCount":796,"usersCount":636,"tipCount":13,"visitsCount":797,"url":"http://www.tmsk.com/xtd","tier":"","message":"","currency":"","rating":6.3},{"name":"Chalet plus","address":"839 Renmin Rd","lat":31.229946524860065,"lng":121.48014303265509,"neighborhood":"Běixīn qiáo","city_fetched":"Shanghai,China","state":"上海市","country":"中国","canonicalUrl":"https://foursquare.com/v/chalet-plus/53970d9b498eb409d6ac3616","categoryId":"4bf58dd8d48988d116941735","category":"Bar","checkinsCount":266,"usersCount":67,"tipCount":11,"visitsCount":276,"tier":"","message":"","currency":"","rating":6.3},{"name":"No. 9 Irish Pub","address":"697 Jiujiang Rd","lat":31.236084402872258,"lng":121.47236134330325,"neighborhood":"Běixīn qiáo","city_fetched":"Shanghai,China","state":"上海市","country":"中国","canonicalUrl":"https://foursquare.com/v/no-9-irish-pub/51619d22e4b002db621af669","categoryId":"4bf58dd8d48988d11b941735","category":"Pub","checkinsCount":383,"usersCount":300,"tipCount":11,"visitsCount":411,"tier":"","message":"","currency":"","rating":6.3},{"name":"Hollywood","phone":"+8613167018980","address":"46 Yueyang Rd","lat":31.209485842842753,"lng":121.447210901576,"neighborhood":"Xúhuì","city_fetched":"Shanghai,China","state":"上海市","country":"中国","canonicalUrl":"https://foursquare.com/v/hollywood/4eb2a9809a52cc10f6e109df","categoryId":"4bf58dd8d48988d11f941735","category":"Nightclub","checkinsCount":3328,"usersCount":1452,"tipCount":66,"visitsCount":3969,"url":"http://www.hollywoodshanghai.com","tier":"","message":"","currency":"","rating":6.3},{"name":"Red Passion @ Grand Kempinski Shanghai Hotel","lat":31.244372198689994,"lng":121.50009410722961,"neighborhood":"Lùjiāzuǐ","city_fetched":"Shanghai,China","country":"中国","canonicalUrl":"https://foursquare.com/v/red-passion--grand-kempinski-shanghai-hotel/4f65bf05e4b015497c60c361","categoryId":"4bf58dd8d48988d11e941735","category":"Cocktail Bar","checkinsCount":119,"usersCount":71,"tipCount":2,"visitsCount":119,"tier":"","message":"","currency":"","rating":6.2},{"name":"Gatsby","lat":31.227192597619055,"lng":121.45953574942679,"neighborhood":"Jìngān","city_fetched":"Shanghai,China","country":"中国","canonicalUrl":"https://foursquare.com/v/gatsby/520ce13f11d2981851c9324d","categoryId":"4bf58dd8d48988d11e941735","category":"Cocktail Bar","checkinsCount":143,"usersCount":118,"tipCount":4,"visitsCount":155,"tier":"","message":"","currency":"","rating":6.2},{"name":"Andaz Lobby Lounge","address":"1/F, Andaz Hotel, 88 Songshan Rd","lat":31.224108000692222,"lng":121.47121217473773,"neighborhood":"Xīntiāndì","city_fetched":"Shanghai,China","state":"上海市","country":"中国","canonicalUrl":"https://foursquare.com/v/andaz-lobby-lounge/4f44cd63e4b00215c5fff7de","categoryId":"4bf58dd8d48988d1d5941735","category":"Hotel Bar","checkinsCount":453,"usersCount":218,"tipCount":8,"visitsCount":454,"tier":"","message":"","currency":"","rating":6.2},{"name":"B&C","phone":"+862152132100","address":"西康路 685号","lat":31.237584376543914,"lng":121.44007427479414,"neighborhood":"Jìngān","city_fetched":"Shanghai,China","state":"上海市","country":"中国","canonicalUrl":"https://foursquare.com/v/bc/4d00dc19f7b38cfa2daad1c3","categoryId":"4bf58dd8d48988d118941735","category":"Dive Bar","checkinsCount":1758,"usersCount":320,"tipCount":17,"visitsCount":1933,"tier":"","message":"","currency":"","rating":6.2},{"name":"The Flamingo","phone":"+862134619073","twitter":"theflamingobar","address":"1/F, 390 S. Shaanxi Rd","lat":31.215230911245893,"lng":121.4560934051288,"neighborhood":"Xúhuì","city_fetched":"Shanghai,China","state":"上海市","country":"中国","canonicalUrl":"https://foursquare.com/v/the-flamingo/5146a838e4b0c0b7facb952f","categoryId":"4bf58dd8d48988d11d941735","category":"Sports Bar","checkinsCount":463,"usersCount":219,"tipCount":12,"visitsCount":470,"url":"http://www.theflamingo-shanghai.com","tier":"","message":"","currency":"","rating":6.2},{"name":"Napa Wine Bar & Kitchen","phone":"+862163180057","address":"2/F South Bund 22, Zhongshan E-2 Rd.","lat":31.233000327134484,"lng":121.48967000489418,"neighborhood":"Wàitān","city_fetched":"Shanghai,China","state":"上海市","country":"中国","canonicalUrl":"https://foursquare.com/v/napa-wine-bar--kitchen/51729030e4b09369ffd96f50","categoryId":"4bf58dd8d48988d123941735","category":"Wine Bar","checkinsCount":291,"usersCount":166,"tipCount":9,"visitsCount":293,"tier":"","message":"","currency":"","rating":6.2},{"name":"Big Bamboo","phone":"+862162562265","address":"132 Nanyang Rd.","lat":31.229993,"lng":121.44684,"neighborhood":"Jìngān","city_fetched":"Shanghai,China","state":"上海市","country":"中国","canonicalUrl":"https://foursquare.com/v/big-bamboo/4c2f2377213c2d7f7c50305d","categoryId":"4bf58dd8d48988d11d941735","category":"Sports Bar","checkinsCount":3984,"usersCount":1468,"tipCount":48,"visitsCount":4395,"tier":"","message":"","currency":"","rating":6.2},{"name":"CAS Bar","phone":"+862152832263","address":"1089 Wuding Rd.","lat":31.231721341417167,"lng":121.43740141373674,"neighborhood":"Jìngān","city_fetched":"Shanghai,China","state":"上海市","country":"中国","canonicalUrl":"https://foursquare.com/v/cas-bar/50e03c9de4b0b781a88c47d7","categoryId":"4bf58dd8d48988d11e941735","category":"Cocktail Bar","checkinsCount":335,"usersCount":216,"tipCount":14,"visitsCount":337,"tier":"","message":"","currency":"","rating":6.2},{"name":"Side Bar","phone":"+862132262577","address":"56 Maoming Nan Lu | 茂名南路56号","lat":31.22312608768212,"lng":121.4554406313378,"neighborhood":"Jìngān","city_fetched":"Shanghai,China","state":"上海市","country":"中国","canonicalUrl":"https://foursquare.com/v/side-bar/4fec7145e4b01805080f9c7e","categoryId":"4bf58dd8d48988d118941735","category":"Dive Bar","checkinsCount":473,"usersCount":184,"tipCount":8,"visitsCount":547,"tier":"","message":"","currency":"","rating":6.2},{"name":"CUVVE Club","phone":"+8615000939716","address":"4/F, Bund 18, 18 Zhongshan Rd. East-1","lat":31.240490030138268,"lng":121.48538947105408,"neighborhood":"Wàitān","city_fetched":"Shanghai,China","state":"上海市","country":"中国","canonicalUrl":"https://foursquare.com/v/cuvve-club/4ef34e775c5cd8c3b375f878","categoryId":"4bf58dd8d48988d11f941735","category":"Nightclub","checkinsCount":758,"usersCount":486,"tipCount":12,"visitsCount":759,"url":"http://www.bund18.com/fine-dining-and-entertainment/cuvve-club","tier":"","message":"","currency":"","rating":6.2},{"name":"Muse 2","phone":"+862162886222","address":"Hong Kong Plaza,  4/F, 283 Huai Hai Zhong Lu,  near Huangpi Nan Lu  香港广场,  淮海中路283号,  近黄陂南路","lat":31.224599197706393,"lng":121.47030287304234,"neighborhood":"Lúwān","city_fetched":"Shanghai,China","state":"上海市","country":"中国","canonicalUrl":"https://foursquare.com/v/muse-2/4bffdb19f61ea5933ddaea13","categoryId":"4bf58dd8d48988d11f941735","category":"Nightclub","checkinsCount":4197,"usersCount":2412,"tipCount":51,"visitsCount":4717,"tier":"","message":"","currency":"","rating":6.1},{"name":"Windows Garage","address":"702 W Nanjing Rd","lat":31.232780494446708,"lng":121.45926237413609,"neighborhood":"Jìngān","city_fetched":"Shanghai,China","state":"上海市","country":"中国","canonicalUrl":"https://foursquare.com/v/windows-garage/4f996de6e4b020e2a522a90e","categoryId":"4bf58dd8d48988d116941735","category":"Bar","checkinsCount":1177,"usersCount":957,"tipCount":20,"visitsCount":1731,"tier":"","message":"","currency":"","rating":6.1},{"name":"Yucca","address":"Sinan Mansion Block 26F, 523 Fuxing Road","lat":31.21721,"lng":121.464138,"neighborhood":"Xīntiāndì","city_fetched":"Shanghai,China","state":"上海市","country":"中国","canonicalUrl":"https://foursquare.com/v/yucca/4cf0fda47bf3b60c74e85c7f","categoryId":"4bf58dd8d48988d11e941735","category":"Cocktail Bar","checkinsCount":470,"usersCount":268,"tipCount":15,"visitsCount":470,"tier":"","message":"","currency":"","rating":6.1},{"name":"The Spot","phone":"+862162473579","twitter":"thespot5","address":"331 Tongren Rd","lat":31.227077957697468,"lng":121.45171165466309,"neighborhood":"Jìngān","city_fetched":"Shanghai,China","state":"上海市","country":"中国","canonicalUrl":"https://foursquare.com/v/the-spot/4b0588bef964a52059d722e3","categoryId":"4bf58dd8d48988d11d941735","category":"Sports Bar","checkinsCount":1533,"usersCount":594,"tipCount":17,"visitsCount":1609,"url":"http://www.thespot.com.cn","tier":"","message":"","currency":"","rating":6.1},{"name":"Kiitos","address":"127 Yongfu Rd","lat":31.211986547308918,"lng":121.43907544668235,"neighborhood":"Xúhuì","city_fetched":"Shanghai,China","state":"上海市","country":"中国","canonicalUrl":"https://foursquare.com/v/kiitos/4b5c6868f964a520682e29e3","categoryId":"4bf58dd8d48988d116941735","category":"Bar","checkinsCount":346,"usersCount":166,"tipCount":11,"visitsCount":347,"tier":"","message":"","currency":"","rating":6},{"name":"Wirtshaus","phone":"+862159570166","address":"Xin Yuan road","lat":31.291698370063703,"lng":121.15437384071399,"neighborhood":"Āntíng","city_fetched":"Shanghai,China","state":"上海市","country":"中国","canonicalUrl":"https://foursquare.com/v/wirtshaus/4e4fcebd8877402b06c8496d","categoryId":"4bf58dd8d48988d116941735","category":"Bar","checkinsCount":133,"usersCount":66,"tipCount":3,"visitsCount":215,"tier":"","message":"","currency":"","rating":6},{"name":"唛歌时尚KTV | MAGO KTV","phone":"+862153829999","address":"淮海中路98号金钟广场3-4楼","lat":31.22733484153582,"lng":121.47441387176514,"neighborhood":"Rénmín Guǎngchǎng","city_fetched":"Shanghai,China","state":"上海市","country":"中国","canonicalUrl":"https://foursquare.com/v/%E5%94%9B%E6%AD%8C%E6%97%B6%E5%B0%9Aktv--mago-ktv/4bfa8da61134b713bc760fc9","categoryId":"4bf58dd8d48988d120941735","category":"Karaoke Bar","checkinsCount":761,"usersCount":353,"tipCount":5,"visitsCount":761,"tier":"","message":"","currency":"","rating":6},{"name":"Vespertine & Nimbus Lounge","phone":"+862163150325","twitter":"vespertinesh","address":"505 South Zhongshan Rd","lat":31.22194498696615,"lng":121.5008749008038,"neighborhood":"Xiǎo dōng mén","city_fetched":"Shanghai,China","state":"上海市","country":"中国","canonicalUrl":"https://foursquare.com/v/vespertine--nimbus-lounge/5327f88c498e49a15df75faf","categoryId":"4bf58dd8d48988d121941735","category":"Lounge","checkinsCount":67,"usersCount":51,"tipCount":4,"visitsCount":68,"url":"http://www.vespertine-cuisine.com","tier":"","message":"","currency":"","rating":6},{"name":"Qi Bar at Mandarin Oriental Pudong, Shanghai","phone":"+862120829958","twitter":"mo_hotels","address":"111 Pudong Road (S)","lat":31.245643180177876,"lng":121.50268743685677,"neighborhood":"Láoshān","city_fetched":"Shanghai,China","state":"上海市","country":"中国","canonicalUrl":"https://foursquare.com/v/qi-bar-at-mandarin-oriental-pudong-shanghai/517e626be4b00f3e1a4d73f8","categoryId":"4bf58dd8d48988d1d5941735","category":"Hotel Bar","checkinsCount":56,"usersCount":45,"tipCount":4,"visitsCount":58,"url":"http://www.mandarinoriental.com","tier":"","message":"","currency":"","rating":6},{"name":"Obama Club | 奥巴马会所","phone":"+862160837567","address":"延安西路2088号虹桥嘉顿广场1楼","lat":31.20441438611887,"lng":121.40337824821472,"neighborhood":"Hóngqiáo","city_fetched":"Shanghai,China","state":"上海市","country":"中国","canonicalUrl":"https://foursquare.com/v/obama-club--%E5%A5%A5%E5%B7%B4%E9%A9%AC%E4%BC%9A%E6%89%80/4bfbe2a8d931c9289c5a838b","categoryId":"4bf58dd8d48988d1d8941735","category":"Gay Bar","checkinsCount":459,"usersCount":236,"tipCount":6,"visitsCount":460,"url":"http://www.obamaclub-sh.com","tier":"","message":"","currency":"","rating":6},{"name":"Flying Fox | 飞狐","phone":"+862150309807","address":"红枫路225号 | 225 Hongfeng Lu","lat":31.245830160251906,"lng":121.58641206453456,"neighborhood":"Pǔdōng","city_fetched":"Shanghai,China","state":"上海市","country":"中国","canonicalUrl":"https://foursquare.com/v/flying-fox--%E9%A3%9E%E7%8B%90/4ba5b271f964a5209e1c39e3","categoryId":"4bf58dd8d48988d11b941735","category":"Pub","checkinsCount":817,"usersCount":346,"tipCount":5,"visitsCount":947,"tier":"","message":"","currency":"","rating":6},{"name":"The Aviator","lat":31.1522608872434,"lng":121.80467042995475,"neighborhood":"Pǔdōng","city_fetched":"Shanghai,China","state":"上海市","country":"中国","canonicalUrl":"https://foursquare.com/v/%E9%A3%9E%E8%A1%8C%E5%91%98%E9%85%92%E5%90%A7--the-aviator/4dd109f1d22deadedd8f973e","categoryId":"4bf58dd8d48988d121941735","category":"Lounge","checkinsCount":218,"usersCount":158,"tipCount":4,"visitsCount":219,"tier":"","message":"","currency":"","rating":6},{"name":"JustGrapes | 葡醉","phone":"+862133113205","twitter":"justgrapescn","address":"462 Dagu Rd.","lat":31.227295088146096,"lng":121.45989281005541,"neighborhood":"Jìngān","city_fetched":"Shanghai,China","state":"上海市","country":"中国","canonicalUrl":"https://foursquare.com/v/justgrapes--%E8%91%A1%E9%86%89/4b272962f964a520038524e3","categoryId":"4bf58dd8d48988d123941735","category":"Wine Bar","checkinsCount":379,"usersCount":158,"tipCount":11,"visitsCount":397,"tier":"","message":"","currency":"","rating":6},{"name":"Amber Lounge","phone":"+862162488818","address":"370 Huashan Road","lat":31.22059675890202,"lng":121.44033653549359,"neighborhood":"Jìngān","city_fetched":"Shanghai,China","state":"上海市","country":"中国","canonicalUrl":"https://foursquare.com/v/amber-lounge/4f772cfae4b0488e2ea88e03","categoryId":"4bf58dd8d48988d121941735","category":"Lounge","checkinsCount":1196,"usersCount":530,"tipCount":18,"visitsCount":1494,"tier":"","message":"","currency":"","rating":6},{"name":"Perry's","phone":"+862154365159","address":"3/F, No.1339, M. Huaihai Rd.","lat":31.213494132953073,"lng":121.44457168439126,"neighborhood":"Xúhuì","city_fetched":"Shanghai,China","state":"上海市","country":"中国","canonicalUrl":"https://foursquare.com/v/perrys/519112b1498e2b077f31284b","categoryId":"4bf58dd8d48988d116941735","category":"Bar","checkinsCount":1181,"usersCount":690,"tipCount":18,"visitsCount":1400,"tier":"","message":"","currency":"","rating":5.9},{"name":"Raffles City 2F Men's Restroom","address":"西藏中路268号来福士广场2楼","lat":31.23413021325696,"lng":121.47175886800879,"neighborhood":"Běixīn qiáo","city_fetched":"Shanghai,China","state":"上海市","country":"中国","canonicalUrl":"https://foursquare.com/v/%E6%9D%A5%E7%A6%8F%E5%A3%AB2%E6%A5%BC%E7%94%B7%E5%8E%95%E6%89%80--raffles-city-2f-mens-restroom/4dc621a6887717c8803651b6","categoryId":"4bf58dd8d48988d1d8941735","category":"Gay Bar","checkinsCount":2121,"usersCount":440,"tipCount":9,"visitsCount":2127,"tier":"","message":"","currency":"","rating":5.9},{"name":"Mook Club","phone":"+862163269999","twitter":"mookshanghai","address":"5F No. 758 Nanjing Xi Lu","lat":31.23293470222527,"lng":121.45797917534021,"neighborhood":"Jìngān","city_fetched":"Shanghai,China","state":"上海市","country":"中国","canonicalUrl":"https://foursquare.com/v/mook-club/50cb193ae4b04e1f356620fc","categoryId":"4bf58dd8d48988d11f941735","category":"Nightclub","checkinsCount":886,"usersCount":739,"tipCount":16,"visitsCount":1214,"url":"http://www.mookchina.com","tier":"","message":"","currency":"","rating":5.9},{"name":"Cape Grape","address":"Yongkang Lu","lat":31.212877230977384,"lng":121.45356039901826,"neighborhood":"Xúhuì","city_fetched":"Shanghai,China","state":"上海市","country":"中国","canonicalUrl":"https://foursquare.com/v/cape-grape/522dbedb93cda20adaf95b23","categoryId":"4bf58dd8d48988d123941735","category":"Wine Bar","checkinsCount":225,"usersCount":97,"tipCount":8,"visitsCount":226,"tier":"","message":"","currency":"","rating":5.9},{"name":"上海歌城 SHANGHAI GECHENG","phone":"+862151520000","address":"南京西路2-68号新世界城11楼","lat":31.236912440521067,"lng":121.46924257278442,"neighborhood":"Běixīn qiáo","city_fetched":"Shanghai,China","state":"上海市","country":"中国","canonicalUrl":"https://foursquare.com/v/%E4%B8%8A%E6%B5%B7%E6%AD%8C%E5%9F%8E-shanghai-gecheng/4bd2853377b29c7414098f82","categoryId":"4bf58dd8d48988d120941735","category":"Karaoke Bar","checkinsCount":542,"usersCount":395,"tipCount":5,"visitsCount":544,"tier":"","message":"","currency":"","rating":5.9},{"name":"Windows Scoreboard","phone":"8653827757","address":"淮海中路527号11楼","lat":31.22233562345147,"lng":121.4644117631236,"neighborhood":"Xīntiāndì","city_fetched":"Shanghai,China","state":"上海市","country":"中国","canonicalUrl":"https://foursquare.com/v/windows-scoreboard/4beab17d246fb7130aedabdf","categoryId":"4bf58dd8d48988d118941735","category":"Dive Bar","checkinsCount":824,"usersCount":523,"tipCount":16,"visitsCount":937,"tier":"","message":"","currency":"","rating":5.9},{"name":"The Beaver","phone":"+862164743216","address":"28 yueyang lu | 岳阳路28号","lat":31.21008451508617,"lng":121.44732249505438,"neighborhood":"Xúhuì","city_fetched":"Shanghai,China","state":"上海市","country":"中国","canonicalUrl":"https://foursquare.com/v/the-beaver/4b6ad11af964a520b0e12be3","categoryId":"4bf58dd8d48988d116941735","category":"Bar","checkinsCount":624,"usersCount":319,"tipCount":8,"visitsCount":652,"tier":"","message":"","currency":"","rating":5.9},{"name":"Mojito Heaven","address":"昭化东路530号","lat":31.215447640040107,"lng":121.43073852246849,"neighborhood":"Jìngān","city_fetched":"Shanghai,China","state":"上海市","country":"中国","canonicalUrl":"https://foursquare.com/v/mojito-heaven/508bf6d1e4b055a757fc39d3","categoryId":"4bf58dd8d48988d121941735","category":"Lounge","checkinsCount":119,"usersCount":90,"tipCount":2,"visitsCount":121,"tier":"","message":"","currency":"","rating":5.8},{"name":"Sasha's Restaurant and Bar","phone":"+862164746169","address":"11 Dongping Rd.","lat":31.210143513757966,"lng":121.44490089236285,"neighborhood":"Xúhuì","city_fetched":"Shanghai,China","state":"上海市","country":"中国","canonicalUrl":"https://foursquare.com/v/sashas-restaurant-and-bar/4b0588c1f964a52036d822e3","categoryId":"4bf58dd8d48988d116941735","category":"Bar","checkinsCount":2616,"usersCount":1301,"tipCount":35,"visitsCount":2661,"url":"http://www.sashas-shanghai.com","tier":"","message":"","currency":"","rating":5.8},{"name":"Massé","phone":"+862152125971","twitter":"masseshanghai","address":"5-6/F, 219 Jinxian Rd","lat":31.223138269370686,"lng":121.45326469203859,"neighborhood":"Jìngān","city_fetched":"Shanghai,China","state":"上海市","country":"中国","canonicalUrl":"https://foursquare.com/v/mass%C3%A9/4dc60d2752b1e8f9f7e50c49","categoryId":"4bf58dd8d48988d11d941735","category":"Sports Bar","checkinsCount":1943,"usersCount":680,"tipCount":23,"visitsCount":2147,"tier":"","message":"","currency":"","rating":5.8},{"name":"Blue Marlin","lat":31.22782212302071,"lng":121.44471675920619,"neighborhood":"Jìngān","city_fetched":"Shanghai,China","country":"中国","canonicalUrl":"https://foursquare.com/v/blue-marlin/55e05652498e758dc5290206","categoryId":"4bf58dd8d48988d116941735","category":"Bar","checkinsCount":70,"usersCount":38,"tipCount":0,"visitsCount":74,"tier":"","message":"","currency":"","rating":5.8},{"name":"BnC 3 - Tina's Bar","phone":"+862162243263","address":"陕西路925号","lat":31.23893464330909,"lng":121.4430372280818,"neighborhood":"Jìngān","city_fetched":"Shanghai,China","state":"上海市","country":"中国","canonicalUrl":"https://foursquare.com/v/bnc-3--tinas-bar/516fc7d7498e907d6530521f","categoryId":"4bf58dd8d48988d116941735","category":"Bar","checkinsCount":56,"usersCount":28,"tipCount":2,"visitsCount":56,"tier":"","message":"","currency":"","rating":5.7},{"name":"Perry's","address":"978 Kangding Road","lat":31.233020065010436,"lng":121.43372403628005,"neighborhood":"Jìngān","city_fetched":"Shanghai,China","state":"上海市","country":"中国","canonicalUrl":"https://foursquare.com/v/perrys/526a699e11d267fbd88d6da4","categoryId":"4bf58dd8d48988d118941735","category":"Dive Bar","checkinsCount":289,"usersCount":213,"tipCount":10,"visitsCount":402,"tier":"","message":"","currency":"","rating":5.7},{"name":"390 Lounge & Club","address":"390 Panyu Lu","lat":31.206051997743995,"lng":121.42526395030337,"neighborhood":"Zhǎngníng","city_fetched":"Shanghai,China","state":"上海市","country":"中国","canonicalUrl":"https://foursquare.com/v/390-lounge--club/502e380de4b01a9d9e331609","categoryId":"4bf58dd8d48988d1d8941735","category":"Gay Bar","checkinsCount":875,"usersCount":474,"tipCount":18,"visitsCount":1111,"url":"http://390shanghai.com","tier":"","message":"","currency":"","rating":5.7},{"name":"Le Comptoir Wine Bar","phone":"+862154065891","address":"301号 Guang Yuan Xi Lu","lat":31.19674240843389,"lng":121.4283013343811,"neighborhood":"Xújiāhuì","city_fetched":"Shanghai,China","state":"上海市","country":"中国","canonicalUrl":"https://foursquare.com/v/le-comptoir-wine-bar/4fe2c8b7754a6f4316513d68","categoryId":"4bf58dd8d48988d123941735","category":"Wine Bar","checkinsCount":136,"usersCount":69,"tipCount":8,"visitsCount":136,"tier":"","message":"","currency":"","rating":5.7},{"name":"JustGrapes | 葡醉","phone":"+862154046505","address":"162 Anfu Rd.","lat":31.216216749435706,"lng":121.44011333493602,"neighborhood":"Jìngān","city_fetched":"Shanghai,China","state":"上海市","country":"中国","canonicalUrl":"https://foursquare.com/v/justgrapes--%E8%91%A1%E9%86%89/4b6d0d03f964a520cd642ce3","categoryId":"4bf58dd8d48988d123941735","category":"Wine Bar","checkinsCount":323,"usersCount":191,"tipCount":5,"visitsCount":325,"tier":"","message":"","currency":"","rating":5.7},{"name":"Blarney Stone","address":"Yongkang Lu","lat":31.21278895853861,"lng":121.45335954152966,"neighborhood":"Xúhuì","city_fetched":"Shanghai,China","country":"中国","canonicalUrl":"https://foursquare.com/v/blarney-stone/5141c7b1e4b0dcb47e0bac68","categoryId":"4bf58dd8d48988d11b941735","category":"Pub","checkinsCount":812,"usersCount":392,"tipCount":6,"visitsCount":837,"tier":"","message":"","currency":"","rating":5.7},{"name":"Park Tavern","address":"840 Hengshan Rd","lat":31.198656433219405,"lng":121.43597288645869,"neighborhood":"Shànghǎi jiāotōng dàxué","city_fetched":"Shanghai,China","state":"上海市","country":"中国","canonicalUrl":"https://foursquare.com/v/park-tavern/4b5b2463f964a52024e628e3","categoryId":"4bf58dd8d48988d11b941735","category":"Pub","checkinsCount":879,"usersCount":452,"tipCount":15,"visitsCount":942,"tier":"","message":"","currency":"","rating":5.7},{"name":"Connoisseur's","phone":"+862154482822","address":"1F No. 1 South Wulumuqi Road - 乌鲁木齐南路甲1号1楼","lat":31.21020598573365,"lng":121.44318788469424,"neighborhood":"Xújiāhuì","city_fetched":"Shanghai,China","state":"上海市","country":"中国","canonicalUrl":"https://foursquare.com/v/connoisseurs/51d85b7c498ee73dc827b41b","categoryId":"4bf58dd8d48988d122941735","category":"Whisky Bar","checkinsCount":111,"usersCount":82,"tipCount":4,"visitsCount":111,"tier":"","message":"","currency":"","rating":5.7},{"name":"City Bull","address":"红梅休闲街","lat":31.19325904873405,"lng":121.3834064593289,"neighborhood":"Mǐnxíng qū","city_fetched":"Shanghai,China","state":"上海市","country":"中国","canonicalUrl":"https://foursquare.com/v/city-bull/4f49ef30e4b0962089073442","categoryId":"4bf58dd8d48988d11d941735","category":"Sports Bar","checkinsCount":364,"usersCount":177,"tipCount":11,"visitsCount":364,"tier":"","message":"","currency":"","rating":5.7},{"name":"S2","address":"淮海路1号 靠近柳林路","lat":31.226977388589862,"lng":121.47528999776988,"neighborhood":"Lǎo běi mén","city_fetched":"Shanghai,China","state":"上海市","country":"中国","canonicalUrl":"https://foursquare.com/v/s2/5194fa23498e46f02d2123af","categoryId":"4bf58dd8d48988d11f941735","category":"Nightclub","checkinsCount":335,"usersCount":198,"tipCount":4,"visitsCount":341,"tier":"","message":"","currency":"","rating":5.7},{"name":"C's","address":"685 Dingxi Rd.","lat":31.208708092865486,"lng":121.41929799026776,"neighborhood":"Zhǎngníng","city_fetched":"Shanghai,China","state":"上海市","country":"中国","canonicalUrl":"https://foursquare.com/v/cs/4b0588bef964a52042d722e3","categoryId":"4bf58dd8d48988d118941735","category":"Dive Bar","checkinsCount":592,"usersCount":372,"tipCount":13,"visitsCount":676,"tier":"","message":"","currency":"","rating":5.7},{"name":"Regal Jinfeng Hotel Shanghai","address":"318 Jingang Road","lat":31.25704495246331,"lng":121.60725840779322,"neighborhood":"Pǔdōng","city_fetched":"Shanghai,China","state":"上海市","country":"中国","canonicalUrl":"https://foursquare.com/v/regal-jinfeng-hotel-shanghai/4bdf0f917ea362b5214c43c4","categoryId":"4bf58dd8d48988d1d5941735","category":"Hotel Bar","checkinsCount":373,"usersCount":197,"tipCount":8,"visitsCount":497,"tier":"","message":"","currency":"","rating":5.6},{"name":"Logo","phone":"+862162162865","address":"Xinfu Lu 298","lat":31.209974698409738,"lng":121.42656425439627,"neighborhood":"Zhǎngníng","city_fetched":"Shanghai,China","country":"中国","canonicalUrl":"https://foursquare.com/v/logo/514096e6e4b0acc1f462ba09","categoryId":"4bf58dd8d48988d116941735","category":"Bar","checkinsCount":263,"usersCount":212,"tipCount":3,"visitsCount":356,"tier":"","message":"","currency":"","rating":5.6},{"name":"Haoledi 好乐迪量贩KTV","address":"Metro City 美罗城7F, 1111 Zhaojiabang Rd.","lat":31.19568756123809,"lng":121.43485125697161,"neighborhood":"Hù jiā huī","city_fetched":"Shanghai,China","state":"上海市","country":"中国","canonicalUrl":"https://foursquare.com/v/haoledi-%E5%A5%BD%E4%B9%90%E8%BF%AA%E9%87%8F%E8%B4%A9ktv/4bc7d2af8b7c9c741a4a37cf","categoryId":"4bf58dd8d48988d120941735","category":"Karaoke Bar","checkinsCount":184,"usersCount":148,"tipCount":2,"visitsCount":184,"tier":"","message":"","currency":"","rating":5.6},{"name":"Windows Too","address":"静安区南京西路1618号久光百货2层","lat":31.22518492249145,"lng":121.4421221244388,"neighborhood":"Jìngān","city_fetched":"Shanghai,China","state":"上海市","country":"中国","canonicalUrl":"https://foursquare.com/v/windows-too/4d2883dd77a2a1cde40363b7","categoryId":"4bf58dd8d48988d116941735","category":"Bar","checkinsCount":1960,"usersCount":899,"tipCount":32,"visitsCount":2073,"url":"http://www.windowsbars.com","tier":"","message":"","currency":"","rating":5.6},{"name":"1930 Xintiandi","lat":31.222212,"lng":121.470232,"neighborhood":"Xīntiāndì","city_fetched":"Shanghai,China","country":"中国","canonicalUrl":"https://foursquare.com/v/1930-xintiandi/4fa2ab2ae4b0b4fd558089a6","categoryId":"4bf58dd8d48988d121941735","category":"Lounge","checkinsCount":227,"usersCount":202,"tipCount":6,"visitsCount":227,"tier":"","message":"","currency":"","rating":5.6},{"name":"JW Cigar Lounge (40th) Floor","address":"399 Nanjing Road","lat":31.232338,"lng":121.465291,"neighborhood":"Rénmín Guǎngchǎng","city_fetched":"Shanghai,China","state":"上海市","country":"中国","canonicalUrl":"https://foursquare.com/v/jw-cigar-lounge-40th-floor/4d7756d8f2c054813d83a7a1","categoryId":"4bf58dd8d48988d121941735","category":"Lounge","checkinsCount":203,"usersCount":118,"tipCount":4,"visitsCount":203,"tier":"","message":"","currency":"","rating":5.6},{"name":"SOHO","address":"横山路","lat":31.208813011913303,"lng":121.4435505757334,"neighborhood":"Xújiāhuì","city_fetched":"Shanghai,China","state":"上海市","country":"中国","canonicalUrl":"https://foursquare.com/v/soho/4dbc454343a1d8504b86d084","categoryId":"4bf58dd8d48988d11f941735","category":"Nightclub","checkinsCount":187,"usersCount":147,"tipCount":7,"visitsCount":187,"tier":"","message":"","currency":"","rating":5.6},{"name":"Bar 505","address":"505 Nanjing Xi Lu","lat":31.23741706136491,"lng":121.47627177765054,"neighborhood":"Běixīn qiáo","city_fetched":"Shanghai,China","state":"上海市","country":"中国","canonicalUrl":"https://foursquare.com/v/bar-505/4b0588bdf964a520f5d622e3","categoryId":"4bf58dd8d48988d117941735","category":"Beer Garden","checkinsCount":94,"usersCount":51,"tipCount":1,"visitsCount":95,"tier":"","message":"","currency":"","rating":5.5},{"name":"Richbaby","address":"138 Huaihai Rd","lat":31.227177781593863,"lng":121.47293034485534,"neighborhood":"Rénmín Guǎngchǎng","city_fetched":"Shanghai,China","state":"上海市","country":"中国","canonicalUrl":"https://foursquare.com/v/richbaby/4c2f47cba0ced13a4732106e","categoryId":"4bf58dd8d48988d11f941735","category":"Nightclub","checkinsCount":713,"usersCount":429,"tipCount":6,"visitsCount":728,"tier":"","message":"","currency":"","rating":5.5},{"name":"FOSSETTE","phone":"+862164181138","address":"襄阳北路93号","lat":31.22062451751642,"lng":121.45064793123187,"neighborhood":"Jìngān","city_fetched":"Shanghai,China","state":"上海市","country":"中国","canonicalUrl":"https://foursquare.com/v/fossette/4d287551b818a35dac49958a","categoryId":"4bf58dd8d48988d123941735","category":"Wine Bar","checkinsCount":229,"usersCount":132,"tipCount":11,"visitsCount":229,"tier":"","message":"","currency":"","rating":5.5},{"name":"Patachon Café","phone":"+8615026931989","address":"426 Dagu Lu","lat":31.227336228891865,"lng":121.46066829730164,"neighborhood":"Jìngān","city_fetched":"Shanghai,China","state":"上海市","country":"中国","canonicalUrl":"https://foursquare.com/v/patachon-caf%C3%A9/51dbf6c6498ec9c6047cffdc","categoryId":"4bf58dd8d48988d123941735","category":"Wine Bar","checkinsCount":152,"usersCount":101,"tipCount":7,"visitsCount":152,"tier":"","message":"","currency":"","rating":5.5},{"name":"Bar Tazza D'oro","lat":31.237573215975146,"lng":121.47566932280674,"neighborhood":"Běixīn qiáo","city_fetched":"Shanghai,China","state":"上海市","country":"中国","canonicalUrl":"https://foursquare.com/v/bar-tazza-doro/4e324ce9e4cd6025018b306b","categoryId":"4bf58dd8d48988d116941735","category":"Bar","checkinsCount":248,"usersCount":225,"tipCount":7,"visitsCount":248,"tier":"","message":"","currency":"","rating":5.5},{"name":"Sliders","phone":"+862164330201","address":"45 Yongkang Rd","lat":31.212971,"lng":121.453846,"neighborhood":"Xúhuì","city_fetched":"Shanghai,China","state":"上海市","country":"中国","canonicalUrl":"https://foursquare.com/v/sliders/504dd7f9e4b05763eab8ab90","categoryId":"4bf58dd8d48988d116941735","category":"Bar","checkinsCount":1619,"usersCount":756,"tipCount":32,"visitsCount":1640,"tier":"","message":"","currency":"","rating":5.5},{"name":"CA Club","phone":"+8618516202988","address":"No.15, Lane 181, Taicang Rd.","lat":31.222650798149676,"lng":121.47032518728024,"neighborhood":"Xīntiāndì","city_fetched":"Shanghai,China","state":"上海市","country":"中国","canonicalUrl":"https://foursquare.com/v/ca-club/528cece811d209ef239fb44d","categoryId":"4bf58dd8d48988d11f941735","category":"Nightclub","checkinsCount":254,"usersCount":187,"tipCount":4,"visitsCount":260,"url":"http://ca-clubs.com/shanghai/","tier":"","message":"","currency":"","rating":5.5},{"name":"Mr Pitt Cocktail","phone":"+8615026931989","address":"600-10 N Shaanxi Rd","lat":31.234865563484245,"lng":121.44687054080113,"neighborhood":"Jìngān","city_fetched":"Shanghai,China","state":"上海市","country":"中国","canonicalUrl":"https://foursquare.com/v/mr-pitt-cocktail/527a47e5498ed06cb3b86666","categoryId":"4bf58dd8d48988d11e941735","category":"Cocktail Bar","checkinsCount":179,"usersCount":87,"tipCount":11,"visitsCount":196,"url":"http://www.misterpitt.com","tier":"","message":"","currency":"","rating":5.5},{"name":"Host","address":"794 Julu Road","lat":31.221612,"lng":121.445761,"neighborhood":"Jìngān","city_fetched":"Shanghai,China","state":"上海市","country":"中国","canonicalUrl":"https://foursquare.com/v/host/54c4ce3f498ed3371d4e8ded","categoryId":"4bf58dd8d48988d123941735","category":"Wine Bar","checkinsCount":60,"usersCount":62,"tipCount":5,"visitsCount":64,"tier":"","message":"","currency":"","rating":5.5},{"name":"muses cafe","address":"1st floor, building 4, lane 777 Cangping road","lat":31.2356060025275,"lng":121.43648626548057,"neighborhood":"Jìngān","city_fetched":"Shanghai,China","country":"中国","canonicalUrl":"https://foursquare.com/v/muses-cafe/4b5857def964a5209a5328e3","categoryId":"4bf58dd8d48988d11b941735","category":"Pub","checkinsCount":210,"usersCount":139,"tipCount":4,"visitsCount":256,"tier":"","message":"","currency":"","rating":5.5},{"name":"Kulou","phone":"+8613127536928","address":"222 Xiangyang South Road","lat":31.213906,"lng":121.452739,"neighborhood":"Xúhuì","city_fetched":"Shanghai,China","state":"上海市","country":"中国","canonicalUrl":"https://foursquare.com/v/kulou/54145dc6498edbe9411a547d","categoryId":"4bf58dd8d48988d116941735","category":"Bar","checkinsCount":187,"usersCount":241,"tipCount":5,"visitsCount":349,"url":"http://kuloubar.com","tier":"","message":"","currency":"","rating":5.4},{"name":"Xuan Bar (Andaz Hotel)","address":"88 Songshan Road","lat":31.223738435416845,"lng":121.47057622215901,"neighborhood":"Xīntiāndì","city_fetched":"Shanghai,China","state":"上海市","country":"中国","canonicalUrl":"https://foursquare.com/v/xuan-bar-andaz-hotel/52e12067498eba4b7b2ff1b0","categoryId":"4bf58dd8d48988d1d5941735","category":"Hotel Bar","checkinsCount":226,"usersCount":141,"tipCount":5,"visitsCount":230,"tier":"","message":"","currency":"","rating":5.4},{"name":"Haoledi 好乐迪量贩KTV","phone":"+862163115858","address":"淮海中路438号","lat":31.22393842407045,"lng":121.46649823231628,"neighborhood":"Jìngān","city_fetched":"Shanghai,China","state":"上海市","country":"中国","canonicalUrl":"https://foursquare.com/v/haoledi-%E5%A5%BD%E4%B9%90%E8%BF%AA%E9%87%8F%E8%B4%A9ktv/4d21cc4fb69c6dcba0627c95","categoryId":"4bf58dd8d48988d120941735","category":"Karaoke Bar","checkinsCount":377,"usersCount":345,"tipCount":6,"visitsCount":455,"url":"http://www.haoledi.com/index.php/shop/details/1","tier":"","message":"","currency":"","rating":5.4},{"name":"GRUB & GROOVE","phone":"+8618602127141","address":"283 W. Jianguo Rd.","lat":31.206734218175306,"lng":121.45537367997099,"neighborhood":"Xúhuì","city_fetched":"Shanghai,China","state":"上海市","country":"中国","canonicalUrl":"https://foursquare.com/v/grub--groove/4ea17fa077c8d0ce5d8787bc","categoryId":"4bf58dd8d48988d11b941735","category":"Pub","checkinsCount":654,"usersCount":156,"tipCount":43,"visitsCount":678,"tier":"","message":"","currency":"","rating":5.4},{"name":"Luna","phone":"+862163361717","address":"North Block, Xintiandi, Lane 169, 15 Taicang Rd.","lat":31.222941214988467,"lng":121.47009646613685,"neighborhood":"Xīntiāndì","city_fetched":"Shanghai,China","state":"上海市","country":"中国","canonicalUrl":"https://foursquare.com/v/%E7%92%90%E5%A8%9C--luna/4bfa778a5efe2d7f649a6d34","categoryId":"4bf58dd8d48988d11b941735","category":"Pub","checkinsCount":1499,"usersCount":1013,"tipCount":18,"visitsCount":1506,"tier":"","message":"","currency":"","rating":5.3},{"name":"Maya","phone":"+862164456366","address":"1333 Huai Hai Road","lat":31.213811386143572,"lng":121.44478929654537,"neighborhood":"Xúhuì","city_fetched":"Shanghai,China","state":"上海市","country":"中国","canonicalUrl":"https://foursquare.com/v/maya/4b0588bff964a52092d722e3","categoryId":"4bf58dd8d48988d11f941735","category":"Nightclub","checkinsCount":182,"usersCount":132,"tipCount":4,"visitsCount":184,"tier":"","message":"","currency":"","rating":5.3},{"name":"The Bund Brewery","address":"11 Hankou Rd.","lat":31.23873698756048,"lng":121.48470581449968,"neighborhood":"Wàitān","city_fetched":"Shanghai,China","state":"上海市","country":"中国","canonicalUrl":"https://foursquare.com/v/the-bund-brewery/4bacd666f964a52094103be3","categoryId":"50327c8591d4c4b30a586d5d","category":"Brewery","checkinsCount":310,"usersCount":267,"tipCount":14,"visitsCount":312,"tier":"","message":"","currency":"","rating":5.3},{"name":"The Room","phone":"+8613817888908","address":"No 1 Julu Rd. | 巨鹿路1号","lat":31.222819930441535,"lng":121.44958781935725,"neighborhood":"Xúhuì","city_fetched":"Shanghai,China","state":"上海市","country":"中国","canonicalUrl":"https://foursquare.com/v/the-room/4e21a1b4d22d0a3f59f9ae5c","categoryId":"4bf58dd8d48988d11f941735","category":"Nightclub","checkinsCount":561,"usersCount":205,"tipCount":1,"visitsCount":580,"tier":"","message":"","currency":"","rating":5.2},{"name":"鸟重 Torishige","address":"1959 West Nanjing Rd | 南京西路1959号","lat":31.22235059252671,"lng":121.43717820751282,"neighborhood":"Jìngān","city_fetched":"Shanghai,China","state":"上海市","country":"中国","canonicalUrl":"https://foursquare.com/v/%E9%B8%9F%E9%87%8D-torishige/4fd0bbd0e4b0cdb6e6940147","categoryId":"4bf58dd8d48988d11c941735","category":"Sake Bar","checkinsCount":82,"usersCount":85,"tipCount":2,"visitsCount":113,"tier":"","message":"","currency":"","rating":5.2},{"name":"Park 91 Pub","phone":"+862163272160","address":"静安区大沽路433号","lat":31.227509484229135,"lng":121.46123735656889,"neighborhood":"Jìngān","city_fetched":"Shanghai,China","country":"中国","canonicalUrl":"https://foursquare.com/v/park-91-pub/53d78332498e74a50d3b0196","categoryId":"4bf58dd8d48988d116941735","category":"Bar","checkinsCount":55,"usersCount":28,"tipCount":3,"visitsCount":60,"tier":"","message":"","currency":"","rating":5.2},{"name":"上海歌城 SHANGHAI GECHENG","phone":"+862151520000","address":"3-4/F, Joffre 688, 688 M Huaihai Rd","lat":31.221458458379512,"lng":121.46098630135583,"neighborhood":"Jìngān","city_fetched":"Shanghai,China","state":"上海市","country":"中国","canonicalUrl":"https://foursquare.com/v/%E4%B8%8A%E6%B5%B7%E6%AD%8C%E5%9F%8E-shanghai-gecheng/4d036c1c347da1cd1256258f","categoryId":"4bf58dd8d48988d120941735","category":"Karaoke Bar","checkinsCount":553,"usersCount":369,"tipCount":6,"visitsCount":570,"tier":"","message":"","currency":"","rating":5.2},{"name":"Tai Wine | 太红酒","phone":"+862164733001","address":"泰康路248弄田子坊38号","lat":31.210394,"lng":121.464069,"neighborhood":"Xīntiāndì","city_fetched":"Shanghai,China","state":"上海市","country":"中国","canonicalUrl":"https://foursquare.com/v/tai-wine--%E5%A4%AA%E7%BA%A2%E9%85%92/4ba37292f964a520c53d38e3","categoryId":"4bf58dd8d48988d123941735","category":"Wine Bar","checkinsCount":158,"usersCount":140,"tipCount":14,"visitsCount":158,"tier":"","message":"","currency":"","rating":5.2},{"name":"Charlie's Bar","address":"400 Pan Yu Road","lat":31.204512101572536,"lng":121.424493806229,"neighborhood":"Zhǎngníng","city_fetched":"Shanghai,China","state":"上海市","country":"中国","canonicalUrl":"https://foursquare.com/v/charlies-bar/4b0588bef964a52018d722e3","categoryId":"4bf58dd8d48988d1d5941735","category":"Hotel Bar","checkinsCount":137,"usersCount":63,"tipCount":6,"visitsCount":138,"tier":"","message":"","currency":"","rating":5.2},{"name":"Helen's Cafe","address":"49 Wuchuan Rd","lat":31.303341615751155,"lng":121.4899433080312,"neighborhood":"Yángpǔ","city_fetched":"Shanghai,China","state":"上海市","country":"中国","canonicalUrl":"https://foursquare.com/v/helens-cafe/4c9c5ff754c8a1cd4aa7794b","categoryId":"4bf58dd8d48988d116941735","category":"Bar","checkinsCount":879,"usersCount":364,"tipCount":17,"visitsCount":964,"tier":"","message":"","currency":"","rating":5.2},{"name":"Harley's Bar","address":"265 Nandan Dong Lu","lat":31.191037041734084,"lng":121.43375193791492,"neighborhood":"Xújiāhuì","city_fetched":"Shanghai,China","state":"上海市","country":"中国","canonicalUrl":"https://foursquare.com/v/harleys-bar/4b0588bef964a5200ed722e3","categoryId":"4bf58dd8d48988d116941735","category":"Bar","checkinsCount":333,"usersCount":146,"tipCount":6,"visitsCount":334,"tier":"","message":"","currency":"","rating":5.2},{"name":"Ci5 Cafe & Champagne Bar","phone":"+862164718060","address":"上海卢湾区淮海中路1797号(近宛平路)  ","lat":31.207078301864268,"lng":121.43531999897581,"neighborhood":"Shànghǎi jiāotōng dàxué","city_fetched":"Shanghai,China","state":"上海市","country":"中国","canonicalUrl":"https://foursquare.com/v/ci5-cafe--champagne-bar/4f75e07ee4b08da1d6e1718c","categoryId":"4bf58dd8d48988d116941735","category":"Bar","checkinsCount":125,"usersCount":56,"tipCount":5,"visitsCount":126,"tier":"","message":"","currency":"","rating":5.1},{"name":"Eddy's Bar","address":"1887 Central Huaihai Rd","lat":31.20550157693904,"lng":121.43321064499766,"neighborhood":"Shànghǎi jiāotōng dàxué","city_fetched":"Shanghai,China","state":"上海市","country":"中国","canonicalUrl":"https://foursquare.com/v/eddys-bar/4c7930882d3ba143063f8dd0","categoryId":"4bf58dd8d48988d1d8941735","category":"Gay Bar","checkinsCount":601,"usersCount":287,"tipCount":7,"visitsCount":644,"tier":"","message":"","currency":"","rating":5.1},{"name":"Radiance Hotel Shanghai","address":"465 Jinhui Road Minhang District","lat":31.180138877272487,"lng":121.36975025314344,"neighborhood":"Mǐnxíng qū","city_fetched":"Shanghai,China","state":"上海市","country":"中国","canonicalUrl":"https://foursquare.com/v/radiance-hotel-shanghai/4bd7ae74304fce72e6e133ab","categoryId":"4bf58dd8d48988d1d5941735","category":"Hotel Bar","checkinsCount":140,"usersCount":86,"tipCount":2,"visitsCount":149,"tier":"","message":"","currency":"","rating":5.1},{"name":"Ronchamp","address":"Yongkang Lu","lat":31.212826380197587,"lng":121.4534878671877,"neighborhood":"Xúhuì","city_fetched":"Shanghai,China","state":"上海市","country":"中国","canonicalUrl":"https://foursquare.com/v/ronchamp/522b17cb11d22df7303c29d1","categoryId":"4bf58dd8d48988d116941735","category":"Bar","checkinsCount":197,"usersCount":128,"tipCount":7,"visitsCount":200,"tier":"","message":"","currency":"","rating":5.1},{"name":"Diva","lat":31.21900295971061,"lng":121.4478414033127,"neighborhood":"Jìngān","city_fetched":"Shanghai,China","country":"中国","canonicalUrl":"https://foursquare.com/v/diva/53e23e69498e6c9539dc4803","categoryId":"4bf58dd8d48988d11f941735","category":"Nightclub","checkinsCount":237,"usersCount":127,"tipCount":6,"visitsCount":244,"tier":"","message":"","currency":"","rating":5},{"name":"Phebe 3D","phone":"+862165559998","address":"10 Hengshan Lu","lat":31.207279752984576,"lng":121.44239554031068,"neighborhood":"Xújiāhuì","city_fetched":"Shanghai,China","state":"上海市","country":"中国","canonicalUrl":"https://foursquare.com/v/phebe-3d/4d8e2d2bd4ec8cfa99966c89","categoryId":"4bf58dd8d48988d11f941735","category":"Nightclub","checkinsCount":622,"usersCount":423,"tipCount":14,"visitsCount":632,"tier":"","message":"","currency":"","rating":4.9},{"name":"Flanagan's","address":"899 Dongfang Road Lobby Level","lat":31.225160483759403,"lng":121.52398956182046,"neighborhood":"Pǔdōng","city_fetched":"Shanghai,China","state":"上海市","country":"中国","canonicalUrl":"https://foursquare.com/v/flanagans/4f86ce6ee4b0bdd47d1261cb","categoryId":"4bf58dd8d48988d11b941735","category":"Pub","checkinsCount":89,"usersCount":65,"tipCount":7,"visitsCount":89,"tier":"","message":"","currency":"","rating":4.7}]