[{"name":"T. A. P. - The Ale Project","phone":"+85224682010","address":"15 Hak Po Street","lat":22.317543379202778,"lng":114.1729902882876,"neighborhood":"旺角","city_fetched":"Shenzhen,China","state":"Kowloon","country":"香港","canonicalUrl":"https://foursquare.com/v/t-a-p--the-ale-project/54819bb2498e42756eb3fe49","categoryId":"4bf58dd8d48988d11b941735","category":"Pub","checkinsCount":712,"usersCount":450,"tipCount":31,"visitsCount":807,"tier":2,"message":"Moderate","currency":"$","rating":9},{"name":"Bitters & Sweets","phone":"+85227880103","address":"1/F, Somptueux Central, 52-54 Wellington St","lat":22.282030039065642,"lng":114.15524231128923,"neighborhood":"中西区","city_fetched":"Shenzhen,China","country":"香港","canonicalUrl":"https://foursquare.com/v/bitters--sweets/5683cfad498e543c94c085bc","categoryId":"4bf58dd8d48988d11e941735","category":"Cocktail Bar","checkinsCount":455,"usersCount":198,"tipCount":8,"visitsCount":510,"url":"http://www.bittersandsweets.hk","tier":"","message":"","currency":"","rating":8.8},{"name":"001","phone":"+85228106969","address":"Shop G1, LG/F, Welley Bldg, 97 Wellington St","lat":22.28349488504725,"lng":114.1542711853981,"neighborhood":"中区","city_fetched":"Shenzhen,China","state":"中西區","country":"香港","canonicalUrl":"https://foursquare.com/v/001/4cfde72fc51fa1cd7992f32b","categoryId":"4bf58dd8d48988d11e941735","category":"Cocktail Bar","checkinsCount":2027,"usersCount":1158,"tipCount":65,"visitsCount":2045,"tier":3,"message":"Expensive","currency":"$","rating":8.7},{"name":"Le Boudoir","phone":"+85225303870","address":"65 Wyndham St","lat":22.28141937217797,"lng":114.15483009926965,"neighborhood":"中西区","city_fetched":"Shenzhen,China","state":"中西區","country":"香港","canonicalUrl":"https://foursquare.com/v/le-boudoir/4cbbf2b2352ebfb722808ef2","categoryId":"4bf58dd8d48988d11e941735","category":"Cocktail Bar","checkinsCount":1104,"usersCount":683,"tipCount":25,"visitsCount":1112,"tier":"","message":"","currency":"","rating":8.7},{"name":"Stockton Hong Kong","phone":"+85225655268","address":"32 Wyndham St","lat":22.280139432309884,"lng":114.15553840701126,"neighborhood":"中西区","city_fetched":"Shenzhen,China","country":"香港","canonicalUrl":"https://foursquare.com/v/stockton-hong-kong/52b42ba9498ec4ece8c9cca3","categoryId":"4bf58dd8d48988d116941735","category":"Bar","checkinsCount":2147,"usersCount":1019,"tipCount":30,"visitsCount":2272,"url":"http://reservations@stockton.com.hk","tier":"","message":"","currency":"","rating":8.6},{"name":"Ozone","phone":"+85222632270","twitter":"ritzcarlton","address":"118/F, The Ritz-Carlton Hong Kong, 1 Austin Rd W","lat":22.304373541273197,"lng":114.16114568710327,"neighborhood":"西区海底隧道","city_fetched":"Shenzhen,China","country":"香港","canonicalUrl":"https://foursquare.com/v/ozone/4d98ba6ad7366a31290e0e0b","categoryId":"4bf58dd8d48988d1d5941735","category":"Hotel Bar","checkinsCount":9553,"usersCount":7556,"tipCount":194,"visitsCount":9734,"tier":4,"message":"Very Expensive","currency":"$","rating":8.6},{"name":"MO Bar","phone":"+85221320077","twitter":"mo_hotels","address":"G/F, The Landmark Mandarin Oriental Hotel, 15 Queen’s Rd C","lat":22.280712615361164,"lng":114.15754720807692,"neighborhood":"中西区","city_fetched":"Shenzhen,China","country":"香港","canonicalUrl":"https://foursquare.com/v/mo-bar/4b0588d0f964a52042db22e3","categoryId":"4bf58dd8d48988d1d5941735","category":"Hotel Bar","checkinsCount":2948,"usersCount":1441,"tipCount":37,"visitsCount":2973,"url":"http://www.mandarinoriental.com","tier":"","message":"","currency":"","rating":8.6},{"name":"Clipper Lounge","phone":"+85225220111","twitter":"mo_hotels","address":"Mandarin Oriental Hotel, 5 Connaught Rd","lat":22.282401404889807,"lng":114.15955600006416,"neighborhood":"中西区","city_fetched":"Shenzhen,China","state":"中西區","country":"香港","canonicalUrl":"https://foursquare.com/v/clipper-lounge/4b0588d9f964a520eedc22e3","categoryId":"4bf58dd8d48988d121941735","category":"Lounge","checkinsCount":1328,"usersCount":824,"tipCount":20,"visitsCount":1335,"url":"http://www.mandarinoriental.com","tier":"","message":"","currency":"","rating":8.5},{"name":"Foxglove","phone":"+85221168949","address":"2/F, Printing House, 6 Duddell St","lat":22.279945,"lng":114.157252,"neighborhood":"中西区","city_fetched":"Shenzhen,China","country":"香港","canonicalUrl":"https://foursquare.com/v/foxglove/563b4943cd10392ea00d5f31","categoryId":"4bf58dd8d48988d1d4941735","category":"Speakeasy","checkinsCount":555,"usersCount":553,"tipCount":22,"visitsCount":772,"tier":3,"message":"Expensive","currency":"$","rating":8.4},{"name":"The Globe","phone":"+85225431941","twitter":"theglobehk","address":"45-53A Graham St","lat":22.282372603794585,"lng":114.15307674246971,"city_fetched":"Shenzhen,China","country":"香港","canonicalUrl":"https://foursquare.com/v/the-globe/4b7e7cc4f964a52028ef2fe3","categoryId":"56aa371ce4b08b9a8d57356c","category":"Beer Bar","checkinsCount":6178,"usersCount":2844,"tipCount":124,"visitsCount":6539,"url":"http://www.theglobe.com.hk","tier":"","message":"","currency":"","rating":8.4},{"name":"Lobby Lounge","phone":"+85227211211","address":"Intercontinental Hong Kong, 18 Salisbury Rd","lat":22.2934,"lng":114.17403055555556,"neighborhood":"尖沙咀","city_fetched":"Shenzhen,China","state":"Kowloon","country":"香港","canonicalUrl":"https://foursquare.com/v/lobby-lounge/4db7bfb64b22f2ddb62d63a3","categoryId":"4bf58dd8d48988d121941735","category":"Lounge","checkinsCount":1466,"usersCount":848,"tipCount":27,"visitsCount":1467,"url":"http://www.hongkong-ic.intercontinental.com/dining/lobby_lounge.php","tier":"","message":"","currency":"","rating":8.3},{"name":"Kowloon taproom","phone":"+85228610355","address":"26 Ashley Road","lat":22.29735560337589,"lng":114.17056560516357,"neighborhood":"尖沙咀","city_fetched":"Shenzhen,China","country":"香港","canonicalUrl":"https://foursquare.com/v/kowloon-taproom/5659439f498eb87e0faf19b4","categoryId":"4bf58dd8d48988d11b941735","category":"Pub","checkinsCount":133,"usersCount":106,"tipCount":6,"visitsCount":140,"url":"http://www.kowloon-taproom.com","tier":"","message":"","currency":"","rating":8.3},{"name":"The Pawn","phone":"+85228663444","twitter":"thepawnhk","address":"1-3/F, 62 Johnston Rd","lat":22.27631208505294,"lng":114.17144536972046,"neighborhood":"中西区","city_fetched":"Shenzhen,China","state":"灣仔區","country":"香港","canonicalUrl":"https://foursquare.com/v/the-pawn/4b0e0a22f964a520445423e3","categoryId":"4bf58dd8d48988d11e941735","category":"Cocktail Bar","checkinsCount":6414,"usersCount":3663,"tipCount":123,"visitsCount":6703,"url":"http://www.thepawn.com.hk","tier":"","message":"","currency":"","rating":8.3},{"name":"Penny Black Jazz Cafe 黑邮票爵士咖啡","phone":"+8675586098585","address":"南山区华侨城创意园文昌街二期A5栋134号","lat":22.54283305745248,"lng":113.98784770407569,"city_fetched":"Shenzhen,China","state":"广东","country":"中国","canonicalUrl":"https://foursquare.com/v/penny-black-jazz-cafe-%E9%BB%91%E9%82%AE%E7%A5%A8%E7%88%B5%E5%A3%AB%E5%92%96%E5%95%A1/50003d99e4b0627ba0356d60","categoryId":"4bf58dd8d48988d116941735","category":"Bar","checkinsCount":223,"usersCount":160,"tipCount":11,"visitsCount":271,"tier":"","message":"","currency":"","rating":8.2},{"name":"Sevva","phone":"+85225371388","address":"25/F, Prince's Bldg, 10 Chater Rd","lat":22.281293423361177,"lng":114.15924668312073,"neighborhood":"中西区","city_fetched":"Shenzhen,China","state":"中西區","country":"香港","canonicalUrl":"https://foursquare.com/v/sevva/4b3cee31f964a520d48925e3","categoryId":"4bf58dd8d48988d121941735","category":"Lounge","checkinsCount":7177,"usersCount":4110,"tipCount":153,"visitsCount":7291,"url":"http://www.sevva.hk","tier":"","message":"","currency":"","rating":8.1},{"name":"Caprice Bar","phone":"+85231968888","address":"6/F, Four Seasons Hong Kong, 8 Finance St","lat":22.286969018782607,"lng":114.15697243644453,"neighborhood":"中西区","city_fetched":"Shenzhen,China","state":"中西區","country":"香港","canonicalUrl":"https://foursquare.com/v/caprice-bar/5142ffc0e4b0654d30180d58","categoryId":"4bf58dd8d48988d123941735","category":"Wine Bar","checkinsCount":124,"usersCount":81,"tipCount":3,"visitsCount":124,"url":"http://www.fourseasons.com/hongkong/dining/lounges/caprice_bar","tier":"","message":"","currency":"","rating":8.1},{"name":"Evening Show","address":"福田区福华三路皇岗商务中心2号楼4-5层","lat":22.533798232910815,"lng":114.05934931338638,"city_fetched":"Shenzhen,China","state":"广东","country":"中国","canonicalUrl":"https://foursquare.com/v/evening-show/4ea288c1b6347b9967d426b4","categoryId":"4bf58dd8d48988d11f941735","category":"Nightclub","checkinsCount":821,"usersCount":357,"tipCount":9,"visitsCount":1153,"tier":"","message":"","currency":"","rating":8},{"name":"George & Dragon Pub","address":"南山区蛇口海上世界太子路太子宾馆一楼后排3号商铺","lat":22.48665297583397,"lng":113.90895235055542,"city_fetched":"Shenzhen,China","state":"广东","country":"中国","canonicalUrl":"https://foursquare.com/v/george--dragon-pub/4f9f5059e4b0aa95f91e84ef","categoryId":"4bf58dd8d48988d11b941735","category":"Pub","checkinsCount":1241,"usersCount":186,"tipCount":20,"visitsCount":1359,"tier":"","message":"","currency":"","rating":7.9},{"name":"The Tavern","phone":"+8675526691939","address":"B306 No 20-24 Sea World","lat":22.485234740487382,"lng":113.91116552124706,"city_fetched":"Shenzhen,China","state":"广东","country":"中国","canonicalUrl":"https://foursquare.com/v/the-tavern/4e1af1c1b0fba1b4448d58e7","categoryId":"4bf58dd8d48988d116941735","category":"Bar","checkinsCount":1854,"usersCount":247,"tipCount":16,"visitsCount":1963,"url":"http://www.tavernchina.com","tier":"","message":"","currency":"","rating":7.9},{"name":"ThePontiac","phone":"+85225212033","twitter":"wearethepontiac","address":"13 Old Bailey Street","lat":22.281574541377577,"lng":114.15379085882118,"neighborhood":"中西区","city_fetched":"Shenzhen,China","country":"香港","canonicalUrl":"https://foursquare.com/v/thepontiac/555328d3498efed437e45886","categoryId":"4bf58dd8d48988d11e941735","category":"Cocktail Bar","checkinsCount":222,"usersCount":139,"tipCount":6,"visitsCount":226,"tier":"","message":"","currency":"","rating":7.9},{"name":"King's Belly","lat":22.447382,"lng":114.168889,"neighborhood":"大埔","city_fetched":"Shenzhen,China","country":"香港","canonicalUrl":"https://foursquare.com/v/kings-belly/4c12389577cea593b298cc60","categoryId":"4bf58dd8d48988d11b941735","category":"Pub","checkinsCount":291,"usersCount":138,"tipCount":12,"visitsCount":345,"tier":"","message":"","currency":"","rating":7.9},{"name":"Sense99","phone":"+85294664695","address":"2/F, 99 Wellington St","lat":22.28405425117821,"lng":114.15399986826831,"neighborhood":"中区","city_fetched":"Shenzhen,China","country":"香港","canonicalUrl":"https://foursquare.com/v/sense99/51d83240498ea1a3fada5c7a","categoryId":"4bf58dd8d48988d116941735","category":"Bar","checkinsCount":216,"usersCount":150,"tipCount":7,"visitsCount":218,"url":"http://www.sense99.com","tier":"","message":"","currency":"","rating":7.9},{"name":"Oyster & Wine Bar 蠔酒吧","phone":"+85223691111","twitter":"spg","address":"18/F, Sheraton Hong Kong Hotel & Towers, 20 Nathan Rd","lat":22.29479481136133,"lng":114.17325734433452,"neighborhood":"尖沙咀","city_fetched":"Shenzhen,China","state":"Kowloon City","country":"香港","canonicalUrl":"https://foursquare.com/v/oyster--wine-bar-%E8%A0%94%E9%85%92%E5%90%A7/4c4b0163959220a1d0b5f00e","categoryId":"4bf58dd8d48988d123941735","category":"Wine Bar","checkinsCount":1360,"usersCount":602,"tipCount":17,"visitsCount":1361,"url":"http://www.spg.com/foursquare/","tier":"","message":"","currency":"","rating":7.8},{"name":"OZU","address":"Shop 6, 1-13 Hollywood Rd","lat":22.28189732478481,"lng":114.15421468343118,"neighborhood":"中区","city_fetched":"Shenzhen,China","country":"香港","canonicalUrl":"https://foursquare.com/v/ozu/52ff6780498e2a3d2c068cd4","categoryId":"4bf58dd8d48988d11c941735","category":"Sake Bar","checkinsCount":543,"usersCount":340,"tipCount":14,"visitsCount":557,"tier":"","message":"","currency":"","rating":7.8},{"name":"The Envoy","address":"3/F, The Pottinger Hong Kong, 74 Queen's Rd C","lat":22.283162531854245,"lng":114.15540487367082,"neighborhood":"中区","city_fetched":"Shenzhen,China","state":"中西區","country":"香港","canonicalUrl":"https://foursquare.com/v/the-envoy/537c8948498e3e9c9b80a348","categoryId":"4bf58dd8d48988d11e941735","category":"Cocktail Bar","checkinsCount":992,"usersCount":638,"tipCount":27,"visitsCount":1066,"tier":"","message":"","currency":"","rating":7.8},{"name":"露台 The Terrace","phone":"+8675526829105","address":"广东省深圳市南山区太子路海上世界广场二楼","lat":22.486736496456423,"lng":113.91086346179158,"neighborhood":"Shekou","city_fetched":"Shenzhen,China","state":"广东","country":"中国","canonicalUrl":"https://foursquare.com/v/%E9%9C%B2%E5%8F%B0-the-terrace/4bbf3cf3b083a593020ca3e9","categoryId":"4bf58dd8d48988d116941735","category":"Bar","checkinsCount":1787,"usersCount":603,"tipCount":50,"visitsCount":1829,"tier":"","message":"","currency":"","rating":7.7},{"name":"Taps Brewpub 啤酒屋","phone":"+8675532851501","address":"Shop 136, Branch 5th Rd, Junhui Xintian Garden (behind AllCity north)","lat":22.505279890839674,"lng":113.93403436706035,"neighborhood":"Haiyue, Nanshan","city_fetched":"Shenzhen,China","state":"广东","country":"中国","canonicalUrl":"https://foursquare.com/v/taps-brewpub-%E5%95%A4%E9%85%92%E5%B1%8B/55b8d591498e9eb47eb2037e","categoryId":"50327c8591d4c4b30a586d5d","category":"Brewery","checkinsCount":65,"usersCount":97,"tipCount":9,"visitsCount":160,"tier":"","message":"","currency":"","rating":7.7},{"name":"La Maison","address":"Wan hai lu","lat":22.487704585319545,"lng":113.91605653506211,"city_fetched":"Shenzhen,China","state":"广东","country":"中国","canonicalUrl":"https://foursquare.com/v/la-maison/4ff6d986e4b0e8d00d5e5833","categoryId":"4bf58dd8d48988d116941735","category":"Bar","checkinsCount":186,"usersCount":74,"tipCount":13,"visitsCount":200,"tier":"","message":"","currency":"","rating":7.7},{"name":"Jaa Bar","phone":"+85228158887","address":"1 Pak Tsz Ln.","lat":22.283373271946537,"lng":114.15307223796844,"neighborhood":"中区","city_fetched":"Shenzhen,China","state":"中西區","country":"香港","canonicalUrl":"https://foursquare.com/v/jaa-bar/4d9c5ad15c33a35df6b9e7a0","categoryId":"4bf58dd8d48988d1d4941735","category":"Speakeasy","checkinsCount":393,"usersCount":229,"tipCount":14,"visitsCount":398,"tier":"","message":"","currency":"","rating":7.7},{"name":"frankie's","lat":22.511548302619524,"lng":114.04238667294275,"city_fetched":"Shenzhen,China","country":"中国","canonicalUrl":"https://foursquare.com/v/frankies/4ff42c3ae4b024f558a8884a","categoryId":"4bf58dd8d48988d116941735","category":"Bar","checkinsCount":258,"usersCount":194,"tipCount":16,"visitsCount":542,"tier":"","message":"","currency":"","rating":7.7},{"name":"何蘭正","address":"G/F, 65-65A Peel St","lat":22.28221968772442,"lng":114.15236843081085,"neighborhood":"中西区","city_fetched":"Shenzhen,China","state":"中西區","country":"香港","canonicalUrl":"https://foursquare.com/v/%E4%BD%95%E8%98%AD%E6%AD%A3/56d2d8a6498ec38d45fab245","categoryId":"4bf58dd8d48988d1d4941735","category":"Speakeasy","checkinsCount":209,"usersCount":169,"tipCount":9,"visitsCount":215,"tier":"","message":"","currency":"","rating":7.6},{"name":"纯K TAIPEI","phone":"+8675588315688","address":"深南大道6013号中国有色大厦","lat":22.538368687284247,"lng":114.02182858801912,"city_fetched":"Shenzhen,China","state":"广东","country":"中国","canonicalUrl":"https://foursquare.com/v/%E7%BA%AFk-taipei/54097fe0498e50d72d634077","categoryId":"4bf58dd8d48988d120941735","category":"Karaoke Bar","checkinsCount":96,"usersCount":113,"tipCount":1,"visitsCount":205,"tier":"","message":"","currency":"","rating":7.6},{"name":"Craft Head 卡芙特","phone":"+8613662292253","address":"福田区皇岗公园一街与水围八街交界处161栋西面商铺","lat":22.52229990705651,"lng":114.05674195028462,"neighborhood":"Huang Gang Gong Yuan 1st Street","city_fetched":"Shenzhen,China","state":"广东","country":"中国","canonicalUrl":"https://foursquare.com/v/craft-head-%E5%8D%A1%E8%8A%99%E7%89%B9/55116c93498e7a0677b51672","categoryId":"4bf58dd8d48988d116941735","category":"Bar","checkinsCount":44,"usersCount":52,"tipCount":3,"visitsCount":137,"url":"http://www.shenzhenparty.com/places/pub/craft-head-brewery","tier":"","message":"","currency":"","rating":7.6},{"name":"Ned Kelly's Last Stand","phone":"+85223760562","address":"11A Ashley Rd","lat":22.296874,"lng":114.170555,"neighborhood":"尖沙咀","city_fetched":"Shenzhen,China","state":"Kowloon City","country":"香港","canonicalUrl":"https://foursquare.com/v/ned-kellys-last-stand/4b0588cdf964a520c6da22e3","categoryId":"4bf58dd8d48988d11b941735","category":"Pub","checkinsCount":1252,"usersCount":878,"tipCount":39,"visitsCount":1282,"tier":"","message":"","currency":"","rating":7.6},{"name":"Salon No. 10","phone":"+85228016768","address":"10 Arbuthnot Rd","lat":22.280119461690806,"lng":114.15442949849034,"neighborhood":"中西区","city_fetched":"Shenzhen,China","state":"中西區","country":"香港","canonicalUrl":"https://foursquare.com/v/salon-no-10/4d1f328e2eb1f04d7983e6c1","categoryId":"4bf58dd8d48988d116941735","category":"Bar","checkinsCount":510,"usersCount":366,"tipCount":19,"visitsCount":522,"tier":3,"message":"Expensive","currency":"$","rating":7.6},{"name":"Yu Club","phone":"+85228681833","address":"13/F, Luk Yu Bldg, 24-26 Stanley St","lat":22.282425863985303,"lng":114.15552679541803,"neighborhood":"中区","city_fetched":"Shenzhen,China","state":"中西區","country":"香港","canonicalUrl":"https://foursquare.com/v/yu-club/4b0d0472f964a5203c4323e3","categoryId":"4bf58dd8d48988d116941735","category":"Bar","checkinsCount":1021,"usersCount":445,"tipCount":11,"visitsCount":1030,"tier":"","message":"","currency":"","rating":7.6},{"name":"Volume: BEAT","phone":"+85228577683","address":"62 Jervois St","lat":22.285139928401993,"lng":114.15174139987779,"neighborhood":"中西区","city_fetched":"Shenzhen,China","country":"香港","canonicalUrl":"https://foursquare.com/v/volume-beat/4eb52c99823131626f1f36f9","categoryId":"4bf58dd8d48988d1d8941735","category":"Gay Bar","checkinsCount":1121,"usersCount":483,"tipCount":7,"visitsCount":1164,"tier":"","message":"","currency":"","rating":7.6},{"name":"Graffiti","address":"Lan Kwai Fong","lat":22.280858015092385,"lng":114.15549196063652,"neighborhood":"中西区","city_fetched":"Shenzhen,China","state":"中西區","country":"香港","canonicalUrl":"https://foursquare.com/v/graffiti/4dbdae17a86e0e98a200c304","categoryId":"4bf58dd8d48988d116941735","category":"Bar","checkinsCount":1121,"usersCount":869,"tipCount":17,"visitsCount":1126,"tier":"","message":"","currency":"","rating":7.6},{"name":"苏河吧 Soho Bar","address":"嘉宾路2030号","lat":22.542883932748488,"lng":114.11531403957127,"city_fetched":"Shenzhen,China","state":"广东","country":"中国","canonicalUrl":"https://foursquare.com/v/%E8%8B%8F%E6%B2%B3%E5%90%A7-soho-bar/4d2f1847b97cb1f7402a9548","categoryId":"4bf58dd8d48988d116941735","category":"Bar","checkinsCount":561,"usersCount":300,"tipCount":13,"visitsCount":569,"tier":"","message":"","currency":"","rating":7.6},{"name":"Westin Shezhen Club Lounge","lat":22.54026648163654,"lng":113.97132390394746,"city_fetched":"Shenzhen,China","state":"广东","country":"中国","canonicalUrl":"https://foursquare.com/v/westin-shezhen-club-lounge/4e9d79dcb6348df6f7243295","categoryId":"4bf58dd8d48988d121941735","category":"Lounge","checkinsCount":374,"usersCount":106,"tipCount":4,"visitsCount":379,"tier":"","message":"","currency":"","rating":7.5},{"name":"Lobby Lounge","address":"深圳香格里拉大酒店 Shangri-La Hotel, Shenzhen","lat":22.536107871200016,"lng":114.11296828125292,"city_fetched":"Shenzhen,China","state":"广东","country":"中国","canonicalUrl":"https://foursquare.com/v/lobby-lounge/521b00af11d265d40ef00ac1","categoryId":"4bf58dd8d48988d121941735","category":"Lounge","checkinsCount":82,"usersCount":66,"tipCount":2,"visitsCount":82,"tier":"","message":"","currency":"","rating":7.5},{"name":"Delaney's","phone":"+85223013980","address":"Mary Bldg, 71-77 Peking Rd","lat":22.29660779883141,"lng":114.17171306148349,"neighborhood":"尖沙咀","city_fetched":"Shenzhen,China","state":"Kowloon City","country":"香港","canonicalUrl":"https://foursquare.com/v/delaneys/4b9a5827f964a520acad35e3","categoryId":"4bf58dd8d48988d11b941735","category":"Pub","checkinsCount":1709,"usersCount":1044,"tipCount":26,"visitsCount":1762,"url":"http://www.delaneys.com.hk","tier":"","message":"","currency":"","rating":7.5},{"name":"CJW Cigar Jazz Wine","address":"OCT Harbour","lat":22.526303156395272,"lng":113.98629698862973,"city_fetched":"Shenzhen,China","state":"广东","country":"中国","canonicalUrl":"https://foursquare.com/v/cjw-cigar-jazz-wine/50a63c0ee4b052420c748ce3","categoryId":"4bf58dd8d48988d123941735","category":"Wine Bar","checkinsCount":98,"usersCount":56,"tipCount":0,"visitsCount":100,"tier":"","message":"","currency":"","rating":7.5},{"name":"Sicilia Bar","lat":22.538368443799662,"lng":114.04815903442733,"city_fetched":"Shenzhen,China","country":"中国","canonicalUrl":"https://foursquare.com/v/sicilia-bar/545f79e0498efbaf784c1de5","categoryId":"4bf58dd8d48988d11e941735","category":"Cocktail Bar","checkinsCount":188,"usersCount":89,"tipCount":6,"visitsCount":224,"tier":"","message":"","currency":"","rating":7.5},{"name":"Dada Bar + Lounge","phone":"+85237638778","twitter":"dadalounge","address":"2/F, The Luxe Manor, 39 Kimberley Rd","lat":22.300718849946733,"lng":114.1740991503824,"neighborhood":"尖沙咀","city_fetched":"Shenzhen,China","state":"Kowloon City","country":"香港","canonicalUrl":"https://foursquare.com/v/dada-bar--lounge/4bc5d14b5935c9b61765a6d2","categoryId":"4bf58dd8d48988d121941735","category":"Lounge","checkinsCount":499,"usersCount":321,"tipCount":9,"visitsCount":499,"url":"http://www.dadalounge.com.hk","tier":"","message":"","currency":"","rating":7.4},{"name":"Honi Honi Tiki Cocktail Lounge","phone":"+85223530885","address":"3/F, Somptueux Central, 52 Wellington St","lat":22.28166401918546,"lng":114.15517844748021,"neighborhood":"中西区","city_fetched":"Shenzhen,China","state":"中西區","country":"香港","canonicalUrl":"https://foursquare.com/v/honi-honi-tiki-cocktail-lounge/50a0d6b4e4b0b72b9a59b4f9","categoryId":"4bf58dd8d48988d11e941735","category":"Cocktail Bar","checkinsCount":1952,"usersCount":1236,"tipCount":46,"visitsCount":1993,"tier":"","message":"","currency":"","rating":7.3},{"name":"Mahalo","phone":"+85224888750","address":"29/F, QRE Plaza, 202 Queen's Rd E","lat":22.274806663558532,"lng":114.17200914620764,"neighborhood":"跑马地","city_fetched":"Shenzhen,China","country":"香港","canonicalUrl":"https://foursquare.com/v/mahalo/556851be498e10d4ea3dc901","categoryId":"4bf58dd8d48988d11e941735","category":"Cocktail Bar","checkinsCount":322,"usersCount":260,"tipCount":8,"visitsCount":333,"tier":"","message":"","currency":"","rating":7.3},{"name":"Bao Bei","address":"75-77 Wyndham Street","lat":22.281872352098475,"lng":114.15482429346382,"neighborhood":"中西区","city_fetched":"Shenzhen,China","country":"香港","canonicalUrl":"https://foursquare.com/v/bao-bei/55f949cc498ea31e31d8bb76","categoryId":"4bf58dd8d48988d121941735","category":"Lounge","checkinsCount":486,"usersCount":213,"tipCount":4,"visitsCount":544,"tier":"","message":"","currency":"","rating":7.2},{"name":"Joe Bananas","address":"23 Luard Road","lat":22.27877907879732,"lng":114.17163178328921,"neighborhood":"中西区","city_fetched":"Shenzhen,China","country":"香港","canonicalUrl":"https://foursquare.com/v/joe-bananas/53ee2a69498ed8855a0570f8","categoryId":"4bf58dd8d48988d116941735","category":"Bar","checkinsCount":476,"usersCount":251,"tipCount":7,"visitsCount":510,"tier":"","message":"","currency":"","rating":7.2},{"name":"Cheers","lat":22.488220362395435,"lng":113.92113337909919,"city_fetched":"Shenzhen,China","country":"中国","canonicalUrl":"https://foursquare.com/v/cheers/4bf3db28e5eba59348ed1e90","categoryId":"4bf58dd8d48988d116941735","category":"Bar","checkinsCount":432,"usersCount":107,"tipCount":4,"visitsCount":464,"tier":"","message":"","currency":"","rating":7.2},{"name":"BionicBrew","twitter":"bionicbrew","address":"沙河街商业步行街","lat":22.54862920170449,"lng":113.96444320678711,"city_fetched":"Shenzhen,China","state":"广东","country":"中国","canonicalUrl":"https://foursquare.com/v/bionicbrew/5331966f498eb0907197c6f6","categoryId":"50327c8591d4c4b30a586d5d","category":"Brewery","checkinsCount":87,"usersCount":73,"tipCount":20,"visitsCount":119,"url":"http://bionicbrew.com","tier":"","message":"","currency":"","rating":7.2},{"name":"O! Garden","address":"民田路购物公园3楼","lat":22.538240722072754,"lng":114.04824033478131,"neighborhood":"福田区","city_fetched":"Shenzhen,China","state":"广东","country":"中国","canonicalUrl":"https://foursquare.com/v/o-garden/4e690685b0fb8e94c80c7ff2","categoryId":"4bf58dd8d48988d121941735","category":"Lounge","checkinsCount":393,"usersCount":202,"tipCount":9,"visitsCount":406,"tier":"","message":"","currency":"","rating":7.2},{"name":"Tazmania Ballroom","phone":"+85228015009","address":"1/F, LKF Tower, 33 Wyndham St","lat":22.28058766690119,"lng":114.15505071983466,"neighborhood":"中西区","city_fetched":"Shenzhen,China","state":"中西區","country":"香港","canonicalUrl":"https://foursquare.com/v/tazmania-ballroom/4b967e75f964a520d9cf34e3","categoryId":"4bf58dd8d48988d121941735","category":"Lounge","checkinsCount":7514,"usersCount":2356,"tipCount":31,"visitsCount":7707,"url":"http://www.tazmaniaballroom.com","tier":"","message":"","currency":"","rating":7.1},{"name":"Carnegies","phone":"+85228666289","address":"55 Lockhart Rd","lat":22.278216685992376,"lng":114.17082480612115,"neighborhood":"中西区","city_fetched":"Shenzhen,China","country":"香港","canonicalUrl":"https://foursquare.com/v/carnegies/4b0588d0f964a52033db22e3","categoryId":"4bf58dd8d48988d118941735","category":"Dive Bar","checkinsCount":2153,"usersCount":1127,"tipCount":26,"visitsCount":2171,"tier":"","message":"","currency":"","rating":7.1},{"name":"Devil's Advocate","phone":"+85228657271","address":"48-50 Lockhart Rd","lat":22.2782678038403,"lng":114.17057516540397,"neighborhood":"中西区","city_fetched":"Shenzhen,China","state":"灣仔區","country":"香港","canonicalUrl":"https://foursquare.com/v/devils-advocate/4b0588ccf964a5209cda22e3","categoryId":"4bf58dd8d48988d11b941735","category":"Pub","checkinsCount":804,"usersCount":529,"tipCount":7,"visitsCount":815,"tier":"","message":"","currency":"","rating":7.1},{"name":"Zoo Bar","address":"33 Jervois St","lat":22.28517153332701,"lng":114.15189235184975,"neighborhood":"中西区","city_fetched":"Shenzhen,China","country":"香港","canonicalUrl":"https://foursquare.com/v/zoo-bar/4b72bd26f964a52039862de3","categoryId":"4bf58dd8d48988d1d8941735","category":"Gay Bar","checkinsCount":1092,"usersCount":549,"tipCount":6,"visitsCount":1140,"tier":"","message":"","currency":"","rating":7.1},{"name":"Laffa","address":"Kangle Road 1, G/F, Shekou, Nanshan District","lat":22.490161560406882,"lng":113.91436036951383,"city_fetched":"Shenzhen,China","state":"广东","country":"中国","canonicalUrl":"https://foursquare.com/v/laffa/54ba6219498e8e0eafbf5f40","categoryId":"4bf58dd8d48988d116941735","category":"Bar","checkinsCount":318,"usersCount":85,"tipCount":1,"visitsCount":432,"tier":"","message":"","currency":"","rating":7.1},{"name":"Club L","phone":"+85235523361","address":"36/F, Cordis, Hong Kong, 555 Shanghai St","lat":22.317979357338228,"lng":114.16827614194364,"city_fetched":"Shenzhen,China","country":"香港","canonicalUrl":"https://foursquare.com/v/club-l/4d821d1cd95df04d5c2750bc","categoryId":"4bf58dd8d48988d121941735","category":"Lounge","checkinsCount":358,"usersCount":173,"tipCount":13,"visitsCount":358,"tier":"","message":"","currency":"","rating":7.1},{"name":"阿罗哈海滩俱乐部 Aloha Beach Club","lat":22.588975003566528,"lng":114.50434117578124,"city_fetched":"Shenzhen,China","state":"广东","country":"中国","canonicalUrl":"https://foursquare.com/v/%E9%98%BF%E7%BD%97%E5%93%88%E6%B5%B7%E6%BB%A9%E4%BF%B1%E4%B9%90%E9%83%A8-aloha-beach-club/4e61bd36d22d509a39538942","categoryId":"4bf58dd8d48988d116941735","category":"Bar","checkinsCount":191,"usersCount":109,"tipCount":2,"visitsCount":201,"tier":"","message":"","currency":"","rating":7.1},{"name":"McCawley's Irish Pubs","phone":"+8675526684496","address":"Shop No.118, Seaworld, Shekou","lat":22.48649644638276,"lng":113.90997470885692,"city_fetched":"Shenzhen,China","state":"广东","country":"中国","canonicalUrl":"https://foursquare.com/v/mccawleys-irish-pubs/4d6f7e567e16a35d7d8394f9","categoryId":"4bf58dd8d48988d11b941735","category":"Pub","checkinsCount":2233,"usersCount":484,"tipCount":32,"visitsCount":2377,"url":"http://www.mccawleys.com/sk/index.html","tier":"","message":"","currency":"","rating":7.1},{"name":"Jazz Garden 爵士花园","lat":22.5385836656385,"lng":113.96774028396811,"city_fetched":"Shenzhen,China","state":"广东","country":"中国","canonicalUrl":"https://foursquare.com/v/jazz-garden-%E7%88%B5%E5%A3%AB%E8%8A%B1%E5%9B%AD/4e11d3a4fa769d21e9f01d7d","categoryId":"4bf58dd8d48988d117941735","category":"Beer Garden","checkinsCount":68,"usersCount":52,"tipCount":0,"visitsCount":69,"tier":"","message":"","currency":"","rating":7},{"name":"The Snake Pit","phone":"+8675536823229","twitter":"snakepitshekou","address":"Shop 20, Nanhai Rose Garden 2, Shekou","lat":22.488501123442123,"lng":113.91761328458635,"city_fetched":"Shenzhen,China","state":"广东","country":"中国","canonicalUrl":"https://foursquare.com/snakepitshekou","categoryId":"4bf58dd8d48988d11b941735","category":"Pub","checkinsCount":3125,"usersCount":194,"tipCount":68,"visitsCount":3294,"url":"http://the-snakepit.com","tier":"","message":"","currency":"","rating":6.9},{"name":"Club Viva","address":"深圳市福田区福华路购物公园140号","lat":22.53833867076428,"lng":114.04862701892853,"city_fetched":"Shenzhen,China","state":"广东","country":"中国","canonicalUrl":"https://foursquare.com/v/club-viva/4b59d29cf964a5203a9a28e3","categoryId":"4bf58dd8d48988d11f941735","category":"Nightclub","checkinsCount":1123,"usersCount":616,"tipCount":23,"visitsCount":1196,"tier":"","message":"","currency":"","rating":6.9},{"name":"The Sky Bar","phone":"+85235144448","address":"Shop 1, 13/F, Langham Place, 8 Argyle St","lat":22.317792772131114,"lng":114.16885089892864,"city_fetched":"Shenzhen,China","country":"香港","canonicalUrl":"https://foursquare.com/v/the-sky-bar/4b05f98bf964a520c5e622e3","categoryId":"4bf58dd8d48988d116941735","category":"Bar","checkinsCount":782,"usersCount":578,"tipCount":8,"visitsCount":789,"tier":"","message":"","currency":"","rating":6.9},{"name":"Lili Marleen","phone":"+8675582950548","lat":22.537814193785017,"lng":114.04804289103981,"city_fetched":"Shenzhen,China","state":"广东","country":"中国","canonicalUrl":"https://foursquare.com/v/lili-marleen/4f60cd4ae4b071906c852928","categoryId":"4bf58dd8d48988d11f941735","category":"Nightclub","checkinsCount":142,"usersCount":106,"tipCount":4,"visitsCount":143,"tier":"","message":"","currency":"","rating":6.9},{"name":"Bar Q88","phone":"+85228108366","address":"JW Marriott Hotel Hong Kong, 88 Queensway","lat":22.278009841972008,"lng":114.16686537163484,"neighborhood":"中西区","city_fetched":"Shenzhen,China","state":"中西區","country":"香港","canonicalUrl":"https://foursquare.com/v/bar-q88/4c12627f77cea59394e9cc60","categoryId":"4bf58dd8d48988d1d5941735","category":"Hotel Bar","checkinsCount":531,"usersCount":292,"tipCount":11,"visitsCount":547,"tier":"","message":"","currency":"","rating":6.9},{"name":"Jordan's Bar","address":"Shop 55","lat":22.488350501576097,"lng":113.92070934265051,"city_fetched":"Shenzhen,China","state":"广东","country":"中国","canonicalUrl":"https://foursquare.com/v/jordans-bar/4bf39d30e5eba59324ba1e90","categoryId":"4bf58dd8d48988d116941735","category":"Bar","checkinsCount":667,"usersCount":121,"tipCount":8,"visitsCount":719,"tier":"","message":"","currency":"","rating":6.9},{"name":"The Penthouse","phone":"+8675522187338","address":"38/F, Grand Hyatt Shenzhen, 1881 Baoan Nan Rd, Luohu District","lat":22.540138088519853,"lng":114.10608770715405,"city_fetched":"Shenzhen,China","state":"广东","country":"中国","canonicalUrl":"https://foursquare.com/v/the-penthouse/4d822294d95df04d0a9b50bc","categoryId":"4bf58dd8d48988d1d5941735","category":"Hotel Bar","checkinsCount":622,"usersCount":324,"tipCount":10,"visitsCount":650,"url":"http://shenzhen.grand.hyatt.com/en/hotel/dining/ThePenthouse.html","tier":"","message":"","currency":"","rating":6.9},{"name":"Pepper Club","phone":"+8615994846891","address":"福田区民田路购物公园酒吧街2楼","lat":22.538327762536905,"lng":114.04893138721548,"city_fetched":"Shenzhen,China","state":"广东","country":"中国","canonicalUrl":"https://foursquare.com/v/pepper-club/50f16712e4b09fca790e4569","categoryId":"4bf58dd8d48988d11f941735","category":"Nightclub","checkinsCount":971,"usersCount":554,"tipCount":22,"visitsCount":1281,"url":"http://www.pepper-club.com","tier":"","message":"","currency":"","rating":6.8},{"name":"Volar","phone":"+85228101272","address":"38-44 D'Aguilar St","lat":22.28084667380542,"lng":114.15529310703278,"neighborhood":"中西区","city_fetched":"Shenzhen,China","state":"中西區","country":"香港","canonicalUrl":"https://foursquare.com/v/volar/4b0588d0f964a52055db22e3","categoryId":"4bf58dd8d48988d11f941735","category":"Nightclub","checkinsCount":5769,"usersCount":1784,"tipCount":24,"visitsCount":5899,"tier":"","message":"","currency":"","rating":6.8},{"name":"McCawleys at Pen","phone":"26674361","address":"Rose Garden 3","lat":22.482101192546352,"lng":113.92562930460905,"city_fetched":"Shenzhen,China","state":"广东","country":"中国","canonicalUrl":"https://foursquare.com/v/mccawleys-at-pen/4f5eba27e4b03d72021a6db3","categoryId":"4bf58dd8d48988d11b941735","category":"Pub","checkinsCount":1778,"usersCount":175,"tipCount":14,"visitsCount":1911,"tier":"","message":"","currency":"","rating":6.8},{"name":"Decanter Bar 品酒阁","address":"100/F, St. Regis Hotel","lat":22.545889547449658,"lng":114.10094317595524,"city_fetched":"Shenzhen,China","state":"广东","country":"中国","canonicalUrl":"https://foursquare.com/v/decanter-bar-%E5%93%81%E9%85%92%E9%98%81/4f087098e4b0fcefa882082e","categoryId":"4bf58dd8d48988d116941735","category":"Bar","checkinsCount":258,"usersCount":181,"tipCount":8,"visitsCount":259,"url":"http://www.starwoodhotels.com/stregis/property/dining/attraction_detail.html?propertyID=3651&attractionId=1008070082","tier":"","message":"","currency":"","rating":6.8},{"name":"Temple Street Night Market","address":"Temple St","lat":22.30716388888889,"lng":114.17013055555556,"neighborhood":"Yau Ma Tei","city_fetched":"Shenzhen,China","country":"香港","canonicalUrl":"https://foursquare.com/v/temple-street-night-market-%E5%BB%9F%E8%A1%97%E5%A4%9C%E5%B8%82%E5%A0%B4/4b190256f964a52021d723e3","categoryId":"53e510b7498ebcb1801b55d4","category":"Night Market","checkinsCount":10225,"usersCount":9975,"tipCount":131,"visitsCount":12605,"tier":1,"message":"Cheap","currency":"$","rating":6.8},{"name":"Café Deco Bar & Grill","phone":"+85228495111","address":"Shop 101 & 201, 1-2/F, The Peak Galleria, 118 Peak Rd","lat":22.27108909286602,"lng":114.15021445974811,"city_fetched":"Shenzhen,China","country":"香港","canonicalUrl":"https://foursquare.com/v/caf%C3%A9-deco-bar--grill/4b497c20f964a520737026e3","categoryId":"4bf58dd8d48988d116941735","category":"Bar","checkinsCount":1826,"usersCount":1545,"tipCount":43,"visitsCount":1840,"tier":"","message":"","currency":"","rating":6.8},{"name":"Flutes Champagne & Cocktail Bar","phone":"+85228100005","twitter":"fluteshk","address":"27 Elgin Street","lat":22.28207353207936,"lng":114.15235681913492,"neighborhood":"中西区","city_fetched":"Shenzhen,China","state":"中西區","country":"香港","canonicalUrl":"https://foursquare.com/fluteshk","categoryId":"4bf58dd8d48988d11e941735","category":"Cocktail Bar","checkinsCount":637,"usersCount":244,"tipCount":34,"visitsCount":642,"url":"http://www.flutes.com.hk","tier":"","message":"","currency":"","rating":6.7},{"name":"Otto Bar & Lounge","phone":"+85228690399","address":"4/F, Grand Progress Bldg, 15-16 Lan Kwai Fong","lat":22.28059201945019,"lng":114.155364233081,"neighborhood":"中西区","city_fetched":"Shenzhen,China","state":"中西區","country":"香港","canonicalUrl":"https://foursquare.com/v/otto-bar--lounge/4bfe9014bf6576b02edbaeb8","categoryId":"4bf58dd8d48988d116941735","category":"Bar","checkinsCount":360,"usersCount":220,"tipCount":5,"visitsCount":362,"tier":"","message":"","currency":"","rating":6.7},{"name":"Room One","address":"The Mira, 118 Nathan Rd","lat":22.300371247360108,"lng":114.17225298053744,"neighborhood":"尖沙咀","city_fetched":"Shenzhen,China","state":"Kowloon City","country":"香港","canonicalUrl":"https://foursquare.com/v/room-one/4c49443b9e3e2d7fabaa8948","categoryId":"4bf58dd8d48988d1d5941735","category":"Hotel Bar","checkinsCount":372,"usersCount":263,"tipCount":6,"visitsCount":375,"tier":"","message":"","currency":"","rating":6.7},{"name":"Cé La Vi","phone":"+85237002300","address":"25/F, California Tower, 32 D'Aguillar Street","lat":22.280884383732793,"lng":114.15550357223067,"neighborhood":"中西区","city_fetched":"Shenzhen,China","country":"香港","canonicalUrl":"https://foursquare.com/v/c%C3%A9-la-vi/55c2c3f9498e536d7692bee6","categoryId":"4bf58dd8d48988d11f941735","category":"Nightclub","checkinsCount":786,"usersCount":588,"tipCount":10,"visitsCount":808,"tier":"","message":"","currency":"","rating":6.7},{"name":"Boujis","address":"Pottinger Steps","lat":22.28236114339095,"lng":114.15476623540145,"neighborhood":"中区","city_fetched":"Shenzhen,China","state":"中西區","country":"香港","canonicalUrl":"https://foursquare.com/v/boujis/50798c5de4b018ca95e08478","categoryId":"4bf58dd8d48988d11f941735","category":"Nightclub","checkinsCount":832,"usersCount":492,"tipCount":8,"visitsCount":840,"tier":"","message":"","currency":"","rating":6.6},{"name":"Face Club","lat":22.540303837079684,"lng":114.10594835267536,"city_fetched":"Shenzhen,China","state":"广东","country":"中国","canonicalUrl":"https://foursquare.com/v/face-club/4d54016d08a7b1f748683892","categoryId":"4bf58dd8d48988d11f941735","category":"Nightclub","checkinsCount":137,"usersCount":94,"tipCount":5,"visitsCount":137,"tier":"","message":"","currency":"","rating":6.5},{"name":"Luna Bar","phone":"+8675526686751","twitter":"lunabarshekou","address":"蛇口康乐路1号金銮富众酒店","lat":22.490126985360142,"lng":113.91438360469789,"city_fetched":"Shenzhen,China","state":"广东","country":"中国","canonicalUrl":"https://foursquare.com/lunabarshekou","categoryId":"4bf58dd8d48988d116941735","category":"Bar","checkinsCount":144,"usersCount":74,"tipCount":14,"visitsCount":144,"tier":"","message":"","currency":"","rating":6.5},{"name":"Baron Turkish Restaurant Bar","phone":"+8675582942156","twitter":"barontkb","address":"深圳市福田区民田路购物公园酒吧街147號","lat":22.538340362133187,"lng":114.04800224084731,"neighborhood":"大埔, Çin Cumhuriyeti","city_fetched":"Shenzhen,China","state":"广东","country":"中国","canonicalUrl":"https://foursquare.com/v/baron-turkish-restaurant-bar/54f49762498edf8b75414e00","categoryId":"4bf58dd8d48988d121941735","category":"Lounge","checkinsCount":204,"usersCount":100,"tipCount":4,"visitsCount":277,"url":"http://www.baronturkishkitchen.com","tier":"","message":"","currency":"","rating":6.4},{"name":"Time Bar","phone":"+85223326565","address":"65 Hollywood Rd","lat":22.28332011029662,"lng":114.15303029583805,"neighborhood":"中区","city_fetched":"Shenzhen,China","state":"中西區","country":"香港","canonicalUrl":"https://foursquare.com/v/time-bar/4bfa98bf633d9c7480190843","categoryId":"4bf58dd8d48988d1d8941735","category":"Gay Bar","checkinsCount":803,"usersCount":401,"tipCount":17,"visitsCount":813,"tier":"","message":"","currency":"","rating":6.4},{"name":"Hong Kong Brew House","phone":"+85225225559","address":"B/F-G/F, 21 D'Aguilar St","lat":22.281243977532693,"lng":114.15556163019681,"neighborhood":"中西区","city_fetched":"Shenzhen,China","state":"中西區","country":"香港","canonicalUrl":"https://foursquare.com/v/hong-kong-brew-house/4b069ee5f964a520d1ed22e3","categoryId":"4bf58dd8d48988d116941735","category":"Bar","checkinsCount":2429,"usersCount":1502,"tipCount":56,"visitsCount":2466,"url":"http://www.elgrande.com.hk/outlets/HongKong/HongKongBrewHouseLKF/page1/","tier":"","message":"","currency":"","rating":6.4},{"name":"Viva Club","address":"蛇口太子路20-19号","lat":22.486543653174305,"lng":113.91043941647393,"city_fetched":"Shenzhen,China","state":"广东","country":"中国","canonicalUrl":"https://foursquare.com/v/viva-club/4eecc87b8231688f1d9036e8","categoryId":"4bf58dd8d48988d116941735","category":"Bar","checkinsCount":330,"usersCount":174,"tipCount":6,"visitsCount":336,"tier":"","message":"","currency":"","rating":6.4},{"name":"Red MR","phone":"+85231253555","address":"3-4/F, MPM, 240-244 Portland St","lat":22.31843789377293,"lng":114.16878703707827,"neighborhood":"Mong Kok","city_fetched":"Shenzhen,China","country":"香港","canonicalUrl":"https://foursquare.com/v/red-mr-%E7%B4%85%E4%BA%BA%E6%B4%BE%E5%B0%8D/4fed6d6ee4b01127cb37777b","categoryId":"4bf58dd8d48988d120941735","category":"Karaoke Bar","checkinsCount":300,"usersCount":193,"tipCount":3,"visitsCount":300,"url":"http://www.redmr.com","tier":"","message":"","currency":"","rating":6.4},{"name":"Chocolate Bar","phone":"+85228101788","twitter":"drinkchocolate","address":"G/F, 2 Lan Kwai Fong","lat":22.28106865566216,"lng":114.15559065917705,"neighborhood":"中西区","city_fetched":"Shenzhen,China","state":"中西區","country":"香港","canonicalUrl":"https://foursquare.com/v/chocolate-bar/4b912063f964a5203ba533e3","categoryId":"4bf58dd8d48988d121941735","category":"Lounge","checkinsCount":703,"usersCount":322,"tipCount":13,"visitsCount":703,"tier":"","message":"","currency":"","rating":6.4},{"name":"Ladies' Market","address":"1A-91A Tung Choi St","lat":22.317972222222224,"lng":114.17082777777777,"neighborhood":"Mong Kok","city_fetched":"Shenzhen,China","country":"香港","canonicalUrl":"https://foursquare.com/v/ladies-market-%E5%A5%B3%E4%BA%BA%E8%A1%97/4bc3dbe52a89ef3bfbb0f588","categoryId":"53e510b7498ebcb1801b55d4","category":"Night Market","checkinsCount":15374,"usersCount":14523,"tipCount":163,"visitsCount":18108,"tier":1,"message":"Cheap","currency":"$","rating":6.3},{"name":"Galleon Bar & Restaurant","address":"Intercontinental Shenzhen","lat":22.535765158835233,"lng":113.97905444184829,"city_fetched":"Shenzhen,China","state":"广东","country":"中国","canonicalUrl":"https://foursquare.com/v/galleon-bar--restaurant/4dd8022dd1647fcf3e592353","categoryId":"4bf58dd8d48988d1d5941735","category":"Hotel Bar","checkinsCount":329,"usersCount":221,"tipCount":9,"visitsCount":336,"tier":"","message":"","currency":"","rating":6.3},{"name":"Trafalgar","phone":"+85221101535","address":"5/F, The Broadway, 54-62 Lockhart Rd","lat":22.278114024624884,"lng":114.17086869478226,"neighborhood":"中西区","city_fetched":"Shenzhen,China","state":"灣仔區","country":"香港","canonicalUrl":"https://foursquare.com/v/trafalgar/4b211555f964a520af3624e3","categoryId":"4bf58dd8d48988d11b941735","category":"Pub","checkinsCount":1460,"usersCount":689,"tipCount":16,"visitsCount":1487,"tier":"","message":"","currency":"","rating":6.3},{"name":"La Casa","address":"福田区民田路购物公园酒吧街","lat":22.538484432951616,"lng":114.04888492994122,"city_fetched":"Shenzhen,China","state":"广东","country":"中国","canonicalUrl":"https://foursquare.com/v/la-casa/5290e30711d2c11fba364e00","categoryId":"4bf58dd8d48988d11e941735","category":"Cocktail Bar","checkinsCount":152,"usersCount":79,"tipCount":6,"visitsCount":157,"tier":"","message":"","currency":"","rating":6.3},{"name":"Levels","phone":"+85228111568","twitter":"levelshk","address":"2/F, On Hing Bldg, 1 On Hing Terrace","lat":22.280786357064557,"lng":114.15624090783774,"neighborhood":"中西区","city_fetched":"Shenzhen,China","state":"中西區","country":"香港","canonicalUrl":"https://foursquare.com/levelshk","categoryId":"4bf58dd8d48988d11f941735","category":"Nightclub","checkinsCount":2520,"usersCount":1072,"tipCount":6,"visitsCount":2570,"url":"http://www.levels.hk","tier":"","message":"","currency":"","rating":6.3},{"name":"fool heaven","lat":22.539281065605557,"lng":114.04947725983963,"city_fetched":"Shenzhen,China","country":"中国","canonicalUrl":"https://foursquare.com/v/fool-heaven/53d4a60a498ed45507ee0f4d","categoryId":"4bf58dd8d48988d117941735","category":"Beer Garden","checkinsCount":79,"usersCount":66,"tipCount":4,"visitsCount":97,"tier":"","message":"","currency":"","rating":6.3},{"name":"The Jockey","phone":"+85225722266","address":"33 Wong Nai Chung Rd","lat":22.270286727713817,"lng":114.18481026636499,"city_fetched":"Shenzhen,China","country":"香港","canonicalUrl":"https://foursquare.com/v/the-jockey/4b2359ebf964a520595524e3","categoryId":"4bf58dd8d48988d11b941735","category":"Pub","checkinsCount":1129,"usersCount":453,"tipCount":12,"visitsCount":1246,"tier":"","message":"","currency":"","rating":6.3},{"name":"Le Jardin","phone":"+85228771100","address":"10 Wing Wah Ln","lat":22.281205375124106,"lng":114.15529456348979,"neighborhood":"中西区","city_fetched":"Shenzhen,China","state":"中西區","country":"香港","canonicalUrl":"https://foursquare.com/v/le-jardin/4b0588ccf964a52093da22e3","categoryId":"4bf58dd8d48988d116941735","category":"Bar","checkinsCount":1114,"usersCount":642,"tipCount":11,"visitsCount":1128,"tier":"","message":"","currency":"","rating":6.2},{"name":"Magnum Club","phone":"+85221161602","address":"3-4/F, Silver Fortune Plaza, 1 Wellington St","lat":22.2811235,"lng":114.1561885,"neighborhood":"中西区","city_fetched":"Shenzhen,China","state":"中西區","country":"香港","canonicalUrl":"https://foursquare.com/v/magnum-club/4ef1e02877c810388c456204","categoryId":"4bf58dd8d48988d11f941735","category":"Nightclub","checkinsCount":1771,"usersCount":1058,"tipCount":18,"visitsCount":1785,"tier":"","message":"","currency":"","rating":6.2},{"name":"Medusa","address":"49 Staunton St","lat":22.282469,"lng":114.152286,"neighborhood":"中区","city_fetched":"Shenzhen,China","state":"中西區","country":"香港","canonicalUrl":"https://foursquare.com/v/medusa/4f4f91b5e4b008082c796aeb","categoryId":"4bf58dd8d48988d116941735","category":"Bar","checkinsCount":267,"usersCount":172,"tipCount":6,"visitsCount":268,"tier":"","message":"","currency":"","rating":6.2},{"name":"一渡堂 Idutang","address":"Block F3, OCT-LOFT, Enping St.","lat":22.539695,"lng":113.988528,"city_fetched":"Shenzhen,China","state":"广东","country":"中国","canonicalUrl":"https://foursquare.com/v/%E4%B8%80%E6%B8%A1%E5%A0%82-idutang/4c824a86d4e23704c5986588","categoryId":"4bf58dd8d48988d116941735","category":"Bar","checkinsCount":474,"usersCount":252,"tipCount":15,"visitsCount":482,"tier":"","message":"","currency":"","rating":6.1},{"name":"McSorley's","phone":"+85229878280","address":"G11A-1 Discovery Bay Plaza","lat":22.296214,"lng":114.016489,"neighborhood":"愉景湾","city_fetched":"Shenzhen,China","country":"香港","canonicalUrl":"https://foursquare.com/v/mcsorleys/4b7902fff964a520e3e82ee3","categoryId":"4bf58dd8d48988d11b941735","category":"Pub","checkinsCount":678,"usersCount":199,"tipCount":13,"visitsCount":688,"url":"http://www.mcsorelys.com.hk","tier":"","message":"","currency":"","rating":6},{"name":"Lobby Lounge 萬麗海景酒店大堂酒廊","phone":"+85228028888","address":"Lobby, Renaissance Harbour View Hotel Hong Kong, 1 Harbour Road","lat":22.281481025973687,"lng":114.1745171500307,"city_fetched":"Shenzhen,China","state":"灣仔區","country":"香港","canonicalUrl":"https://foursquare.com/v/lobby-lounge-%E8%90%AC%E9%BA%97%E6%B5%B7%E6%99%AF%E9%85%92%E5%BA%97%E5%A4%A7%E5%A0%82%E9%85%92%E5%BB%8A/4e958fd5dab450040c6093d2","categoryId":"4bf58dd8d48988d1d5941735","category":"Hotel Bar","checkinsCount":278,"usersCount":187,"tipCount":2,"visitsCount":278,"url":"http://renaissanceharbourviewhk.com","tier":"","message":"","currency":"","rating":6},{"name":"The Dog House","lat":22.29646334795514,"lng":114.17664778097652,"neighborhood":"尖沙咀","city_fetched":"Shenzhen,China","state":"Kowloon City","country":"香港","canonicalUrl":"https://foursquare.com/v/the-dog-house/4ef06904be7ba3ed7b980f26","categoryId":"4bf58dd8d48988d11b941735","category":"Pub","checkinsCount":480,"usersCount":364,"tipCount":8,"visitsCount":484,"tier":"","message":"","currency":"","rating":6},{"name":"Bar Demon 78-79","address":"China","lat":22.536685,"lng":114.049733,"city_fetched":"Shenzhen,China","state":"广东","country":"中国","canonicalUrl":"https://foursquare.com/v/bar-demon-7879/4bc5cb815935c9b6ab5ba6d2","categoryId":"4bf58dd8d48988d116941735","category":"Bar","checkinsCount":188,"usersCount":140,"tipCount":4,"visitsCount":190,"tier":"","message":"","currency":"","rating":6},{"name":"Forever Lounge 濃情酒吧","phone":"+85228876543","address":"176-178 Tung Lo Wan Rd","lat":22.281757761774276,"lng":114.19189861763157,"neighborhood":"铜锣湾","city_fetched":"Shenzhen,China","country":"香港","canonicalUrl":"https://foursquare.com/v/forever-lounge-%E6%BF%83%E6%83%85%E9%85%92%E5%90%A7/4c14f90d7f7f2d7feb9fe168","categoryId":"4bf58dd8d48988d11b941735","category":"Pub","checkinsCount":173,"usersCount":106,"tipCount":5,"visitsCount":176,"tier":"","message":"","currency":"","rating":5.9},{"name":"The White Stag","phone":"+85228664244","address":"54-62 Lockhart Rd","lat":22.27802715479248,"lng":114.17087137699127,"neighborhood":"中西区","city_fetched":"Shenzhen,China","state":"灣仔區","country":"香港","canonicalUrl":"https://foursquare.com/v/the-white-stag/4b1a4772f964a52097e823e3","categoryId":"4bf58dd8d48988d11b941735","category":"Pub","checkinsCount":1054,"usersCount":472,"tipCount":18,"visitsCount":1092,"tier":"","message":"","currency":"","rating":5.9},{"name":"Taboo","address":"25 Luard Rd","lat":22.278357259868525,"lng":114.17183965444565,"city_fetched":"Shenzhen,China","state":"灣仔區","country":"香港","canonicalUrl":"https://foursquare.com/v/taboo/565ed5b2498e8dedbd00ec37","categoryId":"4bf58dd8d48988d11b941735","category":"Pub","checkinsCount":87,"usersCount":53,"tipCount":2,"visitsCount":90,"tier":"","message":"","currency":"","rating":5.8},{"name":"Bar 109","phone":"+85228613336","twitter":"rajgrghk","address":"G/F 109 Lockhart Rd","lat":22.27823438853714,"lng":114.17222395264808,"city_fetched":"Shenzhen,China","state":"灣仔區","country":"香港","canonicalUrl":"https://foursquare.com/v/bar-109/4b20da7ff964a520eb3424e3","categoryId":"4bf58dd8d48988d116941735","category":"Bar","checkinsCount":1443,"usersCount":420,"tipCount":17,"visitsCount":1447,"url":"http://www.bar109.com","tier":"","message":"","currency":"","rating":5.8},{"name":"Boo","address":"5/F, Pearl Oriental Tower, No.225 Nathan Rd","lat":22.304204849793127,"lng":114.17167822797347,"neighborhood":"尖沙咀","city_fetched":"Shenzhen,China","country":"香港","canonicalUrl":"https://foursquare.com/v/boo/4caec32acbab236aeaf29273","categoryId":"4bf58dd8d48988d1d8941735","category":"Gay Bar","checkinsCount":545,"usersCount":201,"tipCount":4,"visitsCount":558,"tier":"","message":"","currency":"","rating":5.8},{"name":"La Vie Club","lat":22.53821987750566,"lng":114.04826356345127,"city_fetched":"Shenzhen,China","state":"广东","country":"中国","canonicalUrl":"https://foursquare.com/v/la-vie-club/4e009f9b45dd1e4999db3588","categoryId":"4bf58dd8d48988d116941735","category":"Bar","checkinsCount":226,"usersCount":101,"tipCount":3,"visitsCount":226,"tier":"","message":"","currency":"","rating":5.8},{"name":"Xpats","lat":22.539111059021018,"lng":114.05628319222757,"city_fetched":"Shenzhen,China","country":"中国","canonicalUrl":"https://foursquare.com/v/xpats/4bc9dce068f976b0b9fb5d83","categoryId":"4bf58dd8d48988d116941735","category":"Bar","checkinsCount":370,"usersCount":152,"tipCount":8,"visitsCount":394,"tier":"","message":"","currency":"","rating":5.8},{"name":"Neptune III","address":"Lockhart Road","lat":22.27833,"lng":114.170482,"neighborhood":"中西区","city_fetched":"Shenzhen,China","state":"灣仔區","country":"香港","canonicalUrl":"https://foursquare.com/v/neptune-iii/4c93630dfc9a224b18fff9f1","categoryId":"4bf58dd8d48988d118941735","category":"Dive Bar","checkinsCount":165,"usersCount":113,"tipCount":1,"visitsCount":166,"tier":"","message":"","currency":"","rating":5.7},{"name":"Stormies","phone":"+85228455533","address":"48 D'Aguilar St","lat":22.28076725151275,"lng":114.15520191192627,"neighborhood":"中西区","city_fetched":"Shenzhen,China","state":"中西區","country":"香港","canonicalUrl":"https://foursquare.com/v/stormies/4b66e5f2f964a5204f2f2be3","categoryId":"4bf58dd8d48988d116941735","category":"Bar","checkinsCount":1627,"usersCount":1131,"tipCount":21,"visitsCount":1635,"tier":"","message":"","currency":"","rating":5.7},{"name":"Wink","address":"Ground Floor 79 Bonham Strand","lat":22.28566222074848,"lng":114.15146852502947,"neighborhood":"中西区","city_fetched":"Shenzhen,China","state":"Hong Kong","country":"香港","canonicalUrl":"https://foursquare.com/v/wink/5460bfbc498ee488a1e29afb","categoryId":"4bf58dd8d48988d11e941735","category":"Cocktail Bar","checkinsCount":134,"usersCount":94,"tipCount":4,"visitsCount":139,"tier":"","message":"","currency":"","rating":5.6},{"name":"Rude Bar & Lounge","phone":"+85229509608","twitter":"rudebarhk","address":"79 Wyndham Street, Upper Basement (Top of Pottinger Street)","lat":22.28211773840076,"lng":114.15466173087012,"neighborhood":"中西区","city_fetched":"Shenzhen,China","country":"香港","canonicalUrl":"https://foursquare.com/v/rude-bar--lounge/54dda312498e8315459fade0","categoryId":"4bf58dd8d48988d11d941735","category":"Sports Bar","checkinsCount":137,"usersCount":99,"tipCount":1,"visitsCount":140,"url":"http://rudehk.com","tier":"","message":"","currency":"","rating":5.6},{"name":"The Parlour","phone":"+85239880101","address":"G/F, Hullett House, 2A Canton Rd","lat":22.295558875182994,"lng":114.16978776454926,"neighborhood":"尖沙咀","city_fetched":"Shenzhen,China","state":"Kowloon City","country":"香港","canonicalUrl":"https://foursquare.com/v/the-parlour/4b88e469f964a5204c1232e3","categoryId":"4bf58dd8d48988d121941735","category":"Lounge","checkinsCount":487,"usersCount":428,"tipCount":15,"visitsCount":487,"url":"http://www.hulletthouse.com/index.html#/theparlour/concept","tier":"","message":"","currency":"","rating":5.6},{"name":"老鹰吧 Eagle Bar","address":"Block 20 OCT Harbour","lat":22.52724955628452,"lng":113.98579750617536,"city_fetched":"Shenzhen,China","state":"广东","country":"中国","canonicalUrl":"https://foursquare.com/v/%E8%80%81%E9%B9%B0%E5%90%A7-eagle-bar/4eccfa91490144fb1f9bcf7e","categoryId":"4bf58dd8d48988d119941735","category":"Hookah Bar","checkinsCount":149,"usersCount":114,"tipCount":4,"visitsCount":153,"tier":"","message":"","currency":"","rating":5.6},{"name":"Zinc","phone":"+85228683448","address":"35 D'Aguilar St","lat":22.28101689363497,"lng":114.15558485338116,"neighborhood":"中西区","city_fetched":"Shenzhen,China","state":"中西區","country":"香港","canonicalUrl":"https://foursquare.com/v/zinc/4b20c291f964a520743424e3","categoryId":"4bf58dd8d48988d116941735","category":"Bar","checkinsCount":1455,"usersCount":1075,"tipCount":19,"visitsCount":1462,"tier":"","message":"","currency":"","rating":5.6},{"name":"V Bar","address":"威尼斯酒店","lat":22.539781788866044,"lng":113.97223577704351,"city_fetched":"Shenzhen,China","state":"广东","country":"中国","canonicalUrl":"https://foursquare.com/v/v-bar/4beadc83a9900f4712071740","categoryId":"4bf58dd8d48988d11f941735","category":"Nightclub","checkinsCount":408,"usersCount":263,"tipCount":7,"visitsCount":426,"tier":"","message":"","currency":"","rating":5.5},{"name":"Mes Amis","phone":"+85225276680","address":"83 Lockhart Rd","lat":22.278255498236433,"lng":114.17154729366302,"neighborhood":"中西区","city_fetched":"Shenzhen,China","state":"灣仔區","country":"香港","canonicalUrl":"https://foursquare.com/v/mes-amis/4b9cfff3f964a520a48736e3","categoryId":"4bf58dd8d48988d116941735","category":"Bar","checkinsCount":2171,"usersCount":1278,"tipCount":22,"visitsCount":2205,"tier":"","message":"","currency":"","rating":5.4},{"name":"7 Heaven Club","phone":"+85228101100","address":"1/F, 17-19 Lan Kwai Fong","lat":22.280765206395387,"lng":114.15556163019681,"neighborhood":"中西区","city_fetched":"Shenzhen,China","state":"中西區","country":"香港","canonicalUrl":"https://foursquare.com/v/7-heaven-club/519790f0498e8a6beb321fe1","categoryId":"4bf58dd8d48988d11f941735","category":"Nightclub","checkinsCount":482,"usersCount":290,"tipCount":7,"visitsCount":483,"tier":"","message":"","currency":"","rating":5.2},{"name":"Captain's Bar","address":"By Lighthouse In Front Of Peninsula 1","lat":22.480792835113554,"lng":113.92824900442099,"city_fetched":"Shenzhen,China","country":"中国","canonicalUrl":"https://foursquare.com/v/captains-bar/4e7319f31495dffb8ebfe1ba","categoryId":"4bf58dd8d48988d116941735","category":"Bar","checkinsCount":244,"usersCount":90,"tipCount":9,"visitsCount":244,"tier":"","message":"","currency":"","rating":5.2},{"name":"Propaganda","phone":"+85228681316","address":"B/F, 1 Hollywood Rd","lat":22.28194071186441,"lng":114.15441788686817,"neighborhood":"中区","city_fetched":"Shenzhen,China","state":"中西區","country":"香港","canonicalUrl":"https://foursquare.com/v/propaganda/4b0588cef964a520e0da22e3","categoryId":"4bf58dd8d48988d1d8941735","category":"Gay Bar","checkinsCount":583,"usersCount":401,"tipCount":12,"visitsCount":608,"tier":"","message":"","currency":"","rating":5.1},{"name":"Bahama Mama's Caribbean Bar","phone":"+85223682121","address":"4-5 Knutsford Terrace","lat":22.301045,"lng":114.173457,"neighborhood":"尖沙咀","city_fetched":"Shenzhen,China","state":"Kowloon City","country":"香港","canonicalUrl":"https://foursquare.com/v/bahama-mamas-caribbean-bar/4b0588cdf964a520c8da22e3","categoryId":"4bf58dd8d48988d118941735","category":"Dive Bar","checkinsCount":698,"usersCount":519,"tipCount":6,"visitsCount":701,"tier":"","message":"","currency":"","rating":5.1},{"name":"Club Havana","phone":"+85223126565","address":"3/F, Knutsford Commercial Bldg, 10 Knutsford Terrace","lat":22.30155758240745,"lng":114.1740527059526,"neighborhood":"尖沙咀","city_fetched":"Shenzhen,China","state":"Kowloon City","country":"香港","canonicalUrl":"https://foursquare.com/v/club-havana/4bd58a5a637ba593ee80f670","categoryId":"4bf58dd8d48988d1d4941735","category":"Speakeasy","checkinsCount":480,"usersCount":270,"tipCount":5,"visitsCount":483,"tier":"","message":"","currency":"","rating":5.1}]