[{"name":"Pravda Bar","address":"No.19 Shuifang Rd.(李公提水坊路19号)","lat":31.303508968424985,"lng":120.67862573378115,"city_fetched":"Suzhou,China","state":"江苏","country":"中国","canonicalUrl":"https://foursquare.com/v/pravda-bar/4b9bda88f964a5206e2d36e3","categoryId":"4bf58dd8d48988d116941735","category":"Bar","checkinsCount":134,"usersCount":73,"tipCount":3,"visitsCount":134,"tier":"","message":"","currency":"","rating":7.1},{"name":"Harry's Forbidden Bar","address":"Li Gong Di 3 李公提3期","lat":31.300170113238607,"lng":120.69068714735613,"city_fetched":"Suzhou,China","state":"江苏","country":"中国","canonicalUrl":"https://foursquare.com/v/harrys-forbidden-bar--%E5%93%88%E5%93%A9%E5%90%A7/4f0306670aaffcf6f768c781","categoryId":"4bf58dd8d48988d116941735","category":"Bar","checkinsCount":161,"usersCount":97,"tipCount":5,"visitsCount":174,"tier":"","message":"","currency":"","rating":7.1},{"name":"Ollie's","phone":"+8651262655993","address":"1912 Bar Zone A-9, Ligongdi","lat":31.303839845462196,"lng":120.67886158260386,"city_fetched":"Suzhou,China","state":"江苏","country":"中国","canonicalUrl":"https://foursquare.com/v/ollies/4e0b47a37d8bc5cb43588895","categoryId":"4bf58dd8d48988d116941735","category":"Bar","checkinsCount":356,"usersCount":103,"tipCount":5,"visitsCount":386,"url":"http://www.southerncrosssz.com/ollies","tier":"","message":"","currency":"","rating":6.8},{"name":"Blue Marlin 蓝枪鱼","phone":"+8651262889676","address":"168 Xinghai St","lat":31.31550246346839,"lng":120.6674954112486,"city_fetched":"Suzhou,China","state":"江苏","country":"中国","canonicalUrl":"https://foursquare.com/v/blue-marlin-%E8%93%9D%E6%9E%AA%E9%B1%BC/4be3ce0dd27a20a1c91b935b","categoryId":"4bf58dd8d48988d116941735","category":"Bar","checkinsCount":677,"usersCount":331,"tipCount":12,"visitsCount":938,"url":"http://www.bluemarlin.cn","tier":"","message":"","currency":"","rating":6.5},{"name":"S.Muse","phone":"+8651268019288","address":"干将东路818号玄妙新天地1楼","lat":31.310099554689685,"lng":120.62189123135566,"city_fetched":"Suzhou,China","country":"中国","canonicalUrl":"https://foursquare.com/v/smuse/526018ea11d2b39604a3f8ae","categoryId":"4bf58dd8d48988d11f941735","category":"Nightclub","checkinsCount":166,"usersCount":35,"tipCount":2,"visitsCount":222,"url":"http://www.smuseclub.com","tier":"","message":"","currency":"","rating":6.4},{"name":"Jenny's Bar 苏客酒吧","address":"Ligong Di 1912 Bar Zone A-7","lat":31.30389638245654,"lng":120.67886158260386,"city_fetched":"Suzhou,China","state":"江苏","country":"中国","canonicalUrl":"https://foursquare.com/v/jennys-bar-%E8%8B%8F%E5%AE%A2%E9%85%92%E5%90%A7/4efc8d4be300d0dc30d2e36e","categoryId":"4bf58dd8d48988d116941735","category":"Bar","checkinsCount":102,"usersCount":64,"tipCount":4,"visitsCount":104,"tier":"","message":"","currency":"","rating":6.1},{"name":"Pandora","lat":31.320507803545734,"lng":120.61572253088471,"city_fetched":"Suzhou,China","country":"中国","canonicalUrl":"https://foursquare.com/v/pandora/5124f82be4b07a330514c45a","categoryId":"4bf58dd8d48988d11f941735","category":"Nightclub","checkinsCount":386,"usersCount":47,"tipCount":2,"visitsCount":413,"tier":"","message":"","currency":"","rating":6.1},{"name":"金色三麦现酿啤酒餐厅 Le Blé d'Or Brewery Restaurant","phone":"+8651266655909","address":"虎丘区狮山路35号","lat":31.295709749346614,"lng":120.56532792440868,"city_fetched":"Suzhou,China","state":"江苏","country":"中国","canonicalUrl":"https://foursquare.com/v/%E9%87%91%E8%89%B2%E4%B8%89%E9%BA%A6%E7%8E%B0%E9%85%BF%E5%95%A4%E9%85%92%E9%A4%90%E5%8E%85-le-bl%C3%A9-dor-brewery-restaurant/5026379de4b056f76621bcf1","categoryId":"50327c8591d4c4b30a586d5d","category":"Brewery","checkinsCount":75,"usersCount":62,"tipCount":3,"visitsCount":84,"url":"http://weibo.com/lebledor","tier":"","message":"","currency":"","rating":5.3}]