[{"name":"Sofitel Xian","lat":34.26655675417446,"lng":108.95513018503942,"city_fetched":"Xi'an","country":"中国","canonicalUrl":"https://foursquare.com/v/sofitel-xian/4f5c4d8fe4b06784f8689add","category":"Hotel Bar","checkinsCount":261,"usersCount":151,"tipCount":5,"visitsCount":261,"tier":"","message":"","currency":"","rating":7.8},{"name":"Hilton Xi'an 西安万达希尔顿酒店","phone":"+864008200500","address":"199 Xinjie St, Xincheng","lat":34.26594235228372,"lng":108.96172899342811,"city_fetched":"Xi'an","state":"陕西","country":"中国","canonicalUrl":"https://foursquare.com/v/hilton-xian-%E8%A5%BF%E5%AE%89%E4%B8%87%E8%BE%BE%E5%B8%8C%E5%B0%94%E9%A1%BF%E9%85%92%E5%BA%97/4e8e66aa2c5b20a681ca7374","category":"Hotel","checkinsCount":583,"usersCount":389,"tipCount":14,"visitsCount":733,"url":"http://www.hilton.com.cn/zh-cn/hotel/Xian/hilton-Xian-XIYHIHI/index.html","tier":"","message":"","currency":"","rating":7.5},{"name":"The Belgian Bar","address":"顺城南路东段69号","lat":34.253631,"lng":108.944422,"city_fetched":"Xi'an","state":"陕西","country":"中国","canonicalUrl":"https://foursquare.com/v/the-belgian-bar/4da884fe43a12d0c2653b82f","category":"Bar","checkinsCount":197,"usersCount":101,"tipCount":9,"visitsCount":199,"url":"http://belgian-bar-xian.com","tier":"","message":"","currency":"","rating":6.8},{"name":"Park Qin","address":"No.2 Shun Cheng West Alley","lat":34.25394,"lng":108.941004,"city_fetched":"Xi'an","state":"陕西","country":"中国","canonicalUrl":"https://foursquare.com/v/park-qin/4c7921423badb1f750dc4d54","category":"Bar","checkinsCount":176,"usersCount":98,"tipCount":10,"visitsCount":198,"tier":"","message":"","currency":"","rating":6.5},{"name":"莎莎俱乐部 Salsa Club","phone":"+862987286666","address":"莲湖区西大街6号时代百盛商场7楼","lat":34.26138946111624,"lng":108.93470763085338,"city_fetched":"Xi'an","state":"陕西","country":"中国","canonicalUrl":"https://foursquare.com/v/%E8%8E%8E%E8%8E%8E%E4%BF%B1%E4%B9%90%E9%83%A8-salsa-club/4eff13420e01089c54e35c03","category":"Nightclub","checkinsCount":247,"usersCount":130,"tipCount":7,"visitsCount":330,"tier":"","message":"","currency":"","rating":6.5}]