[{"name":"Sky 21","phone":"28222122","address":"AIA Tower, 21F","lat":22.189747344685884,"lng":113.54027863488211,"city_fetched":"Zhuhai","state":"Municipality of Macau","country":"中国","canonicalUrl":"https://foursquare.com/v/sky-21/4eeb362bbe7be63d1de6393e","category":"Lounge","checkinsCount":981,"usersCount":791,"tipCount":24,"visitsCount":1176,"url":"http://www.sky21macau.com","tier":"","message":"","currency":"","rating":8.7},{"name":"Bellini Lounge 百利酒廊","address":"Shop 1041, 1/F, Casino Level, Shoppes at Venetian, The Venetian Macao","lat":22.146884578698504,"lng":113.56178001349757,"city_fetched":"Zhuhai","country":"澳门","canonicalUrl":"https://foursquare.com/v/bellini-lounge-%E7%99%BE%E5%88%A9%E9%85%92%E5%BB%8A/4f032c74490182a1aabc9f30","category":"Lounge","checkinsCount":939,"usersCount":664,"tipCount":12,"visitsCount":979,"tier":"","message":"","currency":"","rating":8.2},{"name":"180 Lounge @ Macau Tower","lat":22.180315338511676,"lng":113.53697110744659,"city_fetched":"Zhuhai","country":"中国","canonicalUrl":"https://foursquare.com/v/180-lounge--macau-tower/50a49208e4b0d8159bb23deb","category":"Lounge","checkinsCount":145,"usersCount":144,"tipCount":3,"visitsCount":145,"tier":"","message":"","currency":"","rating":8.1},{"name":"PREM1ER Bar & Tasting Room","phone":"+85328827109","twitter":"premiermacau","address":"Rua Direita Carlos Eugenio No 86","lat":22.15356108148478,"lng":113.55807734548988,"city_fetched":"Zhuhai","state":"Municipality of Macau","country":"中国","canonicalUrl":"https://foursquare.com/premiermacau","category":"Bar","checkinsCount":25,"usersCount":31,"tipCount":0,"visitsCount":42,"url":"http://www.premiergroupworld.com","tier":"","message":"","currency":"","rating":8},{"name":"The Road House Macau","address":"Broadway","lat":22.147554124656793,"lng":113.55166591953582,"city_fetched":"Zhuhai","state":"Municipality of Macau","country":"中国","canonicalUrl":"https://foursquare.com/v/the-road-house-macau/55ec2dc9498e393036b8a75c","category":"Bar","checkinsCount":108,"usersCount":122,"tipCount":1,"visitsCount":169,"tier":"","message":"","currency":"","rating":7.8},{"name":"The Ritz-Carlton Bar & Lounge 麗思酒廊","phone":"+85388866868","address":"51/F, The Ritz-Carlton, Macau, Galaxy Macau™, Estrada da Baía da Nossa Senhora da Esperança, s/n","lat":22.14700381456474,"lng":113.55481642053293,"city_fetched":"Zhuhai","country":"澳门","canonicalUrl":"https://foursquare.com/v/the-ritzcarlton-bar--lounge-%E9%BA%97%E6%80%9D%E9%85%92%E5%BB%8A/561a8508498e2280158883d3","category":"Lounge","checkinsCount":98,"usersCount":63,"tipCount":2,"visitsCount":98,"url":"http://www.ritzcarlton.com/macau","tier":"","message":"","currency":"","rating":7.7},{"name":"Hard Rock Café Macau","phone":"+85328824662","address":"2/F, Hard Rock Hotel, City of Dreams","lat":22.14765633036487,"lng":113.56602904294903,"city_fetched":"Zhuhai","country":"澳门","canonicalUrl":"https://foursquare.com/v/hard-rock-caf%C3%A9-macau/4f630d1ee4b075c711d4582b","category":"American Restaurant","checkinsCount":2806,"usersCount":2092,"tipCount":47,"visitsCount":2937,"tier":"","message":"","currency":"","rating":7.7},{"name":"China Rouge 紅伶","address":"Diamond Lobby, Galaxy Macau, Avenida Marginal Flor de Lotus","lat":22.150936453269797,"lng":113.55248551645292,"city_fetched":"Zhuhai","country":"澳门","canonicalUrl":"https://foursquare.com/v/china-rouge-%E7%B4%85%E4%BC%B6/4f524eb6e4b09f74b76d57f8","category":"Jazz Club","checkinsCount":305,"usersCount":187,"tipCount":2,"visitsCount":313,"tier":"","message":"","currency":"","rating":7.6},{"name":"Club Cubic","phone":"+85366384999","address":"Suite 2105-2, The Boulevard, City of Dreams","lat":22.148182244794267,"lng":113.56491883443088,"city_fetched":"Zhuhai","state":"Municipality of Macau","country":"澳门","canonicalUrl":"https://foursquare.com/v/club-cubic/4d302aa696fe6ea85c551244","category":"Nightclub","checkinsCount":2957,"usersCount":1828,"tipCount":47,"visitsCount":3144,"url":"http://www.cubic-cod.com","tier":"","message":"","currency":"","rating":7.5},{"name":"Sheraton Club","address":"4/f, Sheraton Macao Hotel, Cotai Central","lat":22.144806381096693,"lng":113.56441313665162,"city_fetched":"Zhuhai","country":"澳门","canonicalUrl":"https://foursquare.com/v/sheraton-club/5052d200e4b0ff6b60be35c7","category":"Hotel","checkinsCount":972,"usersCount":519,"tipCount":9,"visitsCount":1005,"tier":"","message":"","currency":"","rating":7.5},{"name":"Portofino Bar Ristorante 波托菲诺餐厅酒吧","phone":"+867568150111","address":"珠海市九洲大道西2033号富华里9栋102","lat":22.23674462441642,"lng":113.53576202422725,"city_fetched":"Zhuhai","state":"广东","country":"中国","canonicalUrl":"https://foursquare.com/v/portofino-bar-ristorante-%E6%B3%A2%E6%89%98%E8%8F%B2%E8%AF%BA%E9%A4%90%E5%8E%85%E9%85%92%E5%90%A7/551a1eac498e8df89b22d8db","category":"Italian Restaurant","checkinsCount":216,"usersCount":32,"tipCount":9,"visitsCount":241,"url":"http://www.portofinobar.com","tier":"","message":"","currency":"","rating":7.4},{"name":"Rio Hotel & Casino 利澳酒店","phone":"+85328718718","address":"33 Rua Gonzaga Gomes","lat":22.192789501296176,"lng":113.54973608394808,"city_fetched":"Zhuhai","state":"Municipality of Macau","country":"中国","canonicalUrl":"https://foursquare.com/v/rio-hotel--casino-%E5%88%A9%E6%BE%B3%E9%85%92%E5%BA%97/4c3aa5665810a5939e7fb93c","category":"Hotel","checkinsCount":930,"usersCount":1001,"tipCount":14,"visitsCount":1406,"tier":"","message":"","currency":"","rating":7.4},{"name":"Pacha Macau 派馳","phone":"+85388656699","address":"Studio City","lat":22.1401155400532,"lng":113.56181488937908,"city_fetched":"Zhuhai","state":"Municipality of Macau","country":"澳门","canonicalUrl":"https://foursquare.com/v/pacha-macau-%E6%B4%BE%E9%A6%B3/56289232498eba581da32ae3","category":"Nightclub","checkinsCount":162,"usersCount":169,"tipCount":1,"visitsCount":222,"tier":"","message":"","currency":"","rating":7.3},{"name":"The Lounge 康萊德酒店大堂酒廊","address":"Conrad Lobby, Conrad Macao, Cotai Central","lat":22.146777841531797,"lng":113.56431432209146,"city_fetched":"Zhuhai","state":"Municipality of Macau","country":"澳门","canonicalUrl":"https://foursquare.com/v/the-lounge-%E5%BA%B7%E8%90%8A%E5%BE%B7%E9%85%92%E5%BA%97%E5%A4%A7%E5%A0%82%E9%85%92%E5%BB%8A/509caf85e4b07eb4d7eb93a2","category":"Lounge","checkinsCount":127,"usersCount":82,"tipCount":0,"visitsCount":127,"tier":"","message":"","currency":"","rating":7.3},{"name":"Vida Rica Bar","twitter":"mo_macau","address":"Av Sun Yat Sen","lat":22.184423,"lng":113.546906,"city_fetched":"Zhuhai","state":"澳門","country":"中国","canonicalUrl":"https://foursquare.com/v/vida-rica-bar/4c3c71f786ce328f55b8ab2d","category":"Bar","checkinsCount":96,"usersCount":73,"tipCount":3,"visitsCount":96,"url":"http://www.mandarinoriental.com/macau/dining/vida_rica_restaurant/","tier":"","message":"","currency":"","rating":7.3},{"name":"Old Taipa Tavern","phone":"+85328825221","address":"21 Rua Dos Negociantes, Taipa Old Village","lat":22.152969,"lng":113.555499,"city_fetched":"Zhuhai","country":"澳门","canonicalUrl":"https://foursquare.com/v/old-taipa-tavern/4cc971fab3f5224b41acf420","category":"American Restaurant","checkinsCount":734,"usersCount":496,"tipCount":13,"visitsCount":1148,"tier":"","message":"","currency":"","rating":7.2},{"name":"The Macallan Bar","address":"203, 2/F Galaxy Hotel","lat":22.150570989750918,"lng":113.55315979390363,"city_fetched":"Zhuhai","state":"Municipality of Macau","country":"澳门","canonicalUrl":"https://foursquare.com/v/the-macallan-bar/4dc3f1917d8b14fb46037e51","category":"Whisky Bar","checkinsCount":565,"usersCount":416,"tipCount":15,"visitsCount":612,"tier":"","message":"","currency":"","rating":7.1}]