[{"name":"Southern Pines Brewing Company","twitter":"sopinesbrewing","address":"565 Air Tool Drive","lat":35.1873679135648,"lng":-79.37179688466605,"city_fetched":"Aberdeen,US","state":"NC","country":"United States","canonicalUrl":"https://foursquare.com/v/southern-pines-brewing-company/533331e6498e987e70c33497","categoryId":"50327c8591d4c4b30a586d5d","category":"Brewery","checkinsCount":263,"usersCount":123,"tipCount":8,"visitsCount":332,"tier":"","message":"","currency":"","rating":8.4},{"name":"Railhouse Brewery","phone":"9107835280","twitter":"railhousebrew","address":"105 E South St","lat":35.13084597,"lng":-79.42706292,"city_fetched":"Aberdeen,US","state":"NC","country":"United States","canonicalUrl":"https://foursquare.com/v/railhouse-brewery/4d72915cd976236a1c940879","categoryId":"50327c8591d4c4b30a586d5d","category":"Brewery","checkinsCount":771,"usersCount":365,"tipCount":16,"visitsCount":880,"url":"http://www.railhousebrewery.com","tier":1,"message":"Cheap","currency":"$","rating":8.3},{"name":"Neville's","address":"110 W New Hamphire ave","lat":35.17505478505814,"lng":-79.3913273601227,"neighborhood":"Downtown Southern Pines","city_fetched":"Aberdeen,US","state":"NC","country":"United States","canonicalUrl":"https://foursquare.com/v/nevilles/4b3452e9f964a520ff2625e3","categoryId":"4bf58dd8d48988d116941735","category":"Bar","checkinsCount":1080,"usersCount":127,"tipCount":7,"visitsCount":1129,"tier":"","message":"","currency":"","rating":8.2},{"name":"Dugan's Pub","phone":"9192953400","address":"2 Market Sq","lat":35.195636,"lng":-79.469068,"city_fetched":"Aberdeen,US","state":"NC","country":"United States","canonicalUrl":"https://foursquare.com/v/dugans-pub/4b32c983f964a520f21325e3","categoryId":"4bf58dd8d48988d11b941735","category":"Pub","checkinsCount":928,"usersCount":783,"tipCount":10,"visitsCount":1072,"url":"http://duganspub.net","tier":"","message":"","currency":"","rating":8},{"name":"The Sly Fox","phone":"9107251621","address":"795 SW Broad St","lat":35.16826559029971,"lng":-79.40074682235718,"city_fetched":"Aberdeen,US","state":"NC","country":"United States","canonicalUrl":"https://foursquare.com/v/the-sly-fox/4c26a75ea852c9280d18e76c","categoryId":"4bf58dd8d48988d11b941735","category":"Pub","checkinsCount":1038,"usersCount":588,"tipCount":13,"visitsCount":1241,"url":"http://www.theslyfoxpub.com","tier":"","message":"","currency":"","rating":8},{"name":"Drum & Quill Public House","phone":"9102953193","twitter":"drumandquill","address":"40 Chinquapin Rd","lat":35.19509,"lng":-79.46961,"city_fetched":"Aberdeen,US","state":"NC","country":"United States","canonicalUrl":"https://foursquare.com/v/drum--quill-public-house/53b4aabf498e874bf3461dd5","categoryId":"4bf58dd8d48988d11b941735","category":"Pub","checkinsCount":91,"usersCount":95,"tipCount":4,"visitsCount":113,"url":"http://www.drumandquill.com/home.aspx","tier":2,"message":"Moderate","currency":"$","rating":8},{"name":"Hickory Tavern","phone":"9102353847","address":"9735 Us 15 501 Hwy.","lat":35.186765,"lng":-79.44161703333333,"city_fetched":"Aberdeen,US","state":"NC","country":"United States","canonicalUrl":"https://foursquare.com/v/hickory-tavern/4bff2e57daf9c9b658eef9ef","categoryId":"4bf58dd8d48988d11d941735","category":"Sports Bar","checkinsCount":2580,"usersCount":1246,"tipCount":36,"visitsCount":3215,"url":"http://www.thehickorytavern.com","tier":2,"message":"Moderate","currency":"$","rating":7.9},{"name":"The Wine Cellar & Tasting Room","phone":"9106923066","twitter":"pullourcork","address":"241 NE Broad St","lat":35.174819,"lng":-79.389814,"neighborhood":"Downtown Southern Pines","city_fetched":"Aberdeen,US","state":"NC","country":"United States","canonicalUrl":"https://foursquare.com/v/the-wine-cellar--tasting-room/4b99614af964a5200c7735e3","categoryId":"4bf58dd8d48988d123941735","category":"Wine Bar","checkinsCount":299,"usersCount":171,"tipCount":2,"visitsCount":300,"url":"http://thewinecellarandtastingroom.com","tier":"","message":"","currency":"","rating":7.9},{"name":"The Bell Tree Tavern","phone":"9106924766","address":"155 NE Broad St","lat":35.1740396845924,"lng":-79.39108545376443,"neighborhood":"Downtown Southern Pines","city_fetched":"Aberdeen,US","state":"NC","country":"United States","canonicalUrl":"https://foursquare.com/v/the-bell-tree-tavern/4b630adbf964a520645f2ae3","categoryId":"4bf58dd8d48988d11b941735","category":"Pub","checkinsCount":893,"usersCount":529,"tipCount":15,"visitsCount":985,"url":"http://thebelltreetavern.com","tier":"","message":"","currency":"","rating":7.7},{"name":"Squire's Pub","phone":"9106951161","address":"1720 US Highway 1 S","lat":35.15794057694549,"lng":-79.41349209218822,"city_fetched":"Aberdeen,US","state":"NC","country":"United States","canonicalUrl":"https://foursquare.com/v/squires-pub/4b998457f964a520d58035e3","categoryId":"4bf58dd8d48988d11b941735","category":"Pub","checkinsCount":333,"usersCount":214,"tipCount":6,"visitsCount":339,"tier":"","message":"","currency":"","rating":7.7},{"name":"O'Donnell's Pub","phone":"9106951915","address":"133 E New Hampshire Ave","lat":35.1742959022522,"lng":-79.390194,"neighborhood":"Downtown Southern Pines","city_fetched":"Aberdeen,US","state":"NC","country":"United States","canonicalUrl":"https://foursquare.com/v/odonnells-pub/4b3440c8f964a520892625e3","categoryId":"4bf58dd8d48988d11b941735","category":"Pub","checkinsCount":1126,"usersCount":314,"tipCount":10,"visitsCount":1162,"url":"http://www.odonnellspub.com","tier":"","message":"","currency":"","rating":6.9}]