[{"name":"The Mill Winery & Event Center","lat":32.446477570408156,"lng":-99.72981825509866,"neighborhood":"Original Town South","city_fetched":"Abilene,US","state":"TX","country":"United States","canonicalUrl":"https://foursquare.com/v/the-mill-winery--event-center/536572e4498e91ce7e8b9caa","categoryId":"4bf58dd8d48988d123941735","category":"Wine Bar","checkinsCount":134,"usersCount":166,"tipCount":2,"visitsCount":307,"tier":"","message":"","currency":"","rating":8.7},{"name":"Barley-Hoppers Drafthouse","address":"721 S 1st St","lat":32.448186,"lng":-99.73077,"neighborhood":"Original Town North","city_fetched":"Abilene,US","state":"TX","country":"United States","canonicalUrl":"https://foursquare.com/v/barleyhoppers-drafthouse/52cca2cd11d2d0dcfb1f1d00","categoryId":"4bf58dd8d48988d117941735","category":"Beer Garden","checkinsCount":216,"usersCount":139,"tipCount":6,"visitsCount":404,"tier":"","message":"","currency":"","rating":8},{"name":"BAR 14","phone":"3252328485","twitter":"bar14abilene","address":"4638 S 14th St","lat":32.43102985999665,"lng":-99.78300699346312,"neighborhood":"Elmwood Area","city_fetched":"Abilene,US","state":"TX","country":"United States","canonicalUrl":"https://foursquare.com/v/bar-14/4f6531bae4b09ff9bd44b521","categoryId":"4bf58dd8d48988d116941735","category":"Bar","checkinsCount":447,"usersCount":169,"tipCount":6,"visitsCount":474,"url":"http://thezonetexas.com","tier":"","message":"","currency":"","rating":7.5},{"name":"The Longbranch Saloon & Grill","phone":"3256761488","address":"3525 N 6th St","lat":32.45496318999337,"lng":-99.76517024249023,"city_fetched":"Abilene,US","state":"TX","country":"United States","canonicalUrl":"https://foursquare.com/v/the-longbranch-saloon--grill/4de28f4bd4c07044056f159a","categoryId":"4bf58dd8d48988d116941735","category":"Bar","checkinsCount":586,"usersCount":114,"tipCount":9,"visitsCount":647,"tier":"","message":"","currency":"","rating":7.5},{"name":"Lucky Mule Saloon","phone":"3252328564","address":"1850 S Clack St","lat":32.42654056805427,"lng":-99.78792569277749,"city_fetched":"Abilene,US","state":"TX","country":"United States","canonicalUrl":"https://foursquare.com/v/lucky-mule-saloon/4b7e0bfcf964a520ade02fe3","categoryId":"4bf58dd8d48988d116941735","category":"Bar","checkinsCount":798,"usersCount":284,"tipCount":5,"visitsCount":801,"url":"http://www.luckymuleabilene.com","tier":"","message":"","currency":"","rating":7.4},{"name":"Guitars & Cadillacs","address":"3881 Vine St","lat":32.406474026627926,"lng":-99.74420663584421,"neighborhood":"Red Bud Area","city_fetched":"Abilene,US","state":"TX","country":"United States","canonicalUrl":"https://foursquare.com/v/guitars--cadillacs/4bc902f368f976b02d925c83","categoryId":"4bf58dd8d48988d11f941735","category":"Nightclub","checkinsCount":1051,"usersCount":467,"tipCount":3,"visitsCount":1304,"tier":"","message":"","currency":"","rating":7.1},{"name":"Public Haus","address":"173B Pine St","lat":32.450192543701355,"lng":-99.73255093398491,"neighborhood":"Original Town North","city_fetched":"Abilene,US","state":"TX","country":"United States","canonicalUrl":"https://foursquare.com/v/public-haus/54b0a81b498e083e49897a66","categoryId":"4bf58dd8d48988d11e941735","category":"Cocktail Bar","checkinsCount":37,"usersCount":44,"tipCount":0,"visitsCount":69,"tier":"","message":"","currency":"","rating":7},{"name":"The Station","phone":"3256725731","address":"4201 N 1st St","lat":32.45225110964254,"lng":-99.7765472066943,"city_fetched":"Abilene,US","state":"TX","country":"United States","canonicalUrl":"https://foursquare.com/v/the-station/5229203e11d2389ba36cacdf","categoryId":"4bf58dd8d48988d11e941735","category":"Cocktail Bar","checkinsCount":68,"usersCount":27,"tipCount":5,"visitsCount":72,"tier":"","message":"","currency":"","rating":6.8},{"name":"Fat Boss's Pub","address":"216 Pine St","lat":32.450705313062,"lng":-99.73317151478265,"neighborhood":"Original Town North","city_fetched":"Abilene,US","state":"TX","country":"United States","canonicalUrl":"https://foursquare.com/v/fat-bosss-pub/50821d74e4b00dc4a191174e","categoryId":"4bf58dd8d48988d11b941735","category":"Pub","checkinsCount":267,"usersCount":153,"tipCount":8,"visitsCount":300,"tier":"","message":"","currency":"","rating":6.8},{"name":"Chelsea's Street Pub","phone":"3256959200","address":"4310 Buffalo Gap Rd","lat":32.400329515985916,"lng":-99.76306820325038,"neighborhood":"Park Central Area","city_fetched":"Abilene,US","state":"TX","country":"United States","canonicalUrl":"https://foursquare.com/v/chelseas-street-pub/4bcbb7cfb6c49c74afd29291","categoryId":"4bf58dd8d48988d11b941735","category":"Pub","checkinsCount":1021,"usersCount":334,"tipCount":11,"visitsCount":1047,"url":"http://chelseasstreetpub.ewbz.net","tier":"","message":"","currency":"","rating":6.2},{"name":"Jaguars Strip Club","lat":32.459764606034945,"lng":-99.87105807108554,"city_fetched":"Abilene,US","state":"TX","country":"United States","canonicalUrl":"https://foursquare.com/v/jaguars-strip-club/4d7b1cceea35236a693f4023","categoryId":"4bf58dd8d48988d1d6941735","category":"Strip Club","checkinsCount":414,"usersCount":90,"tipCount":4,"visitsCount":415,"tier":"","message":"","currency":"","rating":5.9},{"name":"Jack Rabbit Slims","phone":"3255137010","address":"833 US Highway 80 E","lat":32.448213,"lng":-99.710195,"city_fetched":"Abilene,US","state":"TX","country":"United States","canonicalUrl":"https://foursquare.com/v/jack-rabbit-slims/4c086e09009a0f479b33e6bf","categoryId":"4bf58dd8d48988d116941735","category":"Bar","checkinsCount":550,"usersCount":194,"tipCount":13,"visitsCount":599,"tier":"","message":"","currency":"","rating":5.7}]