[{"name":"The Lockview","phone":"3302525128","twitter":"thelockview","address":"207 S Main St","lat":41.07986874098993,"lng":-81.51964902877808,"neighborhood":"Downtown Akron","city_fetched":"Akron,US","state":"OH","country":"United States","canonicalUrl":"https://foursquare.com/v/the-lockview/4b4516b0f964a520230426e3","categoryId":"4bf58dd8d48988d116941735","category":"Bar","checkinsCount":8166,"usersCount":2580,"tipCount":78,"visitsCount":8683,"url":"http://www.thelockview.com","tier":1,"message":"Cheap","currency":"$","rating":9.1},{"name":"The Tasting Room at Hoppin' Frog Brewery","phone":"2345253764","twitter":"hoppinfrogtroom","address":"1680 E Waterloo Rd","lat":41.024564933806204,"lng":-81.46756215818411,"neighborhood":"Ellet","city_fetched":"Akron,US","state":"OH","country":"United States","canonicalUrl":"https://foursquare.com/v/the-tasting-room-at-hoppin-frog-brewery/5194fc13498ee81b215982b7","categoryId":"4bf58dd8d48988d116941735","category":"Bar","checkinsCount":1708,"usersCount":904,"tipCount":21,"visitsCount":2073,"url":"http://hoppinfrog.com/tasting-room/","tier":"","message":"","currency":"","rating":9.1},{"name":"R.Shea Brewing","twitter":"rsheabrewing","address":"1662 Merriman Rd","lat":41.133499557304056,"lng":-81.54927539964393,"neighborhood":"Merriman Valley","city_fetched":"Akron,US","state":"OH","country":"United States","canonicalUrl":"https://foursquare.com/v/rshea-brewing/55ee188f498e345b3faf4f8f","categoryId":"50327c8591d4c4b30a586d5d","category":"Brewery","checkinsCount":282,"usersCount":237,"tipCount":6,"visitsCount":484,"tier":"","message":"","currency":"","rating":8.9},{"name":"Pub Bricco","phone":"3308690035","twitter":"pubbricco","address":"1841 Merriman Rd","lat":41.13589130042516,"lng":-81.55541397510419,"neighborhood":"Merriman Valley","city_fetched":"Akron,US","state":"OH","country":"United States","canonicalUrl":"https://foursquare.com/v/pub-bricco/4b297a4ef964a520919f24e3","categoryId":"4bf58dd8d48988d11b941735","category":"Pub","checkinsCount":4588,"usersCount":1461,"tipCount":33,"visitsCount":4905,"url":"http://www.pubbricco.com/home","tier":2,"message":"Moderate","currency":"$","rating":8.7},{"name":"Hoppin' Frog Brewery","phone":"3303524578","twitter":"hoppinfrog","address":"1680 E Waterloo Rd Ste F","lat":41.024711216882174,"lng":-81.46761042116395,"neighborhood":"Ellet","city_fetched":"Akron,US","state":"OH","country":"United States","canonicalUrl":"https://foursquare.com/v/hoppin-frog-brewery/4bae3fc1f964a52054983be3","categoryId":"50327c8591d4c4b30a586d5d","category":"Brewery","checkinsCount":841,"usersCount":363,"tipCount":11,"visitsCount":843,"url":"http://www.hoppinfrog.com","tier":2,"message":"Moderate","currency":"$","rating":8.6},{"name":"Beau's Grille","phone":"3308675218","twitter":"beausgrille","address":"3180 W Market St","lat":41.13080545247,"lng":-81.61616195281846,"city_fetched":"Akron,US","state":"OH","country":"United States","canonicalUrl":"https://foursquare.com/v/beaus-grille/4b93b311f964a5208a4d34e3","categoryId":"4bf58dd8d48988d1d5941735","category":"Hotel Bar","checkinsCount":1188,"usersCount":535,"tipCount":12,"visitsCount":1236,"url":"http://beausgrille.com","tier":"","message":"","currency":"","rating":8.5},{"name":"Ray's Place","phone":"3306732233","twitter":"raysplacekent","address":"135 Franklin Ave","lat":41.153166427170305,"lng":-81.35878523164762,"city_fetched":"Akron,US","state":"OH","country":"United States","canonicalUrl":"https://foursquare.com/v/rays-place/4ae0bf07f964a5201e8221e3","categoryId":"4bf58dd8d48988d116941735","category":"Bar","checkinsCount":8546,"usersCount":3088,"tipCount":79,"visitsCount":9007,"url":"http://www.raysplacekent.com","tier":2,"message":"Moderate","currency":"$","rating":8.5},{"name":"Square Nightclub","phone":"3303749661","address":"820 W Market St","lat":41.09657167853077,"lng":-81.54384882371549,"neighborhood":"Highland Square","city_fetched":"Akron,US","state":"OH","country":"United States","canonicalUrl":"https://foursquare.com/v/square-nightclub/4ba64869f964a520464239e3","categoryId":"4bf58dd8d48988d11f941735","category":"Nightclub","checkinsCount":5173,"usersCount":1043,"tipCount":25,"visitsCount":5334,"url":"http://squarenightclub.com","tier":2,"message":"Moderate","currency":"$","rating":8.4},{"name":"Louie's Bar & Grille","phone":"3305355030","address":"739 E Glenwood Ave","lat":41.101811,"lng":-81.49100462,"neighborhood":"North Hill","city_fetched":"Akron,US","state":"OH","country":"United States","canonicalUrl":"https://foursquare.com/v/louies-bar--grille/4b50f36af964a520353a27e3","categoryId":"4bf58dd8d48988d116941735","category":"Bar","checkinsCount":633,"usersCount":421,"tipCount":14,"visitsCount":761,"url":"http://www.akronsbestburger.com","tier":"","message":"","currency":"","rating":8.4},{"name":"Ido Bar & Grill","phone":"3307731724","address":"1537 S Main St","lat":41.045003082074544,"lng":-81.52713775634766,"neighborhood":"Firestone Park","city_fetched":"Akron,US","state":"OH","country":"United States","canonicalUrl":"https://foursquare.com/v/ido-bar--grill/4b79c274f964a5201e102fe3","categoryId":"4bf58dd8d48988d116941735","category":"Bar","checkinsCount":446,"usersCount":300,"tipCount":9,"visitsCount":552,"url":"http://www.idobar.com","tier":3,"message":"Expensive","currency":"$","rating":8.4},{"name":"Sully's Irish Pub","phone":"3307643333","address":"117 W Liberty St","lat":41.1394026,"lng":-81.8647999,"city_fetched":"Akron,US","state":"OH","country":"United States","canonicalUrl":"https://foursquare.com/v/sullys-irish-pub/4bae8b80f964a52009bf3be3","categoryId":"4bf58dd8d48988d116941735","category":"Bar","checkinsCount":2834,"usersCount":773,"tipCount":20,"visitsCount":2972,"url":"http://sullysirishpubmedinaoh.com","tier":2,"message":"Moderate","currency":"$","rating":8.4},{"name":"Ray's Place","address":"25 Ghent Rd","lat":41.131102918268105,"lng":-81.6140907169063,"city_fetched":"Akron,US","state":"OH","country":"United States","canonicalUrl":"https://foursquare.com/v/rays-place/53601570498ed2a675b2c434","categoryId":"4bf58dd8d48988d116941735","category":"Bar","checkinsCount":576,"usersCount":431,"tipCount":4,"visitsCount":991,"url":"http://raysplacefairlawn.com","tier":"","message":"","currency":"","rating":8.3},{"name":"The Basement","phone":"3307240477","address":"255 E Waterloo Rd","lat":41.0291092,"lng":-81.51792168617249,"neighborhood":"Firestone Park","city_fetched":"Akron,US","state":"OH","country":"United States","canonicalUrl":"https://foursquare.com/v/the-basement/4b9c3346f964a5202e5436e3","categoryId":"4bf58dd8d48988d116941735","category":"Bar","checkinsCount":1274,"usersCount":474,"tipCount":20,"visitsCount":1609,"tier":"","message":"","currency":"","rating":8.2},{"name":"Jose's Landing","phone":"3304990462","address":"5603 Fulton Dr NW","lat":40.85618201667292,"lng":-81.453537940979,"city_fetched":"Akron,US","state":"OH","country":"United States","canonicalUrl":"https://foursquare.com/v/joses-landing/4ba54e4bf964a520a9f838e3","categoryId":"4bf58dd8d48988d11b941735","category":"Pub","checkinsCount":1155,"usersCount":408,"tipCount":6,"visitsCount":1270,"tier":1,"message":"Cheap","currency":"$","rating":8.2},{"name":"Ray's Pub","phone":"3302539336","address":"816 W Market St","lat":41.09653655336882,"lng":-81.54377918100175,"neighborhood":"Highland Square","city_fetched":"Akron,US","state":"OH","country":"United States","canonicalUrl":"https://foursquare.com/v/rays-pub/4b73b16af964a520a6b82de3","categoryId":"4bf58dd8d48988d11b941735","category":"Pub","checkinsCount":6941,"usersCount":608,"tipCount":21,"visitsCount":7053,"url":"http://thebucketshop.com","tier":1,"message":"Cheap","currency":"$","rating":8.1},{"name":"Frank's Place on Market","phone":"3303768307","address":"549 W Market St","lat":41.093278,"lng":-81.5350733,"neighborhood":"Highland Square","city_fetched":"Akron,US","state":"OH","country":"United States","canonicalUrl":"https://foursquare.com/v/franks-place-on-market/4b8f3841f964a520414e33e3","categoryId":"4bf58dd8d48988d116941735","category":"Bar","checkinsCount":1623,"usersCount":446,"tipCount":11,"visitsCount":1813,"url":"http://www.franksplaceonmarket.com","tier":1,"message":"Cheap","currency":"$","rating":8.1},{"name":"Old 97 Cafe","phone":"3307455493","address":"1503 Kenmore Blvd","lat":41.03709904955799,"lng":-81.57438360392584,"neighborhood":"Kenmore","city_fetched":"Akron,US","state":"OH","country":"United States","canonicalUrl":"https://foursquare.com/v/old-97-cafe/4ce495704039b60c2a22c206","categoryId":"4bf58dd8d48988d116941735","category":"Bar","checkinsCount":331,"usersCount":217,"tipCount":8,"visitsCount":402,"url":"http://old97cafe.vpweb.com","tier":"","message":"","currency":"","rating":7.9},{"name":"Arnie's Public House (formerly S.R.O.)","phone":"3308670154","address":"1682 W Market St","lat":41.10947196929898,"lng":-81.56975143015413,"neighborhood":"Wallhaven","city_fetched":"Akron,US","state":"OH","country":"United States","canonicalUrl":"https://foursquare.com/v/arnies-public-house-formerly-sro/4b916952f964a52046ba33e3","categoryId":"4bf58dd8d48988d11d941735","category":"Sports Bar","checkinsCount":1910,"usersCount":365,"tipCount":10,"visitsCount":1956,"tier":1,"message":"Cheap","currency":"$","rating":7.9},{"name":"Southpoint Tavern","address":"1947 W Market St #109","lat":41.11424229341462,"lng":-81.57774643613865,"neighborhood":"Northwest Akron","city_fetched":"Akron,US","state":"OH","country":"United States","canonicalUrl":"https://foursquare.com/v/southpoint-tavern/50dfc263e4b01843afbfdf2b","categoryId":"4bf58dd8d48988d116941735","category":"Bar","checkinsCount":239,"usersCount":84,"tipCount":6,"visitsCount":326,"url":"http://southpointtavern.com","tier":"","message":"","currency":"","rating":7.8},{"name":"Lizardville Beer Store & Whiskey Bar","phone":"3306641784","address":"79 Springside Dr","lat":41.13360346588073,"lng":-81.64414743151474,"city_fetched":"Akron,US","state":"OH","country":"United States","canonicalUrl":"https://foursquare.com/v/lizardville-beer-store--whiskey-bar/516ee360e4b0486f6feb05df","categoryId":"4bf58dd8d48988d122941735","category":"Whisky Bar","checkinsCount":2047,"usersCount":788,"tipCount":17,"visitsCount":2288,"url":"http://lizardville.net","tier":"","message":"","currency":"","rating":7.8},{"name":"Main Street Saloon","phone":"3307248855","address":"1481 S Main St","lat":41.046594,"lng":-81.527298,"neighborhood":"Firestone Park","city_fetched":"Akron,US","state":"OH","country":"United States","canonicalUrl":"https://foursquare.com/v/main-street-saloon/4bff0f5bc30a2d7f3377101d","categoryId":"4bf58dd8d48988d118941735","category":"Dive Bar","checkinsCount":332,"usersCount":191,"tipCount":2,"visitsCount":384,"tier":"","message":"","currency":"","rating":7.7},{"name":"Annabell's Bar & Lounge","phone":"3305351112","address":"784 W Market St","lat":41.09612317477777,"lng":-81.5427398897547,"neighborhood":"Highland Square","city_fetched":"Akron,US","state":"OH","country":"United States","canonicalUrl":"https://foursquare.com/v/annabells-bar--lounge/4cd37a12ecc3a0934fd49a93","categoryId":"4bf58dd8d48988d116941735","category":"Bar","checkinsCount":2971,"usersCount":724,"tipCount":10,"visitsCount":2979,"tier":"","message":"","currency":"","rating":7.7},{"name":"Dante's Gameday Grille","phone":"3309228344","address":"1019 N Main St","lat":41.11324915107651,"lng":-81.50996806132902,"neighborhood":"North Hill","city_fetched":"Akron,US","state":"OH","country":"United States","canonicalUrl":"https://foursquare.com/v/dantes-gameday-grille/4c199ff8f551ef3b7e3a4768","categoryId":"4bf58dd8d48988d116941735","category":"Bar","checkinsCount":400,"usersCount":157,"tipCount":6,"visitsCount":458,"tier":"","message":"","currency":"","rating":7.7},{"name":"Mickey's In The Valley","lat":41.1368637028426,"lng":-81.55304645138756,"neighborhood":"Merriman Valley","city_fetched":"Akron,US","state":"OH","country":"United States","canonicalUrl":"https://foursquare.com/v/mickeys-in-the-valley/4eaf2e7f82319d8262b5b355","categoryId":"4bf58dd8d48988d116941735","category":"Bar","checkinsCount":837,"usersCount":288,"tipCount":8,"visitsCount":850,"tier":"","message":"","currency":"","rating":7.6},{"name":"Firehouse Grille & Pub","phone":"3306993616","address":"2437 Canton Rd","lat":41.003285636754484,"lng":-81.40868067741394,"city_fetched":"Akron,US","state":"OH","country":"United States","canonicalUrl":"https://foursquare.com/v/firehouse-grille--pub/4bd26ee477b29c741ee08e82","categoryId":"4bf58dd8d48988d116941735","category":"Bar","checkinsCount":565,"usersCount":241,"tipCount":4,"visitsCount":631,"tier":"","message":"","currency":"","rating":7.6},{"name":"750ml Wines","phone":"3307945754","address":"2287 W Market St","lat":41.11806221042892,"lng":-81.58842086791992,"neighborhood":"Northwest Akron","city_fetched":"Akron,US","state":"OH","country":"United States","canonicalUrl":"https://foursquare.com/v/750ml-wines/4ba031cdf964a520bd6037e3","categoryId":"4bf58dd8d48988d123941735","category":"Wine Bar","checkinsCount":866,"usersCount":406,"tipCount":15,"visitsCount":884,"url":"http://750mlwines.com","tier":"","message":"","currency":"","rating":7.6},{"name":"On Tap","phone":"3306681116","address":"3997 Medina Rd","lat":41.13674375717365,"lng":-81.64291158354142,"city_fetched":"Akron,US","state":"OH","country":"United States","canonicalUrl":"https://foursquare.com/v/on-tap/4aef7830f964a520b0d821e3","categoryId":"4bf58dd8d48988d116941735","category":"Bar","checkinsCount":2513,"usersCount":1028,"tipCount":22,"visitsCount":2722,"url":"http://www.ontapgrill.com","tier":2,"message":"Moderate","currency":"$","rating":7.5},{"name":"Mulligan's Restaurant & Pub","phone":"3304938239","address":"4118 Belden Village St NW","lat":40.854701927875304,"lng":-81.42516465598975,"city_fetched":"Akron,US","state":"OH","country":"United States","canonicalUrl":"https://foursquare.com/v/mulligans-restaurant--pub/4b516d86f964a5200f4d27e3","categoryId":"4bf58dd8d48988d11b941735","category":"Pub","checkinsCount":1121,"usersCount":858,"tipCount":17,"visitsCount":1260,"url":"http://mulliganscanton.com","tier":"","message":"","currency":"","rating":7.5},{"name":"Interbelt Nite Club","phone":"3302535700","twitter":"interbelt_akron","address":"70 N Howard St","lat":41.08741592487698,"lng":-81.51729955930058,"city_fetched":"Akron,US","state":"OH","country":"United States","canonicalUrl":"https://foursquare.com/v/interbelt-nite-club/4bc15161f8219c74f150b310","categoryId":"4bf58dd8d48988d1d8941735","category":"Gay Bar","checkinsCount":3307,"usersCount":1040,"tipCount":16,"visitsCount":3722,"url":"http://www.interbelt.com","tier":"","message":"","currency":"","rating":7.4},{"name":"shi sha","lat":41.080155486555334,"lng":-81.50856920761882,"neighborhood":"University of Akron","city_fetched":"Akron,US","state":"OH","country":"United States","canonicalUrl":"https://foursquare.com/v/shi-sha/4f96179fe4b0dc878d61d939","categoryId":"4bf58dd8d48988d119941735","category":"Hookah Bar","checkinsCount":78,"usersCount":37,"tipCount":3,"visitsCount":80,"tier":"","message":"","currency":"","rating":7.4},{"name":"Zephyr Pub","phone":"3306784848","address":"106 W Main St","lat":41.15366059676043,"lng":-81.35853946208954,"city_fetched":"Akron,US","state":"OH","country":"United States","canonicalUrl":"https://foursquare.com/v/zephyr-pub/4b331165f964a5206a1725e3","categoryId":"4bf58dd8d48988d11b941735","category":"Pub","checkinsCount":5616,"usersCount":1409,"tipCount":20,"visitsCount":5693,"tier":1,"message":"Cheap","currency":"$","rating":7.4},{"name":"The North End","phone":"3306561238","address":"7542 Darrow Rd","lat":41.27069179958449,"lng":-81.44089483709062,"city_fetched":"Akron,US","state":"OH","country":"United States","canonicalUrl":"https://foursquare.com/v/the-north-end/4bd7711df645c9b67ffca5e0","categoryId":"4bf58dd8d48988d123941735","category":"Wine Bar","checkinsCount":733,"usersCount":304,"tipCount":9,"visitsCount":888,"url":"http://www.northendwinefoodfun.com","tier":"","message":"","currency":"","rating":7.3},{"name":"On The Rocks","lat":41.13424768413435,"lng":-81.54851473840276,"neighborhood":"Merriman Valley","city_fetched":"Akron,US","state":"OH","country":"United States","canonicalUrl":"https://foursquare.com/v/on-the-rocks/4f7618b6e4b03bf6fb2cc301","categoryId":"4bf58dd8d48988d11b941735","category":"Pub","checkinsCount":304,"usersCount":103,"tipCount":3,"visitsCount":305,"tier":"","message":"","currency":"","rating":7.3},{"name":"Rippers Rock House","address":"2727 Manchester Rd","lat":41.024731325912,"lng":-81.54860044709694,"neighborhood":"Kenmore","city_fetched":"Akron,US","state":"OH","country":"United States","canonicalUrl":"https://foursquare.com/v/rippers-rock-house/51ca08de498ea5520f0453d2","categoryId":"4bf58dd8d48988d11a941735","category":"Other Nightlife","checkinsCount":392,"usersCount":209,"tipCount":13,"visitsCount":541,"url":"http://rippersrockhouse.com","tier":"","message":"","currency":"","rating":7.3},{"name":"Spunkmeyers Pub","phone":"3303345080","address":"993 High St","lat":41.04985819850983,"lng":-81.7279177627388,"city_fetched":"Akron,US","state":"OH","country":"United States","canonicalUrl":"https://foursquare.com/v/spunkmeyers-pub/4bd229e7046076b077667371","categoryId":"4bf58dd8d48988d11b941735","category":"Pub","checkinsCount":1276,"usersCount":435,"tipCount":12,"visitsCount":1470,"url":"http://www.spunkmeyers.com","tier":"","message":"","currency":"","rating":7.3},{"name":"Hackers Bar and Grill","phone":"3307249123","twitter":"ishophackers","address":"600 Swartz Rd","lat":41.01754684947338,"lng":-81.50679514505995,"city_fetched":"Akron,US","state":"OH","country":"United States","canonicalUrl":"https://foursquare.com/v/hackers-bar-and-grill/4c3df09316ca9521c31bbc7f","categoryId":"4bf58dd8d48988d11d941735","category":"Sports Bar","checkinsCount":461,"usersCount":349,"tipCount":1,"visitsCount":718,"tier":"","message":"","currency":"","rating":7.3},{"name":"Crew Night Club","phone":"3304522739","address":"304 Cherry Ave NE","lat":40.79917134144601,"lng":-81.37041091918945,"city_fetched":"Akron,US","state":"OH","country":"United States","canonicalUrl":"https://foursquare.com/v/crew-night-club/4c16ea9acd4bc9b6cd3a4feb","categoryId":"4bf58dd8d48988d1d8941735","category":"Gay Bar","checkinsCount":4055,"usersCount":443,"tipCount":19,"visitsCount":4320,"tier":2,"message":"Moderate","currency":"$","rating":7.3},{"name":"Aqueduct Brewing","address":"529 Grant St","lat":41.068984065605555,"lng":-81.51636172474129,"neighborhood":"University of Akron","city_fetched":"Akron,US","state":"OH","country":"United States","canonicalUrl":"https://foursquare.com/v/aqueduct-brewing/53f0ebfd498e3f989e9f036e","categoryId":"50327c8591d4c4b30a586d5d","category":"Brewery","checkinsCount":108,"usersCount":137,"tipCount":0,"visitsCount":203,"tier":"","message":"","currency":"","rating":7.3},{"name":"The Lockview Rooftop Patio","phone":"3302525128","address":"207 S Main St","lat":41.07974743084291,"lng":-81.51960611343384,"neighborhood":"Downtown Akron","city_fetched":"Akron,US","state":"OH","country":"United States","canonicalUrl":"https://foursquare.com/v/the-lockview-rooftop-patio/4dba35f5cda173a95d14549f","categoryId":"4bf58dd8d48988d116941735","category":"Bar","checkinsCount":528,"usersCount":103,"tipCount":3,"visitsCount":530,"url":"http://thelockview.com","tier":"","message":"","currency":"","rating":7.2},{"name":"Uncorked Wine Bar And Gallery","address":"22 N High St","lat":41.0854665,"lng":-81.515864,"neighborhood":"Downtown Akron","city_fetched":"Akron,US","state":"OH","country":"United States","canonicalUrl":"https://foursquare.com/v/uncorked-wine-bar-and-gallery/4c378fde93db0f47e8042092","categoryId":"4bf58dd8d48988d123941735","category":"Wine Bar","checkinsCount":433,"usersCount":281,"tipCount":5,"visitsCount":446,"tier":"","message":"","currency":"","rating":7.2},{"name":"Harmon's Pub","phone":"3304532144","address":"2329 Tuscarawas St W","lat":40.79967875743836,"lng":-81.4005005553332,"city_fetched":"Akron,US","state":"OH","country":"United States","canonicalUrl":"https://foursquare.com/v/harmons-pub/4b317b22f964a520b30725e3","categoryId":"4bf58dd8d48988d116941735","category":"Bar","checkinsCount":1017,"usersCount":451,"tipCount":18,"visitsCount":1255,"url":"http://www.harmonspub.com","tier":1,"message":"Cheap","currency":"$","rating":7.2},{"name":"Thirsty Dog Brewing Company","phone":"3302522739","twitter":"thirstydogbeer","address":"529 Grant St","lat":41.06884456188219,"lng":-81.51766397186321,"neighborhood":"University of Akron","city_fetched":"Akron,US","state":"OH","country":"United States","canonicalUrl":"https://foursquare.com/v/thirsty-dog-brewing-company/4b803badf964a520235f30e3","categoryId":"50327c8591d4c4b30a586d5d","category":"Brewery","checkinsCount":1030,"usersCount":768,"tipCount":23,"visitsCount":1302,"url":"http://thirstydog.com","tier":"","message":"","currency":"","rating":7.2},{"name":"The Matinee","phone":"3302520272","twitter":"thematinee","address":"812 W Market St","lat":41.09644273724431,"lng":-81.54354346672221,"neighborhood":"Highland Square","city_fetched":"Akron,US","state":"OH","country":"United States","canonicalUrl":"https://foursquare.com/v/the-matinee/4b494b82f964a520b26c26e3","categoryId":"4bf58dd8d48988d116941735","category":"Bar","checkinsCount":3706,"usersCount":787,"tipCount":13,"visitsCount":3739,"url":"http://thematinee.net","tier":"","message":"","currency":"","rating":7.1},{"name":"Gone Country Bar","phone":"3302812004","twitter":"gonecountrybar","address":"370 Paul Williams St","lat":41.07618955577729,"lng":-81.52299598332134,"neighborhood":"Downtown Akron","city_fetched":"Akron,US","state":"OH","country":"United States","canonicalUrl":"https://foursquare.com/v/gone-country-bar/52aa952e11d2135bae6a0540","categoryId":"4bf58dd8d48988d116941735","category":"Bar","checkinsCount":146,"usersCount":61,"tipCount":3,"visitsCount":149,"tier":"","message":"","currency":"","rating":7.1},{"name":"Mavis Winkle's Irish Pub","phone":"3304053663","twitter":"mavis_winkles","address":"8870 Darrow Rd","lat":41.307709523308446,"lng":-81.44244514557188,"city_fetched":"Akron,US","state":"OH","country":"United States","canonicalUrl":"https://foursquare.com/v/mavis-winkles-irish-pub/4b6cad01f964a520584b2ce3","categoryId":"4bf58dd8d48988d116941735","category":"Bar","checkinsCount":1075,"usersCount":686,"tipCount":17,"visitsCount":1146,"url":"http://www.maviswinkles.com","tier":"","message":"","currency":"","rating":7},{"name":"Papa Don's Pub & Grille","phone":"3307842400","address":"1891 E Market St","lat":41.06200379091484,"lng":-81.46015074405811,"neighborhood":"Goodyear Heights","city_fetched":"Akron,US","state":"OH","country":"United States","canonicalUrl":"https://foursquare.com/v/papa-dons-pub--grille/4d3cb990557d6dcba2c63d44","categoryId":"4bf58dd8d48988d116941735","category":"Bar","checkinsCount":1236,"usersCount":287,"tipCount":15,"visitsCount":1344,"tier":"","message":"","currency":"","rating":7},{"name":"Domenic's Pub","phone":"3309239530","address":"2467 State Rd","lat":41.14107751631972,"lng":-81.50829792022705,"city_fetched":"Akron,US","state":"OH","country":"United States","canonicalUrl":"https://foursquare.com/v/domenics-pub/4bbbe11de436ef3b39ff5564","categoryId":"4bf58dd8d48988d116941735","category":"Bar","checkinsCount":1060,"usersCount":383,"tipCount":11,"visitsCount":1184,"url":"http://www.domenicspub.com","tier":"","message":"","currency":"","rating":7},{"name":"Tear-Ez","phone":"3303760011","twitter":"ripplnplayers","address":"360 S Main St","lat":41.07612651780049,"lng":-81.52233151204727,"neighborhood":"Downtown Akron","city_fetched":"Akron,US","state":"OH","country":"United States","canonicalUrl":"https://foursquare.com/v/tearez/4bc7c2850050b7138968b93b","categoryId":"4bf58dd8d48988d1d8941735","category":"Gay Bar","checkinsCount":1782,"usersCount":401,"tipCount":7,"visitsCount":1918,"url":"http://brending.appsharingnetwork.com/TearEZ","tier":1,"message":"Cheap","currency":"$","rating":7},{"name":"69 Taps","phone":"3302534554","address":"370 Paul Williams St","lat":41.076203302121996,"lng":-81.52317281742985,"neighborhood":"Downtown Akron","city_fetched":"Akron,US","state":"OH","country":"United States","canonicalUrl":"https://foursquare.com/v/69-taps/4b75ed53f964a520782f2ee3","categoryId":"4bf58dd8d48988d116941735","category":"Bar","checkinsCount":3493,"usersCount":1153,"tipCount":19,"visitsCount":3549,"url":"http://69taps.com","tier":"","message":"","currency":"","rating":7},{"name":"Baxter's Bar","phone":"2346780761","twitter":"baxtersbar","address":"205 S Main St","lat":41.07985190327164,"lng":-81.51974859217043,"neighborhood":"Downtown Akron","city_fetched":"Akron,US","state":"OH","country":"United States","canonicalUrl":"https://foursquare.com/v/baxters-bar/5021d9dee4b036f18108eeba","categoryId":"4bf58dd8d48988d116941735","category":"Bar","checkinsCount":1576,"usersCount":744,"tipCount":23,"visitsCount":1619,"url":"http://baxtersbar.com","tier":"","message":"","currency":"","rating":7},{"name":"J. Dublin's Pour House","phone":"3306333000","twitter":"jdublins","address":"1954 Buchholzer Blvd","lat":41.11606204961477,"lng":-81.47294060957864,"neighborhood":"Chapel Hill","city_fetched":"Akron,US","state":"OH","country":"United States","canonicalUrl":"https://foursquare.com/v/j-dublins-pour-house/53cd9068498ebaf93b95c273","categoryId":"4bf58dd8d48988d11d941735","category":"Sports Bar","checkinsCount":167,"usersCount":134,"tipCount":3,"visitsCount":294,"url":"http://jdublins.com","tier":"","message":"","currency":"","rating":6.9},{"name":"The Windsor Pub","phone":"3306335211","address":"1322 Tallmadge Ave.","lat":41.10144180545732,"lng":-81.46703126337304,"neighborhood":"Chapel Hill","city_fetched":"Akron,US","state":"OH","country":"United States","canonicalUrl":"https://foursquare.com/v/the-windsor-pub/4bb636fcf562ef3b7bcd2f97","categoryId":"4bf58dd8d48988d116941735","category":"Bar","checkinsCount":1048,"usersCount":349,"tipCount":9,"visitsCount":1400,"tier":"","message":"","currency":"","rating":6.9},{"name":"Brubaker's Pub","phone":"3308968803","twitter":"brubakerspubs","address":"3939 Massillon Rd","lat":40.95427930355072,"lng":-81.465111,"city_fetched":"Akron,US","state":"OH","country":"United States","canonicalUrl":"https://foursquare.com/v/brubakers-pub/4b48a65bf964a520995126e3","categoryId":"4bf58dd8d48988d116941735","category":"Bar","checkinsCount":1852,"usersCount":436,"tipCount":10,"visitsCount":1910,"url":"http://www.brubakerspub.com","tier":"","message":"","currency":"","rating":6.9},{"name":"Johnny J's Pub & Grille","phone":"3306283773","address":"2891 E Waterloo Rd","lat":41.03180561320605,"lng":-81.424536883284,"city_fetched":"Akron,US","state":"OH","country":"United States","canonicalUrl":"https://foursquare.com/v/johnny-js-pub--grille/4ec7043b2c5b532d06226838","categoryId":"4bf58dd8d48988d11b941735","category":"Pub","checkinsCount":1966,"usersCount":629,"tipCount":17,"visitsCount":2190,"url":"http://www.johnnyjspub.com","tier":2,"message":"Moderate","currency":"$","rating":6.9},{"name":"Cocktails-Daddy's","phone":"3303762625","address":"1009 S Main St","lat":41.05852806278021,"lng":-81.52840263222036,"neighborhood":"Summit Lake","city_fetched":"Akron,US","state":"OH","country":"United States","canonicalUrl":"https://foursquare.com/v/cocktailsdaddys/4bbe5dbf85fbb713cfa87067","categoryId":"4bf58dd8d48988d1d8941735","category":"Gay Bar","checkinsCount":2844,"usersCount":234,"tipCount":12,"visitsCount":3092,"tier":"","message":"","currency":"","rating":6.9},{"name":"Highland Tavern","address":"808 W Market St","lat":41.096492,"lng":-81.543431,"neighborhood":"Highland Square","city_fetched":"Akron,US","state":"OH","country":"United States","canonicalUrl":"https://foursquare.com/v/highland-tavern/5091d068e4b082d465575e00","categoryId":"4bf58dd8d48988d116941735","category":"Bar","checkinsCount":889,"usersCount":335,"tipCount":11,"visitsCount":908,"tier":"","message":"","currency":"","rating":6.7},{"name":"Thursday's Lounge","address":"306 E Exchange St","lat":41.07243880849018,"lng":-81.51207969167315,"neighborhood":"University of Akron","city_fetched":"Akron,US","state":"OH","country":"United States","canonicalUrl":"https://foursquare.com/v/thursdays-lounge/4b8758f7f964a52083bc31e3","categoryId":"4bf58dd8d48988d116941735","category":"Bar","checkinsCount":3466,"usersCount":1110,"tipCount":22,"visitsCount":3781,"tier":"","message":"","currency":"","rating":6.7},{"name":"Max McQ's Sports Bar & Grille","phone":"3309403400","address":"1562 Akron Peninsula Rd","lat":41.13725981404897,"lng":-81.54842367280796,"neighborhood":"Merriman Valley","city_fetched":"Akron,US","state":"OH","country":"United States","canonicalUrl":"https://foursquare.com/v/max-mcqs-sports-bar--grille/4c1c267bb9f876b058877b46","categoryId":"4bf58dd8d48988d11d941735","category":"Sports Bar","checkinsCount":952,"usersCount":400,"tipCount":9,"visitsCount":1043,"url":"http://www.maxmcqs.com","tier":2,"message":"Moderate","currency":"$","rating":6.7},{"name":"Brubaker's Pub","phone":"3308674677","twitter":"brubakerspubs","address":"1288 Weathervane Ln","lat":41.13675784138026,"lng":-81.55248937612699,"neighborhood":"Merriman Valley","city_fetched":"Akron,US","state":"OH","country":"United States","canonicalUrl":"https://foursquare.com/v/brubakers-pub/4af50aa0f964a5201df821e3","categoryId":"4bf58dd8d48988d116941735","category":"Bar","checkinsCount":1662,"usersCount":705,"tipCount":9,"visitsCount":1669,"url":"http://www.brubakerspub.com","tier":"","message":"","currency":"","rating":6.6},{"name":"Manny's Pub","phone":"3303755060","address":"394 Brown St","lat":41.07093587097905,"lng":-81.5098769490429,"neighborhood":"University of Akron","city_fetched":"Akron,US","state":"OH","country":"United States","canonicalUrl":"https://foursquare.com/v/mannys-pub/4da7781f5da3ef8bf14898fc","categoryId":"4bf58dd8d48988d11d941735","category":"Sports Bar","checkinsCount":2070,"usersCount":741,"tipCount":15,"visitsCount":2165,"tier":1,"message":"Cheap","currency":"$","rating":6.6},{"name":"The Basement at the Lakes","phone":"3306444000","address":"3420 Manchester Rd","lat":41.00671836,"lng":-81.55585476,"city_fetched":"Akron,US","state":"OH","country":"United States","canonicalUrl":"https://foursquare.com/v/the-basement-at-the-lakes/4b734e6ff964a52095a72de3","categoryId":"4bf58dd8d48988d116941735","category":"Bar","checkinsCount":894,"usersCount":362,"tipCount":5,"visitsCount":1035,"tier":"","message":"","currency":"","rating":6.6},{"name":"Brubaker's Pub","phone":"3306302237","twitter":"brubakerspubs","address":"1922 Buchholzer Blvd","lat":41.11491976544557,"lng":-81.4727636576442,"neighborhood":"Chapel Hill","city_fetched":"Akron,US","state":"OH","country":"United States","canonicalUrl":"https://foursquare.com/v/brubakers-pub/4b8acbfcf964a520a48132e3","categoryId":"4bf58dd8d48988d11b941735","category":"Pub","checkinsCount":1470,"usersCount":367,"tipCount":13,"visitsCount":1485,"tier":"","message":"","currency":"","rating":6.6},{"name":"Cliffside Key Club","phone":"3307249770","address":"2118 S Main St","lat":41.02923419,"lng":-81.527216,"neighborhood":"Firestone Park","city_fetched":"Akron,US","state":"OH","country":"United States","canonicalUrl":"https://foursquare.com/v/cliffside-key-club/4c3274bb213c2d7fa786355d","categoryId":"4bf58dd8d48988d118941735","category":"Dive Bar","checkinsCount":452,"usersCount":138,"tipCount":5,"visitsCount":488,"url":"http://www.cliffsidekeyclub.com","tier":"","message":"","currency":"","rating":6.5},{"name":"Miraj Hookah Bar","phone":"3302891572","address":"356 S Main St","lat":41.07631825,"lng":-81.522164,"neighborhood":"Downtown Akron","city_fetched":"Akron,US","state":"OH","country":"United States","canonicalUrl":"https://foursquare.com/v/miraj-hookah-bar/4b88c163f964a520060c32e3","categoryId":"4bf58dd8d48988d119941735","category":"Hookah Bar","checkinsCount":269,"usersCount":142,"tipCount":9,"visitsCount":269,"tier":"","message":"","currency":"","rating":6.5},{"name":"Trailhead Brewery","address":"1674 Merriman Rd","lat":41.13347982171005,"lng":-81.55013783017755,"neighborhood":"Merriman Valley","city_fetched":"Akron,US","state":"OH","country":"United States","canonicalUrl":"https://foursquare.com/v/trailhead-brewery/527186be11d2d6ac3416d82c","categoryId":"50327c8591d4c4b30a586d5d","category":"Brewery","checkinsCount":96,"usersCount":56,"tipCount":1,"visitsCount":96,"tier":"","message":"","currency":"","rating":6.5},{"name":"David B's Grill & Pub Montrose","phone":"3306661191","address":"3900 Medina Rd","lat":41.13495491195997,"lng":-81.63848697256373,"city_fetched":"Akron,US","state":"OH","country":"United States","canonicalUrl":"https://foursquare.com/v/david-bs-grill--pub-montrose/4bca7517cc8cd13aeedbbdcf","categoryId":"4bf58dd8d48988d116941735","category":"Bar","checkinsCount":1362,"usersCount":460,"tipCount":11,"visitsCount":1430,"url":"http://www.davidbs.com","tier":"","message":"","currency":"","rating":6.4},{"name":"Brubaker's Pub","phone":"3302537771","twitter":"brubakerspubs","address":"357 S Main St","lat":41.07614714447789,"lng":-81.52213324125627,"neighborhood":"Downtown Akron","city_fetched":"Akron,US","state":"OH","country":"United States","canonicalUrl":"https://foursquare.com/v/brubakers-pub/4adb96bdf964a520352921e3","categoryId":"4bf58dd8d48988d116941735","category":"Bar","checkinsCount":3493,"usersCount":1210,"tipCount":17,"visitsCount":3512,"tier":"","message":"","currency":"","rating":6.4},{"name":"Johnny J's Pub & Grille","phone":"3308656504","address":"1282 Weathervane Ln","lat":41.136666,"lng":-81.552805,"neighborhood":"Merriman Valley","city_fetched":"Akron,US","state":"OH","country":"United States","canonicalUrl":"https://foursquare.com/v/johnny-js-pub--grille/4b414835f964a52096c425e3","categoryId":"4bf58dd8d48988d116941735","category":"Bar","checkinsCount":6446,"usersCount":1991,"tipCount":27,"visitsCount":7157,"url":"http://www.johnnyjspub.com","tier":2,"message":"Moderate","currency":"$","rating":6.3},{"name":"The Score Draft Room","phone":"3305354844","address":"426 E Exchange St","lat":41.070941861143346,"lng":-81.50831730399939,"neighborhood":"University of Akron","city_fetched":"Akron,US","state":"OH","country":"United States","canonicalUrl":"https://foursquare.com/v/the-score-draft-room/54598175498e5e366256cf57","categoryId":"4bf58dd8d48988d11d941735","category":"Sports Bar","checkinsCount":57,"usersCount":51,"tipCount":0,"visitsCount":93,"url":"http://www.thescoreakron.com","tier":"","message":"","currency":"","rating":6.3},{"name":"Johnny J's Pub & Grille","phone":"3306447229","address":"3333 Manchester Rd","lat":41.00947829159472,"lng":-81.5536517303961,"city_fetched":"Akron,US","state":"OH","country":"United States","canonicalUrl":"https://foursquare.com/v/johnny-js-pub--grille/4be638ae2468c928e4390143","categoryId":"4bf58dd8d48988d116941735","category":"Bar","checkinsCount":622,"usersCount":220,"tipCount":3,"visitsCount":672,"url":"http://www.johnnyjspub.com","tier":2,"message":"Moderate","currency":"$","rating":6.3},{"name":"Johnny Malloy's","phone":"3306330100","address":"1954 Buchholzer Blvd","lat":41.11606763548183,"lng":-81.47297278261311,"neighborhood":"Chapel Hill","city_fetched":"Akron,US","state":"OH","country":"United States","canonicalUrl":"https://foursquare.com/v/johnny-malloys/4b725e64f964a52009792de3","categoryId":"4bf58dd8d48988d11d941735","category":"Sports Bar","checkinsCount":2755,"usersCount":910,"tipCount":20,"visitsCount":2853,"tier":2,"message":"Moderate","currency":"$","rating":6.3},{"name":"Barley House","phone":"3303740925","twitter":"barleyhouseoh","address":"222 S Main St","lat":41.079001327379125,"lng":-81.52046667422808,"neighborhood":"Downtown Akron","city_fetched":"Akron,US","state":"OH","country":"United States","canonicalUrl":"https://foursquare.com/v/barley-house/4af21951f964a520e2e521e3","categoryId":"4bf58dd8d48988d11b941735","category":"Pub","checkinsCount":6473,"usersCount":2882,"tipCount":40,"visitsCount":6864,"url":"http://www.barleyhouseakron.com","tier":2,"message":"Moderate","currency":"$","rating":6.3},{"name":"Fox & Hound","phone":"3304972593","twitter":"the_foxandhound","address":"4834 Everhard Road","lat":40.85381696580158,"lng":-81.43678734813027,"city_fetched":"Akron,US","state":"OH","country":"United States","canonicalUrl":"https://foursquare.com/v/fox--hound/4b317e08f964a520e40725e3","categoryId":"4bf58dd8d48988d11b941735","category":"Pub","checkinsCount":3219,"usersCount":1418,"tipCount":18,"visitsCount":3586,"url":"http://t.co/6Wlr3nrgdg","tier":"","message":"","currency":"","rating":6.2},{"name":"Kevin O'Bryan's Irish Pub","phone":"3307249782","address":"1761 S Main St","lat":41.03902005,"lng":-81.526643,"neighborhood":"Firestone Park","city_fetched":"Akron,US","state":"OH","country":"United States","canonicalUrl":"https://foursquare.com/v/kevin-obryans-irish-pub/4c9138d551d9b1f7cfb17e46","categoryId":"4bf58dd8d48988d11b941735","category":"Pub","checkinsCount":506,"usersCount":262,"tipCount":9,"visitsCount":634,"url":"http://www.kevinobryans.com","tier":"","message":"","currency":"","rating":6.1},{"name":"Jimmy's Martini Lounge","phone":"3307627211","address":"376 S Main St","lat":41.075808,"lng":-81.522441,"neighborhood":"Downtown Akron","city_fetched":"Akron,US","state":"OH","country":"United States","canonicalUrl":"https://foursquare.com/v/jimmys-martini-lounge/4be599407e2a76b0c6d01c9b","categoryId":"4bf58dd8d48988d121941735","category":"Lounge","checkinsCount":841,"usersCount":313,"tipCount":7,"visitsCount":871,"tier":"","message":"","currency":"","rating":6.1},{"name":"Longhitano's","lat":41.15206675484774,"lng":-81.38662482547709,"city_fetched":"Akron,US","state":"OH","country":"United States","canonicalUrl":"https://foursquare.com/v/longhitanos/50846e2ee4b0ac00f6c71c6d","categoryId":"4bf58dd8d48988d11d941735","category":"Sports Bar","checkinsCount":114,"usersCount":91,"tipCount":1,"visitsCount":168,"tier":"","message":"","currency":"","rating":6.1},{"name":"Karma Kafe","phone":"3305354000","address":"323 S Main St","lat":41.07692687405142,"lng":-81.52162952392418,"neighborhood":"Downtown Akron","city_fetched":"Akron,US","state":"OH","country":"United States","canonicalUrl":"https://foursquare.com/v/karma-kafe/4d29461ff7a9224b3961fd9f","categoryId":"4bf58dd8d48988d119941735","category":"Hookah Bar","checkinsCount":744,"usersCount":300,"tipCount":12,"visitsCount":752,"url":"http://www.karmakafeusa.com","tier":"","message":"","currency":"","rating":6},{"name":"Primos Night Club","address":"271 S Main St, Akron, OH 44308","lat":41.077935989816254,"lng":-81.52061136157454,"neighborhood":"Downtown Akron","city_fetched":"Akron,US","state":"OH","country":"United States","canonicalUrl":"https://foursquare.com/v/primos-night-club/4eab7659f5b90f34efe9aae1","categoryId":"4bf58dd8d48988d116941735","category":"Bar","checkinsCount":239,"usersCount":131,"tipCount":9,"visitsCount":239,"tier":"","message":"","currency":"","rating":6},{"name":"Brubaker's Pub","phone":"3306668021","twitter":"brubakerspubs","address":"4005 Medina Rd","lat":41.13635,"lng":-81.643231,"city_fetched":"Akron,US","state":"OH","country":"United States","canonicalUrl":"https://foursquare.com/v/brubakers-pub/4af342b3f964a5202eec21e3","categoryId":"4bf58dd8d48988d11b941735","category":"Pub","checkinsCount":1563,"usersCount":553,"tipCount":9,"visitsCount":1579,"url":"http://www.brubakerspub.com","tier":"","message":"","currency":"","rating":5.9},{"name":"Thee Diamond Royale","phone":"3304998577","address":"4675 Munson St NW","lat":40.84946262337517,"lng":-81.43645763397217,"city_fetched":"Akron,US","state":"OH","country":"United States","canonicalUrl":"https://foursquare.com/v/thee-diamond-royale/4be75831aecb76b05c905a80","categoryId":"4bf58dd8d48988d1d6941735","category":"Strip Club","checkinsCount":556,"usersCount":296,"tipCount":7,"visitsCount":631,"url":"http://www.dmclubs.com","tier":"","message":"","currency":"","rating":5.9},{"name":"Brubaker's Pub","phone":"3304751525","twitter":"brubakerspubs","address":"4141 Bridgewater Parkway","lat":41.180034,"lng":-81.48096,"city_fetched":"Akron,US","state":"OH","country":"United States","canonicalUrl":"https://foursquare.com/v/brubakers-pub/4b048ca6f964a520195522e3","categoryId":"4bf58dd8d48988d11b941735","category":"Pub","checkinsCount":2306,"usersCount":917,"tipCount":11,"visitsCount":2428,"tier":2,"message":"Moderate","currency":"$","rating":5.8},{"name":"Shots","phone":"3308353777","address":"1256 Weathervane Ln","lat":41.13659424871078,"lng":-81.55280540971509,"neighborhood":"Merriman Valley","city_fetched":"Akron,US","state":"OH","country":"United States","canonicalUrl":"https://foursquare.com/v/shots/4b5bed4cf964a5209d1d29e3","categoryId":"4bf58dd8d48988d116941735","category":"Bar","checkinsCount":1825,"usersCount":703,"tipCount":5,"visitsCount":1832,"tier":"","message":"","currency":"","rating":5.5},{"name":"Zar Nightclub","phone":"3302537777","twitter":"zarnightclub","address":"349 S Main St","lat":41.076345071354716,"lng":-81.52214931728582,"neighborhood":"Downtown Akron","city_fetched":"Akron,US","state":"OH","country":"United States","canonicalUrl":"https://foursquare.com/v/zar-nightclub/4e477044483b03d090ee811d","categoryId":"4bf58dd8d48988d11f941735","category":"Nightclub","checkinsCount":1251,"usersCount":441,"tipCount":9,"visitsCount":1264,"tier":"","message":"","currency":"","rating":5.3},{"name":"Adams Street Night Club","phone":"3304349794","address":"77 N Adams St","lat":41.07994149042089,"lng":-81.4982297479906,"city_fetched":"Akron,US","state":"OH","country":"United States","canonicalUrl":"https://foursquare.com/v/adams-street-night-club/4c0b1f59ffb8c9b6d6e26c61","categoryId":"4bf58dd8d48988d1d8941735","category":"Gay Bar","checkinsCount":1035,"usersCount":413,"tipCount":4,"visitsCount":1303,"url":"http://www.adamsstreetbar.com","tier":"","message":"","currency":"","rating":4.9}]