[{"name":"Druthers Brewing Co.","twitter":"druthersbrewing","address":"1053 Broadway","lat":42.665890053796964,"lng":-73.74112881492101,"city_fetched":"Albany","state":"NY","country":"United States","canonicalUrl":"https://foursquare.com/v/druthers-brewing-co/5565069c498e4238adc2b862","category":"Brewery","checkinsCount":623,"usersCount":695,"tipCount":13,"visitsCount":1142,"url":"http://druthersbrewing.com","tier":"","message":"","currency":"","rating":9.3},{"name":"Wolff's Biergarten And Wurst Haus","phone":"5184272461","twitter":"wolffsbiergartn","address":"895 Broadway","lat":42.66098759559596,"lng":-73.74501321718957,"city_fetched":"Albany","state":"NY","country":"United States","canonicalUrl":"https://foursquare.com/v/wolffs-biergarten-and-wurst-haus/4ab65a2ef964a520b57620e3","category":"Beer Garden","checkinsCount":8742,"usersCount":3379,"tipCount":44,"visitsCount":9648,"url":"http://www.wolffsbiergarten.com","tier":2,"message":"Moderate","currency":"$","rating":9},{"name":"The Beer Belly","twitter":"beerbellyalbany","address":"281 New Scotland Ave","lat":42.65330398256272,"lng":-73.78806413434529,"city_fetched":"Albany","state":"NY","country":"United States","canonicalUrl":"https://foursquare.com/v/the-beer-belly/52eda6b811d22fcf7886872e","category":"Bar","checkinsCount":632,"usersCount":216,"tipCount":9,"visitsCount":651,"url":"http://beerbellyalbany.com","tier":"","message":"","currency":"","rating":9},{"name":"The Ginger Man","phone":"5184275963","twitter":"albanygingerman","address":"234 Western Ave","lat":42.66226,"lng":-73.7788,"neighborhood":"Pine Hills","city_fetched":"Albany","state":"NY","country":"United States","canonicalUrl":"https://foursquare.com/v/the-ginger-man/4b4e7a6cf964a52032ef26e3","category":"Restaurant","checkinsCount":2004,"usersCount":860,"tipCount":48,"visitsCount":2249,"url":"http://www.albanygingerman.com/#BN423N","tier":3,"message":"Expensive","currency":"$","rating":8.9},{"name":"City Beer Hall","phone":"5184492337","twitter":"thecitybeerhall","address":"42 Howard St","lat":42.649572,"lng":-73.755022,"neighborhood":"Downtown Albany","city_fetched":"Albany","state":"NY","country":"United States","canonicalUrl":"https://foursquare.com/v/city-beer-hall/4ddebae4227106a58b92825b","category":"Pub","checkinsCount":6661,"usersCount":3181,"tipCount":53,"visitsCount":7512,"url":"http://www.thecitybeerhall.com","tier":2,"message":"Moderate","currency":"$","rating":8.9},{"name":"Ric Orlando's New World Bistro Bar & Restaurant","phone":"5186940520","address":"300 Delaware Ave","lat":42.642846072927746,"lng":-73.77708539305257,"neighborhood":"Delaware Avenue","city_fetched":"Albany","state":"NY","country":"United States","canonicalUrl":"https://foursquare.com/v/ric-orlandos-new-world-bistro-bar--restaurant/4a87370af964a520490320e3","category":"New American Restaurant","checkinsCount":2606,"usersCount":1559,"tipCount":44,"visitsCount":2985,"url":"http://newworldbistrobar.com","tier":2,"message":"Moderate","currency":"$","rating":8.8},{"name":"The Olde English Pub & Pantry","phone":"5184346533","address":"683 Broadway","lat":42.65407915897631,"lng":-73.74866195864911,"city_fetched":"Albany","state":"NY","country":"United States","canonicalUrl":"https://foursquare.com/v/the-olde-english-pub--pantry/4e67f20e8877dfcf3063f687","category":"Pub","checkinsCount":4300,"usersCount":2032,"tipCount":35,"visitsCount":5013,"url":"http://www.theoldeenglish.com","tier":2,"message":"Moderate","currency":"$","rating":8.8},{"name":"Umana Wine Bar and Restaurant","phone":"5189151699","twitter":"shawinas","address":"236 Washington Ave","lat":42.657259312988586,"lng":-73.76453752142831,"city_fetched":"Albany","state":"NY","country":"United States","canonicalUrl":"https://foursquare.com/v/umana-wine-bar-and-restaurant/52798c85498ead232547b479","category":"Wine Bar","checkinsCount":185,"usersCount":120,"tipCount":7,"visitsCount":219,"url":"http://www.umanarestaurant.com","tier":"","message":"","currency":"","rating":8.7},{"name":"McGeary's Irish Pub","phone":"5184631455","address":"4 Clinton Sq","lat":42.6539268073389,"lng":-73.75027083147006,"city_fetched":"Albany","state":"NY","country":"United States","canonicalUrl":"https://foursquare.com/v/mcgearys-irish-pub/4b4631acf964a520a61926e3","category":"Pub","checkinsCount":4506,"usersCount":1612,"tipCount":30,"visitsCount":5048,"url":"http://mcgearyspub.com","tier":2,"message":"Moderate","currency":"$","rating":8.6},{"name":"Capital City Gastropub","phone":"5184595077","twitter":"capitalcitypub","address":"261 New Scotland Ave","lat":42.65319006461221,"lng":-73.78699558637763,"neighborhood":"New Scotland","city_fetched":"Albany","state":"NY","country":"United States","canonicalUrl":"https://foursquare.com/v/capital-city-gastropub/4e792636483b48648b87b772","category":"Gastropub","checkinsCount":1025,"usersCount":482,"tipCount":13,"visitsCount":1236,"url":"http://www.capcitygastropub.com","tier":2,"message":"Moderate","currency":"$","rating":8.5},{"name":"Nine Pin Cider Works","phone":"5184499999","twitter":"ninepincider","address":"929 Broadway","lat":42.66182077033781,"lng":-73.7439559316964,"city_fetched":"Albany","state":"NY","country":"United States","canonicalUrl":"https://foursquare.com/v/nine-pin-cider-works/52b47af8498e05e952d06c39","category":"Brewery","checkinsCount":492,"usersCount":277,"tipCount":6,"visitsCount":626,"url":"http://ninepincider.com","tier":"","message":"","currency":"","rating":8.5},{"name":"Madison Pourhouse","phone":"5188139824","address":"1110 Madison Ave","lat":42.66609925703247,"lng":-73.79197150468826,"neighborhood":"Pine Hills","city_fetched":"Albany","state":"NY","country":"United States","canonicalUrl":"https://foursquare.com/v/madison-pourhouse/52eda9f111d2e3815798776e","category":"Pub","checkinsCount":1107,"usersCount":416,"tipCount":18,"visitsCount":1202,"url":"http://madisonpourhouse.bmtmgt.com","tier":"","message":"","currency":"","rating":8.4},{"name":"Speakeasy","phone":"5184492332","address":"42 Howard St","lat":42.64977996736014,"lng":-73.7545400279298,"neighborhood":"Downtown Albany","city_fetched":"Albany","state":"NY","country":"United States","canonicalUrl":"https://foursquare.com/v/speakeasy/51bd2fb2498eecb520ea8dc2","category":"Speakeasy","checkinsCount":264,"usersCount":171,"tipCount":9,"visitsCount":266,"url":"http://speakeasy518.com","tier":"","message":"","currency":"","rating":8.4},{"name":"C.H. Evans Brewing Co. at the Albany Pump Station","phone":"5184479000","twitter":"albanypumpstat","address":"19 Quackenbush Sq","lat":42.65448544395741,"lng":-73.74737977981567,"city_fetched":"Albany","state":"NY","country":"United States","canonicalUrl":"https://foursquare.com/v/ch-evans-brewing-co-at-the-albany-pump-station/4afdd0a4f964a520232b22e3","category":"Brewery","checkinsCount":5958,"usersCount":3528,"tipCount":65,"visitsCount":6549,"url":"http://www.evansale.com","tier":2,"message":"Moderate","currency":"$","rating":8.4},{"name":"Allen Street Pub","phone":"5185262455","address":"332 S Allen St","lat":42.65704328220968,"lng":-73.80228791505479,"neighborhood":"New Scotland","city_fetched":"Albany","state":"NY","country":"United States","canonicalUrl":"https://foursquare.com/v/allen-street-pub/4c6f60add97fa143dc13f3ca","category":"Bar","checkinsCount":951,"usersCount":158,"tipCount":12,"visitsCount":989,"url":"http://allenstreetpub.com","tier":1,"message":"Cheap","currency":"$","rating":8.3},{"name":"Funny Bone Comedy Club & Restaurant","address":"1 Crossgates Mall Rd","lat":42.68946352378467,"lng":-73.85124760800868,"city_fetched":"Albany","state":"NY","country":"United States","canonicalUrl":"https://foursquare.com/v/funny-bone-comedy-club--restaurant/55e384a2498e84aea357232a","category":"Comedy Club","checkinsCount":142,"usersCount":94,"tipCount":3,"visitsCount":154,"tier":"","message":"","currency":"","rating":8.1},{"name":"City Line Bar and Grill","phone":"5185041200","twitter":"citylinebar","address":"1200 Western Ave","lat":42.677069,"lng":-73.826563,"neighborhood":"Campus Area","city_fetched":"Albany","state":"NY","country":"United States","canonicalUrl":"https://foursquare.com/v/city-line-bar-and-grill/5418a56f498e21780cf4e3f1","category":"Bar","checkinsCount":535,"usersCount":660,"tipCount":6,"visitsCount":1208,"url":"http://citylinebar.com","tier":"","message":"","currency":"","rating":8.1},{"name":"Junior's","phone":"5189352024","address":"1094 Madison Ave","lat":42.66586258412769,"lng":-73.79171133041382,"neighborhood":"Pine Hills","city_fetched":"Albany","state":"NY","country":"United States","canonicalUrl":"https://foursquare.com/v/juniors/4b6b92c7f964a520a1102ce3","category":"Sports Bar","checkinsCount":5138,"usersCount":1481,"tipCount":23,"visitsCount":5559,"url":"http://www.bmtmgt.com","tier":2,"message":"Moderate","currency":"$","rating":8},{"name":"Madison Station","phone":"5186314444","twitter":"madstatalb","address":"851 Madison Ave","lat":42.66083000883262,"lng":-73.78219279471445,"neighborhood":"Pine Hills","city_fetched":"Albany","state":"NY","country":"United States","canonicalUrl":"https://foursquare.com/madstatalb","category":"Café","checkinsCount":874,"usersCount":218,"tipCount":7,"visitsCount":927,"url":"http://www.madisonstationalbany.com","tier":"","message":"","currency":"","rating":7.9},{"name":"Hill Street Cafe","phone":"5184623544","address":"180 Madison Ave","lat":42.646914,"lng":-73.757832,"city_fetched":"Albany","state":"NY","country":"United States","canonicalUrl":"https://foursquare.com/v/hill-street-cafe/4b7236c8f964a5202e742de3","category":"Pub","checkinsCount":1261,"usersCount":537,"tipCount":14,"visitsCount":1602,"url":"http://www.hill-street-cafe.com","tier":"","message":"","currency":"","rating":7.9},{"name":"Water Works Pub","phone":"5184659079","address":"76 Central Ave","lat":42.65898208404688,"lng":-73.76636459564034,"city_fetched":"Albany","state":"NY","country":"United States","canonicalUrl":"https://foursquare.com/v/water-works-pub/4b91c645f964a5206fd633e3","category":"Gay Bar","checkinsCount":4410,"usersCount":962,"tipCount":24,"visitsCount":4643,"url":"http://www.waterworkspub.com","tier":"","message":"","currency":"","rating":7.8},{"name":"Lynn's Uptown Sports Tavern","phone":"5184531566","address":"15 Colvin Ave","lat":42.677438384613176,"lng":-73.79657784409294,"city_fetched":"Albany","state":"NY","country":"United States","canonicalUrl":"https://foursquare.com/v/lynns-uptown-sports-tavern/4b7caa7ef964a5201ea02fe3","category":"Sports Bar","checkinsCount":703,"usersCount":284,"tipCount":10,"visitsCount":831,"tier":"","message":"","currency":"","rating":7.8},{"name":"New Madison Grille","phone":"5184341938","address":"331 Madison Ave","lat":42.65022676163726,"lng":-73.76376761723992,"city_fetched":"Albany","state":"NY","country":"United States","canonicalUrl":"https://foursquare.com/v/new-madison-grille/4ba3e052f964a5203e6938e3","category":"Pub","checkinsCount":746,"usersCount":190,"tipCount":5,"visitsCount":829,"tier":"","message":"","currency":"","rating":7.8},{"name":"Bombers Burrito Bar","phone":"5184639636","twitter":"bombersburritos","address":"258 Lark St","lat":42.6541719252299,"lng":-73.76590495589865,"neighborhood":"Center Square","city_fetched":"Albany","state":"NY","country":"United States","canonicalUrl":"https://foursquare.com/v/bombers-burrito-bar/4b034daef964a520734e22e3","category":"Burrito Place","checkinsCount":10518,"usersCount":3792,"tipCount":87,"visitsCount":11248,"url":"http://www.bombersburritobar.com/albany.html","tier":2,"message":"Moderate","currency":"$","rating":7.7},{"name":"Lanie's Cafe","phone":"5184385005","address":"471 Albany Shaker Rd","lat":42.70765542984009,"lng":-73.7771193,"city_fetched":"Albany","state":"NY","country":"United States","canonicalUrl":"https://foursquare.com/v/lanies-cafe/4b998b84f964a520738235e3","category":"Bar","checkinsCount":1467,"usersCount":733,"tipCount":17,"visitsCount":1683,"url":"http://www.laniescafe.com","tier":3,"message":"Expensive","currency":"$","rating":7.6},{"name":"Maggie's Sports Bar & Café","phone":"5189352661","address":"1186 Western Ave","lat":42.67674466127978,"lng":-73.82497608661652,"neighborhood":"Campus Area","city_fetched":"Albany","state":"NY","country":"United States","canonicalUrl":"https://foursquare.com/v/maggies-sports-bar--caf%C3%A9/4d06ac827d9ba35d4b507123","category":"Sports Bar","checkinsCount":478,"usersCount":271,"tipCount":3,"visitsCount":521,"url":"http://www.maggiessportsbaralbany.com","tier":"","message":"","currency":"","rating":7.6},{"name":"Riverfront Bar & Grill - The Barge","phone":"5183767058","address":"Corning Preserve","lat":42.652828405224504,"lng":-73.74442130327225,"city_fetched":"Albany","state":"NY","country":"United States","canonicalUrl":"https://foursquare.com/v/riverfront-bar--grill--the-barge/4bb659b22f70c9b675478530","category":"Bar","checkinsCount":714,"usersCount":446,"tipCount":5,"visitsCount":779,"tier":"","message":"","currency":"","rating":7.6},{"name":"The Wine Bar and Bistro","phone":"5184632881","twitter":"winebaronlark","address":"200 Lark St","lat":42.656127,"lng":-73.763814,"city_fetched":"Albany","state":"NY","country":"United States","canonicalUrl":"https://foursquare.com/v/the-wine-bar-and-bistro/4b494113f964a520936b26e3","category":"Wine Bar","checkinsCount":741,"usersCount":431,"tipCount":7,"visitsCount":745,"url":"http://winebaronlark.com","tier":"","message":"","currency":"","rating":7.6},{"name":"Blue 82","phone":"5184458082","twitter":"blue82albany","address":"82 N Pearl St","lat":42.652315,"lng":-73.751126,"city_fetched":"Albany","state":"NY","country":"United States","canonicalUrl":"https://foursquare.com/v/blue-82/4c23ce69c11dc9b661702424","category":"Cocktail Bar","checkinsCount":1261,"usersCount":515,"tipCount":8,"visitsCount":1264,"url":"http://blue82albany.com","tier":"","message":"","currency":"","rating":7.6},{"name":"Dave & Buster's","phone":"5183134500","twitter":"dnb_albany","address":"1 Crossgates Mall Rd","lat":42.68979176738098,"lng":-73.85228135153238,"city_fetched":"Albany","state":"NY","country":"United States","canonicalUrl":"https://foursquare.com/v/dave--busters/520a3d5d11d2aa759d24fcce","category":"American Restaurant","checkinsCount":2413,"usersCount":1562,"tipCount":51,"visitsCount":2805,"url":"http://daveandbusters.com","tier":"","message":"","currency":"","rating":7.6},{"name":"The Hollow","twitter":"thehollowalbany","address":"79 N Pearl St","lat":42.65244785758838,"lng":-73.75101780375586,"neighborhood":"Downtown Albany","city_fetched":"Albany","state":"NY","country":"United States","canonicalUrl":"https://foursquare.com/v/the-hollow/522bc57a11d2b45f00da95da","category":"American Restaurant","checkinsCount":884,"usersCount":638,"tipCount":8,"visitsCount":1056,"tier":2,"message":"Moderate","currency":"$","rating":7.5},{"name":"Pearl Street Pub","phone":"5187086932","address":"1 Steuben Pl","lat":42.651337032616524,"lng":-73.7513816356659,"neighborhood":"Downtown Albany","city_fetched":"Albany","state":"NY","country":"United States","canonicalUrl":"https://foursquare.com/v/pearl-street-pub/4b512033f964a520ba4327e3","category":"Pub","checkinsCount":5124,"usersCount":1474,"tipCount":20,"visitsCount":5238,"url":"http://thepearlstreetpub.com","tier":2,"message":"Moderate","currency":"$","rating":7.5},{"name":"The Barrel Saloon","phone":"5186940670","twitter":"thebarrelsaloon","address":"942 Broadway","lat":42.662409667528735,"lng":-73.74408809268711,"city_fetched":"Albany","state":"NY","country":"United States","canonicalUrl":"https://foursquare.com/v/the-barrel-saloon/4de96f59636555593e43fe0b","category":"Bar","checkinsCount":2034,"usersCount":928,"tipCount":10,"visitsCount":2189,"url":"http://barrelsaloon.com","tier":"","message":"","currency":"","rating":7.5},{"name":"Mamoun's Falafel","phone":"5184343901","address":"206 Washington Ave","lat":42.656846,"lng":-73.76384739,"city_fetched":"Albany","state":"NY","country":"United States","canonicalUrl":"https://foursquare.com/v/mamouns-falafel/4b49c941f964a520a07326e3","category":"Falafel Restaurant","checkinsCount":113,"usersCount":82,"tipCount":5,"visitsCount":113,"tier":"","message":"","currency":"","rating":7.4},{"name":"Beff's","phone":"5184822333","address":"95 Everett Rd","lat":42.69229337658564,"lng":-73.77529621124268,"city_fetched":"Albany","state":"NY","country":"United States","canonicalUrl":"https://foursquare.com/v/beffs/4b463363f964a520db1926e3","category":"Bar","checkinsCount":1108,"usersCount":491,"tipCount":8,"visitsCount":1241,"url":"http://www.beffs.com","tier":"","message":"","currency":"","rating":7.3},{"name":"Parish Public House","phone":"5184650444","twitter":"parishpubhouse","address":"388 Broadway","lat":42.647728,"lng":-73.750566,"neighborhood":"Downtown Albany","city_fetched":"Albany","state":"NY","country":"United States","canonicalUrl":"https://foursquare.com/v/parish-public-house/53d98e50498e695038f47803","category":"Cajun / Creole Restaurant","checkinsCount":152,"usersCount":188,"tipCount":6,"visitsCount":263,"url":"http://www.parishpublichouse.com","tier":2,"message":"Moderate","currency":"$","rating":7.3},{"name":"Golden Cue Billiard Lounge","phone":"5184599442","address":"1048 Central Ave","lat":42.68584249255786,"lng":-73.79696846008301,"city_fetched":"Albany","state":"NY","country":"United States","canonicalUrl":"https://foursquare.com/v/golden-cue-billiard-lounge/4b453789f964a520450826e3","category":"Pool Hall","checkinsCount":304,"usersCount":99,"tipCount":2,"visitsCount":307,"tier":"","message":"","currency":"","rating":7.3},{"name":"Rocks","phone":"5184723588","address":"77 Central Ave","lat":42.659268993187986,"lng":-73.76588197388388,"city_fetched":"Albany","state":"NY","country":"United States","canonicalUrl":"https://foursquare.com/v/rocks/4b9b0894f964a5205aed35e3","category":"Gay Bar","checkinsCount":4372,"usersCount":748,"tipCount":12,"visitsCount":4589,"url":"http://rocks77.com","tier":"","message":"","currency":"","rating":7.2},{"name":"Washington Tavern","phone":"5184270091","twitter":"wtsalbany","address":"250 Western Ave","lat":42.66204480415415,"lng":-73.77869978272491,"neighborhood":"Pine Hills","city_fetched":"Albany","state":"NY","country":"United States","canonicalUrl":"https://foursquare.com/wtsalbany","category":"Bar","checkinsCount":2951,"usersCount":1093,"tipCount":23,"visitsCount":3161,"url":"http://washingtontavern.net","tier":2,"message":"Moderate","currency":"$","rating":7.1},{"name":"Center Square Pub","phone":"5187292880","address":"32 Dove St","lat":42.65480129248483,"lng":-73.76198648426852,"city_fetched":"Albany","state":"NY","country":"United States","canonicalUrl":"https://foursquare.com/v/center-square-pub/4c5cc6b085a1e21ea6cf5711","category":"Bar","checkinsCount":2603,"usersCount":662,"tipCount":16,"visitsCount":2999,"tier":2,"message":"Moderate","currency":"$","rating":7.1},{"name":"Lionheart Blues Cafe","phone":"5184369530","address":"448 Madison Ave","lat":42.65257042841931,"lng":-73.76831230733418,"neighborhood":"Park South","city_fetched":"Albany","state":"NY","country":"United States","canonicalUrl":"https://foursquare.com/v/lionheart-blues-cafe/4b450978f964a520090226e3","category":"Pub","checkinsCount":4965,"usersCount":1561,"tipCount":17,"visitsCount":5256,"url":"http://thelionheartpub.com","tier":2,"message":"Moderate","currency":"$","rating":7},{"name":"The Merry Monk","phone":"5184636665","address":"90 N Pearl St","lat":42.6525613,"lng":-73.751091,"city_fetched":"Albany","state":"NY","country":"United States","canonicalUrl":"https://foursquare.com/v/the-merry-monk/4ebc774dbe7bf3d84ed69153","category":"Bar","checkinsCount":1723,"usersCount":1054,"tipCount":25,"visitsCount":1808,"url":"http://www.merrymonkalbany.com/ordereze/Default.aspx","tier":2,"message":"Moderate","currency":"$","rating":7},{"name":"Recovery Room Sports Grill","phone":"5183963838","address":"62 New Scotland Ave","lat":42.652471797118615,"lng":-73.77649938360967,"city_fetched":"Albany","state":"NY","country":"United States","canonicalUrl":"https://foursquare.com/v/recovery-room-sports-grill/4b450a43f964a520210226e3","category":"Bar","checkinsCount":2410,"usersCount":1150,"tipCount":23,"visitsCount":2514,"url":"http://recoverysportsgrill.com","tier":2,"message":"Moderate","currency":"$","rating":7},{"name":"Ship's Pub","phone":"5182361439","twitter":"shipspubny","address":"360 Northern Blvd","lat":42.67570455101179,"lng":-73.74904694010415,"city_fetched":"Albany","state":"NY","country":"United States","canonicalUrl":"https://foursquare.com/v/ships-pub/4e09fb81aeb74c3991216239","category":"Bar","checkinsCount":1725,"usersCount":545,"tipCount":13,"visitsCount":2077,"tier":"","message":"","currency":"","rating":6.9}]