[{"name":"Big Island Bar And Grill","address":"2306 E Main St","lat":43.65541887241158,"lng":-93.33545085632838,"city_fetched":"Albert Lea,US","state":"MN","country":"United States","canonicalUrl":"https://foursquare.com/v/big-island-bar-and-grill/4c8af5341eafb1f742987f35","categoryId":"4bf58dd8d48988d11d941735","category":"Sports Bar","checkinsCount":183,"usersCount":130,"tipCount":6,"visitsCount":190,"tier":"","message":"","currency":"","rating":7.1},{"name":"Skol Tavern","phone":"5073792616","address":"820 Happy Trails Ln","lat":43.656936225707945,"lng":-93.31781031381493,"city_fetched":"Albert Lea,US","state":"MN","country":"United States","canonicalUrl":"https://foursquare.com/v/skol-tavern/51830eed498e0f165c2ac746","categoryId":"4bf58dd8d48988d11e941735","category":"Cocktail Bar","checkinsCount":118,"usersCount":73,"tipCount":6,"visitsCount":120,"url":"http://www.trailstravelcenter.com","tier":"","message":"","currency":"","rating":7.1},{"name":"Harold's Bar","phone":"5073730965","address":"1318 E Main St","lat":43.651841168560445,"lng":-93.35222679546465,"city_fetched":"Albert Lea,US","state":"MN","country":"United States","canonicalUrl":"https://foursquare.com/v/harolds-bar/4f32bb0619836c91c7f43b4b","categoryId":"4bf58dd8d48988d116941735","category":"Bar","checkinsCount":71,"usersCount":58,"tipCount":0,"visitsCount":105,"tier":"","message":"","currency":"","rating":6.1}]