[{"name":"Willy McCoys","lat":45.23333182576833,"lng":-93.66368616822906,"city_fetched":"Albertville","state":"MN","country":"United States","canonicalUrl":"https://foursquare.com/v/willy-mccoys/5230bf6011d2a669139da49b","category":"Bar","checkinsCount":1084,"usersCount":476,"tipCount":6,"visitsCount":1786,"tier":2,"message":"Moderate","currency":"$","rating":8},{"name":"Geez Sports Bar And Grill","phone":"7634972505","address":"5788 Main Ave NE","lat":45.235363841056824,"lng":-93.6537132,"city_fetched":"Albertville","state":"MN","country":"United States","canonicalUrl":"https://foursquare.com/v/geez-sports-bar-and-grill/4b5baae1f964a520ce0e29e3","category":"Bar","checkinsCount":2595,"usersCount":246,"tipCount":7,"visitsCount":2696,"tier":"","message":"","currency":"","rating":7.3},{"name":"Neighbors Bar and Grill","phone":"7635156300","address":"5772 Main Ave NE","lat":45.235084891319275,"lng":-93.653911,"city_fetched":"Albertville","state":"MN","country":"United States","canonicalUrl":"https://foursquare.com/v/neighbors-bar-and-grill/4cc5e0e5806246885ed53e2f","category":"Bar","checkinsCount":1751,"usersCount":399,"tipCount":7,"visitsCount":1955,"url":"http://neighborseateryandsaloon.com","tier":"","message":"","currency":"","rating":7.2},{"name":"152 Club Bar & Grill","phone":"7634974101","address":"5440 Main St","lat":45.235652,"lng":-93.653618,"city_fetched":"Albertville","state":"MN","country":"United States","canonicalUrl":"https://foursquare.com/v/152-club-bar--grill/4afe1237f964a520aa2d22e3","category":"Bar","checkinsCount":4032,"usersCount":317,"tipCount":5,"visitsCount":4374,"url":"http://152club.com","tier":1,"message":"Cheap","currency":"$","rating":7.2}]