[{"name":"Marble Brewery","phone":"5052432739","twitter":"marblebrewery","address":"111 Marble Ave NW","lat":35.092749463798356,"lng":-106.64662193390815,"city_fetched":"Albuquerque","state":"NM","country":"United States","canonicalUrl":"https://foursquare.com/v/marble-brewery/4b48d3b7f964a520df5826e3","category":"Brewery","checkinsCount":6329,"usersCount":2695,"tipCount":65,"visitsCount":8175,"url":"http://www.marblebrewery.com","tier":2,"message":"Moderate","currency":"$","rating":9.4},{"name":"Total Wine & More","phone":"5058908467","twitter":"totalwine","address":"10420 Coors Bypass NW","lat":35.206812,"lng":-106.657699,"neighborhood":"Cottonwood Corners","city_fetched":"Albuquerque","state":"NM","country":"United States","canonicalUrl":"https://foursquare.com/v/total-wine--more/51112243e4b0162f4239344a","category":"Wine Shop","checkinsCount":1043,"usersCount":683,"tipCount":10,"visitsCount":1714,"url":"http://www.totalwine.com","tier":"","message":"","currency":"","rating":9.2},{"name":"Anodyne","phone":"5052441820","address":"409 Central Ave NW","lat":35.084808,"lng":-106.65199638333333,"neighborhood":"Albuquerque Original Townsite","city_fetched":"Albuquerque","state":"NM","country":"United States","canonicalUrl":"https://foursquare.com/v/anodyne/4b567320f964a520dc1028e3","category":"Bar","checkinsCount":4329,"usersCount":1345,"tipCount":46,"visitsCount":4576,"url":"http://theanodyne.com","tier":1,"message":"Cheap","currency":"$","rating":9},{"name":"Two Fools Tavern","phone":"5052657447","address":"3211 Central Ave NE","lat":35.08059,"lng":-106.60897943333333,"neighborhood":"Nob Hill","city_fetched":"Albuquerque","state":"NM","country":"United States","canonicalUrl":"https://foursquare.com/v/two-fools-tavern/4b43e4bbf964a52066ed25e3","category":"Pub","checkinsCount":3989,"usersCount":1800,"tipCount":48,"visitsCount":4348,"url":"http://2foolstavern.com","tier":2,"message":"Moderate","currency":"$","rating":8.9},{"name":"Total Wine & More","phone":"5058302080","twitter":"totalwine","address":"6701 Uptown Blvd NE","lat":35.104486,"lng":-106.569995,"neighborhood":"Uptown","city_fetched":"Albuquerque","state":"NM","country":"United States","canonicalUrl":"https://foursquare.com/v/total-wine--more/518844fb498e8f6b3b736c0f","category":"Wine Shop","checkinsCount":1023,"usersCount":1033,"tipCount":9,"visitsCount":2468,"url":"http://www.totalwine.com","tier":"","message":"","currency":"","rating":8.9},{"name":"Canteen Brewhouse","phone":"5058812737","address":"2381 Aztec Rd NE","lat":35.120412605181606,"lng":-106.61775884947019,"city_fetched":"Albuquerque","state":"NM","country":"United States","canonicalUrl":"https://foursquare.com/v/canteen-brewhouse/4db22c4804372dd3df6b153e","category":"Brewery","checkinsCount":2336,"usersCount":1045,"tipCount":25,"visitsCount":2899,"url":"http://www.ilvicino.com","tier":1,"message":"Cheap","currency":"$","rating":8.9},{"name":"La Cumbre Brewing Company","phone":"5058720225","twitter":"lacumbrebrewing","address":"3313 Girard Blvd NE","lat":35.117861,"lng":-106.613867,"city_fetched":"Albuquerque","state":"NM","country":"United States","canonicalUrl":"https://foursquare.com/v/la-cumbre-brewing-company/4d0441e8347da1cd16c72a8f","category":"Brewery","checkinsCount":4964,"usersCount":1572,"tipCount":50,"visitsCount":5956,"url":"http://lacumbrebrewing.com","tier":2,"message":"Moderate","currency":"$","rating":8.9},{"name":"Farina Pizzeria","phone":"5052430130","address":"510 Central Ave SE","lat":35.08313636792076,"lng":-106.64190134239362,"city_fetched":"Albuquerque","state":"NM","country":"United States","canonicalUrl":"https://foursquare.com/v/farina-pizzeria/4b902038f964a520397733e3","category":"Pizza Place","checkinsCount":1735,"usersCount":982,"tipCount":32,"visitsCount":2007,"url":"http://farinapizzeria.com","tier":2,"message":"Moderate","currency":"$","rating":8.8},{"name":"Santa Fe Brewing Co. Albuquerque Taproom","address":"3600 Cutler Ave NE","lat":35.105866307095795,"lng":-106.60344386524051,"city_fetched":"Albuquerque","state":"NM","country":"United States","canonicalUrl":"https://foursquare.com/v/santa-fe-brewing-co-albuquerque-taproom/56033867498e35c784698cd3","category":"Brewery","checkinsCount":372,"usersCount":226,"tipCount":4,"visitsCount":440,"tier":"","message":"","currency":"","rating":8.8},{"name":"Seasons Rotisserie & Grill","phone":"5057665100","address":"2031 Mountain Rd NW","lat":35.0989896276872,"lng":-106.66908068591407,"city_fetched":"Albuquerque","state":"NM","country":"United States","canonicalUrl":"https://foursquare.com/v/seasons-rotisserie--grill/4b623d3bf964a520083e2ae3","category":"New American Restaurant","checkinsCount":1267,"usersCount":1039,"tipCount":22,"visitsCount":1632,"url":"http://seasonsabq.com","tier":3,"message":"Expensive","currency":"$","rating":8.6},{"name":"Red Door Brewing Co.","phone":"5056336675","twitter":"reddoorbrewing","address":"1001 Candelaria Rd NE","lat":35.11587418266621,"lng":-106.62919079632076,"city_fetched":"Albuquerque","state":"NM","country":"United States","canonicalUrl":"https://foursquare.com/v/red-door-brewing-co/5418f860498ebf99578610cf","category":"Brewery","checkinsCount":286,"usersCount":307,"tipCount":5,"visitsCount":564,"url":"http://reddoorbrewing.com","tier":"","message":"","currency":"","rating":8.6},{"name":"Nexus Brewery","phone":"5052424100","twitter":"nexusbrewery","address":"4730 Pan American East Fwy NE Ste D","lat":35.1337928,"lng":-106.6059314002954,"neighborhood":"Renaissance","city_fetched":"Albuquerque","state":"NM","country":"United States","canonicalUrl":"https://foursquare.com/nexusbrewery","category":"Brewery","checkinsCount":1818,"usersCount":1254,"tipCount":45,"visitsCount":2339,"url":"http://www.nexusbrewery.com","tier":1,"message":"Cheap","currency":"$","rating":8.5},{"name":"Ponderosa Brewing Company","address":"1761 Bellamah NW","lat":35.101516554155666,"lng":-106.6642674902824,"city_fetched":"Albuquerque","state":"NM","country":"United States","canonicalUrl":"https://foursquare.com/v/ponderosa-brewing-company/540bcf11498e77f0f8d8d99f","category":"Brewery","checkinsCount":241,"usersCount":257,"tipCount":8,"visitsCount":477,"url":"http://ponderosabrewing.net","tier":"","message":"","currency":"","rating":8.5},{"name":"Zinc Wine Bar & Bistro","phone":"5052549462","address":"3009 Central Ave NE","lat":35.08088214785379,"lng":-106.6114354133606,"neighborhood":"Nob Hill","city_fetched":"Albuquerque","state":"NM","country":"United States","canonicalUrl":"https://foursquare.com/v/zinc-wine-bar--bistro/4b987640f964a520374335e3","category":"Wine Bar","checkinsCount":1823,"usersCount":1122,"tipCount":25,"visitsCount":2030,"url":"http://www.zincabq.com","tier":"","message":"","currency":"","rating":8.5},{"name":"Tractor Brewery Pub","phone":"5054335654","address":"118 Tulane Dr SE","lat":35.07948433333333,"lng":-106.60690001666667,"neighborhood":"Nob Hill","city_fetched":"Albuquerque","state":"NM","country":"United States","canonicalUrl":"https://foursquare.com/v/tractor-brewery-pub/4e3c90198877b00cfc3c06db","category":"Brewery","checkinsCount":3892,"usersCount":1358,"tipCount":30,"visitsCount":4281,"url":"http://www.getplowed.com","tier":1,"message":"Cheap","currency":"$","rating":8.4},{"name":"Marble Brewery Tap Room Westside","phone":"5055084368","address":"5740 Night Whisper Rd NW","lat":35.21603340613913,"lng":-106.69845153275041,"city_fetched":"Albuquerque","state":"NM","country":"United States","canonicalUrl":"https://foursquare.com/v/marble-brewery-tap-room-westside/50871ed6e4b0e0d9b1d8e62c","category":"Brewery","checkinsCount":2061,"usersCount":477,"tipCount":12,"visitsCount":3196,"tier":2,"message":"Moderate","currency":"$","rating":8.4},{"name":"Brickyard Pizza","phone":"5052622216","twitter":"brickyardabq","address":"2216 Central Ave SE","lat":35.08085177107804,"lng":-106.62113195930635,"neighborhood":"University Heights","city_fetched":"Albuquerque","state":"NM","country":"United States","canonicalUrl":"https://foursquare.com/brickyardabq","category":"Pizza Place","checkinsCount":1923,"usersCount":745,"tipCount":31,"visitsCount":2083,"url":"http://www.brickyardpizza.com","tier":2,"message":"Moderate","currency":"$","rating":8.4},{"name":"Torino's @ Home","phone":"5057974491","address":"7600 Jefferson St NE","lat":35.16564189099409,"lng":-106.59060320640802,"city_fetched":"Albuquerque","state":"NM","country":"United States","canonicalUrl":"https://foursquare.com/v/torinos--home/4bfc38cdda7120a1a2bb49fd","category":"Bar","checkinsCount":517,"usersCount":280,"tipCount":15,"visitsCount":599,"url":"https://www.torinosfoods.com","tier":2,"message":"Moderate","currency":"$","rating":8.4},{"name":"Bistronomy B2B","phone":"5052622222","address":"3118 Central Ave SE","lat":35.08033833627218,"lng":-106.61004066467285,"neighborhood":"Nob Hill","city_fetched":"Albuquerque","state":"NM","country":"United States","canonicalUrl":"https://foursquare.com/v/bistronomy-b2b/504918a5e412350fd67aba77","category":"Burger Joint","checkinsCount":1147,"usersCount":669,"tipCount":33,"visitsCount":1372,"url":"http://bistronomyb2b.com","tier":2,"message":"Moderate","currency":"$","rating":8.4},{"name":"Bow & Arrow Brewing Co.","address":"602 McKnight Ave NW","lat":35.104832934331256,"lng":-106.65085903988334,"city_fetched":"Albuquerque","state":"NM","country":"United States","canonicalUrl":"https://foursquare.com/v/bow--arrow-brewing-co/56b40528498e295f024f5c9e","category":"Brewery","checkinsCount":207,"usersCount":144,"tipCount":4,"visitsCount":359,"tier":"","message":"","currency":"","rating":8.3},{"name":"Skidmore's Holiday Bowl","phone":"5052683308","twitter":"holidaybowlabq","address":"7515 Lomas Blvd NE","lat":35.08777369514716,"lng":-106.56366391543412,"neighborhood":"Uptown","city_fetched":"Albuquerque","state":"NM","country":"United States","canonicalUrl":"https://foursquare.com/holidaybowlabq","category":"Bowling Alley","checkinsCount":2080,"usersCount":720,"tipCount":12,"visitsCount":2455,"url":"http://www.holidaybowlabq.com","tier":"","message":"","currency":"","rating":8.3},{"name":"Boxing Bear Brewing Company","address":"10200 Corrales Rd NW","lat":35.20286748051709,"lng":-106.64575264655231,"city_fetched":"Albuquerque","state":"NM","country":"United States","canonicalUrl":"https://foursquare.com/v/boxing-bear-brewing-company/53d29874498e7657f4365fef","category":"Brewery","checkinsCount":366,"usersCount":254,"tipCount":4,"visitsCount":546,"url":"http://boxingbearbrewing.com","tier":"","message":"","currency":"","rating":8.3},{"name":"Geckos Bar & Tapas","phone":"5052621848","twitter":"geckosbar","address":"3500 Central Ave SE","lat":35.07948627337262,"lng":-106.60535477725729,"neighborhood":"Nob Hill","city_fetched":"Albuquerque","state":"NM","country":"United States","canonicalUrl":"https://foursquare.com/v/geckos-bar--tapas/4b367883f964a520383625e3","category":"Pub","checkinsCount":2590,"usersCount":836,"tipCount":14,"visitsCount":2735,"url":"http://geckosbar.com","tier":2,"message":"Moderate","currency":"$","rating":8.2},{"name":"Pizzeria Luca","phone":"5057978086","twitter":"pizzerialuca","address":"8850 Holly Ave NE","lat":35.1751170673321,"lng":-106.54526128279906,"city_fetched":"Albuquerque","state":"NM","country":"United States","canonicalUrl":"https://foursquare.com/v/pizzeria-luca/4eac432b9a522a65af821740","category":"Pizza Place","checkinsCount":373,"usersCount":188,"tipCount":9,"visitsCount":447,"url":"http://pizzerialuca.com","tier":"","message":"","currency":"","rating":8.1},{"name":"Cervantes Restaurant & Lounge","phone":"5052622253","twitter":"abqcervantes","address":"5801 Gibson Blvd SE","lat":35.058576,"lng":-106.577305,"city_fetched":"Albuquerque","state":"NM","country":"United States","canonicalUrl":"https://foursquare.com/v/cervantes-restaurant--lounge/4b7c3483f964a5205c842fe3","category":"Mexican Restaurant","checkinsCount":1010,"usersCount":825,"tipCount":20,"visitsCount":1340,"url":"http://cervantesabq.com","tier":"","message":"","currency":"","rating":8.1},{"name":"Effex Night Club","phone":"5058428870","address":"100 5th St. NW","lat":35.08431031,"lng":-106.65263856666667,"city_fetched":"Albuquerque","state":"NM","country":"United States","canonicalUrl":"https://foursquare.com/v/effex-night-club/4c130d137f7f2d7ff98dde68","category":"Gay Bar","checkinsCount":3068,"usersCount":902,"tipCount":18,"visitsCount":3292,"url":"http://effexabq.com","tier":2,"message":"Moderate","currency":"$","rating":8.1},{"name":"St. Clair Winery & Bistro","phone":"5052439916","twitter":"stclairwinery","address":"901 Rio Grande Blvd NW","lat":35.10280578529207,"lng":-106.67115914407943,"city_fetched":"Albuquerque","state":"NM","country":"United States","canonicalUrl":"https://foursquare.com/v/st-clair-winery--bistro/4b775a3cf964a52062942ee3","category":"Winery","checkinsCount":1474,"usersCount":1174,"tipCount":31,"visitsCount":1671,"url":"http://stclairwinery.com","tier":"","message":"","currency":"","rating":8.1},{"name":"Rio Bravo Brewing Company","lat":35.10363785111355,"lng":-106.6451596909454,"neighborhood":"Wells Park","city_fetched":"Albuquerque","state":"NM","country":"United States","canonicalUrl":"https://foursquare.com/v/rio-bravo-brewing-company/558f21f8498e8d039b91f495","category":"Brewery","checkinsCount":109,"usersCount":136,"tipCount":0,"visitsCount":242,"tier":"","message":"","currency":"","rating":8.1},{"name":"Bosque Brewing Public House","phone":"5057507596","twitter":"bosquebrewing","lat":35.08043511254744,"lng":-106.613154006332,"neighborhood":"Nob Hill","city_fetched":"Albuquerque","state":"NM","country":"United States","canonicalUrl":"https://foursquare.com/v/bosque-brewing-public-house/54aee37a498e561aff4a0d21","category":"Brewery","checkinsCount":389,"usersCount":299,"tipCount":3,"visitsCount":666,"url":"http://bosuqebrewing.com","tier":"","message":"","currency":"","rating":8},{"name":"Quarter Celtic Brewpub","phone":"5055031387","twitter":"quarterceltic","address":"1100 San Mateo Blvd NE","lat":35.088561,"lng":-106.585129,"city_fetched":"Albuquerque","state":"NM","country":"United States","canonicalUrl":"https://foursquare.com/v/quarter-celtic-brewpub/56c90475cd10f93f482c3b5d","category":"Brewery","checkinsCount":98,"usersCount":87,"tipCount":5,"visitsCount":172,"url":"http://quartercelticbrewpub.com","tier":"","message":"","currency":"","rating":8},{"name":"Tractor Brewing Company","address":"1800 4th St NW","lat":35.10226208708763,"lng":-106.6478942084205,"neighborhood":"Wells Park","city_fetched":"Albuquerque","state":"NM","country":"United States","canonicalUrl":"https://foursquare.com/v/tractor-brewing-company/51f44e63498ed2c2e373271c","category":"Brewery","checkinsCount":900,"usersCount":493,"tipCount":9,"visitsCount":1726,"tier":1,"message":"Cheap","currency":"$","rating":8},{"name":"Art Bar by Catalyst Club","phone":"5052000029","twitter":"artbarabq","address":"119 Gold Ave SW","lat":35.08327101008369,"lng":-106.64927011547474,"city_fetched":"Albuquerque","state":"NM","country":"United States","canonicalUrl":"https://foursquare.com/v/art-bar-by-catalyst-club/51d72638498eb2a2a01502a4","category":"Bar","checkinsCount":664,"usersCount":134,"tipCount":13,"visitsCount":699,"url":"http://www.catalystclubnm.org","tier":"","message":"","currency":"","rating":7.8},{"name":"Sidetrack Brewing Company","phone":"5052886468","twitter":"sidetrackbrew","address":"413 2nd St SW","lat":35.08077,"lng":-106.65,"city_fetched":"Albuquerque","state":"NM","country":"United States","canonicalUrl":"https://foursquare.com/v/sidetrack-brewing-company/5692e516498e73a199d60452","category":"Brewery","checkinsCount":136,"usersCount":38,"tipCount":4,"visitsCount":143,"url":"http://sidetrackbrewing.net","tier":"","message":"","currency":"","rating":7.8},{"name":"Howie's Sports Page","phone":"5052924263","address":"12500 Montgomery Blvd NE #133","lat":35.129891080181906,"lng":-106.49991750315999,"neighborhood":"Eldorado Heights","city_fetched":"Albuquerque","state":"NM","country":"United States","canonicalUrl":"https://foursquare.com/v/howies-sports-page/4bbc0103e436ef3b37295664","category":"Sports Bar","checkinsCount":355,"usersCount":138,"tipCount":5,"visitsCount":519,"url":"http://howiessportspage.com","tier":1,"message":"Cheap","currency":"$","rating":7.8},{"name":"Sandia Resort and Casino","phone":"5057967500","twitter":"sandia_casino","address":"30 Rainbow Rd NE","lat":35.20635761473053,"lng":-106.56688655333203,"city_fetched":"Albuquerque","state":"NM","country":"United States","canonicalUrl":"https://foursquare.com/v/sandia-resort-and-casino/4b4aba59f964a5209f8d26e3","category":"Casino","checkinsCount":10198,"usersCount":4575,"tipCount":55,"visitsCount":12729,"url":"http://www.sandiacasino.com","tier":"","message":"","currency":"","rating":7.7},{"name":"Lizard Tail Brewing","address":"9800 Montgomery Blvd NE Ste 7","lat":35.129867160138275,"lng":-106.53167036501652,"city_fetched":"Albuquerque","state":"NM","country":"United States","canonicalUrl":"https://foursquare.com/v/lizard-tail-brewing/53f50d08498ebfcd29a15cca","category":"Brewery","checkinsCount":307,"usersCount":99,"tipCount":0,"visitsCount":508,"tier":"","message":"","currency":"","rating":7.7},{"name":"Adieux Cafe","phone":"5052430028","address":"420 Central Ave SW","lat":35.084622,"lng":-106.652655,"city_fetched":"Albuquerque","state":"NM","country":"United States","canonicalUrl":"https://foursquare.com/v/adieux-cafe/51b3c846498efda7cf87fcbf","category":"Gastropub","checkinsCount":187,"usersCount":97,"tipCount":6,"visitsCount":196,"tier":"","message":"","currency":"","rating":7.7},{"name":"Spectators-Sports Bar & Grill","phone":"5052751166","address":"5850 Eubank Blvd NE #59","lat":35.14625918185804,"lng":-106.52685448626553,"neighborhood":"Mountain Run","city_fetched":"Albuquerque","state":"NM","country":"United States","canonicalUrl":"https://foursquare.com/v/spectatorssports-bar--grill/4bc7a3af14d7952146d067e9","category":"Bar","checkinsCount":1050,"usersCount":302,"tipCount":9,"visitsCount":1273,"url":"http://thesportsclubsnm.com","tier":"","message":"","currency":"","rating":7.7},{"name":"Chama River Brewing Company","phone":"5053421800","twitter":"chamariverbrew","address":"4939 Pan American West Fwy NE","lat":35.13999044895172,"lng":-106.59993165,"neighborhood":"Jefferson Commons","city_fetched":"Albuquerque","state":"NM","country":"United States","canonicalUrl":"https://foursquare.com/v/chama-river-brewing-company/4b92da6bf964a520ab2134e3","category":"Brewery","checkinsCount":2675,"usersCount":1633,"tipCount":39,"visitsCount":3058,"url":"http://bluecorncafe.com","tier":2,"message":"Moderate","currency":"$","rating":7.7},{"name":"Tours Of Old Town (Ghost Edition)","phone":"5052468687","twitter":"toursofoldtown","address":"303 Romero St NW","lat":35.096598,"lng":-106.670954,"city_fetched":"Albuquerque","state":"NM","country":"United States","canonicalUrl":"https://foursquare.com/v/tours-of-old-town-ghost-edition/513bf5cce4b09b145075042e","category":"Historic Site","checkinsCount":28,"usersCount":28,"tipCount":8,"visitsCount":28,"url":"http://toursofoldtown.com","tier":"","message":"","currency":"","rating":7.7},{"name":"Ibiza","phone":"5052429090","twitter":"hotelandaluz","address":"125 2nd St NW","lat":35.08508008333333,"lng":-106.64920503,"neighborhood":"Albuquerque Original Townsite","city_fetched":"Albuquerque","state":"NM","country":"United States","canonicalUrl":"https://foursquare.com/v/ibiza/4bc0c567461576b012bb7a32","category":"Hotel Bar","checkinsCount":491,"usersCount":323,"tipCount":6,"visitsCount":491,"url":"http://www.hotelandaluz.com","tier":"","message":"","currency":"","rating":7.6},{"name":"Bosque Brewing Company","phone":"5057507596","address":"8900 San Mateo Blvd NE","lat":35.18681715912332,"lng":-106.5859874329632,"city_fetched":"Albuquerque","state":"NM","country":"United States","canonicalUrl":"https://foursquare.com/v/bosque-brewing-company/508aee72e4b0c2bf3ef6f0d8","category":"Brewery","checkinsCount":733,"usersCount":488,"tipCount":10,"visitsCount":1049,"url":"http://bosquebrewing.com","tier":2,"message":"Moderate","currency":"$","rating":7.6},{"name":"The Barley Room","phone":"5053320800","twitter":"thebarleyroom","address":"5200 Eubank Blvd NE Ste B5","lat":35.138069748118184,"lng":-106.53143445921219,"neighborhood":"Promenade","city_fetched":"Albuquerque","state":"NM","country":"United States","canonicalUrl":"https://foursquare.com/v/the-barley-room/4b500891f964a5208b1b27e3","category":"Bar","checkinsCount":1512,"usersCount":498,"tipCount":39,"visitsCount":1926,"url":"http://www.barleyroom.com","tier":2,"message":"Moderate","currency":"$","rating":7.5},{"name":"Duel Brewing ABQ","phone":"5055083330","twitter":"duelbrewing","address":"606 Central Ave SW","lat":35.084863216464704,"lng":-106.65441113384772,"city_fetched":"Albuquerque","state":"NM","country":"United States","canonicalUrl":"https://foursquare.com/v/duel-brewing-abq/56a0246a498eb269f0b69b4c","category":"Brewery","checkinsCount":79,"usersCount":78,"tipCount":1,"visitsCount":123,"url":"http://duelbrewing.com","tier":"","message":"","currency":"","rating":7.5},{"name":"Scalo Northern Italian Grill","phone":"5052558781","address":"3500 Central Ave SE","lat":35.07966868744437,"lng":-106.60535477725729,"neighborhood":"Nob Hill","city_fetched":"Albuquerque","state":"NM","country":"United States","canonicalUrl":"https://foursquare.com/v/scalo-northern-italian-grill/4b50b378f964a5203f2e27e3","category":"Italian Restaurant","checkinsCount":1428,"usersCount":780,"tipCount":9,"visitsCount":1469,"url":"http://scalonobhill.com","tier":2,"message":"Moderate","currency":"$","rating":7.5},{"name":"Sister Bar","twitter":"sisterbar","lat":35.08474638716806,"lng":-106.6520564978256,"neighborhood":"Albuquerque Original Townsite","city_fetched":"Albuquerque","state":"NM","country":"United States","canonicalUrl":"https://foursquare.com/v/sister-bar/5042e0ebe4b0152f584c9218","category":"Bar","checkinsCount":1194,"usersCount":540,"tipCount":13,"visitsCount":1234,"url":"http://sisterthebar.com","tier":2,"message":"Moderate","currency":"$","rating":7.5},{"name":"Stone Face Tavern","phone":"5057972756","address":"8201 San Pedro Dr NE","lat":35.175939007953296,"lng":-106.57831004451262,"city_fetched":"Albuquerque","state":"NM","country":"United States","canonicalUrl":"https://foursquare.com/v/stone-face-tavern/4bdcc91f3904a59392c54f9e","category":"Bar","checkinsCount":1473,"usersCount":768,"tipCount":14,"visitsCount":1741,"url":"http://www.999dine.com/nm/stoneface","tier":"","message":"","currency":"","rating":7.5},{"name":"Monte's Cigar Shop","phone":"5058817999","address":"3636 San Mateo Blvd NE","lat":35.123845385139994,"lng":-106.58612555940756,"city_fetched":"Albuquerque","state":"NM","country":"United States","canonicalUrl":"https://foursquare.com/v/montes-cigar-shop/4c1a6b8cb306c928339460b7","category":"Smoke Shop","checkinsCount":494,"usersCount":115,"tipCount":5,"visitsCount":530,"tier":"","message":"","currency":"","rating":7.4},{"name":"Back Alley Brewery","lat":35.08448885889242,"lng":-106.64950039365583,"neighborhood":"Albuquerque Original Townsite","city_fetched":"Albuquerque","state":"NM","country":"United States","canonicalUrl":"https://foursquare.com/v/back-alley-brewery/5143c32de4b02dd31a0f6b48","category":"Brewery","checkinsCount":185,"usersCount":118,"tipCount":4,"visitsCount":187,"tier":"","message":"","currency":"","rating":7.4},{"name":"The Dirty Bourbon Dance Hall & Saloon","phone":"5052962726","address":"9800 Montgomery Blvd NE","lat":35.1296224040169,"lng":-106.531699134035,"city_fetched":"Albuquerque","state":"NM","country":"United States","canonicalUrl":"https://foursquare.com/v/the-dirty-bourbon-dance-hall--saloon/4d423cf2fe6ab60c784c4a39","category":"Bar","checkinsCount":1442,"usersCount":728,"tipCount":9,"visitsCount":1525,"url":"http://thedirtybourbon.com","tier":"","message":"","currency":"","rating":7.4},{"name":"Spinn's Burger & Beer","phone":"5058996180","twitter":"spinnsburger","address":"4411 Montano Rd NW Ste A","lat":35.15099287033081,"lng":-106.688426,"neighborhood":"Taylor Ranch","city_fetched":"Albuquerque","state":"NM","country":"United States","canonicalUrl":"https://foursquare.com/v/spinns-burger--beer/4de990c922713dd9737ced42","category":"Burger Joint","checkinsCount":547,"usersCount":290,"tipCount":6,"visitsCount":711,"url":"http://www.spinnsrestaurant.com","tier":1,"message":"Cheap","currency":"$","rating":7.3},{"name":"Apothecary Lounge & Rooftop Club","phone":"5052420040","twitter":"parqcentral","address":"806 Central Ave SE","lat":35.082404404341865,"lng":-106.63824583282893,"city_fetched":"Albuquerque","state":"NM","country":"United States","canonicalUrl":"https://foursquare.com/v/apothecary-lounge--rooftop-club/4ce5d395678aa09302d8d8ea","category":"Cocktail Bar","checkinsCount":862,"usersCount":579,"tipCount":13,"visitsCount":880,"url":"http://hotelparqcentral.com/apothecary-lounge/","tier":"","message":"","currency":"","rating":7.3},{"name":"Terrene Hookah","phone":"5052659116","address":"106 Vassar Dr SE #87106","lat":35.08046574244063,"lng":-106.61425915973578,"neighborhood":"University Heights","city_fetched":"Albuquerque","state":"NM","country":"United States","canonicalUrl":"https://foursquare.com/v/terrene-hookah/4bbea3b285fbb713eb2b7167","category":"Hookah Bar","checkinsCount":1028,"usersCount":199,"tipCount":8,"visitsCount":1107,"url":"http://www.terrenehookah.com","tier":"","message":"","currency":"","rating":7.3},{"name":"O'Neill's Irish Pub","phone":"5052931122","twitter":"oniells","address":"3301 Juan Tabo Blvd NE","lat":35.11889058922838,"lng":-106.51622772216797,"neighborhood":"NE Heights","city_fetched":"Albuquerque","state":"NM","country":"United States","canonicalUrl":"https://foursquare.com/v/oneills-irish-pub/4be9df9c1838952140c50acf","category":"Pub","checkinsCount":2359,"usersCount":983,"tipCount":26,"visitsCount":2832,"url":"http://oniells.com","tier":2,"message":"Moderate","currency":"$","rating":7.2},{"name":"Jazzbah","phone":"5052435299","twitter":"jazzbahabq","address":"119 Gold Ave SW","lat":35.08321256960583,"lng":-106.64933344195025,"city_fetched":"Albuquerque","state":"NM","country":"United States","canonicalUrl":"https://foursquare.com/v/jazzbah/4e1cbb15814d369d90ce87c4","category":"Event Space","checkinsCount":786,"usersCount":176,"tipCount":9,"visitsCount":786,"url":"http://www.jazzbahabq.com","tier":"","message":"","currency":"","rating":7.2},{"name":"Casa Esencia","phone":"5052255928","twitter":"heritagehtls","address":"800 Rio Grande Blvd NW","lat":35.099571,"lng":-106.670206,"city_fetched":"Albuquerque","state":"NM","country":"United States","canonicalUrl":"https://foursquare.com/v/casa-esencia/4bdbc29c63c5c9b6739a2968","category":"Nightclub","checkinsCount":634,"usersCount":292,"tipCount":4,"visitsCount":669,"url":"http://www.casaesencia.com","tier":"","message":"","currency":"","rating":7.2},{"name":"Billy's Long Bar","phone":"5058890573","address":"4800 San Mateo Blvd NE","lat":35.13602044856158,"lng":-106.58601045403108,"neighborhood":"Del Norte","city_fetched":"Albuquerque","state":"NM","country":"United States","canonicalUrl":"https://foursquare.com/v/billys-long-bar/4c52451ff31a9c7421977bea","category":"Bar","checkinsCount":2139,"usersCount":786,"tipCount":22,"visitsCount":2628,"url":"http://www.999dine.com/nm/billyslongbar/indexmain.html","tier":1,"message":"Cheap","currency":"$","rating":7.2},{"name":"The Draft Station","lat":35.091172,"lng":-106.666383,"city_fetched":"Albuquerque","state":"NM","country":"United States","canonicalUrl":"https://foursquare.com/v/the-draft-station/53eeab4b498eb18731d77068","category":"Beer Garden","checkinsCount":186,"usersCount":145,"tipCount":2,"visitsCount":290,"tier":"","message":"","currency":"","rating":7.1},{"name":"Burt's Tiki Lounge","phone":"5052472878","twitter":"burtstikiabq","address":"313 Gold Ave SW","lat":35.083744525909424,"lng":-106.651191,"city_fetched":"Albuquerque","state":"NM","country":"United States","canonicalUrl":"https://foursquare.com/v/burts-tiki-lounge/4b9350dcf964a520bc3f34e3","category":"Rock Club","checkinsCount":1998,"usersCount":826,"tipCount":19,"visitsCount":2048,"tier":"","message":"","currency":"","rating":7.1},{"name":"Lucky's","address":"9800 Montgomery Blvd NE","lat":35.12999605,"lng":-106.531635,"city_fetched":"Albuquerque","state":"NM","country":"United States","canonicalUrl":"https://foursquare.com/v/luckys/4c9ec4a190cc236a7f0587ee","category":"Bar","checkinsCount":198,"usersCount":127,"tipCount":3,"visitsCount":199,"tier":"","message":"","currency":"","rating":7.1},{"name":"Horse and Angel Tavern","phone":"5052990225","address":"5809 Juan Tabo Blvd NE","lat":35.146862906756304,"lng":-106.52485370635986,"neighborhood":"Mountain Run","city_fetched":"Albuquerque","state":"NM","country":"United States","canonicalUrl":"https://foursquare.com/v/horse-and-angel-tavern/4cedd4d57b94370426f02953","category":"Bar","checkinsCount":1385,"usersCount":610,"tipCount":5,"visitsCount":1845,"tier":"","message":"","currency":"","rating":7.1},{"name":"Sidewinders","twitter":"sidewindersbar","address":"8900 Central Ave SE","lat":35.07348005319269,"lng":-106.54820168444597,"city_fetched":"Albuquerque","state":"NM","country":"United States","canonicalUrl":"https://foursquare.com/v/sidewinders/517b4528e4b0696133d8a908","category":"Gay Bar","checkinsCount":628,"usersCount":270,"tipCount":6,"visitsCount":923,"tier":2,"message":"Moderate","currency":"$","rating":7.1},{"name":"BJ's Restaurant and Brewhouse","phone":"5058728600","twitter":"bjsrestaurants","address":"2100 Louisiana Blvd NE","lat":35.09950097,"lng":-106.5673297,"neighborhood":"Uptown","city_fetched":"Albuquerque","state":"NM","country":"United States","canonicalUrl":"https://foursquare.com/v/bjs-restaurant-and-brewhouse/5081f4d2e4b061669682920b","category":"American Restaurant","checkinsCount":2193,"usersCount":1835,"tipCount":35,"visitsCount":3373,"url":"http://t.co/bl46gcjDLN","tier":2,"message":"Moderate","currency":"$","rating":7.1},{"name":"Sinners 'N Saints","address":"9800 Montgomery Blvd NE","lat":35.12950465635579,"lng":-106.53200408587011,"city_fetched":"Albuquerque","state":"NM","country":"United States","canonicalUrl":"https://foursquare.com/v/sinners-n-saints/556a12b6498e8087c7b1fb7b","category":"Bar","checkinsCount":70,"usersCount":47,"tipCount":2,"visitsCount":74,"tier":"","message":"","currency":"","rating":7},{"name":"CARAVAN EAST","phone":"5052657877","address":"7605 Central Ave NE","lat":35.07585115438654,"lng":-106.56251873973383,"neighborhood":"La Mesa","city_fetched":"Albuquerque","state":"NM","country":"United States","canonicalUrl":"https://foursquare.com/v/caravan-east/4ce8aa19678aa093db42eaea","category":"Nightclub","checkinsCount":333,"usersCount":107,"tipCount":5,"visitsCount":473,"url":"http://www.caravaneast.com","tier":"","message":"","currency":"","rating":7},{"name":"Uptown Sports Bar and Grill","phone":"5058844714","twitter":"uptownsportsabq","address":"6601 Uptown Blvd NE","lat":35.104,"lng":-106.571218,"neighborhood":"Uptown","city_fetched":"Albuquerque","state":"NM","country":"United States","canonicalUrl":"https://foursquare.com/v/uptown-sports-bar-and-grill/4bb5531746d4a59312efc4c0","category":"Bar","checkinsCount":1397,"usersCount":652,"tipCount":20,"visitsCount":1493,"url":"http://www.uptown-sportsbar.com ","tier":"","message":"","currency":"","rating":6.8}]