[{"name":"Port City Brewing Company","phone":"7037972739","twitter":"portcitybrew","address":"3950 Wheeler Ave","lat":38.80831384603504,"lng":-77.10125108621398,"city_fetched":"Alexandria,US","state":"VA","country":"United States","canonicalUrl":"https://foursquare.com/v/port-city-brewing-company/4d01036b202e224b81a7b62a","categoryId":"50327c8591d4c4b30a586d5d","category":"Brewery","checkinsCount":6072,"usersCount":3416,"tipCount":59,"visitsCount":7067,"url":"http://www.portcitybrewing.com","tier":1,"message":"Cheap","currency":"$","rating":9.4},{"name":"Topgolf","phone":"7039242600","twitter":"topgolfdc","address":"6625 S Van Dorn St","lat":38.77635424460676,"lng":-77.1339838206768,"city_fetched":"Alexandria,US","state":"VA","country":"United States","canonicalUrl":"https://foursquare.com/v/topgolf/4adcd534f964a520563021e3","categoryId":"4bf58dd8d48988d11d941735","category":"Sports Bar","checkinsCount":16513,"usersCount":8306,"tipCount":79,"visitsCount":18936,"url":"http://topgolf.com/us/alexandria/","tier":2,"message":"Moderate","currency":"$","rating":9.3},{"name":"Dacha Beer Garden","phone":"2025248790","twitter":"dachabeergarden","address":"1600 7th St NW","lat":38.91121985576448,"lng":-77.02212899923325,"neighborhood":"Logan Circle - Shaw","city_fetched":"Alexandria,US","state":"D.C.","country":"United States","canonicalUrl":"https://foursquare.com/v/dacha-beer-garden/5227b7b911d2711d34236465","categoryId":"4bf58dd8d48988d117941735","category":"Beer Garden","checkinsCount":7975,"usersCount":4615,"tipCount":46,"visitsCount":11031,"url":"http://dachadc.com","tier":2,"message":"Moderate","currency":"$","rating":9.2},{"name":"Cantina Marina","phone":"2025548396","twitter":"cantina_marina","address":"600 Water St SW","lat":38.87568515823181,"lng":-77.02194974650483,"neighborhood":"Southwest Washington","city_fetched":"Alexandria,US","state":"D.C.","country":"United States","canonicalUrl":"https://foursquare.com/cantina_marina","categoryId":"4bf58dd8d48988d116941735","category":"Bar","checkinsCount":13301,"usersCount":7433,"tipCount":74,"visitsCount":14850,"url":"http://www.cantinamarina.com","tier":2,"message":"Moderate","currency":"$","rating":9},{"name":"The Queen Vic","phone":"2023962001","twitter":"queenvicdc","address":"1206 H St NE","lat":38.90032643333333,"lng":-76.98990026666667,"neighborhood":"Capitol Hill","city_fetched":"Alexandria,US","state":"D.C.","country":"United States","canonicalUrl":"https://foursquare.com/v/the-queen-vic/4d7a4e6e25c5cbff23025333","categoryId":"4bf58dd8d48988d11b941735","category":"Pub","checkinsCount":10109,"usersCount":3259,"tipCount":66,"visitsCount":10514,"url":"http://www.thequeenvicdc.com","tier":2,"message":"Moderate","currency":"$","rating":9},{"name":"Garden District","twitter":"gardendstrct","address":"1801 14th St NW","lat":38.91418475959423,"lng":-77.03171133999204,"neighborhood":"U-Street","city_fetched":"Alexandria,US","state":"D.C.","country":"United States","canonicalUrl":"https://foursquare.com/v/garden-district/4d76e7f9aaf68cfa819e8fba","categoryId":"4bf58dd8d48988d117941735","category":"Beer Garden","checkinsCount":10794,"usersCount":5619,"tipCount":77,"visitsCount":11518,"url":"http://www.gardendistrictdc.com","tier":2,"message":"Moderate","currency":"$","rating":9},{"name":"Boundary Stone Public House","phone":"2026216635","twitter":"boundarystonedc","address":"116 Rhode Island Ave NW","lat":38.915469278018875,"lng":-77.01281159729828,"neighborhood":"LeDroit Park - Bloomingdale","city_fetched":"Alexandria,US","state":"D.C.","country":"United States","canonicalUrl":"https://foursquare.com/v/boundary-stone-public-house/4e76b8cbfa7605970194e367","categoryId":"4bf58dd8d48988d11b941735","category":"Pub","checkinsCount":12664,"usersCount":3946,"tipCount":103,"visitsCount":13660,"url":"http://boundarystonedc.com","tier":2,"message":"Moderate","currency":"$","rating":8.9},{"name":"PX","phone":"7032998385","address":"728 King St","lat":38.80508980815607,"lng":-77.04807937145233,"neighborhood":"Old Town","city_fetched":"Alexandria,US","state":"VA","country":"United States","canonicalUrl":"https://foursquare.com/v/px/4b233b1cf964a5208b5424e3","categoryId":"4bf58dd8d48988d1d4941735","category":"Speakeasy","checkinsCount":1626,"usersCount":1239,"tipCount":32,"visitsCount":1643,"url":"http://eamonnsdublinchipper.com/PX/","tier":3,"message":"Expensive","currency":"$","rating":8.9},{"name":"Jack Rose Dining Saloon","phone":"2025887388","twitter":"jackroseindc","address":"2007 18th St NW","lat":38.91736411336645,"lng":-77.04141029995537,"neighborhood":"Adams Morgan","city_fetched":"Alexandria,US","state":"D.C.","country":"United States","canonicalUrl":"https://foursquare.com/v/jack-rose-dining-saloon/4dd596b2d4c05d5096bcb643","categoryId":"4bf58dd8d48988d122941735","category":"Whisky Bar","checkinsCount":16590,"usersCount":9700,"tipCount":135,"visitsCount":18171,"url":"http://www.jackrosediningsaloon.com","tier":3,"message":"Expensive","currency":"$","rating":8.9},{"name":"American Ice Company","phone":"2027583562","address":"917 V St NW","lat":38.918352,"lng":-77.025283,"neighborhood":"U-Street","city_fetched":"Alexandria,US","state":"D.C.","country":"United States","canonicalUrl":"https://foursquare.com/v/american-ice-company/4d07f99dc26ba14392871617","categoryId":"4bf58dd8d48988d116941735","category":"Bar","checkinsCount":17064,"usersCount":8662,"tipCount":104,"visitsCount":19020,"url":"http://amicodc.com","tier":1,"message":"Cheap","currency":"$","rating":8.9},{"name":"Nellie's Sports Bar","phone":"2023326355","twitter":"nelliesdc","address":"900 U St NW","lat":38.91686518512489,"lng":-77.02412724494934,"neighborhood":"U-Street","city_fetched":"Alexandria,US","state":"D.C.","country":"United States","canonicalUrl":"https://foursquare.com/v/nellies-sports-bar/4a06f546f964a5200e731fe3","categoryId":"4bf58dd8d48988d1d8941735","category":"Gay Bar","checkinsCount":61866,"usersCount":13762,"tipCount":178,"visitsCount":65753,"url":"http://www.nelliessportsbar.com","tier":2,"message":"Moderate","currency":"$","rating":8.8},{"name":"The Tombs","phone":"2023376668","twitter":"the_tombs","address":"1226 36th St NW","lat":38.90601765089518,"lng":-77.07026080238577,"neighborhood":"Georgetown","city_fetched":"Alexandria,US","state":"D.C.","country":"United States","canonicalUrl":"https://foursquare.com/v/the-tombs/40b13b00f964a52019f51ee3","categoryId":"4bf58dd8d48988d116941735","category":"Bar","checkinsCount":15461,"usersCount":5685,"tipCount":90,"visitsCount":16408,"url":"http://www.tombs.com","tier":2,"message":"Moderate","currency":"$","rating":8.7},{"name":"Town Danceboutique","phone":"2022348696","twitter":"whatsupattown","address":"2009 8th St NW","lat":38.91693862357855,"lng":-77.02281010290227,"neighborhood":"U-Street","city_fetched":"Alexandria,US","state":"D.C.","country":"United States","canonicalUrl":"https://foursquare.com/v/town-danceboutique/4a761ec9f964a5204be21fe3","categoryId":"4bf58dd8d48988d1d8941735","category":"Gay Bar","checkinsCount":45124,"usersCount":12875,"tipCount":102,"visitsCount":47563,"url":"http://www.towndc.com","tier":2,"message":"Moderate","currency":"$","rating":8.7},{"name":"Bardo Brewpub","phone":"7622337070","twitter":"bardobeer","address":"1200 Bladensburg Rd NE","lat":38.905773004316316,"lng":-76.98003794283939,"neighborhood":"Trinidad","city_fetched":"Alexandria,US","state":"D.C.","country":"United States","canonicalUrl":"https://foursquare.com/v/bardo-brewpub/51e47e35498ea9394a61fdba","categoryId":"50327c8591d4c4b30a586d5d","category":"Brewery","checkinsCount":914,"usersCount":784,"tipCount":17,"visitsCount":1297,"url":"http://www.bardo.beer","tier":"","message":"","currency":"","rating":8.7},{"name":"The Pub & The People","phone":"2027965820","twitter":"pubandthepeople","address":"1648 N Capitol St NW","lat":38.91241837100567,"lng":-77.00921800717437,"neighborhood":"LeDroit Park - Bloomingdale","city_fetched":"Alexandria,US","state":"D.C.","country":"United States","canonicalUrl":"https://foursquare.com/v/the-pub--the-people/526ebd5e11d280106e91b2a3","categoryId":"4bf58dd8d48988d11b941735","category":"Pub","checkinsCount":1021,"usersCount":797,"tipCount":5,"visitsCount":1630,"url":"http://www.thepubandthepeople.com","tier":"","message":"","currency":"","rating":8.7},{"name":"Marvin","phone":"2027977171","twitter":"marvin_dc","address":"2007 14th St NW","lat":38.91711561447239,"lng":-77.03171253204346,"neighborhood":"U-Street","city_fetched":"Alexandria,US","state":"D.C.","country":"United States","canonicalUrl":"https://foursquare.com/v/marvin/49c2f5fcf964a52046561fe3","categoryId":"4bf58dd8d48988d116941735","category":"Bar","checkinsCount":23429,"usersCount":11986,"tipCount":144,"visitsCount":24717,"url":"http://www.marvindc.com","tier":2,"message":"Moderate","currency":"$","rating":8.6},{"name":"The Bullpen at Half Street Fairgrounds","phone":"2022975033","twitter":"thebullpendc","address":"1299 Half St. SE","lat":38.87589820003192,"lng":-77.00773330036685,"neighborhood":"Navy Yard","city_fetched":"Alexandria,US","state":"D.C.","country":"United States","canonicalUrl":"https://foursquare.com/v/the-bullpen-at-half-street-fairgrounds/4a413858f964a520f7a41fe3","categoryId":"4bf58dd8d48988d117941735","category":"Beer Garden","checkinsCount":16672,"usersCount":8909,"tipCount":50,"visitsCount":17563,"url":"http://thebullpendc.com","tier":2,"message":"Moderate","currency":"$","rating":8.5},{"name":"The Front Porch","address":"2006 Mount Vernon Ave","lat":38.824328,"lng":-77.058395,"neighborhood":"Del Ray","city_fetched":"Alexandria,US","state":"VA","country":"United States","canonicalUrl":"https://foursquare.com/v/the-front-porch/51a15ca8498ed4464a0ffd6b","categoryId":"4bf58dd8d48988d117941735","category":"Beer Garden","checkinsCount":416,"usersCount":245,"tipCount":13,"visitsCount":428,"tier":"","message":"","currency":"","rating":8.5},{"name":"JR's Bar & Grill","phone":"2023280090","address":"1519 17th St NW","lat":38.91032536238806,"lng":-77.03816053222326,"neighborhood":"Dupont Circle","city_fetched":"Alexandria,US","state":"D.C.","country":"United States","canonicalUrl":"https://foursquare.com/v/jrs-bar--grill/40b13b00f964a5208cf41ee3","categoryId":"4bf58dd8d48988d1d8941735","category":"Gay Bar","checkinsCount":49992,"usersCount":7343,"tipCount":87,"visitsCount":53083,"url":"http://www.jrswdc.com","tier":1,"message":"Cheap","currency":"$","rating":8.4},{"name":"Bar Charley","phone":"2026272183","address":"1825 18th St NW","lat":38.91503285017776,"lng":-77.04149723052979,"neighborhood":"Dupont Circle","city_fetched":"Alexandria,US","state":"D.C.","country":"United States","canonicalUrl":"https://foursquare.com/v/bar-charley/5224d92e8bbd808c34f1e52d","categoryId":"4bf58dd8d48988d11e941735","category":"Cocktail Bar","checkinsCount":3022,"usersCount":1771,"tipCount":41,"visitsCount":3486,"url":"http://www.barcharley.com","tier":2,"message":"Moderate","currency":"$","rating":8.4},{"name":"UPROAR DC","phone":"2024624464","twitter":"uproardc","address":"639 Florida Ave NW","lat":38.916120609067704,"lng":-77.02113999372484,"neighborhood":"LeDroit Park","city_fetched":"Alexandria,US","state":"D.C.","country":"United States","canonicalUrl":"https://foursquare.com/uproardc","categoryId":"4bf58dd8d48988d1d8941735","category":"Gay Bar","checkinsCount":584,"usersCount":331,"tipCount":2,"visitsCount":761,"url":"http://www.uproardc.com","tier":"","message":"","currency":"","rating":8.4},{"name":"Majestic Lounge","phone":"7035495051","address":"2000 Mount Vernon Ave","lat":38.823938866666666,"lng":-77.058494,"neighborhood":"Del Ray","city_fetched":"Alexandria,US","state":"VA","country":"United States","canonicalUrl":"https://foursquare.com/v/majestic-lounge/4aff8e24f964a520713922e3","categoryId":"4bf58dd8d48988d121941735","category":"Lounge","checkinsCount":1849,"usersCount":626,"tipCount":10,"visitsCount":1993,"tier":"","message":"","currency":"","rating":8.3},{"name":"CXIII REX","phone":"7038368404","address":"113 King St","lat":38.804412,"lng":-77.040916,"neighborhood":"Old Town","city_fetched":"Alexandria,US","state":"VA","country":"United States","canonicalUrl":"https://foursquare.com/v/cxiii-rex/4c96ee2ff6c8ef3b3d6385cf","categoryId":"4bf58dd8d48988d121941735","category":"Lounge","checkinsCount":665,"usersCount":207,"tipCount":5,"visitsCount":671,"url":"http://cxiiirex.com","tier":"","message":"","currency":"","rating":8.2},{"name":"Westover Market Beer Garden","phone":"7035365040","address":"5863 Washington Blvd","lat":38.8856090095693,"lng":-77.1413287397273,"neighborhood":"Westover Village","city_fetched":"Alexandria,US","state":"VA","country":"United States","canonicalUrl":"https://foursquare.com/v/westover-market-beer-garden/4b47a2e6f964a5206a3826e3","categoryId":"4bf58dd8d48988d117941735","category":"Beer Garden","checkinsCount":6036,"usersCount":1777,"tipCount":31,"visitsCount":7064,"url":"http://www.westovermarket.com","tier":2,"message":"Moderate","currency":"$","rating":8.2},{"name":"Number Nine","phone":"2029860999","twitter":"numberninedc","address":"1435 P St NW","lat":38.909729286876264,"lng":-77.03333069871164,"neighborhood":"Logan Circle - Shaw","city_fetched":"Alexandria,US","state":"D.C.","country":"United States","canonicalUrl":"https://foursquare.com/v/number-nine/4db9fa69815445c8ca421516","categoryId":"4bf58dd8d48988d1d8941735","category":"Gay Bar","checkinsCount":22421,"usersCount":4720,"tipCount":61,"visitsCount":23489,"url":"http://www.numberninedc.com","tier":2,"message":"Moderate","currency":"$","rating":8.2},{"name":"Biergarten Haus","phone":"2023884053","twitter":"biergartendc","address":"1355 H St NE","lat":38.89986267854791,"lng":-76.98647863253343,"neighborhood":"Capitol Hill","city_fetched":"Alexandria,US","state":"D.C.","country":"United States","canonicalUrl":"https://foursquare.com/v/biergarten-haus/4bdd6931f219c9b687861210","categoryId":"4bf58dd8d48988d117941735","category":"Beer Garden","checkinsCount":13985,"usersCount":8061,"tipCount":80,"visitsCount":14213,"url":"http://biergartenhaus.com","tier":2,"message":"Moderate","currency":"$","rating":8.1},{"name":"Union Street Public House","phone":"7035481785","twitter":"usphrestaurant","address":"121 S Union St","lat":38.80344689358245,"lng":-77.04055845737457,"neighborhood":"Old Town","city_fetched":"Alexandria,US","state":"VA","country":"United States","canonicalUrl":"https://foursquare.com/usphrestaurant","categoryId":"4bf58dd8d48988d11b941735","category":"Pub","checkinsCount":5545,"usersCount":3966,"tipCount":47,"visitsCount":5986,"url":"http://www.unionstreetpublichouse.com","tier":2,"message":"Moderate","currency":"$","rating":8.1},{"name":"Freddie's Beach Bar","phone":"7036850555","address":"555 23rd St S","lat":38.853428199452345,"lng":-77.05493694035094,"city_fetched":"Alexandria,US","state":"VA","country":"United States","canonicalUrl":"https://foursquare.com/v/freddies-beach-bar/4a981c03f964a520802a20e3","categoryId":"4bf58dd8d48988d1d8941735","category":"Gay Bar","checkinsCount":9061,"usersCount":3241,"tipCount":62,"visitsCount":9521,"url":"http://www.freddiesbeachbar.com","tier":1,"message":"Cheap","currency":"$","rating":8.1},{"name":"Basin Street Lounge","phone":"7035491141","address":"219 King St","lat":38.804578,"lng":-77.04210340976715,"neighborhood":"Old Town","city_fetched":"Alexandria,US","state":"VA","country":"United States","canonicalUrl":"https://foursquare.com/v/basin-street-lounge/40b13b00f964a5201af41ee3","categoryId":"4bf58dd8d48988d121941735","category":"Lounge","checkinsCount":448,"usersCount":277,"tipCount":6,"visitsCount":455,"url":"http://www.219restaurant.com","tier":"","message":"","currency":"","rating":8.1},{"name":"Whitlow's on Wilson","phone":"7032769693","twitter":"whitlows","address":"2854 Wilson Blvd","lat":38.88862360940684,"lng":-77.09289371967316,"neighborhood":"Clarendon - Courthouse","city_fetched":"Alexandria,US","state":"VA","country":"United States","canonicalUrl":"https://foursquare.com/whitlows","categoryId":"4bf58dd8d48988d11d941735","category":"Sports Bar","checkinsCount":25862,"usersCount":10924,"tipCount":142,"visitsCount":27448,"url":"http://www.whitlows.com","tier":2,"message":"Moderate","currency":"$","rating":8.1},{"name":"Bar Dupont","phone":"2024836000","twitter":"bardupont","address":"1500 New Hampshire Ave NW","lat":38.910307856470226,"lng":-77.04328815357749,"neighborhood":"Dupont Circle","city_fetched":"Alexandria,US","state":"D.C.","country":"United States","canonicalUrl":"https://foursquare.com/v/bar-dupont/4aa1b1baf964a520764120e3","categoryId":"4bf58dd8d48988d1d5941735","category":"Hotel Bar","checkinsCount":12976,"usersCount":7002,"tipCount":100,"visitsCount":13226,"url":"http://www.doylecollection.com/locations/washington_dc_hotels/the_dupont_hotel.aspx","tier":2,"message":"Moderate","currency":"$","rating":8.1},{"name":"Green Lantern","phone":"2023474533","twitter":"greenlanterndc","address":"1335 Green Ct NW","lat":38.904382513663606,"lng":-77.03088478395652,"neighborhood":"Downtown-Penn Quarter-Chinatown","city_fetched":"Alexandria,US","state":"D.C.","country":"United States","canonicalUrl":"https://foursquare.com/v/green-lantern/40b52f80f964a5205d001fe3","categoryId":"4bf58dd8d48988d1d8941735","category":"Gay Bar","checkinsCount":11284,"usersCount":2940,"tipCount":60,"visitsCount":12127,"url":"http://www.greenlanterndc.com","tier":1,"message":"Cheap","currency":"$","rating":8},{"name":"Cloud Lounge - Hookah Bar","phone":"7035257700","address":"2525 Lee Hwy","lat":38.89508781147105,"lng":-77.09094436003922,"neighborhood":"North Highland","city_fetched":"Alexandria,US","state":"VA","country":"United States","canonicalUrl":"https://foursquare.com/v/cloud-lounge--hookah-bar/5376eb65498e073f53dd848b","categoryId":"4bf58dd8d48988d119941735","category":"Hookah Bar","checkinsCount":4293,"usersCount":2699,"tipCount":22,"visitsCount":8384,"url":"http://cloudlounge.co","tier":2,"message":"Moderate","currency":"$","rating":8},{"name":"Laporta's","phone":"7036836313","address":"1600 Duke St","lat":38.80396527275491,"lng":-77.05827713012695,"neighborhood":"Eisenhower East - Carlyle District","city_fetched":"Alexandria,US","state":"VA","country":"United States","canonicalUrl":"https://foursquare.com/v/laportas/40b13b00f964a52094f41ee3","categoryId":"4bf58dd8d48988d11e941735","category":"Cocktail Bar","checkinsCount":1511,"usersCount":955,"tipCount":17,"visitsCount":1693,"url":"http://www.laportas.net","tier":"","message":"","currency":"","rating":8},{"name":"The Star and Shamrock","phone":"2023883833","twitter":"starshamrock","address":"1341 H St NE","lat":38.90003430792673,"lng":-76.98675870895386,"neighborhood":"Capitol Hill","city_fetched":"Alexandria,US","state":"D.C.","country":"United States","canonicalUrl":"https://foursquare.com/starshamrock","categoryId":"4bf58dd8d48988d11b941735","category":"Pub","checkinsCount":8425,"usersCount":3518,"tipCount":51,"visitsCount":8510,"url":"http://www.starandshamrock.com","tier":2,"message":"Moderate","currency":"$","rating":7.9},{"name":"Ireland's Four Provinces","phone":"7035348999","address":"105 W Broad St","lat":38.882394,"lng":-77.1717097,"city_fetched":"Alexandria,US","state":"VA","country":"United States","canonicalUrl":"https://foursquare.com/v/irelands-four-provinces/4ae39b69f964a520389721e3","categoryId":"4bf58dd8d48988d116941735","category":"Bar","checkinsCount":4168,"usersCount":1897,"tipCount":31,"visitsCount":4529,"url":"http://www.4psva.com","tier":2,"message":"Moderate","currency":"$","rating":7.9},{"name":"Ramparts Tavern & Grill","phone":"7039986616","address":"1700 Fern St","lat":38.829428095508675,"lng":-77.08478808403015,"neighborhood":"Fairlington","city_fetched":"Alexandria,US","state":"VA","country":"United States","canonicalUrl":"https://foursquare.com/v/ramparts-tavern--grill/40b13b00f964a520def41ee3","categoryId":"4bf58dd8d48988d11d941735","category":"Sports Bar","checkinsCount":3837,"usersCount":1381,"tipCount":36,"visitsCount":4749,"url":"http://www.rampartstavern.com","tier":2,"message":"Moderate","currency":"$","rating":7.9},{"name":"Captain Gregory's","twitter":"capngreogry","address":"804 North Henry Street","lat":38.813916,"lng":-77.049692,"neighborhood":"Braddock Road Metro","city_fetched":"Alexandria,US","state":"VA","country":"United States","canonicalUrl":"https://foursquare.com/v/captain-gregorys/55b55d29498e57005a7328b3","categoryId":"4bf58dd8d48988d1d4941735","category":"Speakeasy","checkinsCount":117,"usersCount":83,"tipCount":5,"visitsCount":118,"url":"http://captaingregorys.com","tier":"","message":"","currency":"","rating":7.9},{"name":"La Fromagerie","phone":"7038792467","twitter":"lafromagerieva","address":"1222 King St","lat":38.80590741666666,"lng":-77.05353116666667,"neighborhood":"Old Town","city_fetched":"Alexandria,US","state":"VA","country":"United States","canonicalUrl":"https://foursquare.com/v/la-fromagerie/4b54b5e7f964a52056c827e3","categoryId":"4bf58dd8d48988d123941735","category":"Wine Bar","checkinsCount":825,"usersCount":518,"tipCount":17,"visitsCount":840,"url":"http://www.lafromagerieonline.com","tier":"","message":"","currency":"","rating":7.9},{"name":"Roofers Union","phone":"2022327663","twitter":"roofersuniondc","address":"2446 18th St NW","lat":38.921824690177345,"lng":-77.04257735605097,"neighborhood":"Adams Morgan","city_fetched":"Alexandria,US","state":"D.C.","country":"United States","canonicalUrl":"https://foursquare.com/v/roofers-union/52b872f911d29ad9c6ec2dea","categoryId":"4bf58dd8d48988d116941735","category":"Bar","checkinsCount":3751,"usersCount":2470,"tipCount":47,"visitsCount":3921,"url":"http://www.roofersuniondc.com","tier":1,"message":"Cheap","currency":"$","rating":7.8},{"name":"Crystal City Sports Pub","phone":"7035218215","twitter":"ccsportspub","address":"529 23rd St S","lat":38.853448611297914,"lng":-77.05424546557624,"city_fetched":"Alexandria,US","state":"VA","country":"United States","canonicalUrl":"https://foursquare.com/v/crystal-city-sports-pub/4a83250ef964a52032fa1fe3","categoryId":"4bf58dd8d48988d11d941735","category":"Sports Bar","checkinsCount":13257,"usersCount":6091,"tipCount":94,"visitsCount":14008,"url":"http://www.crystalcitysportspub.net","tier":2,"message":"Moderate","currency":"$","rating":7.8},{"name":"The Black Squirrel","phone":"2022321011","twitter":"thblacksquirrel","address":"2427 18th St NW","lat":38.92121626931542,"lng":-77.04195857048035,"neighborhood":"Adams Morgan","city_fetched":"Alexandria,US","state":"D.C.","country":"United States","canonicalUrl":"https://foursquare.com/v/the-black-squirrel/49e5e3def964a520e2631fe3","categoryId":"4bf58dd8d48988d11b941735","category":"Pub","checkinsCount":7527,"usersCount":4064,"tipCount":79,"visitsCount":7596,"url":"http://blacksquirreldc.com","tier":2,"message":"Moderate","currency":"$","rating":7.8},{"name":"Cobalt","phone":"2022324416","twitter":"cobaltdc","address":"1639 R St NW","lat":38.91266552260647,"lng":-77.03837980995769,"neighborhood":"Dupont Circle","city_fetched":"Alexandria,US","state":"D.C.","country":"United States","canonicalUrl":"https://foursquare.com/v/cobalt/40b13b00f964a52044f41ee3","categoryId":"4bf58dd8d48988d1d8941735","category":"Gay Bar","checkinsCount":33957,"usersCount":7511,"tipCount":92,"visitsCount":35581,"url":"http://cobaltdc.com","tier":2,"message":"Moderate","currency":"$","rating":7.7},{"name":"The Bachelor's Mill","phone":"2025465979","address":"1106 8th St SE","lat":38.87730603129193,"lng":-76.99484258264836,"neighborhood":"SW Ballpark - Navy Yard","city_fetched":"Alexandria,US","state":"D.C.","country":"United States","canonicalUrl":"https://foursquare.com/v/the-bachelors-mill/4bc25bc34cdfc9b65e0d9621","categoryId":"4bf58dd8d48988d1d8941735","category":"Gay Bar","checkinsCount":2587,"usersCount":1167,"tipCount":20,"visitsCount":3745,"url":"http://www.thebachelorsmill.comâ€Ž ","tier":"","message":"","currency":"","rating":7.7},{"name":"The Brixton","phone":"2025605045","twitter":"thebrixtondc","address":"901 U St NW","lat":38.91724082881471,"lng":-77.02414870262146,"neighborhood":"U-Street","city_fetched":"Alexandria,US","state":"D.C.","country":"United States","canonicalUrl":"https://foursquare.com/v/the-brixton/4fe8dcca6d8673de7472e8c4","categoryId":"4bf58dd8d48988d11b941735","category":"Pub","checkinsCount":15483,"usersCount":8326,"tipCount":91,"visitsCount":16034,"url":"http://www.brixtondc.com","tier":2,"message":"Moderate","currency":"$","rating":7.7},{"name":"Sehkraft Beer Garden and Haus","phone":"7038415888","twitter":"sehkraftbrewing","address":"925 N Garfield St Ste A","lat":38.884442345137636,"lng":-77.0932092181681,"neighborhood":"Lyon Park","city_fetched":"Alexandria,US","state":"VA","country":"United States","canonicalUrl":"https://foursquare.com/v/sehkraft-beer-garden-and-haus/564f9366498e01df8721452d","categoryId":"4bf58dd8d48988d117941735","category":"Beer Garden","checkinsCount":824,"usersCount":769,"tipCount":15,"visitsCount":1273,"url":"http://www.sehkraftbrewing.com","tier":"","message":"","currency":"","rating":7.7},{"name":"Ziegfeld's/Secrets","phone":"2028630670","twitter":"secretsdc","address":"1824 Half St SW","lat":38.867473093851395,"lng":-77.01042150617766,"neighborhood":"Southwest - Waterfront","city_fetched":"Alexandria,US","state":"D.C.","country":"United States","canonicalUrl":"https://foursquare.com/v/ziegfeldssecrets/4b69bfaaf964a520b0b12be3","categoryId":"4bf58dd8d48988d1d8941735","category":"Gay Bar","checkinsCount":8760,"usersCount":3389,"tipCount":28,"visitsCount":10508,"url":"http://secretsdc.com","tier":2,"message":"Moderate","currency":"$","rating":7.6},{"name":"Seven Corners Pub","phone":"7039426383","twitter":"amandautumn","address":"6315 Leesburg Pike","lat":38.870917303929474,"lng":-77.15540582329938,"city_fetched":"Alexandria,US","state":"VA","country":"United States","canonicalUrl":"https://foursquare.com/v/seven-corners-pub/4c391fb90a71c9b61c0b42c9","categoryId":"4bf58dd8d48988d11b941735","category":"Pub","checkinsCount":2927,"usersCount":1097,"tipCount":30,"visitsCount":3390,"url":"http://www.sevencornerspub.com","tier":2,"message":"Moderate","currency":"$","rating":7.6},{"name":"Boss Shepherd's Restaurant & Whiskey Bar","phone":"2023472677","twitter":"bossshepherds","address":"513 13th Street NW","lat":38.8964302150393,"lng":-77.02952966966762,"neighborhood":"Downtown-Penn Quarter-Chinatown","city_fetched":"Alexandria,US","state":"D.C.","country":"United States","canonicalUrl":"https://foursquare.com/v/boss-shepherds-restaurant--whiskey-bar/53caf780498e85df6b1b8834","categoryId":"4bf58dd8d48988d11b941735","category":"Pub","checkinsCount":590,"usersCount":463,"tipCount":15,"visitsCount":602,"url":"http://boss-shepherds.com","tier":"","message":"","currency":"","rating":7.6},{"name":"Solly's U Street Tavern","phone":"2022326590","twitter":"sollysdc","address":"1942 11th St NW","lat":38.91683805522587,"lng":-77.02727615833282,"neighborhood":"U-Street","city_fetched":"Alexandria,US","state":"D.C.","country":"United States","canonicalUrl":"https://foursquare.com/v/sollys-u-street-tavern/49baa2e8f964a5208e531fe3","categoryId":"4bf58dd8d48988d116941735","category":"Bar","checkinsCount":13093,"usersCount":5941,"tipCount":65,"visitsCount":13689,"url":"http://www.sollystavern.com","tier":2,"message":"Moderate","currency":"$","rating":7.5},{"name":"No. 9 Lounge","address":"2000 Mount Vernon Ave","lat":38.8241064036126,"lng":-77.05857414483121,"neighborhood":"Del Ray","city_fetched":"Alexandria,US","state":"VA","country":"United States","canonicalUrl":"https://foursquare.com/v/no-9-lounge/4bc906b6fb84c9b6975d1a3e","categoryId":"4bf58dd8d48988d121941735","category":"Lounge","checkinsCount":437,"usersCount":200,"tipCount":6,"visitsCount":439,"tier":"","message":"","currency":"","rating":7.5},{"name":"La Boum at L'Enfant Cafe","lat":38.917039,"lng":-77.041537,"neighborhood":"Adams Morgan","city_fetched":"Alexandria,US","state":"Washington, D.C.","country":"United States","canonicalUrl":"https://foursquare.com/v/la-boum-at-lenfant-cafe/4d72a6f5946b6dcbddf83f7a","categoryId":"4bf58dd8d48988d1d6941735","category":"Strip Club","checkinsCount":376,"usersCount":350,"tipCount":5,"visitsCount":391,"tier":"","message":"","currency":"","rating":7.5},{"name":"TRADE","lat":38.90914372048971,"lng":-77.03213867287074,"neighborhood":"Logan Circle - Shaw","city_fetched":"Alexandria,US","state":"D.C.","country":"United States","canonicalUrl":"https://foursquare.com/v/trade/56623375498e16a3d4901cd9","categoryId":"4bf58dd8d48988d1d8941735","category":"Gay Bar","checkinsCount":1510,"usersCount":615,"tipCount":7,"visitsCount":1817,"tier":"","message":"","currency":"","rating":7.3},{"name":"Sonoma Cellar","phone":"7039663550","address":"207 King St","lat":38.804480644481764,"lng":-77.04182635387359,"neighborhood":"Old Town","city_fetched":"Alexandria,US","state":"VA","country":"United States","canonicalUrl":"https://foursquare.com/v/sonoma-cellar/557ddea0498e7945e2594259","categoryId":"4bf58dd8d48988d123941735","category":"Wine Bar","checkinsCount":112,"usersCount":92,"tipCount":0,"visitsCount":122,"tier":"","message":"","currency":"","rating":7.3},{"name":"The Lounge","address":"100 S Reynolds St","lat":38.8113842377511,"lng":-77.12537345313467,"neighborhood":"Landmark - Van Dorn","city_fetched":"Alexandria,US","state":"VA","country":"United States","canonicalUrl":"https://foursquare.com/v/the-lounge/4e349eaa18a82fdd656d90b0","categoryId":"4bf58dd8d48988d121941735","category":"Lounge","checkinsCount":304,"usersCount":57,"tipCount":4,"visitsCount":311,"tier":"","message":"","currency":"","rating":7.3},{"name":"The Green Turtle","phone":"7039710200","twitter":"thegreeneturtle","address":"7879 Heneska Loop","lat":38.74217637478707,"lng":-77.16365693990905,"city_fetched":"Alexandria,US","state":"VA","country":"United States","canonicalUrl":"https://foursquare.com/v/the-green-turtle/55f34e1a498e8edc85c09692","categoryId":"4bf58dd8d48988d11d941735","category":"Sports Bar","checkinsCount":278,"usersCount":310,"tipCount":1,"visitsCount":633,"url":"http://thegreeneturtle.com","tier":"","message":"","currency":"","rating":7.3},{"name":"Chi-Cha Lounge","phone":"2022348400","twitter":"chichalounge","address":"1624 U St NW","lat":38.91690933189358,"lng":-77.03791876400373,"neighborhood":"U-Street","city_fetched":"Alexandria,US","state":"D.C.","country":"United States","canonicalUrl":"https://foursquare.com/v/chicha-lounge/40b13b00f964a5203cf41ee3","categoryId":"4bf58dd8d48988d119941735","category":"Hookah Bar","checkinsCount":5956,"usersCount":3410,"tipCount":46,"visitsCount":6087,"url":"http://latinconcepts.com/chicha.php","tier":2,"message":"Moderate","currency":"$","rating":7.3},{"name":"Larry's Lounge","phone":"2024831483","twitter":"larrysloungedc","address":"1840 18th St NW","lat":38.91550813371842,"lng":-77.04175326342413,"neighborhood":"Dupont Circle","city_fetched":"Alexandria,US","state":"D.C.","country":"United States","canonicalUrl":"https://foursquare.com/v/larrys-lounge/40b13b00f964a52095f41ee3","categoryId":"4bf58dd8d48988d1d8941735","category":"Gay Bar","checkinsCount":4372,"usersCount":1867,"tipCount":21,"visitsCount":4430,"url":"http://larryslounge-hub.com","tier":1,"message":"Cheap","currency":"$","rating":7.2},{"name":"Sine Irish Pub & Restaurant","phone":"7034154420","address":"1301 S Joyce St","lat":38.86337275131901,"lng":-77.06275651327309,"city_fetched":"Alexandria,US","state":"VA","country":"United States","canonicalUrl":"https://foursquare.com/v/sine-irish-pub--restaurant/40b52f80f964a52067001fe3","categoryId":"4bf58dd8d48988d11b941735","category":"Pub","checkinsCount":6890,"usersCount":3394,"tipCount":59,"visitsCount":6993,"url":"http://sineirishpub.com/arlington/","tier":2,"message":"Moderate","currency":"$","rating":7.1},{"name":"Tunnicliff's Tavern","phone":"2025445680","twitter":"tunnicliffs","address":"222 7th St SE","lat":38.88659846771609,"lng":-76.99595868587494,"neighborhood":"Capitol Hill","city_fetched":"Alexandria,US","state":"D.C.","country":"United States","canonicalUrl":"https://foursquare.com/v/tunnicliffs-tavern/40b13b00f964a52079f71ee3","categoryId":"4bf58dd8d48988d11b941735","category":"Pub","checkinsCount":10015,"usersCount":3423,"tipCount":48,"visitsCount":10270,"url":"http://www.tunnicliffs.com","tier":2,"message":"Moderate","currency":"$","rating":7.1},{"name":"Union Pub","phone":"2025467200","twitter":"unionpub","address":"201 Massachusetts Ave NE","lat":38.89483789482808,"lng":-77.00272790494805,"neighborhood":"Capitol Hill","city_fetched":"Alexandria,US","state":"D.C.","country":"United States","canonicalUrl":"https://foursquare.com/v/union-pub/42eeb780f964a520ac261fe3","categoryId":"4bf58dd8d48988d11b941735","category":"Pub","checkinsCount":13105,"usersCount":5158,"tipCount":70,"visitsCount":14364,"url":"http://unionpubdc.com","tier":2,"message":"Moderate","currency":"$","rating":7.1},{"name":"The Saloon","phone":"2024622640","address":"1205 U St NW","lat":38.917162,"lng":-77.02865588,"neighborhood":"U-Street","city_fetched":"Alexandria,US","state":"D.C.","country":"United States","canonicalUrl":"https://foursquare.com/v/the-saloon/412bd680f964a520b60c1fe3","categoryId":"4bf58dd8d48988d11b941735","category":"Pub","checkinsCount":3522,"usersCount":2195,"tipCount":35,"visitsCount":3536,"tier":2,"message":"Moderate","currency":"$","rating":7.1},{"name":"Good Guys Club","phone":"2023338128","twitter":"goodguysclubdc","address":"2311 Wisconsin Ave NW","lat":38.92062188,"lng":-77.07165781,"neighborhood":"Glover Park","city_fetched":"Alexandria,US","state":"D.C.","country":"United States","canonicalUrl":"https://foursquare.com/v/good-guys-club/40b13b00f964a52075f41ee3","categoryId":"4bf58dd8d48988d1d6941735","category":"Strip Club","checkinsCount":1598,"usersCount":632,"tipCount":5,"visitsCount":1648,"url":"http://www.goodguysclub.com","tier":"","message":"","currency":"","rating":7.1},{"name":"Lucky Bar","phone":"2023313733","twitter":"luckybardc","address":"1221 Connecticut Ave NW","lat":38.906639969942,"lng":-77.0412528737749,"neighborhood":"Connecticut Avenue - K Street","city_fetched":"Alexandria,US","state":"D.C.","country":"United States","canonicalUrl":"https://foursquare.com/v/lucky-bar/3fd66200f964a520c5ed1ee3","categoryId":"4bf58dd8d48988d11d941735","category":"Sports Bar","checkinsCount":13273,"usersCount":7051,"tipCount":74,"visitsCount":13418,"url":"http://www.luckybardc.com","tier":2,"message":"Moderate","currency":"$","rating":7.1},{"name":"Rustik Tavern","phone":"2022902936","address":"84 T St NW","lat":38.91541476443963,"lng":-77.01195538043976,"neighborhood":"LeDroit Park - Bloomingdale","city_fetched":"Alexandria,US","state":"D.C.","country":"United States","canonicalUrl":"https://foursquare.com/v/rustik-tavern/4c5b5a636147be9ae8878c09","categoryId":"4bf58dd8d48988d11b941735","category":"Pub","checkinsCount":4594,"usersCount":1897,"tipCount":56,"visitsCount":4658,"url":"http://www.rustikdc.com","tier":2,"message":"Moderate","currency":"$","rating":7.1},{"name":"The Fireplace","phone":"2022931293","address":"2161 P St NW","lat":38.90965244068918,"lng":-77.04866409301758,"neighborhood":"Dupont Circle","city_fetched":"Alexandria,US","state":"D.C.","country":"United States","canonicalUrl":"https://foursquare.com/v/the-fireplace/40b13b00f964a52066f41ee3","categoryId":"4bf58dd8d48988d1d8941735","category":"Gay Bar","checkinsCount":8856,"usersCount":2076,"tipCount":37,"visitsCount":9969,"url":"http://www.fireplacedc.com","tier":1,"message":"Cheap","currency":"$","rating":7.1},{"name":"DC Eagle","twitter":"dc_eagle","address":"3701 Benning Rd NE","lat":38.89507125826754,"lng":-76.95082275169837,"neighborhood":"Benning","city_fetched":"Alexandria,US","state":"D.C.","country":"United States","canonicalUrl":"https://foursquare.com/v/dc-eagle/54c44e5f498ecb20e89832a3","categoryId":"4bf58dd8d48988d1d8941735","category":"Gay Bar","checkinsCount":213,"usersCount":204,"tipCount":0,"visitsCount":457,"url":"http://www.dceagle.com","tier":"","message":"","currency":"","rating":7},{"name":"Nomad Hookah Bar","phone":"2023266623","twitter":"nomadhookah","address":"1200 H St NE","lat":38.900301495875894,"lng":-76.99010610580444,"neighborhood":"Capitol Hill","city_fetched":"Alexandria,US","state":"D.C.","country":"United States","canonicalUrl":"https://foursquare.com/nomadhookah","categoryId":"4bf58dd8d48988d119941735","category":"Hookah Bar","checkinsCount":461,"usersCount":314,"tipCount":6,"visitsCount":482,"tier":2,"message":"Moderate","currency":"$","rating":7},{"name":"the brig","phone":"2026751000","twitter":"beergardenlive","address":"1007 8th Street SE","lat":38.877754,"lng":-76.995258,"neighborhood":"SW Ballpark - Navy Yard","city_fetched":"Alexandria,US","state":"D.C.","country":"United States","canonicalUrl":"https://foursquare.com/v/the-brig/576478a8498ea13a28488ea0","categoryId":"4bf58dd8d48988d117941735","category":"Beer Garden","checkinsCount":201,"usersCount":220,"tipCount":3,"visitsCount":288,"url":"http://thebrigdc.com","tier":"","message":"","currency":"","rating":7},{"name":"The Holland Pub","phone":"7037060891","address":"1700 Duke St","lat":38.80441024520834,"lng":-77.06015379297658,"neighborhood":"Old Town","city_fetched":"Alexandria,US","state":"VA","country":"United States","canonicalUrl":"https://foursquare.com/v/the-holland-pub/50266338e4b063baa0c99b86","categoryId":"4bf58dd8d48988d11b941735","category":"Pub","checkinsCount":450,"usersCount":89,"tipCount":7,"visitsCount":456,"tier":"","message":"","currency":"","rating":7},{"name":"Canteen","twitter":"canteen2100m","address":"2100 M St NW","lat":38.90553401234972,"lng":-77.04704377324475,"neighborhood":"Connecticut Avenue - K Street","city_fetched":"Alexandria,US","state":"D.C.","country":"United States","canonicalUrl":"https://foursquare.com/v/canteen/5761b759498e1dbf2d42e822","categoryId":"4bf58dd8d48988d117941735","category":"Beer Garden","checkinsCount":78,"usersCount":59,"tipCount":3,"visitsCount":80,"url":"http://canteen.com","tier":"","message":"","currency":"","rating":7},{"name":"Ozio Restaurant & Lounge","phone":"2028226000","twitter":"ozio_dc","address":"1813 M St Nw","lat":38.90578697623218,"lng":-77.0424735546112,"neighborhood":"Connecticut Avenue - K Street","city_fetched":"Alexandria,US","state":"D.C.","country":"United States","canonicalUrl":"https://foursquare.com/v/ozio-restaurant--lounge/40b13b00f964a520c4f41ee3","categoryId":"4bf58dd8d48988d121941735","category":"Lounge","checkinsCount":9523,"usersCount":4582,"tipCount":46,"visitsCount":9908,"url":"http://www.oziodc.com","tier":2,"message":"Moderate","currency":"$","rating":6.9},{"name":"Maddy's Tap Room","phone":"2024085500","twitter":"maddystap","address":"1100 13th St NW","lat":38.90380497724414,"lng":-77.0297264714399,"neighborhood":"Downtown-Penn Quarter-Chinatown","city_fetched":"Alexandria,US","state":"D.C.","country":"United States","canonicalUrl":"https://foursquare.com/v/maddys-tap-room/506b19b3e4b04c2e39a76d58","categoryId":"4bf58dd8d48988d116941735","category":"Bar","checkinsCount":4661,"usersCount":2528,"tipCount":50,"visitsCount":5627,"url":"http://www.maddystaproom.com","tier":2,"message":"Moderate","currency":"$","rating":6.9},{"name":"Wunder Garten","phone":"2027167302","twitter":"wundergartendc","address":"150 M St NE","lat":38.906163777316195,"lng":-77.00388647550326,"neighborhood":"NoMa","city_fetched":"Alexandria,US","state":"D.C.","country":"United States","canonicalUrl":"https://foursquare.com/v/wunder-garten/555d394d498e47aafff0ca41","categoryId":"4bf58dd8d48988d117941735","category":"Beer Garden","checkinsCount":323,"usersCount":269,"tipCount":2,"visitsCount":421,"url":"http://wundergartendc.com","tier":"","message":"","currency":"","rating":6.9},{"name":"JPs Lounge","phone":"2023337607","twitter":"jpsloungedc","address":"2412 Wisconsin Ave NW","lat":38.92141660057979,"lng":-77.07243651151657,"neighborhood":"Glover Park","city_fetched":"Alexandria,US","state":"D.C.","country":"United States","canonicalUrl":"https://foursquare.com/v/jps-lounge/51e967728bbd8ad043606d94","categoryId":"4bf58dd8d48988d1d6941735","category":"Strip Club","checkinsCount":112,"usersCount":86,"tipCount":3,"visitsCount":113,"url":"http://www.jpsloungedc.com","tier":"","message":"","currency":"","rating":6.8},{"name":"The Black Rooster","phone":"2026594431","twitter":"blackroosterpub","address":"1919 L St NW","lat":38.90373286962042,"lng":-77.04428329171785,"neighborhood":"Connecticut Avenue - K Street","city_fetched":"Alexandria,US","state":"D.C.","country":"United States","canonicalUrl":"https://foursquare.com/v/the-black-rooster/49c12729f964a52086551fe3","categoryId":"4bf58dd8d48988d11b941735","category":"Pub","checkinsCount":3338,"usersCount":1707,"tipCount":18,"visitsCount":3406,"url":"http://www.blackroosterpub.com","tier":2,"message":"Moderate","currency":"$","rating":6.8},{"name":"Rock It Grill","phone":"7037392274","twitter":"rockitgrill","address":"1319 King St","lat":38.80603767543758,"lng":-77.0544759576082,"neighborhood":"Old Town","city_fetched":"Alexandria,US","state":"VA","country":"United States","canonicalUrl":"https://foursquare.com/v/rock-it-grill/41366280f964a520c51a1fe3","categoryId":"4bf58dd8d48988d120941735","category":"Karaoke Bar","checkinsCount":4077,"usersCount":2229,"tipCount":27,"visitsCount":4235,"url":"http://rockitgrill-hub.com","tier":2,"message":"Moderate","currency":"$","rating":6.8},{"name":"Sauf Haus Bier Hall & Garden","phone":"2024663355","twitter":"sauf_haus_dc","address":"1216 18th St NW","lat":38.906344267300476,"lng":-77.04194784164429,"neighborhood":"Connecticut Avenue - K Street","city_fetched":"Alexandria,US","state":"D.C.","country":"United States","canonicalUrl":"https://foursquare.com/v/sauf-haus-bier-hall--garden/53cf1c56498e8b7355e6c5e5","categoryId":"4bf58dd8d48988d117941735","category":"Beer Garden","checkinsCount":2936,"usersCount":1947,"tipCount":29,"visitsCount":3032,"url":"http://www.saufhausdc.com","tier":"","message":"","currency":"","rating":6.8},{"name":"Reynolds Street Bar and Grill","phone":"7037510830","address":"34 S Reynolds St","lat":38.812385,"lng":-77.12549,"neighborhood":"Landmark - Van Dorn","city_fetched":"Alexandria,US","state":"VA","country":"United States","canonicalUrl":"https://foursquare.com/v/reynolds-street-bar-and-grill/4bbf4bd7b083a593a624a3e9","categoryId":"4bf58dd8d48988d116941735","category":"Bar","checkinsCount":1684,"usersCount":362,"tipCount":8,"visitsCount":1779,"url":"http://www.reynoldsstreetbarandgrill.com","tier":"","message":"","currency":"","rating":6.8},{"name":"Froggy Bottom Pub","phone":"2023383000","twitter":"froggybottompub","address":"2021 K St NW","lat":38.902490773116355,"lng":-77.04587999341057,"neighborhood":"Connecticut Avenue - K Street","city_fetched":"Alexandria,US","state":"D.C.","country":"United States","canonicalUrl":"https://foursquare.com/v/froggy-bottom-pub/40be6a00f964a520c7001fe3","categoryId":"4bf58dd8d48988d11b941735","category":"Pub","checkinsCount":5504,"usersCount":2541,"tipCount":41,"visitsCount":5665,"url":"http://froggybottompub.com","tier":2,"message":"Moderate","currency":"$","rating":6.8},{"name":"Apple Lounge","lat":38.91703601626602,"lng":-77.02785403018659,"neighborhood":"U-Street","city_fetched":"Alexandria,US","state":"D.C.","country":"United States","canonicalUrl":"https://foursquare.com/v/apple-lounge/53d49990498e2d92df9f7c13","categoryId":"4bf58dd8d48988d119941735","category":"Hookah Bar","checkinsCount":542,"usersCount":252,"tipCount":4,"visitsCount":566,"url":"http://appleloungedc.com","tier":"","message":"","currency":"","rating":6.8},{"name":"Lucky's Sports Theatre & Grill","phone":"7039220404","twitter":"luckyssportstg","address":"7027 Manchester Blvd., #B","lat":38.765905426263174,"lng":-77.15493960972118,"city_fetched":"Alexandria,US","state":"VA","country":"United States","canonicalUrl":"https://foursquare.com/v/luckys-sports-theatre--grill/4ad51478f964a520bb0121e3","categoryId":"4bf58dd8d48988d11d941735","category":"Sports Bar","checkinsCount":6343,"usersCount":1777,"tipCount":29,"visitsCount":6997,"url":"http://luckyssportstheatre.com","tier":2,"message":"Moderate","currency":"$","rating":6.7},{"name":"Crystal City Restaurant","phone":"7038920726","address":"422 23rd St S","lat":38.85326475,"lng":-77.05314,"city_fetched":"Alexandria,US","state":"VA","country":"United States","canonicalUrl":"https://foursquare.com/v/crystal-city-restaurant/4b29bed2f964a52017a324e3","categoryId":"4bf58dd8d48988d1d6941735","category":"Strip Club","checkinsCount":1588,"usersCount":892,"tipCount":15,"visitsCount":1608,"url":"http://crystalcityrestaurant.com","tier":"","message":"","currency":"","rating":6.7},{"name":"Soussi","phone":"2022999314","twitter":"soussidc","address":"2228 18th St NW","lat":38.91962872065375,"lng":-77.04177013045485,"neighborhood":"Adams Morgan","city_fetched":"Alexandria,US","state":"D.C.","country":"United States","canonicalUrl":"https://foursquare.com/v/soussi/40b3de00f964a5201e001fe3","categoryId":"4bf58dd8d48988d119941735","category":"Hookah Bar","checkinsCount":3863,"usersCount":2374,"tipCount":51,"visitsCount":4129,"url":"http://soussiindc.com","tier":1,"message":"Cheap","currency":"$","rating":6.7},{"name":"Anchor Bar @ Fish Market","phone":"7038365676","address":"105 King St","lat":38.804297,"lng":-77.040705,"neighborhood":"Old Town","city_fetched":"Alexandria,US","state":"VA","country":"United States","canonicalUrl":"https://foursquare.com/v/anchor-bar--fish-market/4ceb2d019f776ea8cbd36c22","categoryId":"4bf58dd8d48988d116941735","category":"Bar","checkinsCount":497,"usersCount":177,"tipCount":5,"visitsCount":497,"url":"http://fishmarketva.com","tier":"","message":"","currency":"","rating":6.6},{"name":"John Strongbow's Tavern","phone":"7038364000","twitter":"johnstrongbows","address":"710 King St","lat":38.805052184582024,"lng":-77.04746246337889,"neighborhood":"Old Town","city_fetched":"Alexandria,US","state":"VA","country":"United States","canonicalUrl":"https://foursquare.com/v/john-strongbows-tavern/53a4cc49498e65f063d0e4ad","categoryId":"4bf58dd8d48988d11b941735","category":"Pub","checkinsCount":595,"usersCount":460,"tipCount":23,"visitsCount":616,"url":"http://johnstrongbows.com","tier":2,"message":"Moderate","currency":"$","rating":6.6},{"name":"Babylon Futbol Cafe","phone":"7038203900","address":"3501 S Jefferson St","lat":38.84882720688358,"lng":-77.11740062988571,"city_fetched":"Alexandria,US","state":"VA","country":"United States","canonicalUrl":"https://foursquare.com/v/babylon-futbol-cafe/4bdb61cf63c5c9b695b12768","categoryId":"4bf58dd8d48988d11d941735","category":"Sports Bar","checkinsCount":2457,"usersCount":1358,"tipCount":23,"visitsCount":3116,"url":"http://babylonfc.com","tier":2,"message":"Moderate","currency":"$","rating":6.6},{"name":"Molly Malone's Capitol Hill Saloon","phone":"2025471222","twitter":"mollymalonesdc","address":"713 8th St SE","lat":38.8807989197584,"lng":-76.99521380045492,"neighborhood":"Capitol Hill","city_fetched":"Alexandria,US","state":"D.C.","country":"United States","canonicalUrl":"https://foursquare.com/v/molly-malones-capitol-hill-saloon/4a9d433af964a520093820e3","categoryId":"4bf58dd8d48988d116941735","category":"Bar","checkinsCount":8281,"usersCount":4049,"tipCount":38,"visitsCount":8356,"url":"http://www.mollymalonescapitolhillsaloon.com","tier":2,"message":"Moderate","currency":"$","rating":6.6},{"name":"Dirty Bar","phone":"2026815224","address":"1223 Connecticut Ave. NW","lat":38.906699232618664,"lng":-77.04120227245905,"neighborhood":"Connecticut Avenue - K Street","city_fetched":"Alexandria,US","state":"D.C.","country":"United States","canonicalUrl":"https://foursquare.com/v/dirty-bar/4e4ea59318383eb2af15cb3b","categoryId":"4bf58dd8d48988d1d4941735","category":"Speakeasy","checkinsCount":3680,"usersCount":1926,"tipCount":17,"visitsCount":3711,"url":"http://dirtybardc.com","tier":"","message":"","currency":"","rating":6.5},{"name":"Queen's Cafe and Hookah","phone":"2026298924","address":"2405 18th St NW","lat":38.92063627607843,"lng":-77.04193317829713,"neighborhood":"Adams Morgan","city_fetched":"Alexandria,US","state":"D.C.","country":"United States","canonicalUrl":"https://foursquare.com/v/queens-cafe-and-hookah/4b1b5ac0f964a520f2fa23e3","categoryId":"4bf58dd8d48988d119941735","category":"Hookah Bar","checkinsCount":1089,"usersCount":731,"tipCount":13,"visitsCount":1096,"tier":"","message":"","currency":"","rating":6.5},{"name":"Hops Restaurant Bar & Brewery","phone":"7038379107","address":"3625 Jefferson Davis Hwy","lat":38.83750140309922,"lng":-77.05139994621277,"neighborhood":"Potomac Yard - Potomac Greens","city_fetched":"Alexandria,US","state":"VA","country":"United States","canonicalUrl":"https://foursquare.com/v/hops-restaurant-bar--brewery/4a981c4af964a520842a20e3","categoryId":"50327c8591d4c4b30a586d5d","category":"Brewery","checkinsCount":5733,"usersCount":3400,"tipCount":67,"visitsCount":5914,"url":"http://hopsonline.com","tier":2,"message":"Moderate","currency":"$","rating":6.5},{"name":"9 1/2","address":"1435 P St NW","lat":38.90986986520593,"lng":-77.03333069871164,"neighborhood":"Logan Circle - Shaw","city_fetched":"Alexandria,US","state":"D.C.","country":"United States","canonicalUrl":"https://foursquare.com/v/9-12/503c0f1ce4b04dc6703b1c93","categoryId":"4bf58dd8d48988d1d8941735","category":"Gay Bar","checkinsCount":676,"usersCount":173,"tipCount":1,"visitsCount":693,"tier":"","message":"","currency":"","rating":6.5},{"name":"Paper Moon Gentlemen's Club","phone":"7038664160","address":"6315 Amherst Ave","lat":38.78119781415016,"lng":-77.18593602664816,"city_fetched":"Alexandria,US","state":"VA","country":"United States","canonicalUrl":"https://foursquare.com/v/paper-moon-gentlemens-club/4b7f8a08f964a520903330e3","categoryId":"4bf58dd8d48988d1d6941735","category":"Strip Club","checkinsCount":730,"usersCount":347,"tipCount":11,"visitsCount":813,"url":"http://papermoonclub.com","tier":"","message":"","currency":"","rating":6.4},{"name":"Mad Rose Tavern","phone":"7036000500","twitter":"madrosetavern","address":"3100 Clarendon Blvd #PL15","lat":38.886294993311694,"lng":-77.09583370255312,"neighborhood":"Clarendon - Courthouse","city_fetched":"Alexandria,US","state":"VA","country":"United States","canonicalUrl":"https://foursquare.com/v/mad-rose-tavern/4d34e2fc329e5481163dc61d","categoryId":"4bf58dd8d48988d122941735","category":"Whisky Bar","checkinsCount":8063,"usersCount":3858,"tipCount":41,"visitsCount":8298,"url":"http://madrosetavern.com","tier":2,"message":"Moderate","currency":"$","rating":6.4},{"name":"Cloakroom","phone":"2023712223","twitter":"cloakroomdc","address":"476 K St NW","lat":38.90244772304757,"lng":-77.01872194973929,"neighborhood":"Mount Vernon Square","city_fetched":"Alexandria,US","state":"D.C.","country":"United States","canonicalUrl":"https://foursquare.com/v/cloakroom/5220281d498e0362483723a1","categoryId":"4bf58dd8d48988d1d6941735","category":"Strip Club","checkinsCount":273,"usersCount":146,"tipCount":7,"visitsCount":274,"url":"http://www.cloakroomdc.com","tier":"","message":"","currency":"","rating":6.4},{"name":"Elephant & Castle Pub and Restaurant","phone":"2022962575","twitter":"elephantcastle","address":"900 19th St NW","lat":38.901633245815496,"lng":-77.04373955726624,"neighborhood":"Connecticut Avenue - K Street","city_fetched":"Alexandria,US","state":"D.C.","country":"United States","canonicalUrl":"https://foursquare.com/v/elephant--castle-pub-and-restaurant/4a95d9a5f964a520072520e3","categoryId":"4bf58dd8d48988d11b941735","category":"Pub","checkinsCount":7224,"usersCount":4291,"tipCount":45,"visitsCount":7697,"url":"http://www.elephantcastle.com","tier":2,"message":"Moderate","currency":"$","rating":6.4},{"name":"Dewan","phone":"7033479489","twitter":"pharaohcafe","address":"3403 Payne St","lat":38.85296125,"lng":-77.13210713333334,"city_fetched":"Alexandria,US","state":"VA","country":"United States","canonicalUrl":"https://foursquare.com/v/dewan/4b834fa9f964a520db0131e3","categoryId":"4bf58dd8d48988d119941735","category":"Hookah Bar","checkinsCount":548,"usersCount":466,"tipCount":8,"visitsCount":894,"url":"http://www.dewancafeva.com","tier":"","message":"","currency":"","rating":6.4},{"name":"Bulldog Tavern","address":"3700 O St NW","lat":38.906192,"lng":-77.074028,"neighborhood":"Georgetown","city_fetched":"Alexandria,US","state":"D.C.","country":"United States","canonicalUrl":"https://foursquare.com/v/bulldog-tavern/545e70cf498eb987b70a9835","categoryId":"4bf58dd8d48988d11b941735","category":"Pub","checkinsCount":203,"usersCount":139,"tipCount":2,"visitsCount":247,"tier":"","message":"","currency":"","rating":6.3},{"name":"Guarapo","phone":"7035286500","twitter":"guarapolounge","address":"2039 Wilson Blvd","lat":38.89190964431271,"lng":-77.08365082740784,"neighborhood":"Colonial Village","city_fetched":"Alexandria,US","state":"VA","country":"United States","canonicalUrl":"https://foursquare.com/v/guarapo/4cb13c81ef1b370476184200","categoryId":"4bf58dd8d48988d119941735","category":"Hookah Bar","checkinsCount":3321,"usersCount":2139,"tipCount":30,"visitsCount":3470,"url":"http://latinconcepts.com/guarapo.php","tier":"","message":"","currency":"","rating":6.3},{"name":"Gazuza Lounge","phone":"2026675500","address":"1629 Connecticut Ave NW","lat":38.91203257399241,"lng":-77.04460375818734,"neighborhood":"Dupont Circle","city_fetched":"Alexandria,US","state":"D.C.","country":"United States","canonicalUrl":"https://foursquare.com/v/gazuza-lounge/42911d00f964a5200d241fe3","categoryId":"4bf58dd8d48988d11f941735","category":"Nightclub","checkinsCount":4211,"usersCount":2702,"tipCount":45,"visitsCount":4236,"tier":"","message":"","currency":"","rating":6.2},{"name":"Archipelago","address":"1201 U St NW","lat":38.917162,"lng":-77.028164,"neighborhood":"U-Street","city_fetched":"Alexandria,US","state":"D.C.","country":"United States","canonicalUrl":"https://foursquare.com/v/archipelago/56d0f443cd1004ac324cd353","categoryId":"56aa371be4b08b9a8d57354d","category":"Tiki Bar","checkinsCount":404,"usersCount":352,"tipCount":7,"visitsCount":458,"tier":"","message":"","currency":"","rating":6.1},{"name":"Mr. Smith's of Georgetown","phone":"2023333104","twitter":"mrsmithsdc","address":"3205 K St NW","lat":38.90268944352402,"lng":-77.06295490264893,"neighborhood":"Georgetown","city_fetched":"Alexandria,US","state":"D.C.","country":"United States","canonicalUrl":"https://foursquare.com/v/mr-smiths-of-georgetown/40b3de00f964a5201b001fe3","categoryId":"4bf58dd8d48988d116941735","category":"Bar","checkinsCount":8098,"usersCount":5516,"tipCount":63,"visitsCount":8274,"url":"http://mrsmiths.com","tier":2,"message":"Moderate","currency":"$","rating":6.1},{"name":"Alley Cat","phone":"7034610450","address":"2 S Whiting St","lat":38.81403972354396,"lng":-77.13611541574006,"neighborhood":"Landmark - Van Dorn","city_fetched":"Alexandria,US","state":"VA","country":"United States","canonicalUrl":"https://foursquare.com/v/alley-cat/4baed7f3f964a5207adc3be3","categoryId":"4bf58dd8d48988d116941735","category":"Bar","checkinsCount":1555,"usersCount":589,"tipCount":17,"visitsCount":1801,"url":"http://alleycatalexandria.com","tier":"","message":"","currency":"","rating":6.1},{"name":"Courthaus Social","phone":"7032434900","address":"2300 Clarendon Blvd","lat":38.89029459370099,"lng":-77.08635269275813,"neighborhood":"Clarendon - Courthouse","city_fetched":"Alexandria,US","state":"VA","country":"United States","canonicalUrl":"https://foursquare.com/v/courthaus-social/55082353498e38ca7ea26171","categoryId":"4bf58dd8d48988d117941735","category":"Beer Garden","checkinsCount":997,"usersCount":769,"tipCount":10,"visitsCount":1346,"tier":"","message":"","currency":"","rating":6},{"name":"Nick's Night Club","phone":"7037518900","twitter":"nicksnightclub","address":"642 S Pickett St","lat":38.80459060157599,"lng":-77.13173335097045,"neighborhood":"Landmark - Van Dorn","city_fetched":"Alexandria,US","state":"VA","country":"United States","canonicalUrl":"https://foursquare.com/v/nicks-night-club/40b13b00f964a520bbf41ee3","categoryId":"4bf58dd8d48988d11f941735","category":"Nightclub","checkinsCount":3145,"usersCount":1252,"tipCount":20,"visitsCount":3421,"url":"http://www.nicksnightclub.com","tier":2,"message":"Moderate","currency":"$","rating":6},{"name":"Andalusia Tea Room And Hookah","address":"525 23rd St S","lat":38.853432,"lng":-77.054193,"city_fetched":"Alexandria,US","state":"VA","country":"United States","canonicalUrl":"https://foursquare.com/v/andalusia-tea-room-and-hookah/4fc195d3e4b0327851b4f0ba","categoryId":"4bf58dd8d48988d119941735","category":"Hookah Bar","checkinsCount":583,"usersCount":348,"tipCount":8,"visitsCount":587,"tier":2,"message":"Moderate","currency":"$","rating":5.9},{"name":"The Camelot Showbar","phone":"2028875966","twitter":"camelotshowbar","address":"1823 M St NW","lat":38.90566065061043,"lng":-77.04288334927647,"neighborhood":"Connecticut Avenue - K Street","city_fetched":"Alexandria,US","state":"D.C.","country":"United States","canonicalUrl":"https://foursquare.com/camelotshowbar","categoryId":"4bf58dd8d48988d1d6941735","category":"Strip Club","checkinsCount":214,"usersCount":160,"tipCount":1,"visitsCount":215,"url":"http://www.camelotshowbar.com","tier":"","message":"","currency":"","rating":5.9},{"name":"Bayou Room","phone":"7035491141","address":"219 King St","lat":38.80455053502983,"lng":-77.04205513000488,"neighborhood":"Old Town","city_fetched":"Alexandria,US","state":"VA","country":"United States","canonicalUrl":"https://foursquare.com/v/bayou-room/4b91e8a3f964a520e0de33e3","categoryId":"4bf58dd8d48988d118941735","category":"Dive Bar","checkinsCount":859,"usersCount":516,"tipCount":6,"visitsCount":876,"tier":"","message":"","currency":"","rating":5.8},{"name":"Hangar Club","phone":"3014496970","address":"6410 Old Branch Ave","lat":38.801544662108064,"lng":-76.9044624378423,"city_fetched":"Alexandria,US","state":"MD","country":"United States","canonicalUrl":"https://foursquare.com/v/hangar-club/4bef5b265e4aa5930af558bb","categoryId":"4bf58dd8d48988d1d6941735","category":"Strip Club","checkinsCount":460,"usersCount":328,"tipCount":6,"visitsCount":665,"url":"http://www.hangarclub.com","tier":"","message":"","currency":"","rating":5.8},{"name":"The 51st State Tavern","phone":"2026252444","twitter":"51ststatetavern","address":"2512 L St NW","lat":38.9037786579112,"lng":-77.05395875536091,"neighborhood":"West End","city_fetched":"Alexandria,US","state":"D.C.","country":"United States","canonicalUrl":"https://foursquare.com/v/the-51st-state-tavern/4a5a4d91f964a52020ba1fe3","categoryId":"4bf58dd8d48988d116941735","category":"Bar","checkinsCount":5355,"usersCount":2910,"tipCount":35,"visitsCount":5385,"url":"http://www.51ststatetavern.com","tier":2,"message":"Moderate","currency":"$","rating":5.8},{"name":"Sahara Cafe","phone":"7039203009","address":"2325 S Eads St","lat":38.85267665000001,"lng":-77.05350973333334,"city_fetched":"Alexandria,US","state":"VA","country":"United States","canonicalUrl":"https://foursquare.com/v/sahara-cafe/4bb15304f964a520568c3ce3","categoryId":"4bf58dd8d48988d119941735","category":"Hookah Bar","checkinsCount":1141,"usersCount":301,"tipCount":10,"visitsCount":1163,"tier":"","message":"","currency":"","rating":5.7},{"name":"Pure Lounge","twitter":"purelounge","address":"1326 U St NW","lat":38.916928335314815,"lng":-77.03069360692655,"neighborhood":"U-Street","city_fetched":"Alexandria,US","state":"D.C.","country":"United States","canonicalUrl":"https://foursquare.com/v/pure-lounge/4b36e891f964a5200f3e25e3","categoryId":"4bf58dd8d48988d11f941735","category":"Nightclub","checkinsCount":2517,"usersCount":1202,"tipCount":17,"visitsCount":2545,"tier":"","message":"","currency":"","rating":5.6},{"name":"Redline","phone":"2023471248","twitter":"redlinebardc","address":"707 G St NW","lat":38.89861922178747,"lng":-77.02194412324029,"neighborhood":"Chinatown","city_fetched":"Alexandria,US","state":"D.C.","country":"United States","canonicalUrl":"https://foursquare.com/redlinebardc","categoryId":"4bf58dd8d48988d11d941735","category":"Sports Bar","checkinsCount":12724,"usersCount":7217,"tipCount":97,"visitsCount":12822,"url":"http://dcredline.com","tier":2,"message":"Moderate","currency":"$","rating":5.6},{"name":"Archibald's","phone":"2026385112","address":"1520 K St NW","lat":38.902592320734925,"lng":-77.03551792311941,"neighborhood":"Connecticut Avenue - K Street","city_fetched":"Alexandria,US","state":"D.C.","country":"United States","canonicalUrl":"https://foursquare.com/v/archibalds/40b13b00f964a5200bf41ee3","categoryId":"4bf58dd8d48988d1d6941735","category":"Strip Club","checkinsCount":810,"usersCount":501,"tipCount":6,"visitsCount":818,"url":"http://www.archibalds.com","tier":"","message":"","currency":"","rating":5.5},{"name":"O'Shaughnessy's Pub","phone":"7038367885","twitter":"oshaughnessypub","address":"1324 King St","lat":38.80583295437608,"lng":-77.0546277448034,"neighborhood":"Old Town","city_fetched":"Alexandria,US","state":"VA","country":"United States","canonicalUrl":"https://foursquare.com/v/oshaughnessys-pub/4bb927003db7b7133f10229a","categoryId":"4bf58dd8d48988d118941735","category":"Dive Bar","checkinsCount":1430,"usersCount":580,"tipCount":18,"visitsCount":1434,"url":"http://www.oshospub.com","tier":"","message":"","currency":"","rating":5.5},{"name":"James Mackey's Public House","phone":"2023317667","address":"1823 L St NW","lat":38.90389799830653,"lng":-77.04262912273407,"neighborhood":"Connecticut Avenue - K Street","city_fetched":"Alexandria,US","state":"D.C.","country":"United States","canonicalUrl":"https://foursquare.com/v/james-mackeys-public-house/40b13b00f964a52086f41ee3","categoryId":"4bf58dd8d48988d11b941735","category":"Pub","checkinsCount":5232,"usersCount":3090,"tipCount":24,"visitsCount":5426,"url":"http://mackeyspub.com","tier":2,"message":"Moderate","currency":"$","rating":5.5},{"name":"Heaven and Hell","phone":"2026674355","twitter":"clubheavenhell","address":"2327 18th St NW","lat":38.92034604056282,"lng":-77.04184322089412,"neighborhood":"Adams Morgan","city_fetched":"Alexandria,US","state":"D.C.","country":"United States","canonicalUrl":"https://foursquare.com/v/heaven-and-hell/40b13b00f964a5207cf41ee3","categoryId":"4bf58dd8d48988d11f941735","category":"Nightclub","checkinsCount":1187,"usersCount":921,"tipCount":12,"visitsCount":1194,"url":"http://www.heavenandhellclub.com","tier":"","message":"","currency":"","rating":5.3},{"name":"O'Malley's at the Holiday Inn","twitter":"holidayinn","address":"2650 Jefferson Davis Hwy","lat":38.849355675000005,"lng":-77.05255398333334,"city_fetched":"Alexandria,US","state":"VA","country":"United States","canonicalUrl":"https://foursquare.com/v/omalleys-at-the-holiday-inn/4cd7298294848cfa1656f1b1","categoryId":"4bf58dd8d48988d11b941735","category":"Pub","checkinsCount":224,"usersCount":180,"tipCount":6,"visitsCount":224,"url":"http://www.ihg.com/holidayinn","tier":"","message":"","currency":"","rating":5.3}]