[{"name":"The Tavern On Liberty","phone":"4842218765","address":"2246 W Liberty St","lat":40.600097385857126,"lng":-75.50789594650269,"neighborhood":"Westside","city_fetched":"Allentown,US","state":"PA","country":"United States","canonicalUrl":"https://foursquare.com/v/the-tavern-on-liberty/4b2c573df964a5200cc624e3","categoryId":"4bf58dd8d48988d116941735","category":"Bar","checkinsCount":4826,"usersCount":1106,"tipCount":40,"visitsCount":5556,"url":"http://www.tavernonliberty.com","tier":2,"message":"Moderate","currency":"$","rating":9.4},{"name":"Fogelsville Hotel","phone":"6103953999","address":"7921 Main St","lat":40.58343214161501,"lng":-75.63273392733359,"city_fetched":"Allentown,US","state":"PA","country":"United States","canonicalUrl":"https://foursquare.com/v/fogelsville-hotel/4b8bcfe2f964a52086ac32e3","categoryId":"4bf58dd8d48988d1d5941735","category":"Hotel Bar","checkinsCount":1104,"usersCount":663,"tipCount":13,"visitsCount":1452,"url":"http://hopsfogelsville.com","tier":"","message":"","currency":"","rating":9},{"name":"Fegley's Bethlehem Brew Works","phone":"6108821300","twitter":"thebrewworks","address":"559 Main St Ste 101","lat":40.62243388343916,"lng":-75.38215736080167,"neighborhood":"Central Bethlehem Historic District","city_fetched":"Allentown,US","state":"PA","country":"United States","canonicalUrl":"https://foursquare.com/v/fegleys-bethlehem-brew-works/4ac25dc5f964a520d89820e3","categoryId":"50327c8591d4c4b30a586d5d","category":"Brewery","checkinsCount":15261,"usersCount":6845,"tipCount":125,"visitsCount":17407,"url":"http://www.thebrewworks.com","tier":2,"message":"Moderate","currency":"$","rating":8.9},{"name":"Pub on Main","phone":"6109662275","address":"102 E Main St","lat":40.51503078921077,"lng":-75.55455565452576,"city_fetched":"Allentown,US","state":"PA","country":"United States","canonicalUrl":"https://foursquare.com/v/pub-on-main/4cb0cc6c75ebb60cf3e8c7ad","categoryId":"4bf58dd8d48988d116941735","category":"Bar","checkinsCount":1877,"usersCount":465,"tipCount":7,"visitsCount":2048,"url":"http://thepubonmain.com","tier":"","message":"","currency":"","rating":8.6},{"name":"Fegley's Allentown Brew Works","phone":"6104337777","twitter":"thebrewworks","address":"812 Hamilton St","lat":40.60139260090578,"lng":-75.4742181301117,"neighborhood":"Downtown Allentown","city_fetched":"Allentown,US","state":"PA","country":"United States","canonicalUrl":"https://foursquare.com/v/fegleys-allentown-brew-works/4ac25e13f964a520d99820e3","categoryId":"50327c8591d4c4b30a586d5d","category":"Brewery","checkinsCount":6433,"usersCount":3091,"tipCount":73,"visitsCount":7134,"url":"http://www.thebrewworks.com","tier":2,"message":"Moderate","currency":"$","rating":8.5},{"name":"P.J. Whelihan's Pub & Restaurant","phone":"6103952532","twitter":"pjspub","address":"4595 Broadway","lat":40.5882926658519,"lng":-75.5571413040161,"city_fetched":"Allentown,US","state":"PA","country":"United States","canonicalUrl":"https://foursquare.com/v/pj-whelihans-pub--restaurant/4bb664e3f562ef3b94163097","categoryId":"4bf58dd8d48988d11d941735","category":"Sports Bar","checkinsCount":2774,"usersCount":1541,"tipCount":29,"visitsCount":3271,"url":"https://www.pjspub.com","tier":2,"message":"Moderate","currency":"$","rating":8.4},{"name":"Hometown Heroes","phone":"6103178007","twitter":"hometownheroes","address":"310 E Goepp St","lat":40.626005,"lng":-75.37000814,"city_fetched":"Allentown,US","state":"PA","country":"United States","canonicalUrl":"https://foursquare.com/v/hometown-heroes/4c07f0d7ffb8c9b6bb756761","categoryId":"4bf58dd8d48988d116941735","category":"Bar","checkinsCount":864,"usersCount":312,"tipCount":20,"visitsCount":967,"url":"http://heroesbethlehem.com","tier":"","message":"","currency":"","rating":8.3},{"name":"HiJinx Brewing Company","phone":"4847140080","twitter":"hijinxbrewing","address":"905 Harrison St Ste 111","lat":40.59371113881182,"lng":-75.47319155144746,"neighborhood":"Southside","city_fetched":"Allentown,US","state":"PA","country":"United States","canonicalUrl":"https://foursquare.com/v/hijinx-brewing-company/54433f19498e8beae0284322","categoryId":"50327c8591d4c4b30a586d5d","category":"Brewery","checkinsCount":314,"usersCount":121,"tipCount":1,"visitsCount":331,"tier":"","message":"","currency":"","rating":8.2},{"name":"Jack Callaghan's Ale House","phone":"6104325797","address":"2027 W Tilghman St","lat":40.604231,"lng":-75.504302,"neighborhood":"West End Theatre District","city_fetched":"Allentown,US","state":"PA","country":"United States","canonicalUrl":"https://foursquare.com/v/jack-callaghans-ale-house/4b526e81f964a5200b7d27e3","categoryId":"4bf58dd8d48988d11b941735","category":"Pub","checkinsCount":1501,"usersCount":500,"tipCount":8,"visitsCount":1694,"url":"http://www.jackcallaghans.com","tier":2,"message":"Moderate","currency":"$","rating":8.1},{"name":"Stahley's Cellarette","phone":"6104332468","address":"1826 Hanover Ave","lat":40.621133,"lng":-75.42777619657826,"neighborhood":"Eastside","city_fetched":"Allentown,US","state":"PA","country":"United States","canonicalUrl":"https://foursquare.com/v/stahleys-cellarette/4b748357f964a52020e12de3","categoryId":"4bf58dd8d48988d116941735","category":"Bar","checkinsCount":1549,"usersCount":790,"tipCount":26,"visitsCount":2104,"url":"http://stahleys.com","tier":"","message":"","currency":"","rating":8},{"name":"Strange Brew Tavern","phone":"6108413610","twitter":"strangebrew610","address":"1996 S 5th St","lat":40.57716249301514,"lng":-75.45600528262108,"neighborhood":"Southside","city_fetched":"Allentown,US","state":"PA","country":"United States","canonicalUrl":"https://foursquare.com/v/strange-brew-tavern/4ee6ac66f9abfc7228c0bf00","categoryId":"4bf58dd8d48988d11b941735","category":"Pub","checkinsCount":1648,"usersCount":568,"tipCount":18,"visitsCount":2165,"url":"http://www.strangebrewtavern.co","tier":2,"message":"Moderate","currency":"$","rating":7.9},{"name":"The Keystone Pub","phone":"6108140400","address":"3259 Easton Ave","lat":40.65366085758355,"lng":-75.33535480499268,"city_fetched":"Allentown,US","state":"PA","country":"United States","canonicalUrl":"https://foursquare.com/v/the-keystone-pub/4aeba195f964a520fec321e3","categoryId":"4bf58dd8d48988d116941735","category":"Bar","checkinsCount":2556,"usersCount":935,"tipCount":21,"visitsCount":3039,"url":"http://keystonepub.com","tier":2,"message":"Moderate","currency":"$","rating":7.8},{"name":"Sultana Hookah Lounge","phone":"6106254646","address":"3 E 3rd St","lat":40.612022,"lng":-75.378441,"neighborhood":"South Bethlehem Downtown Historic District","city_fetched":"Allentown,US","state":"PA","country":"United States","canonicalUrl":"https://foursquare.com/v/sultana-hookah-lounge/4d436d7bbbb1a1438c5b3a72","categoryId":"4bf58dd8d48988d119941735","category":"Hookah Bar","checkinsCount":413,"usersCount":193,"tipCount":4,"visitsCount":454,"url":"http://sultanahookahlounge.com","tier":"","message":"","currency":"","rating":7.7},{"name":"Ringers Roost","phone":"6104374941","address":"1801 W Liberty St","lat":40.603038058043566,"lng":-75.49786448478699,"neighborhood":"West End Theatre District","city_fetched":"Allentown,US","state":"PA","country":"United States","canonicalUrl":"https://foursquare.com/v/ringers-roost/4b06d239f964a520daf022e3","categoryId":"4bf58dd8d48988d116941735","category":"Bar","checkinsCount":836,"usersCount":340,"tipCount":12,"visitsCount":988,"tier":"","message":"","currency":"","rating":7.7},{"name":"P.J. Whelihan's Pub & Restaurant","phone":"6103954077","twitter":"pjs_pub","address":"1658 Hausman Rd","lat":40.61068163570045,"lng":-75.56925825194257,"neighborhood":"The Walbert Hotel","city_fetched":"Allentown,US","state":"PA","country":"United States","canonicalUrl":"https://foursquare.com/v/pj-whelihans-pub--restaurant/4ef22b46d5fb2baf20ec493b","categoryId":"4bf58dd8d48988d11d941735","category":"Sports Bar","checkinsCount":516,"usersCount":398,"tipCount":4,"visitsCount":788,"url":"https://www.pjspub.com","tier":"","message":"","currency":"","rating":7.7},{"name":"Chickie's & Pete's","phone":"4842734507","address":"701 Hamilton St","lat":40.60213782643048,"lng":-75.4729071207887,"neighborhood":"Downtown Allentown","city_fetched":"Allentown,US","state":"PA","country":"United States","canonicalUrl":"https://foursquare.com/v/chickies--petes/5439eb5a498ead5eaf066feb","categoryId":"4bf58dd8d48988d11d941735","category":"Sports Bar","checkinsCount":393,"usersCount":244,"tipCount":4,"visitsCount":436,"url":"http://chickiesandpetes.com","tier":"","message":"","currency":"","rating":7.5},{"name":"Hop's At The Paddock","phone":"6104373911","address":"1945 W Columbia St","lat":40.61722585825364,"lng":-75.5083316421937,"city_fetched":"Allentown,US","state":"PA","country":"United States","canonicalUrl":"https://foursquare.com/v/hops-at-the-paddock/4b89a5cbf964a520ed4832e3","categoryId":"4bf58dd8d48988d116941735","category":"Bar","checkinsCount":1192,"usersCount":540,"tipCount":13,"visitsCount":1821,"tier":"","message":"","currency":"","rating":7.5},{"name":"Big Woody's Pizza & Sports Bar","phone":"6108203866","address":"1202 W Liberty St","lat":40.60574238474842,"lng":-75.48578381538391,"neighborhood":"Center City","city_fetched":"Allentown,US","state":"PA","country":"United States","canonicalUrl":"https://foursquare.com/v/big-woodys-pizza--sports-bar/4bf8b088b182c9b6f6fc775a","categoryId":"4bf58dd8d48988d116941735","category":"Bar","checkinsCount":385,"usersCount":130,"tipCount":5,"visitsCount":406,"url":"http://bigwoodysbar.com","tier":"","message":"","currency":"","rating":7.4},{"name":"McCarthy's Red Stag Pub","phone":"6108617631","twitter":"redstagpubpa","address":"534 Main St","lat":40.621381640387845,"lng":-75.38150309591428,"neighborhood":"Central Bethlehem Historic District","city_fetched":"Allentown,US","state":"PA","country":"United States","canonicalUrl":"https://foursquare.com/v/mccarthys-red-stag-pub/53ee987d498e9505bcfb151d","categoryId":"4bf58dd8d48988d11b941735","category":"Pub","checkinsCount":398,"usersCount":278,"tipCount":7,"visitsCount":507,"url":"http://www.redstagpub.com","tier":"","message":"","currency":"","rating":7.4},{"name":"Sunset Grille","phone":"6103959622","address":"6751 Ruppsville Rd","lat":40.580307615816615,"lng":-75.60119390487671,"city_fetched":"Allentown,US","state":"PA","country":"United States","canonicalUrl":"https://foursquare.com/v/sunset-grille/4b4fe1bbf964a520841827e3","categoryId":"4bf58dd8d48988d116941735","category":"Bar","checkinsCount":1475,"usersCount":832,"tipCount":23,"visitsCount":1826,"url":"http://www.sunset-grille.com","tier":2,"message":"Moderate","currency":"$","rating":7.3},{"name":"Tilted Kilt Pub & Eatery","phone":"6107912100","twitter":"tiltedkiltpub","address":"2835 Lehigh St","lat":40.561746968275116,"lng":-75.48542435836549,"neighborhood":"Southside","city_fetched":"Allentown,US","state":"PA","country":"United States","canonicalUrl":"https://foursquare.com/v/tilted-kilt-pub--eatery/4e6646c4b993678bb849b898","categoryId":"4bf58dd8d48988d11b941735","category":"Pub","checkinsCount":2448,"usersCount":1528,"tipCount":27,"visitsCount":2912,"url":"http://www.tiltedkilt.com","tier":2,"message":"Moderate","currency":"$","rating":7.3},{"name":"Steelgaarden Lounge","phone":"6108821300","twitter":"thebrewworks","address":"569 Main St","lat":40.622238927406904,"lng":-75.38226013878294,"neighborhood":"Central Bethlehem Historic District","city_fetched":"Allentown,US","state":"PA","country":"United States","canonicalUrl":"https://foursquare.com/v/steelgaarden-lounge/4f093177e4b0cc066d1013fb","categoryId":"4bf58dd8d48988d121941735","category":"Lounge","checkinsCount":1043,"usersCount":299,"tipCount":3,"visitsCount":1050,"url":"http://www.thebrewworks.com/bethlehem-brew-works/steelgaarden/","tier":"","message":"","currency":"","rating":7.3},{"name":"Molly's Irish Grille and Sports Pub","phone":"6108681313","address":"4 E 4th St","lat":40.61031790520301,"lng":-75.37810787558556,"neighborhood":"South Bethlehem Downtown Historic District","city_fetched":"Allentown,US","state":"PA","country":"United States","canonicalUrl":"https://foursquare.com/v/mollys-irish-grille-and-sports-pub/4b05e75df964a5207de522e3","categoryId":"4bf58dd8d48988d11b941735","category":"Pub","checkinsCount":5181,"usersCount":1437,"tipCount":37,"visitsCount":5283,"url":"http://mollysbethlehem.com","tier":2,"message":"Moderate","currency":"$","rating":7.3},{"name":"Chicken Lounge","phone":"6104391707","address":"3247 Hamilton Blvd","lat":40.579295404269274,"lng":-75.52451673404373,"city_fetched":"Allentown,US","state":"PA","country":"United States","canonicalUrl":"https://foursquare.com/v/chicken-lounge/4b58f62cf964a520a07528e3","categoryId":"4bf58dd8d48988d121941735","category":"Lounge","checkinsCount":973,"usersCount":477,"tipCount":20,"visitsCount":1013,"tier":"","message":"","currency":"","rating":7.3},{"name":"Mach's Gute","phone":"6108663311","address":"713 Linden St","lat":40.6239238175961,"lng":-75.37063655386468,"city_fetched":"Allentown,US","state":"PA","country":"United States","canonicalUrl":"https://foursquare.com/v/machs-gute/4aeba693f964a52028c421e3","categoryId":"4bf58dd8d48988d11b941735","category":"Pub","checkinsCount":1923,"usersCount":693,"tipCount":23,"visitsCount":2239,"tier":2,"message":"Moderate","currency":"$","rating":7.3},{"name":"Keystone Pub & Grill","phone":"4842256474","address":"1410 Grape St","lat":40.63261727442748,"lng":-75.48396538702171,"city_fetched":"Allentown,US","state":"PA","country":"United States","canonicalUrl":"https://foursquare.com/v/keystone-pub--grill/4f73943ee4b03ea6fe1c51b7","categoryId":"4bf58dd8d48988d11b941735","category":"Pub","checkinsCount":1790,"usersCount":984,"tipCount":21,"visitsCount":2521,"tier":2,"message":"Moderate","currency":"$","rating":7.2},{"name":"Krocks Pub","phone":"6103910648","address":"1160 S Krocks Rd","lat":40.556328196034954,"lng":-75.56776879133946,"city_fetched":"Allentown,US","state":"PA","country":"United States","canonicalUrl":"https://foursquare.com/v/krocks-pub/4c2d60ca987f20a1347549aa","categoryId":"4bf58dd8d48988d11b941735","category":"Pub","checkinsCount":1594,"usersCount":564,"tipCount":7,"visitsCount":1889,"url":"http://krockspub.com","tier":"","message":"","currency":"","rating":7.2},{"name":"Bell Hall","lat":40.60229591548048,"lng":-75.47003434087485,"neighborhood":"Downtown Allentown","city_fetched":"Allentown,US","state":"PA","country":"United States","canonicalUrl":"https://foursquare.com/v/bell-hall/562045a5498e3ed4c69b9011","categoryId":"4bf58dd8d48988d11b941735","category":"Pub","checkinsCount":232,"usersCount":179,"tipCount":2,"visitsCount":334,"tier":"","message":"","currency":"","rating":7.2},{"name":"Leather Corner Post","address":"Kernsville Road","lat":40.62116969,"lng":-75.638553,"neighborhood":"Lowhill - Weisenberg Twps. Rural Historic District","city_fetched":"Allentown,US","state":"PA","country":"United States","canonicalUrl":"https://foursquare.com/v/leather-corner-post/4bc8f871cc8cd13ab5bebacf","categoryId":"4bf58dd8d48988d116941735","category":"Bar","checkinsCount":397,"usersCount":255,"tipCount":5,"visitsCount":620,"url":"http://leathercornerpost.com","tier":"","message":"","currency":"","rating":7.2},{"name":"Old Brewery Tavern","phone":"6106919406","address":"138 W Union Blvd","lat":40.625258262192006,"lng":-75.38325055007247,"city_fetched":"Allentown,US","state":"PA","country":"United States","canonicalUrl":"https://foursquare.com/v/old-brewery-tavern/4abd7e1ff964a520a68a20e3","categoryId":"4bf58dd8d48988d116941735","category":"Bar","checkinsCount":1020,"usersCount":462,"tipCount":6,"visitsCount":1289,"url":"http://oldbrewerytavern.com","tier":"","message":"","currency":"","rating":7.2},{"name":"Candida's Bar","phone":"6104343071","address":"247 N 12th St","lat":40.603686,"lng":-75.4835702,"neighborhood":"Center City","city_fetched":"Allentown,US","state":"PA","country":"United States","canonicalUrl":"https://foursquare.com/v/candidas-bar/4b36ec19f964a5203c3e25e3","categoryId":"4bf58dd8d48988d116941735","category":"Bar","checkinsCount":714,"usersCount":186,"tipCount":6,"visitsCount":837,"url":"http://www.candidasbar.com","tier":"","message":"","currency":"","rating":7.1},{"name":"Buckeye Tavern","phone":"6109664411","address":"3741 Brookside Rd","lat":40.5189318,"lng":-75.544909,"city_fetched":"Allentown,US","state":"PA","country":"United States","canonicalUrl":"https://foursquare.com/v/buckeye-tavern/4b567687f964a5207e1128e3","categoryId":"4bf58dd8d48988d11b941735","category":"Pub","checkinsCount":1070,"usersCount":623,"tipCount":23,"visitsCount":1224,"url":"http://www.buckeyetavern.com","tier":2,"message":"Moderate","currency":"$","rating":7.1},{"name":"Joe's Tavern","phone":"6108683200","address":"12 W Broad St","lat":40.62240493394367,"lng":-75.37890179956528,"city_fetched":"Allentown,US","state":"PA","country":"United States","canonicalUrl":"https://foursquare.com/v/joes-tavern/4ab99f3ff964a520068020e3","categoryId":"4bf58dd8d48988d118941735","category":"Dive Bar","checkinsCount":1524,"usersCount":388,"tipCount":22,"visitsCount":1658,"url":"http://joestavern.com","tier":"","message":"","currency":"","rating":7},{"name":"Longswamp Tavern","lat":40.47823834827651,"lng":-75.61455454102814,"city_fetched":"Allentown,US","state":"PA","country":"United States","canonicalUrl":"https://foursquare.com/v/longswamp-tavern/4d1d60d35c4ca1cd90f4863d","categoryId":"4bf58dd8d48988d116941735","category":"Bar","checkinsCount":360,"usersCount":86,"tipCount":5,"visitsCount":392,"tier":"","message":"","currency":"","rating":7},{"name":"Hookah Turka","phone":"6104195184","twitter":"hookahturka","address":"44 W Broad St","lat":40.622429,"lng":-75.380291,"city_fetched":"Allentown,US","state":"PA","country":"United States","canonicalUrl":"https://foursquare.com/v/hookah-turka/4ba19d96f964a52009c437e3","categoryId":"4bf58dd8d48988d119941735","category":"Hookah Bar","checkinsCount":380,"usersCount":206,"tipCount":11,"visitsCount":384,"tier":"","message":"","currency":"","rating":6.9},{"name":"Stonewall Moose Lounge Bar & Grill","phone":"6104320706","twitter":"stonewallpa","address":"28 N 10th St","lat":40.601504825855834,"lng":-75.47845342122451,"neighborhood":"Downtown Allentown","city_fetched":"Allentown,US","state":"PA","country":"United States","canonicalUrl":"https://foursquare.com/v/stonewall-moose-lounge-bar--grill/44eb15d2f964a520c4371fe3","categoryId":"4bf58dd8d48988d1d8941735","category":"Gay Bar","checkinsCount":1940,"usersCount":584,"tipCount":13,"visitsCount":2130,"url":"http://stonewallpa.com","tier":"","message":"","currency":"","rating":6.9},{"name":"J.P. MacGrady's","phone":"6108688925","address":"117 E 3rd St","lat":40.612212,"lng":-75.376674,"neighborhood":"South Bethlehem Downtown Historic District","city_fetched":"Allentown,US","state":"PA","country":"United States","canonicalUrl":"https://foursquare.com/v/jp-macgradys/4648b6ccf964a520a4461fe3","categoryId":"4bf58dd8d48988d116941735","category":"Bar","checkinsCount":5602,"usersCount":1730,"tipCount":45,"visitsCount":6026,"tier":2,"message":"Moderate","currency":"$","rating":6.9},{"name":"The Gin Mill & Grille","phone":"6102625486","address":"1750 Main St","lat":40.68638197923826,"lng":-75.49712419509888,"neighborhood":"Northampton Historic District","city_fetched":"Allentown,US","state":"PA","country":"United States","canonicalUrl":"https://foursquare.com/v/the-gin-mill--grille/4e86bf7b4fc6432751da0f04","categoryId":"4bf58dd8d48988d11b941735","category":"Pub","checkinsCount":1145,"usersCount":371,"tipCount":4,"visitsCount":1416,"tier":2,"message":"Moderate","currency":"$","rating":6.8},{"name":"Platinum Plus","phone":"6104333311","address":"1251 Airport Rd","lat":40.63015175043303,"lng":-75.43998347436263,"neighborhood":"Eastside","city_fetched":"Allentown,US","state":"PA","country":"United States","canonicalUrl":"https://foursquare.com/v/platinum-plus/4daa4cd44df01c19b187e5ed","categoryId":"4bf58dd8d48988d1d6941735","category":"Strip Club","checkinsCount":2163,"usersCount":589,"tipCount":9,"visitsCount":2656,"tier":"","message":"","currency":"","rating":6.8},{"name":"Essence Hookah Lounge","phone":"4845533236","twitter":"essence203","address":"203 E 3rd St","lat":40.61229221340271,"lng":-75.37578815437045,"neighborhood":"South Bethlehem Downtown Historic District","city_fetched":"Allentown,US","state":"PA","country":"United States","canonicalUrl":"https://foursquare.com/v/essence-hookah-lounge/4aeaa311f964a520fdbb21e3","categoryId":"4bf58dd8d48988d119941735","category":"Hookah Bar","checkinsCount":1508,"usersCount":451,"tipCount":10,"visitsCount":1533,"tier":"","message":"","currency":"","rating":6.8},{"name":"Volpe's","phone":"6104350311","address":"1926 W Tilghman St","lat":40.60467246062115,"lng":-75.5017797628311,"neighborhood":"West End Theatre District","city_fetched":"Allentown,US","state":"PA","country":"United States","canonicalUrl":"https://foursquare.com/v/volpes/4ba588bcf964a520201039e3","categoryId":"4bf58dd8d48988d11d941735","category":"Sports Bar","checkinsCount":534,"usersCount":242,"tipCount":3,"visitsCount":576,"url":"http://volpessportsbar.com","tier":"","message":"","currency":"","rating":6.7},{"name":"Commix Hotel","phone":"6107979711","address":"3245 W Emaus Ave","lat":40.555032229511326,"lng":-75.484295302167,"neighborhood":"Southside","city_fetched":"Allentown,US","state":"PA","country":"United States","canonicalUrl":"https://foursquare.com/v/commix-hotel/4bfb0e72d2b720a19086326a","categoryId":"4bf58dd8d48988d116941735","category":"Bar","checkinsCount":826,"usersCount":175,"tipCount":7,"visitsCount":906,"tier":"","message":"","currency":"","rating":6.7},{"name":"Stooge's","phone":"6104327553","address":"2105 W Liberty St","lat":40.60131928751649,"lng":-75.50411939620972,"neighborhood":"West End Theatre District","city_fetched":"Allentown,US","state":"PA","country":"United States","canonicalUrl":"https://foursquare.com/v/stooges/4b4d3733f964a52070ce26e3","categoryId":"4bf58dd8d48988d11d941735","category":"Sports Bar","checkinsCount":2110,"usersCount":759,"tipCount":11,"visitsCount":2450,"tier":"","message":"","currency":"","rating":6.7},{"name":"Ripper's Pub","phone":"6108666646","address":"77 W Broad St","lat":40.62236093278563,"lng":-75.38061513105063,"neighborhood":"Central Bethlehem Historic District","city_fetched":"Allentown,US","state":"PA","country":"United States","canonicalUrl":"https://foursquare.com/v/rippers-pub/4b16c013f964a520ebbc23e3","categoryId":"4bf58dd8d48988d118941735","category":"Dive Bar","checkinsCount":1548,"usersCount":548,"tipCount":8,"visitsCount":1679,"tier":2,"message":"Moderate","currency":"$","rating":6.6},{"name":"Diamonz Bar & Nightclub","phone":"6108651028","twitter":"diamonzbar","address":"1913 W Broad St","lat":40.623442,"lng":-75.41198235,"city_fetched":"Allentown,US","state":"PA","country":"United States","canonicalUrl":"https://foursquare.com/v/diamonz-bar--nightclub/4b6b1f4ef964a5203af42be3","categoryId":"4bf58dd8d48988d116941735","category":"Bar","checkinsCount":1010,"usersCount":312,"tipCount":8,"visitsCount":1179,"tier":"","message":"","currency":"","rating":6.5},{"name":"Tally Ho Tavern","phone":"6108652591","address":"205 W 4th St","lat":40.61055140794709,"lng":-75.3817990830489,"neighborhood":"South Bethlehem Downtown Historic District","city_fetched":"Allentown,US","state":"PA","country":"United States","canonicalUrl":"https://foursquare.com/v/tally-ho-tavern/464841c6f964a5209f461fe3","categoryId":"4bf58dd8d48988d116941735","category":"Bar","checkinsCount":4407,"usersCount":1412,"tipCount":30,"visitsCount":4674,"url":"http://thetallyho.com","tier":1,"message":"Cheap","currency":"$","rating":6.5},{"name":"Opa Bar & Grill","phone":"6107760299","address":"2204 Union Blvd","lat":40.625744487095645,"lng":-75.4231595993042,"neighborhood":"Eastside","city_fetched":"Allentown,US","state":"PA","country":"United States","canonicalUrl":"https://foursquare.com/v/opa-bar--grill/50886506e4b01292dd2ec105","categoryId":"4bf58dd8d48988d116941735","category":"Bar","checkinsCount":208,"usersCount":125,"tipCount":6,"visitsCount":364,"tier":"","message":"","currency":"","rating":6.5},{"name":"The Steel Pub","phone":"6106255005","address":"320 E 1st St","lat":40.61413976203268,"lng":-75.3735601902008,"city_fetched":"Allentown,US","state":"PA","country":"United States","canonicalUrl":"https://foursquare.com/v/the-steel-pub/501c26e7e4b067b041a96609","categoryId":"4bf58dd8d48988d11b941735","category":"Pub","checkinsCount":958,"usersCount":486,"tipCount":9,"visitsCount":1106,"url":"http://thesteelpub.com","tier":"","message":"","currency":"","rating":6.4},{"name":"Pizza Como/Lou's 50 Yard Line Sports Bar","address":"2626 Easton Ave","lat":40.64427529098363,"lng":-75.34561157226562,"city_fetched":"Allentown,US","state":"PA","country":"United States","canonicalUrl":"https://foursquare.com/v/pizza-comolous-50-yard-line-sports-bar/4bcbba983740b713ab206365","categoryId":"4bf58dd8d48988d116941735","category":"Bar","checkinsCount":1072,"usersCount":413,"tipCount":11,"visitsCount":1321,"tier":"","message":"","currency":"","rating":6.4},{"name":"Maingate Night Club","phone":"6107767711","address":"448 N 17th St","lat":40.60294436740402,"lng":-75.49599544269313,"neighborhood":"Westside","city_fetched":"Allentown,US","state":"PA","country":"United States","canonicalUrl":"https://foursquare.com/v/maingate-night-club/4b9b0dd9f964a52012ef35e3","categoryId":"4bf58dd8d48988d11f941735","category":"Nightclub","checkinsCount":1056,"usersCount":507,"tipCount":10,"visitsCount":1126,"url":"http://maingateclub.com","tier":2,"message":"Moderate","currency":"$","rating":6.3},{"name":"The Your Welcome Inn","phone":"6108688887","address":"325 S New St","lat":40.61112131127227,"lng":-75.3784635023618,"neighborhood":"South Bethlehem Downtown Historic District","city_fetched":"Allentown,US","state":"PA","country":"United States","canonicalUrl":"https://foursquare.com/v/the-your-welcome-inn/4afe1fa9f964a5201d2e22e3","categoryId":"4bf58dd8d48988d116941735","category":"Bar","checkinsCount":997,"usersCount":329,"tipCount":11,"visitsCount":1022,"tier":"","message":"","currency":"","rating":6.2},{"name":"Chicago Sports Bar & Grill","phone":"6107762090","address":"1179 Airport Rd","lat":40.62841390271997,"lng":-75.43994364529877,"neighborhood":"Eastside","city_fetched":"Allentown,US","state":"PA","country":"United States","canonicalUrl":"https://foursquare.com/v/chicago-sports-bar--grill/51703307498e51276c469761","categoryId":"4bf58dd8d48988d11d941735","category":"Sports Bar","checkinsCount":488,"usersCount":278,"tipCount":13,"visitsCount":651,"url":"http://www.chicagorestaurantlv.com","tier":"","message":"","currency":"","rating":6.2},{"name":"Fairgrounds Hotel","phone":"6107767711","address":"448 N 17th St","lat":40.60311537523688,"lng":-75.49542666754877,"neighborhood":"Westside","city_fetched":"Allentown,US","state":"PA","country":"United States","canonicalUrl":"https://foursquare.com/v/fairgrounds-hotel/506783ffe4b0bf441a935584","categoryId":"4bf58dd8d48988d116941735","category":"Bar","checkinsCount":54,"usersCount":40,"tipCount":2,"visitsCount":56,"tier":"","message":"","currency":"","rating":5.8},{"name":"Fossil's Last Stand","address":"425 Race St","lat":40.6513497798109,"lng":-75.46251934340914,"city_fetched":"Allentown,US","state":"PA","country":"United States","canonicalUrl":"https://foursquare.com/v/fossils-last-stand/4b344014f964a520842625e3","categoryId":"4bf58dd8d48988d11b941735","category":"Pub","checkinsCount":299,"usersCount":113,"tipCount":3,"visitsCount":337,"tier":"","message":"","currency":"","rating":5.8},{"name":"Big Woody's Sports Bar & Restaurant","phone":"6102894444","twitter":"bigwoodyssports","address":"1841 S 4th St","lat":40.581012457059956,"lng":-75.45548021793365,"neighborhood":"Southside","city_fetched":"Allentown,US","state":"PA","country":"United States","canonicalUrl":"https://foursquare.com/v/big-woodys-sports-bar--restaurant/4b6b5b29f964a52018032ce3","categoryId":"4bf58dd8d48988d11d941735","category":"Sports Bar","checkinsCount":646,"usersCount":338,"tipCount":7,"visitsCount":753,"url":"http://www.bigwoodyspizza.com","tier":"","message":"","currency":"","rating":5.7},{"name":"Pitchers Sports Bar & Grille","phone":"6108414001","address":"570 Union Blvd","lat":40.6224665,"lng":-75.450552,"neighborhood":"Eastside","city_fetched":"Allentown,US","state":"PA","country":"United States","canonicalUrl":"https://foursquare.com/v/pitchers-sports-bar--grille/4ae7bd2ef964a52086ad21e3","categoryId":"4bf58dd8d48988d11d941735","category":"Sports Bar","checkinsCount":481,"usersCount":274,"tipCount":7,"visitsCount":533,"tier":"","message":"","currency":"","rating":5.6},{"name":"Hammerheads Tavern","phone":"9082130013","address":"799 S Main St","lat":40.6712935,"lng":-75.48188641,"city_fetched":"Allentown,US","state":"PA","country":"United States","canonicalUrl":"https://foursquare.com/v/hammerheads-tavern/4c5e2fce2815c928f337b767","categoryId":"4bf58dd8d48988d11b941735","category":"Pub","checkinsCount":535,"usersCount":182,"tipCount":2,"visitsCount":537,"tier":"","message":"","currency":"","rating":5.5},{"name":"Riley's","phone":"6102629911","address":"4505 Main St","lat":40.68000339369621,"lng":-75.53012609481812,"city_fetched":"Allentown,US","state":"PA","country":"United States","canonicalUrl":"https://foursquare.com/v/rileys/4cafc527aef16dcb4e71ab54","categoryId":"4bf58dd8d48988d116941735","category":"Bar","checkinsCount":376,"usersCount":211,"tipCount":9,"visitsCount":543,"tier":"","message":"","currency":"","rating":5.2}]