[{"name":"Black Sheep Pub","phone":"9893563076","address":"113 S Second Ave","lat":45.06206350055586,"lng":-83.43403816223145,"city_fetched":"Alpena","state":"MI","country":"United States","canonicalUrl":"https://foursquare.com/v/black-sheep-pub/4cb9cbbb9552b60ce8cbd58b","category":"Pub","checkinsCount":319,"usersCount":157,"tipCount":6,"visitsCount":332,"tier":"","message":"","currency":"","rating":7},{"name":"JJ's Steak & Pizza House","phone":"9893564277","address":"411 N Second Ave","lat":45.06490409374237,"lng":-83.42940665,"city_fetched":"Alpena","state":"MI","country":"United States","canonicalUrl":"https://foursquare.com/v/jjs-steak--pizza-house/4bbd9e16a8cf76b088f8b1fd","category":"Sports Bar","checkinsCount":454,"usersCount":282,"tipCount":5,"visitsCount":555,"url":"http://www.jjsteakandpizza.com","tier":"","message":"","currency":"","rating":6.5},{"name":"John A. Lau Saloon","address":"414 N Second Ave","lat":45.0646982806911,"lng":-83.42904628871996,"city_fetched":"Alpena","state":"MI","country":"United States","canonicalUrl":"https://foursquare.com/v/john-a-lau-saloon/4be597f62457a593f0aaab15","category":"Bar","checkinsCount":216,"usersCount":161,"tipCount":4,"visitsCount":217,"tier":"","message":"","currency":"","rating":6}]