[{"name":"Al's Tavern","phone":"8149449633","address":"2831 8th Ave","lat":40.49810964347996,"lng":-78.41140866279602,"city_fetched":"Altoona","state":"PA","country":"United States","canonicalUrl":"https://foursquare.com/v/als-tavern/4b8317f3f964a52036f730e3","category":"Dive Bar","checkinsCount":947,"usersCount":476,"tipCount":19,"visitsCount":1284,"url":"http://alstavern.com","tier":2,"message":"Moderate","currency":"$","rating":9},{"name":"The Knickerbocker Tavern","phone":"8149420770","twitter":"theknicktavern","address":"3957 6th Ave","lat":40.48700908492675,"lng":-78.4143778681755,"city_fetched":"Altoona","state":"PA","country":"United States","canonicalUrl":"https://foursquare.com/v/the-knickerbocker-tavern/4b5ba863f964a520260e29e3","category":"Pub","checkinsCount":1948,"usersCount":830,"tipCount":34,"visitsCount":2686,"url":"http://www.knickerbockertavern.com","tier":2,"message":"Moderate","currency":"$","rating":8.5},{"name":"Mike's Court","phone":"8149436525","address":"1908 5th St","lat":40.52531527462408,"lng":-78.4029483050108,"city_fetched":"Altoona","state":"PA","country":"United States","canonicalUrl":"https://foursquare.com/v/mikes-court/4b846da5f964a520cc3431e3","category":"Sports Bar","checkinsCount":358,"usersCount":150,"tipCount":9,"visitsCount":505,"tier":"","message":"","currency":"","rating":8.5},{"name":"Tim's American Cafe","phone":"8149495841","address":"1600 Crawford Ave","lat":40.50531372278175,"lng":-78.39480310678482,"city_fetched":"Altoona","state":"PA","country":"United States","canonicalUrl":"https://foursquare.com/v/tims-american-cafe/4b69a8c0f964a520d3ab2be3","category":"Wings Joint","checkinsCount":359,"usersCount":256,"tipCount":12,"visitsCount":460,"tier":"","message":"","currency":"","rating":8.4},{"name":"Jack and George's","phone":"8149435622","address":"2400 4th Ave","lat":40.501372454558954,"lng":-78.40366780757904,"city_fetched":"Altoona","state":"PA","country":"United States","canonicalUrl":"https://foursquare.com/v/jack-and-georges/4bb786c0cf2fc9b6c8569e02","category":"Bar","checkinsCount":437,"usersCount":314,"tipCount":8,"visitsCount":785,"tier":"","message":"","currency":"","rating":8.1},{"name":"McGarvey's","phone":"8149439907","address":"623 N 4th Ave","lat":40.53805523063658,"lng":-78.38169238891578,"city_fetched":"Altoona","state":"PA","country":"United States","canonicalUrl":"https://foursquare.com/v/mcgarveys/4bf74ad7abdaef3b7c76a184","category":"Bar","checkinsCount":1390,"usersCount":243,"tipCount":10,"visitsCount":1457,"url":"http://www.aldositalian.com","tier":"","message":"","currency":"","rating":7.9},{"name":"Cassidy's Brew Zoo","phone":"8149462739","twitter":"cassidysbrewzoo","address":"3415 Pleasant Valley Blvd","lat":40.48326921921749,"lng":-78.39911006391048,"city_fetched":"Altoona","state":"PA","country":"United States","canonicalUrl":"https://foursquare.com/v/cassidys-brew-zoo/4ba3f721f964a520507238e3","category":"Beer Garden","checkinsCount":459,"usersCount":154,"tipCount":5,"visitsCount":487,"url":"http://brewzoo.com","tier":"","message":"","currency":"","rating":7.9},{"name":"Pellegrine's Lounge","phone":"8149439223","address":"1330 Pleasant Valley Blvd","lat":40.505447303753186,"lng":-78.38787898421288,"city_fetched":"Altoona","state":"PA","country":"United States","canonicalUrl":"https://foursquare.com/v/pellegrines-lounge/4b7448bcf964a5207fd22de3","category":"Bar","checkinsCount":216,"usersCount":149,"tipCount":2,"visitsCount":240,"tier":"","message":"","currency":"","rating":7.8},{"name":"Cesare Battisti Club","phone":"8149446993","address":"3909 Beale Ave","lat":40.48727733947838,"lng":-78.42010505497456,"city_fetched":"Altoona","state":"PA","country":"United States","canonicalUrl":"https://foursquare.com/v/cesare-battisti-club/4b9ec620f964a520d40037e3","category":"Bar","checkinsCount":682,"usersCount":160,"tipCount":2,"visitsCount":749,"tier":"","message":"","currency":"","rating":7.8},{"name":"Bavarian Hall","phone":"8149443698","address":"112 S 13th St","lat":40.50896314084244,"lng":-78.39201897382736,"city_fetched":"Altoona","state":"PA","country":"United States","canonicalUrl":"https://foursquare.com/v/bavarian-hall/4bddd2ec587b2d7f633a5509","category":"Bar","checkinsCount":745,"usersCount":273,"tipCount":5,"visitsCount":1018,"url":"http://bavarianhall.com","tier":"","message":"","currency":"","rating":7.7},{"name":"Zach's Sports & Spirits","phone":"8149439479","address":"5828 6th Ave","lat":40.4717632229047,"lng":-78.42596769332884,"city_fetched":"Altoona","state":"PA","country":"United States","canonicalUrl":"https://foursquare.com/v/zachs-sports--spirits/4b99bbeaf964a520038f35e3","category":"Sports Bar","checkinsCount":1455,"usersCount":633,"tipCount":12,"visitsCount":1710,"url":"https://zackssports.com","tier":2,"message":"Moderate","currency":"$","rating":7.7},{"name":"Nardo's Cafe","phone":"8149408844","address":"1910 Union Ave","lat":40.509376606670834,"lng":-78.40721100568771,"city_fetched":"Altoona","state":"PA","country":"United States","canonicalUrl":"https://foursquare.com/v/nardos-cafe/4c2aeb1d9a559c747a140de2","category":"Sandwich Place","checkinsCount":236,"usersCount":84,"tipCount":5,"visitsCount":262,"tier":"","message":"","currency":"","rating":7.7},{"name":"Molly Maguires","phone":"8149408808","address":"1600 Bell Ave","lat":40.5047141346864,"lng":-78.39389115571976,"city_fetched":"Altoona","state":"PA","country":"United States","canonicalUrl":"https://foursquare.com/v/molly-maguires/4c1ece1ab306c928cda967b7","category":"Pub","checkinsCount":650,"usersCount":115,"tipCount":2,"visitsCount":685,"tier":"","message":"","currency":"","rating":7.7},{"name":"Champs Sports Grill","phone":"8149417788","address":"205 Charlotte Dr","lat":40.46747819166753,"lng":-78.4078198671341,"city_fetched":"Altoona","state":"PA","country":"United States","canonicalUrl":"https://foursquare.com/v/champs-sports-grill/4d9e5bf27f1b721e6f0f870f","category":"Sports Bar","checkinsCount":2768,"usersCount":1300,"tipCount":25,"visitsCount":3395,"url":"http://achampssportsgrill.net","tier":2,"message":"Moderate","currency":"$","rating":7.5},{"name":"Pal-Mino's Pizza","phone":"8149421562","address":"2206 7th Ave","lat":40.50426783278526,"lng":-78.40521542967136,"city_fetched":"Altoona","state":"PA","country":"United States","canonicalUrl":"https://foursquare.com/v/palminos-pizza/4c8d4e21f0ce236a33e71fef","category":"Pizza Place","checkinsCount":145,"usersCount":70,"tipCount":2,"visitsCount":147,"tier":"","message":"","currency":"","rating":7.2},{"name":"Trianon Bar","phone":"8149443910","address":"500 N 2nd St","lat":40.533885832868386,"lng":-78.38672161102295,"city_fetched":"Altoona","state":"PA","country":"United States","canonicalUrl":"https://foursquare.com/v/trianon-bar/4c1b8a9555e4c9b6a7764923","category":"Bar","checkinsCount":177,"usersCount":76,"tipCount":0,"visitsCount":211,"tier":"","message":"","currency":"","rating":6.9},{"name":"PA Wine & Spirits","phone":"8149436520","twitter":"pawinespirits","address":"3415 Pleasant Valley Blvd","lat":40.48219052020001,"lng":-78.39934274554253,"city_fetched":"Altoona","state":"PA","country":"United States","canonicalUrl":"https://foursquare.com/v/pa-wine--spirits/4b6a115af964a52070c52be3","category":"Liquor Store","checkinsCount":794,"usersCount":238,"tipCount":0,"visitsCount":807,"url":"http://finewineandgoodspirits.com","tier":"","message":"","currency":"","rating":6.8},{"name":"The Hotel Belmar","phone":"8149446176","address":"1501 4th Ave","lat":40.50818514520873,"lng":-78.39697435498238,"city_fetched":"Altoona","state":"PA","country":"United States","canonicalUrl":"https://foursquare.com/v/the-hotel-belmar/4bdb817563c5c9b6046b2868","category":"Dive Bar","checkinsCount":483,"usersCount":195,"tipCount":3,"visitsCount":545,"tier":"","message":"","currency":"","rating":6.7},{"name":"Family Pizza & Pub","phone":"8149465363","address":"200 E Pleasant Valley Blvd","lat":40.51811334392828,"lng":-78.3744391053915,"city_fetched":"Altoona","state":"PA","country":"United States","canonicalUrl":"https://foursquare.com/v/family-pizza--pub/4bb7f0797421a593f44ec140","category":"Pub","checkinsCount":460,"usersCount":207,"tipCount":13,"visitsCount":486,"tier":"","message":"","currency":"","rating":6.2},{"name":"Fat Daddy's","phone":"8149492727","address":"200 Pleasant Valley Blvd","lat":40.51581227382714,"lng":-78.3768604695797,"city_fetched":"Altoona","state":"PA","country":"United States","canonicalUrl":"https://foursquare.com/v/fat-daddys/4be198fb1a44a593b01c9287","category":"BBQ Joint","checkinsCount":287,"usersCount":147,"tipCount":3,"visitsCount":353,"tier":"","message":"","currency":"","rating":5.9}]