[{"name":"Welch Ave. Station","phone":"5152922334","address":"207 Welch Ave","lat":42.020956025712614,"lng":-93.65050792694092,"neighborhood":"South Campus Area","city_fetched":"Ames,US","state":"IA","country":"United States","canonicalUrl":"https://foursquare.com/v/welch-ave-station/4b43c7c3f964a520a5e925e3","categoryId":"4bf58dd8d48988d116941735","category":"Bar","checkinsCount":9937,"usersCount":1738,"tipCount":31,"visitsCount":10324,"url":"http://welchavestation.com","tier":1,"message":"Cheap","currency":"$","rating":9},{"name":"Cafe Beaudelaire","phone":"5152927429","address":"2504 Lincoln Way","lat":42.02275815747147,"lng":-93.65045982660618,"neighborhood":"South Campus Area","city_fetched":"Ames,US","state":"IA","country":"United States","canonicalUrl":"https://foursquare.com/v/cafe-beaudelaire/4b450bd9f964a520570226e3","categoryId":"4bf58dd8d48988d116941735","category":"Bar","checkinsCount":3637,"usersCount":1379,"tipCount":43,"visitsCount":4137,"url":"http://cafebeaudelaire.com","tier":2,"message":"Moderate","currency":"$","rating":8.8},{"name":"Della Viti","phone":"5152320241","address":"323 Main St, Ames, IA 50010","lat":42.025086619623906,"lng":-93.61477799069988,"neighborhood":"Downtown Ames","city_fetched":"Ames,US","state":"IA","country":"United States","canonicalUrl":"https://foursquare.com/v/della-viti/4f31f40de4b0d8fc0acaff0f","categoryId":"4bf58dd8d48988d123941735","category":"Wine Bar","checkinsCount":869,"usersCount":420,"tipCount":4,"visitsCount":930,"url":"http://dellavitiames.com","tier":"","message":"","currency":"","rating":8.5},{"name":"Es Tas Sports Bar and Grill","twitter":"estasbargrill","address":"216 Stanton Ave","lat":42.02091218820747,"lng":-93.64838898181915,"neighborhood":"South Campus Area","city_fetched":"Ames,US","state":"IA","country":"United States","canonicalUrl":"https://foursquare.com/estasbargrill","categoryId":"4bf58dd8d48988d116941735","category":"Bar","checkinsCount":8053,"usersCount":1535,"tipCount":23,"visitsCount":8486,"tier":1,"message":"Cheap","currency":"$","rating":8.4},{"name":"Alluvial Brewing Company","twitter":"alluvialbrewing","address":"West 190th Street","lat":42.07865578738354,"lng":-93.66884749269606,"city_fetched":"Ames,US","state":"IA","country":"United States","canonicalUrl":"https://foursquare.com/v/alluvial-brewing-company/54c04e1a498e8262bc530d2e","categoryId":"50327c8591d4c4b30a586d5d","category":"Brewery","checkinsCount":146,"usersCount":184,"tipCount":2,"visitsCount":388,"tier":"","message":"","currency":"","rating":8.4},{"name":"Blue Owl Bar","address":"223 Welch Ave","lat":42.0203020047867,"lng":-93.65030637671745,"neighborhood":"South Campus Area","city_fetched":"Ames,US","state":"IA","country":"United States","canonicalUrl":"https://foursquare.com/v/blue-owl-bar/522a642c11d2be370ea613d4","categoryId":"4bf58dd8d48988d116941735","category":"Bar","checkinsCount":208,"usersCount":88,"tipCount":5,"visitsCount":212,"tier":"","message":"","currency":"","rating":8},{"name":"London Underground","phone":"5152332040","address":"212 Main St","lat":42.02509312009487,"lng":-93.61248286862516,"neighborhood":"Downtown Ames","city_fetched":"Ames,US","state":"IA","country":"United States","canonicalUrl":"https://foursquare.com/v/london-underground/4b44d44df964a52071fd25e3","categoryId":"4bf58dd8d48988d116941735","category":"Bar","checkinsCount":3461,"usersCount":905,"tipCount":15,"visitsCount":3829,"tier":"","message":"","currency":"","rating":7.9},{"name":"Whiskey River","phone":"5156124949","address":"132 Main St.","lat":42.024942,"lng":-93.61190842,"neighborhood":"Downtown Ames","city_fetched":"Ames,US","state":"IA","country":"United States","canonicalUrl":"https://foursquare.com/v/whiskey-river/4beb9601b3352d7f7ab456d2","categoryId":"4bf58dd8d48988d118941735","category":"Dive Bar","checkinsCount":2808,"usersCount":1026,"tipCount":11,"visitsCount":3024,"url":"http://www.foundersirishpub.com/‎","tier":2,"message":"Moderate","currency":"$","rating":7.7},{"name":"Wallaby's","address":"2733 Stange Rd","lat":42.050282,"lng":-93.645324,"city_fetched":"Ames,US","state":"IA","country":"United States","canonicalUrl":"https://foursquare.com/v/wallabys/54668318498ebc9787e0bead","categoryId":"4bf58dd8d48988d11d941735","category":"Sports Bar","checkinsCount":370,"usersCount":358,"tipCount":4,"visitsCount":652,"tier":"","message":"","currency":"","rating":7.5},{"name":"Sips","phone":"5152926887","address":"126 Welch Ave","lat":42.02172102771043,"lng":-93.64993512891871,"neighborhood":"South Campus Area","city_fetched":"Ames,US","state":"IA","country":"United States","canonicalUrl":"https://foursquare.com/v/sips/4b479df1f964a520933726e3","categoryId":"4bf58dd8d48988d11f941735","category":"Nightclub","checkinsCount":1901,"usersCount":640,"tipCount":4,"visitsCount":1916,"tier":"","message":"","currency":"","rating":7.5},{"name":"Mickey's Irish Pub","phone":"5152927378","twitter":"mickeysinames","address":"109 Welch Ave","lat":42.02236353333333,"lng":-93.650489,"neighborhood":"South Campus Area","city_fetched":"Ames,US","state":"IA","country":"United States","canonicalUrl":"https://foursquare.com/mickeysinames","categoryId":"4bf58dd8d48988d116941735","category":"Bar","checkinsCount":4876,"usersCount":1104,"tipCount":10,"visitsCount":4909,"tier":2,"message":"Moderate","currency":"$","rating":7.4},{"name":"Deano's 119 Main","phone":"5152333910","address":"119 Main St","lat":42.02524226,"lng":-93.611505,"neighborhood":"Downtown Ames","city_fetched":"Ames,US","state":"IA","country":"United States","canonicalUrl":"https://foursquare.com/v/deanos-119-main/4b44daaff964a5203ffe25e3","categoryId":"4bf58dd8d48988d118941735","category":"Dive Bar","checkinsCount":358,"usersCount":147,"tipCount":6,"visitsCount":358,"tier":"","message":"","currency":"","rating":7.3},{"name":"Olde Main Brewing Co.","phone":"5152320553","twitter":"oldemain","address":"316 Main St","lat":42.02495014064236,"lng":-93.61468002697397,"neighborhood":"Downtown Ames","city_fetched":"Ames,US","state":"IA","country":"United States","canonicalUrl":"https://foursquare.com/v/olde-main-brewing-co/4b43b3d4f964a520f1e625e3","categoryId":"50327c8591d4c4b30a586d5d","category":"Brewery","checkinsCount":6714,"usersCount":2456,"tipCount":42,"visitsCount":6889,"url":"http://www.oldemainbrewing.com","tier":2,"message":"Moderate","currency":"$","rating":7.2},{"name":"Outlaws","phone":"5152929671","address":"2522 Chamberlain St","lat":42.0212471,"lng":-93.6512,"neighborhood":"South Campus Area","city_fetched":"Ames,US","state":"IA","country":"United States","canonicalUrl":"https://foursquare.com/v/outlaws/4b479dbcf964a520873726e3","categoryId":"4bf58dd8d48988d11f941735","category":"Nightclub","checkinsCount":1294,"usersCount":494,"tipCount":3,"visitsCount":1347,"tier":2,"message":"Moderate","currency":"$","rating":7.1},{"name":"5 And Dime","lat":42.026030230509186,"lng":-93.61124136997205,"neighborhood":"Downtown Ames","city_fetched":"Ames,US","state":"Iowa","country":"United States","canonicalUrl":"https://foursquare.com/v/5-and-dime/4d69c136b6f46dcb807627b2","categoryId":"4bf58dd8d48988d118941735","category":"Dive Bar","checkinsCount":764,"usersCount":177,"tipCount":1,"visitsCount":871,"tier":"","message":"","currency":"","rating":7.1},{"name":"Chicha Shack","phone":"5152929653","address":"2418 Lincoln Way","lat":42.02171584516748,"lng":-93.65025192686922,"neighborhood":"South Campus Area","city_fetched":"Ames,US","state":"IA","country":"United States","canonicalUrl":"https://foursquare.com/v/chicha-shack/4b465e69f964a520ef1e26e3","categoryId":"4bf58dd8d48988d119941735","category":"Hookah Bar","checkinsCount":1199,"usersCount":330,"tipCount":5,"visitsCount":1206,"url":"http://www.chichashack.com","tier":"","message":"","currency":"","rating":7.1},{"name":"AJ's Ultra Lounge","lat":42.021542157168945,"lng":-93.64886595053426,"neighborhood":"South Campus Area","city_fetched":"Ames,US","state":"IA","country":"United States","canonicalUrl":"https://foursquare.com/v/ajs-ultra-lounge/508a1049e4b0167a9c6609ba","categoryId":"4bf58dd8d48988d121941735","category":"Lounge","checkinsCount":479,"usersCount":209,"tipCount":3,"visitsCount":518,"tier":"","message":"","currency":"","rating":7},{"name":"Mother's Pub and Coffee","phone":"5152922301","twitter":"motherspubames","address":"2900 West St","lat":42.0252452818862,"lng":-93.65719228142872,"neighborhood":"Iowa State University","city_fetched":"Ames,US","state":"IA","country":"United States","canonicalUrl":"https://foursquare.com/v/mothers-pub-and-coffee/4b625799f964a5203d432ae3","categoryId":"4bf58dd8d48988d116941735","category":"Bar","checkinsCount":1094,"usersCount":402,"tipCount":6,"visitsCount":1137,"tier":"","message":"","currency":"","rating":6.9},{"name":"Thumbs","phone":"5152681556","address":"2816 West St","lat":42.02532494875317,"lng":-93.6565536497018,"neighborhood":"Iowa State University","city_fetched":"Ames,US","state":"IA","country":"United States","canonicalUrl":"https://foursquare.com/v/thumbs/4b888f91f964a520c50032e3","categoryId":"4bf58dd8d48988d118941735","category":"Dive Bar","checkinsCount":1598,"usersCount":469,"tipCount":11,"visitsCount":1617,"url":"http://peoplesrocks.com","tier":1,"message":"Cheap","currency":"$","rating":6.8},{"name":"Torrent Brewing Company","address":"504 Burnett Ave","lat":42.026101176785275,"lng":-93.61522317737398,"neighborhood":"Downtown Ames","city_fetched":"Ames,US","state":"IA","country":"United States","canonicalUrl":"https://foursquare.com/v/torrent-brewing-company/543db908498e8eacbb91ca1e","categoryId":"50327c8591d4c4b30a586d5d","category":"Brewery","checkinsCount":186,"usersCount":142,"tipCount":2,"visitsCount":286,"tier":"","message":"","currency":"","rating":6.7},{"name":"Corner Pocket","phone":"5152321528","address":"125 Main St","lat":42.025211,"lng":-93.611789,"neighborhood":"Downtown Ames","city_fetched":"Ames,US","state":"IA","country":"United States","canonicalUrl":"https://foursquare.com/v/corner-pocket/4b44da80f964a52039fe25e3","categoryId":"4bf58dd8d48988d116941735","category":"Bar","checkinsCount":1595,"usersCount":471,"tipCount":6,"visitsCount":1618,"tier":1,"message":"Cheap","currency":"$","rating":6.6},{"name":"Johnny's","address":"Hilton Coliseums Side E","lat":42.021034837141826,"lng":-93.6344293139338,"neighborhood":"Iowa State University","city_fetched":"Ames,US","state":"IA","country":"United States","canonicalUrl":"https://foursquare.com/v/johnnys/4c9a509cbdaf9c74c8dc67ba","categoryId":"4bf58dd8d48988d11d941735","category":"Sports Bar","checkinsCount":509,"usersCount":149,"tipCount":2,"visitsCount":510,"tier":"","message":"","currency":"","rating":6.6},{"name":"Sportsmans Lounge","phone":"5152336320","address":"123 Main Steet","lat":42.025218159822174,"lng":-93.61178544927233,"neighborhood":"Downtown Ames","city_fetched":"Ames,US","state":"IA","country":"United States","canonicalUrl":"https://foursquare.com/v/sportsmans-lounge/4c82eb60e602b1f78098a17a","categoryId":"4bf58dd8d48988d116941735","category":"Bar","checkinsCount":1103,"usersCount":261,"tipCount":7,"visitsCount":1106,"tier":1,"message":"Cheap","currency":"$","rating":6.2},{"name":"Café Mood","address":"116 Welch Ave","lat":42.022088,"lng":-93.65003,"neighborhood":"South Campus Area","city_fetched":"Ames,US","state":"IA","country":"United States","canonicalUrl":"https://foursquare.com/v/caf%C3%A9-mood/4ed9224ce300851bf7f40961","categoryId":"4bf58dd8d48988d116941735","category":"Bar","checkinsCount":1123,"usersCount":372,"tipCount":7,"visitsCount":1125,"tier":"","message":"","currency":"","rating":6.1},{"name":"Paddy's Irish Pub","phone":"5152961400","address":"124 Welch Ave","lat":42.02160959947836,"lng":-93.65005731582642,"neighborhood":"South Campus Area","city_fetched":"Ames,US","state":"IA","country":"United States","canonicalUrl":"https://foursquare.com/v/paddys-irish-pub/4b479ccbf964a520603726e3","categoryId":"4bf58dd8d48988d11b941735","category":"Pub","checkinsCount":4977,"usersCount":1105,"tipCount":8,"visitsCount":5028,"tier":1,"message":"Cheap","currency":"$","rating":5.8},{"name":"Cy's Roost","phone":"5152689199","address":"121 Welch Ave","lat":42.02193156,"lng":-93.650315,"neighborhood":"South Campus Area","city_fetched":"Ames,US","state":"IA","country":"United States","canonicalUrl":"https://foursquare.com/v/cys-roost/4b479d18f964a5206b3726e3","categoryId":"4bf58dd8d48988d116941735","category":"Bar","checkinsCount":2552,"usersCount":843,"tipCount":10,"visitsCount":2582,"tier":1,"message":"Cheap","currency":"$","rating":5.5},{"name":"Clyde's Sports Club","twitter":"iowastateu","address":"Union Drive Community Center","lat":42.02493483381067,"lng":-93.65106868076802,"neighborhood":"Iowa State University","city_fetched":"Ames,US","state":"IA","country":"United States","canonicalUrl":"https://foursquare.com/v/clydes-sports-club/4b50b8d0f964a520562f27e3","categoryId":"4bf58dd8d48988d11d941735","category":"Sports Bar","checkinsCount":1486,"usersCount":264,"tipCount":8,"visitsCount":1489,"url":"http://www.iastate.edu","tier":"","message":"","currency":"","rating":5.4}]