[{"name":"Bear Tooth Grill","phone":"9072764200","twitter":"beartthgrill","address":"1230 W 27th Ave","lat":61.19602,"lng":-149.907501,"neighborhood":"Downtown Spenard","city_fetched":"Anchorage,US","state":"AK","country":"United States","canonicalUrl":"https://foursquare.com/v/bear-tooth-grill/4b47b7f5f964a520c23b26e3","categoryId":"4bf58dd8d48988d121941735","category":"Lounge","checkinsCount":4380,"usersCount":1583,"tipCount":40,"visitsCount":4718,"url":"http://beartoothgrill.freshalepubs.com","tier":"","message":"","currency":"","rating":9.3},{"name":"Glacier BrewHouse","phone":"9072742739","twitter":"gbrewhouseak","address":"737 W 5th Ave Ste 110","lat":61.21779781498625,"lng":-149.89691376686096,"neighborhood":"Downtown Anchorage","city_fetched":"Anchorage,US","state":"AK","country":"United States","canonicalUrl":"https://foursquare.com/v/glacier-brewhouse/4b51742af964a5209b4d27e3","categoryId":"50327c8591d4c4b30a586d5d","category":"Brewery","checkinsCount":7018,"usersCount":5155,"tipCount":121,"visitsCount":8170,"url":"http://www.glacierbrewhouse.com","tier":2,"message":"Moderate","currency":"$","rating":9.1},{"name":"Humpy's Great Alaskan Alehouse","phone":"9072762337","twitter":"humpysalehouse","address":"610 W 6th Ave","lat":61.2163591247787,"lng":-149.8941457271576,"neighborhood":"Downtown Anchorage","city_fetched":"Anchorage,US","state":"AK","country":"United States","canonicalUrl":"https://foursquare.com/v/humpys-great-alaskan-alehouse/4f9ab1d7d4f2465542bc6541","categoryId":"4bf58dd8d48988d116941735","category":"Bar","checkinsCount":7702,"usersCount":4169,"tipCount":93,"visitsCount":8507,"url":"http://humpys.com/anc/","tier":2,"message":"Moderate","currency":"$","rating":8.9},{"name":"Midnight Sun Brewing Company","phone":"9073441179","twitter":"midsunbrewing","address":"8111 Dimond Hook Dr","lat":61.147372598966335,"lng":-149.84442235629913,"neighborhood":"Abbott Loop","city_fetched":"Anchorage,US","state":"AK","country":"United States","canonicalUrl":"https://foursquare.com/v/midnight-sun-brewing-company/4b58d0c0f964a5209d6c28e3","categoryId":"50327c8591d4c4b30a586d5d","category":"Brewery","checkinsCount":2085,"usersCount":949,"tipCount":33,"visitsCount":2443,"url":"http://midnightsunbrewing.com","tier":2,"message":"Moderate","currency":"$","rating":8.9},{"name":"49th State Brewing","phone":"9072777727","address":"717 W 3rd Ave","lat":61.21969552422831,"lng":-149.89594087614455,"neighborhood":"Downtown Anchorage","city_fetched":"Anchorage,US","state":"AK","country":"United States","canonicalUrl":"https://foursquare.com/v/49th-state-brewing/56b186ed498e3fa714a5645b","categoryId":"50327c8591d4c4b30a586d5d","category":"Brewery","checkinsCount":182,"usersCount":201,"tipCount":3,"visitsCount":261,"url":"https://www.49statebrewing.com","tier":"","message":"","currency":"","rating":8.9},{"name":"Anchorage Brewing Company","phone":"9073605104","address":"148 W 91st Ave","lat":61.138442217900675,"lng":-149.88171604773407,"neighborhood":"Taku - Campbell","city_fetched":"Anchorage,US","state":"AK","country":"United States","canonicalUrl":"https://foursquare.com/v/anchorage-brewing-company/55125be6498e7f54c821137e","categoryId":"50327c8591d4c4b30a586d5d","category":"Brewery","checkinsCount":128,"usersCount":140,"tipCount":4,"visitsCount":239,"tier":"","message":"","currency":"","rating":8.7},{"name":"Bernie's Bungalow Lounge","phone":"9072768808","address":"626 D St","lat":61.21583917532223,"lng":-149.88973428968623,"neighborhood":"Downtown Anchorage","city_fetched":"Anchorage,US","state":"AK","country":"United States","canonicalUrl":"https://foursquare.com/v/bernies-bungalow-lounge/4a98cf23f964a520412d20e3","categoryId":"4bf58dd8d48988d11e941735","category":"Cocktail Bar","checkinsCount":2416,"usersCount":885,"tipCount":11,"visitsCount":2786,"url":"http://www.berniesak.com","tier":"","message":"","currency":"","rating":8.3},{"name":"F St Station","phone":"9072725196","address":"325 F St","lat":61.21882410065555,"lng":-149.89365392625731,"neighborhood":"Downtown Anchorage","city_fetched":"Anchorage,US","state":"AK","country":"United States","canonicalUrl":"https://foursquare.com/v/f-st-station/4a66c2c4f964a520d4c81fe3","categoryId":"4bf58dd8d48988d11b941735","category":"Pub","checkinsCount":2844,"usersCount":1278,"tipCount":40,"visitsCount":3197,"tier":2,"message":"Moderate","currency":"$","rating":8.3},{"name":"King Street Brewery","phone":"9073365464","address":"7924 King St","lat":61.14899444580078,"lng":-149.87847900390625,"neighborhood":"Dimond Center","city_fetched":"Anchorage,US","state":"AK","country":"United States","canonicalUrl":"https://foursquare.com/v/king-street-brewery/4edacbe4e300851bfa0f780f","categoryId":"50327c8591d4c4b30a586d5d","category":"Brewery","checkinsCount":421,"usersCount":212,"tipCount":6,"visitsCount":556,"url":"http://www.kingstreetbrewing.com","tier":1,"message":"Cheap","currency":"$","rating":8.3},{"name":"Tap Root","phone":"9073450282","twitter":"taprootak","address":"3300 Spenard Rd","lat":61.190152517656955,"lng":-149.90823804823077,"neighborhood":"Spenard","city_fetched":"Anchorage,US","state":"AK","country":"United States","canonicalUrl":"https://foursquare.com/v/tap-root/4bf19f2a324cc9b6c541cc92","categoryId":"4bf58dd8d48988d116941735","category":"Bar","checkinsCount":1306,"usersCount":663,"tipCount":21,"visitsCount":1629,"url":"http://taprootalaska.com","tier":2,"message":"Moderate","currency":"$","rating":8.1},{"name":"Aurora Bar And Grill","phone":"9077542186","address":"1000 Arlberg Ave","lat":60.97019242268117,"lng":-149.09804423375292,"neighborhood":"Alyeska","city_fetched":"Anchorage,US","state":"AK","country":"United States","canonicalUrl":"https://foursquare.com/v/aurora-bar-and-grill/4c3ab828d94dc9b6a6b8fee7","categoryId":"4bf58dd8d48988d1d5941735","category":"Hotel Bar","checkinsCount":374,"usersCount":266,"tipCount":8,"visitsCount":374,"tier":"","message":"","currency":"","rating":7.8},{"name":"Darwin's Theory","phone":"9072775322","address":"426 G St","lat":61.21796828379516,"lng":-149.89580869674683,"neighborhood":"Downtown Anchorage","city_fetched":"Anchorage,US","state":"AK","country":"United States","canonicalUrl":"https://foursquare.com/v/darwins-theory/4b52bb23f964a520f98627e3","categoryId":"4bf58dd8d48988d118941735","category":"Dive Bar","checkinsCount":1475,"usersCount":782,"tipCount":15,"visitsCount":1564,"tier":"","message":"","currency":"","rating":7.8},{"name":"Odd Man Rush Brewing","phone":"9076962337","address":"10930 Mausel St. A-1","lat":61.31911234600384,"lng":-149.5809913875059,"city_fetched":"Anchorage,US","state":"AK","country":"United States","canonicalUrl":"https://foursquare.com/v/odd-man-rush-brewing/560f4b03498e0b4b4168ecfe","categoryId":"50327c8591d4c4b30a586d5d","category":"Brewery","checkinsCount":44,"usersCount":40,"tipCount":2,"visitsCount":70,"tier":"","message":"","currency":"","rating":7.8},{"name":"Mad Myrna's","phone":"9072769762","address":"530 E 5th Ave","lat":61.217398,"lng":-149.873783,"neighborhood":"Downtown Anchorage","city_fetched":"Anchorage,US","state":"AK","country":"United States","canonicalUrl":"https://foursquare.com/v/mad-myrnas/4b67f97df964a52095622be3","categoryId":"4bf58dd8d48988d1d8941735","category":"Gay Bar","checkinsCount":2432,"usersCount":699,"tipCount":19,"visitsCount":2726,"url":"http://madmyrnas.com","tier":"","message":"","currency":"","rating":7.7},{"name":"Resolution Brewing Co.","phone":"9077207964","twitter":"chugach_brewing","address":"3024 Mountain View Dr","lat":61.219566798346094,"lng":-149.82295657650926,"neighborhood":"Mountain View","city_fetched":"Anchorage,US","state":"AK","country":"United States","canonicalUrl":"https://foursquare.com/v/resolution-brewing-co/5505b8bd498e47cb20e3f909","categoryId":"50327c8591d4c4b30a586d5d","category":"Brewery","checkinsCount":66,"usersCount":78,"tipCount":2,"visitsCount":119,"tier":"","message":"","currency":"","rating":7.6},{"name":"Crush Wine Bistro & Cellar","phone":"9078659198","address":"343 W 6th Ave","lat":61.216710408886385,"lng":-149.88911658525467,"neighborhood":"Downtown Anchorage","city_fetched":"Anchorage,US","state":"AK","country":"United States","canonicalUrl":"https://foursquare.com/v/crush-wine-bistro--cellar/4b46a1a8f964a520e82526e3","categoryId":"4bf58dd8d48988d123941735","category":"Wine Bar","checkinsCount":1405,"usersCount":535,"tipCount":12,"visitsCount":1449,"url":"http://crushak.com","tier":2,"message":"Moderate","currency":"$","rating":7.6},{"name":"Chilkoot Charlie's","phone":"9072791692","twitter":"koots","address":"2435 Spenard Rd","lat":61.19823579244308,"lng":-149.90473042023723,"neighborhood":"Downtown Spenard","city_fetched":"Anchorage,US","state":"AK","country":"United States","canonicalUrl":"https://foursquare.com/v/chilkoot-charlies/4b4c4fb8f964a520d1b026e3","categoryId":"4bf58dd8d48988d116941735","category":"Bar","checkinsCount":3217,"usersCount":1050,"tipCount":18,"visitsCount":3678,"url":"http://www.koots.com","tier":2,"message":"Moderate","currency":"$","rating":7.6},{"name":"The Fancy Moose","phone":"9072437596","twitter":"millenniumpr","address":"4800 Spenard Rd","lat":61.177583,"lng":-149.94266152381897,"neighborhood":"Spenard","city_fetched":"Anchorage,US","state":"AK","country":"United States","canonicalUrl":"https://foursquare.com/v/the-fancy-moose/4b5be13df964a520611b29e3","categoryId":"4bf58dd8d48988d1d5941735","category":"Hotel Bar","checkinsCount":530,"usersCount":308,"tipCount":6,"visitsCount":536,"url":"http://www.millenniumhotels.com/millenniumanchorage/dining/bars/fancy-moose-lounge.html","tier":"","message":"","currency":"","rating":7.5},{"name":"Mo's O'Brady's Burgers and Brew","phone":"9073381080","twitter":"mosobradys","address":"1501 Huffman Rd","lat":61.11038551232166,"lng":-149.85471018938844,"neighborhood":"Huffman Business Park","city_fetched":"Anchorage,US","state":"AK","country":"United States","canonicalUrl":"https://foursquare.com/v/mos-obradys-burgers-and-brew/4bfafc9665fbc9b610d0906c","categoryId":"4bf58dd8d48988d11b941735","category":"Pub","checkinsCount":851,"usersCount":183,"tipCount":6,"visitsCount":940,"tier":"","message":"","currency":"","rating":7.3},{"name":"SubZero Microlounge","phone":"9072762337","address":"612 F St","lat":61.21616847252721,"lng":-149.89315304770156,"neighborhood":"Downtown Anchorage","city_fetched":"Anchorage,US","state":"AK","country":"United States","canonicalUrl":"https://foursquare.com/v/subzero-microlounge/4bf8e10b8d30d13aa77c0118","categoryId":"4bf58dd8d48988d11e941735","category":"Cocktail Bar","checkinsCount":1831,"usersCount":498,"tipCount":22,"visitsCount":1841,"url":"http://subzerolounge.com/anchorage_ak/","tier":"","message":"","currency":"","rating":7.2},{"name":"The S Lounge","phone":"9072222996","address":"720 Gambell St","lat":61.21540976372525,"lng":-149.8715023140368,"neighborhood":"Downtown Anchorage","city_fetched":"Anchorage,US","state":"AK","country":"United States","canonicalUrl":"https://foursquare.com/v/the-s-lounge/4e37a7b4b0fbcceaf0e30b69","categoryId":"4bf58dd8d48988d116941735","category":"Bar","checkinsCount":133,"usersCount":55,"tipCount":5,"visitsCount":133,"tier":"","message":"","currency":"","rating":7.1},{"name":"The E.R. Restaurant And Ale House","phone":"9076963000","address":"11901 Old Glenn Hwy","lat":61.32797556466401,"lng":-149.568589925766,"neighborhood":"Downtown Eagle River","city_fetched":"Anchorage,US","state":"AK","country":"United States","canonicalUrl":"https://foursquare.com/v/the-er-restaurant-and-ale-house/4e16175d45ddafda4c03100b","categoryId":"4bf58dd8d48988d11d941735","category":"Sports Bar","checkinsCount":738,"usersCount":446,"tipCount":12,"visitsCount":1033,"url":"http://er-alehouse.com","tier":"","message":"","currency":"","rating":7},{"name":"McGinley's Pub","phone":"9072791782","address":"645 G St","lat":61.21564267771958,"lng":-149.89577333470578,"neighborhood":"Downtown Anchorage","city_fetched":"Anchorage,US","state":"AK","country":"United States","canonicalUrl":"https://foursquare.com/v/mcginleys-pub/4b502283f964a5204d1d27e3","categoryId":"4bf58dd8d48988d11b941735","category":"Pub","checkinsCount":2300,"usersCount":825,"tipCount":19,"visitsCount":2462,"url":"http://www.mcginleyspub.com","tier":2,"message":"Moderate","currency":"$","rating":7},{"name":"Crossroads Lounge","phone":"9072797218","address":"1402 Gambell St","lat":61.208494,"lng":-149.87151861190796,"neighborhood":"North Star","city_fetched":"Anchorage,US","state":"AK","country":"United States","canonicalUrl":"https://foursquare.com/v/crossroads-lounge/4b88f3eef964a5200f1532e3","categoryId":"4bf58dd8d48988d116941735","category":"Bar","checkinsCount":527,"usersCount":158,"tipCount":6,"visitsCount":592,"tier":"","message":"","currency":"","rating":6.9},{"name":"VFW Post 9785","phone":"9076942739","address":"10527 Vfw Rd","lat":61.31573626894173,"lng":-149.57246551114935,"city_fetched":"Anchorage,US","state":"AK","country":"United States","canonicalUrl":"https://foursquare.com/v/vfw-post-9785/4b9416ecf964a520586734e3","categoryId":"4bf58dd8d48988d116941735","category":"Bar","checkinsCount":477,"usersCount":59,"tipCount":3,"visitsCount":519,"tier":"","message":"","currency":"","rating":6.9},{"name":"Pioneer Bar","phone":"9072726124","address":"739 W 4th Ave","lat":61.218574,"lng":-149.897125,"neighborhood":"Downtown Anchorage","city_fetched":"Anchorage,US","state":"AK","country":"United States","canonicalUrl":"https://foursquare.com/v/pioneer-bar/4bc25c45abf495215676c293","categoryId":"4bf58dd8d48988d116941735","category":"Bar","checkinsCount":3088,"usersCount":730,"tipCount":28,"visitsCount":3260,"tier":"","message":"","currency":"","rating":6.8},{"name":"Eddie's Sports Bar","phone":"9075633970","address":"6300 Old Seward Hwy","lat":61.16333243662551,"lng":-149.86621216923345,"neighborhood":"Taku - Campbell","city_fetched":"Anchorage,US","state":"AK","country":"United States","canonicalUrl":"https://foursquare.com/v/eddies-sports-bar/4bd93a3ae914a593c10156fa","categoryId":"4bf58dd8d48988d11d941735","category":"Sports Bar","checkinsCount":520,"usersCount":300,"tipCount":3,"visitsCount":727,"url":"http://eddiessportsbar.blogspot.com","tier":"","message":"","currency":"","rating":6.7},{"name":"Juno","phone":"9074334100","address":"109 W Intl Airport Rd","lat":61.17415291404436,"lng":-149.88477368774713,"neighborhood":"Midtown","city_fetched":"Anchorage,US","state":"AK","country":"United States","canonicalUrl":"https://foursquare.com/v/juno/4b5a8a9bf964a52072ca28e3","categoryId":"4bf58dd8d48988d1d5941735","category":"Hotel Bar","checkinsCount":301,"usersCount":134,"tipCount":9,"visitsCount":311,"tier":"","message":"","currency":"","rating":6.7},{"name":"Great Alaskan Bush Company","phone":"9075630042","address":"621 E International Airport Rd","lat":61.173867,"lng":-149.871636,"neighborhood":"Midtown","city_fetched":"Anchorage,US","state":"AK","country":"United States","canonicalUrl":"https://foursquare.com/v/great-alaskan-bush-company/4b67fe32f964a5203e632be3","categoryId":"4bf58dd8d48988d1d6941735","category":"Strip Club","checkinsCount":1141,"usersCount":412,"tipCount":10,"visitsCount":1283,"tier":"","message":"","currency":"","rating":6.7},{"name":"Peanut Farm","phone":"9075633283","address":"5227 Old Seward Hwy","lat":61.172894,"lng":-149.867337,"neighborhood":"Taku - Campbell","city_fetched":"Anchorage,US","state":"AK","country":"United States","canonicalUrl":"https://foursquare.com/v/peanut-farm/4b5a6885f964a52034c328e3","categoryId":"4bf58dd8d48988d11d941735","category":"Sports Bar","checkinsCount":2564,"usersCount":1377,"tipCount":33,"visitsCount":3089,"url":"http://wemustbenuts.com","tier":"","message":"","currency":"","rating":6.7},{"name":"Al's Alaskan Inn","phone":"9073446223","address":"7830 Old Seward Hwy","lat":61.14954867577408,"lng":-149.86434766230897,"neighborhood":"Taku - Campbell","city_fetched":"Anchorage,US","state":"AK","country":"United States","canonicalUrl":"https://foursquare.com/v/als-alaskan-inn/4bc3e394dce4eee171cb719d","categoryId":"4bf58dd8d48988d120941735","category":"Karaoke Bar","checkinsCount":218,"usersCount":89,"tipCount":6,"visitsCount":227,"url":"http://www.alsalaskaninn.com","tier":"","message":"","currency":"","rating":6.6},{"name":"Avenue Bar","phone":"9072726124","address":"338 W 4th Ave","lat":61.218489,"lng":-149.888888,"neighborhood":"Downtown Anchorage","city_fetched":"Anchorage,US","state":"AK","country":"United States","canonicalUrl":"https://foursquare.com/v/avenue-bar/4bad90aff964a520f25b3be3","categoryId":"4bf58dd8d48988d116941735","category":"Bar","checkinsCount":2092,"usersCount":449,"tipCount":13,"visitsCount":2199,"tier":"","message":"","currency":"","rating":6.5},{"name":"Whale's Tail Bistro & Wine Bar","phone":"9072766000","address":"939 W 5th Ave","lat":61.218247230763744,"lng":-149.9004864692688,"neighborhood":"Downtown Anchorage","city_fetched":"Anchorage,US","state":"AK","country":"United States","canonicalUrl":"https://foursquare.com/v/whales-tail-bistro--wine-bar/4bbe7dbab083a593ca28a2e9","categoryId":"4bf58dd8d48988d123941735","category":"Wine Bar","checkinsCount":973,"usersCount":383,"tipCount":8,"visitsCount":983,"url":"http://www.captaincook.com/dining/whales-tail","tier":"","message":"","currency":"","rating":6.4},{"name":"Platinum Jaxx","phone":"9072785299","twitter":"platinumjaxx","address":"901 W 6th Ave","lat":61.216433785088554,"lng":-149.8995615326641,"neighborhood":"Downtown Anchorage","city_fetched":"Anchorage,US","state":"AK","country":"United States","canonicalUrl":"https://foursquare.com/v/platinum-jaxx/4b765b15f964a52052492ee3","categoryId":"4bf58dd8d48988d11f941735","category":"Nightclub","checkinsCount":1294,"usersCount":364,"tipCount":11,"visitsCount":1322,"url":"http://www.platinumjaxx.com","tier":"","message":"","currency":"","rating":6.4},{"name":"Blue Fox Cocktail Lounge","phone":"9075619054","address":"3461 E Tudor Rd","lat":61.18167116111282,"lng":-149.81501037374312,"neighborhood":"University Area","city_fetched":"Anchorage,US","state":"AK","country":"United States","canonicalUrl":"https://foursquare.com/v/blue-fox-cocktail-lounge/4b48641ef964a520a24c26e3","categoryId":"4bf58dd8d48988d116941735","category":"Bar","checkinsCount":440,"usersCount":168,"tipCount":6,"visitsCount":455,"tier":"","message":"","currency":"","rating":6},{"name":"The Whaler Bar & Grill","phone":"9073389466","address":"171 Muldoon Rd","lat":61.223076,"lng":-149.732187,"neighborhood":"Northeast Anchorage","city_fetched":"Anchorage,US","state":"AK","country":"United States","canonicalUrl":"https://foursquare.com/v/the-whaler-bar--grill/4bd11917046076b0376d7171","categoryId":"4bf58dd8d48988d116941735","category":"Bar","checkinsCount":351,"usersCount":87,"tipCount":3,"visitsCount":351,"url":"http://www.whalerbar.com","tier":"","message":"","currency":"","rating":6},{"name":"Buckaroo Club","phone":"9075619251","address":"2811 Spenard Rd","lat":61.194626,"lng":-149.90488911666668,"neighborhood":"Downtown Spenard","city_fetched":"Anchorage,US","state":"AK","country":"United States","canonicalUrl":"https://foursquare.com/v/buckaroo-club/4ba1c3ddf964a5206bcb37e3","categoryId":"4bf58dd8d48988d116941735","category":"Bar","checkinsCount":478,"usersCount":242,"tipCount":6,"visitsCount":526,"tier":"","message":"","currency":"","rating":5.9},{"name":"Cabin Tavern","phone":"9073389905","address":"264 Muldoon Rd","lat":61.221125,"lng":-149.734187,"neighborhood":"Northeast Anchorage","city_fetched":"Anchorage,US","state":"AK","country":"United States","canonicalUrl":"https://foursquare.com/v/cabin-tavern/4c81fe3ad92ea093dd804672","categoryId":"4bf58dd8d48988d116941735","category":"Bar","checkinsCount":231,"usersCount":120,"tipCount":3,"visitsCount":245,"tier":"","message":"","currency":"","rating":5.9},{"name":"Humpy's Great Alaskan Ale House","address":"Concourse B","lat":61.17293240827273,"lng":-149.98350692827984,"neighborhood":"Anchorage International Airport","city_fetched":"Anchorage,US","state":"AK","country":"United States","canonicalUrl":"https://foursquare.com/v/humpys-great-alaskan-ale-house/4c4095fada3dc928e78fc7b9","categoryId":"4bf58dd8d48988d11b941735","category":"Pub","checkinsCount":1056,"usersCount":887,"tipCount":17,"visitsCount":1065,"tier":"","message":"","currency":"","rating":5.8},{"name":"Asia Garden","phone":"9073491125","address":"7828 Old Seward Hwy","lat":61.150006,"lng":-149.864551,"neighborhood":"Taku - Campbell","city_fetched":"Anchorage,US","state":"AK","country":"United States","canonicalUrl":"https://foursquare.com/v/asia-garden/4bcadbae3740b713fa806165","categoryId":"4bf58dd8d48988d120941735","category":"Karaoke Bar","checkinsCount":393,"usersCount":199,"tipCount":6,"visitsCount":474,"tier":"","message":"","currency":"","rating":5.8},{"name":"Slippery Salmon","phone":"9072727561","address":"115 E 3rd Ave","lat":61.2195925223413,"lng":-149.8826879117546,"neighborhood":"Downtown Anchorage","city_fetched":"Anchorage,US","state":"AK","country":"United States","canonicalUrl":"https://foursquare.com/v/slippery-salmon/4e44783752b18fcc799bd74a","categoryId":"4bf58dd8d48988d116941735","category":"Bar","checkinsCount":258,"usersCount":177,"tipCount":6,"visitsCount":269,"url":"http://www.","tier":"","message":"","currency":"","rating":5.7},{"name":"The Raven Bar","phone":"9072769672","address":"708 E 4th Ave","lat":61.2180894613266,"lng":-149.869933,"neighborhood":"Downtown Anchorage","city_fetched":"Anchorage,US","state":"AK","country":"United States","canonicalUrl":"https://foursquare.com/v/the-raven-bar/4c42a4133735be9aa46a1aa4","categoryId":"4bf58dd8d48988d1d8941735","category":"Gay Bar","checkinsCount":272,"usersCount":95,"tipCount":5,"visitsCount":275,"tier":"","message":"","currency":"","rating":5.7}]