[{"name":"The Ark","phone":"7347611800","twitter":"annarborark","address":"316 S Main St","lat":42.279056797668275,"lng":-83.74890417749494,"neighborhood":"Downtown Ann Arbor","city_fetched":"Ann Arbor","state":"MI","country":"United States","canonicalUrl":"https://foursquare.com/annarborark","category":"Music Venue","checkinsCount":2213,"usersCount":1264,"tipCount":13,"visitsCount":2222,"url":"http://www.theark.org","tier":"","message":"","currency":"","rating":9.2},{"name":"Jolly Pumpkin Cafe & Brewery","phone":"7349132730","twitter":"jollypumpkin","address":"311 S Main St","lat":42.27915627495824,"lng":-83.74852557380706,"neighborhood":"Downtown Ann Arbor","city_fetched":"Ann Arbor","state":"MI","country":"United States","canonicalUrl":"https://foursquare.com/v/jolly-pumpkin-cafe--brewery/4abd676cf964a5201b8a20e3","category":"Gastropub","checkinsCount":12949,"usersCount":7029,"tipCount":125,"visitsCount":13820,"url":"http://www.jollypumpkin.com","tier":2,"message":"Moderate","currency":"$","rating":9.1},{"name":"The Bar at 327 Braun Court","twitter":"327brauncourt","address":"327 Braun Ct","lat":42.28394439383486,"lng":-83.74729639248422,"neighborhood":"Central Ann Arbor","city_fetched":"Ann Arbor","state":"MI","country":"United States","canonicalUrl":"https://foursquare.com/v/the-bar-at-327-braun-court/4ecc70b15c5c3d49949cf4ee","category":"Bar","checkinsCount":1867,"usersCount":639,"tipCount":13,"visitsCount":1958,"url":"http://brauncourt.com","tier":2,"message":"Moderate","currency":"$","rating":9},{"name":"Biercamp Artisan Sausage & Jerky","phone":"7349952437","address":"1643 S State St","lat":42.25855094928174,"lng":-83.74006603152887,"neighborhood":"South Ann Arbor","city_fetched":"Ann Arbor","state":"MI","country":"United States","canonicalUrl":"https://foursquare.com/v/biercamp-artisan-sausage--jerky/4e2f33ec1f6ed9df901dbf12","category":"Gourmet Shop","checkinsCount":1058,"usersCount":524,"tipCount":18,"visitsCount":1248,"url":"http://www.bier-camp.com","tier":"","message":"","currency":"","rating":9},{"name":"The Last Word","phone":"7346231443","address":"301 W Huron","lat":42.28138095966182,"lng":-83.75115036964417,"neighborhood":"Downtown Ann Arbor","city_fetched":"Ann Arbor","state":"MI","country":"United States","canonicalUrl":"https://foursquare.com/v/the-last-word/41326e00f964a520a20e1fe3","category":"Cocktail Bar","checkinsCount":2906,"usersCount":1451,"tipCount":40,"visitsCount":3314,"url":"http://thelastwordbar.com","tier":2,"message":"Moderate","currency":"$","rating":9},{"name":"The Ravens Club","phone":"7342140400","twitter":"theravensclub","address":"207 S Main St","lat":42.28016647575883,"lng":-83.74830722808838,"neighborhood":"Downtown Ann Arbor","city_fetched":"Ann Arbor","state":"MI","country":"United States","canonicalUrl":"https://foursquare.com/v/the-ravens-club/4dc5cbd21f6ef43b8a1ff2d5","category":"Cocktail Bar","checkinsCount":4241,"usersCount":2046,"tipCount":54,"visitsCount":4481,"url":"http://theravensclub.com","tier":2,"message":"Moderate","currency":"$","rating":9},{"name":"Ashley's Ann Arbor","phone":"7349969191","twitter":"a2ashleys","address":"338 S State St","lat":42.278099806992245,"lng":-83.74085446186793,"neighborhood":"Downtown Ann Arbor","city_fetched":"Ann Arbor","state":"MI","country":"United States","canonicalUrl":"https://foursquare.com/v/ashleys-ann-arbor/43b5193df964a520bf2c1fe3","category":"Bar","checkinsCount":13413,"usersCount":6099,"tipCount":92,"visitsCount":14723,"url":"http://ashleysannarbor-hub.com","tier":2,"message":"Moderate","currency":"$","rating":9},{"name":"Wolverine State Brewing Co.","phone":"7342777226","twitter":"wolverinebeer","address":"2019 W Stadium Blvd","lat":42.26957227090918,"lng":-83.77440533314198,"neighborhood":"West Ann Arbor","city_fetched":"Ann Arbor","state":"MI","country":"United States","canonicalUrl":"https://foursquare.com/v/wolverine-state-brewing-co/4cd42bb56be6a1438d129902","category":"Brewery","checkinsCount":5111,"usersCount":1780,"tipCount":48,"visitsCount":6190,"url":"http://wolverinebeer.com","tier":1,"message":"Cheap","currency":"$","rating":8.9},{"name":"Arbor Brewing Company","phone":"7342131393","twitter":"arborbrew","address":"114 E Washington St","lat":42.28042048739998,"lng":-83.74779224395752,"neighborhood":"Downtown Ann Arbor","city_fetched":"Ann Arbor","state":"MI","country":"United States","canonicalUrl":"https://foursquare.com/arborbrew","category":"Brewery","checkinsCount":11994,"usersCount":6424,"tipCount":109,"visitsCount":13048,"url":"http://arborbrewing.com","tier":2,"message":"Moderate","currency":"$","rating":8.8},{"name":"Sava's","phone":"7346232233","address":"216 S State St","lat":42.27974070956699,"lng":-83.74101007193602,"neighborhood":"Downtown Ann Arbor","city_fetched":"Ann Arbor","state":"MI","country":"United States","canonicalUrl":"https://foursquare.com/v/savas/4aec558ff964a52023c621e3","category":"American Restaurant","checkinsCount":11152,"usersCount":4823,"tipCount":106,"visitsCount":12127,"url":"http://savasrestaurant.com","tier":2,"message":"Moderate","currency":"$","rating":8.7},{"name":"HopCat","phone":"7344362875","address":"311 Maynard St","lat":42.279041740826685,"lng":-83.7419229764794,"neighborhood":"Downtown Ann Arbor","city_fetched":"Ann Arbor","state":"MI","country":"United States","canonicalUrl":"https://foursquare.com/v/hopcat/54dd3a77498ef8f9abab1e14","category":"Bar","checkinsCount":2213,"usersCount":1572,"tipCount":27,"visitsCount":3089,"url":"http://hopcat.com/ann-arbor/","tier":"","message":"","currency":"","rating":8.7},{"name":"Bill's Beer Garden","phone":"7343698001","twitter":"billsbeergarden","address":"210 S Ashley St","lat":42.27972195292281,"lng":-83.75000238418579,"neighborhood":"Downtown Ann Arbor","city_fetched":"Ann Arbor","state":"MI","country":"United States","canonicalUrl":"https://foursquare.com/v/bills-beer-garden/50805b5cf31c05d52c440acf","category":"Beer Garden","checkinsCount":2582,"usersCount":1361,"tipCount":15,"visitsCount":2855,"url":"http://www.billsbeergarden.com","tier":2,"message":"Moderate","currency":"$","rating":8.6},{"name":"Alley Bar","phone":"7346628757","twitter":"a2alleybar","address":"112 W Liberty St","lat":42.27976164258923,"lng":-83.74925136566162,"neighborhood":"Downtown Ann Arbor","city_fetched":"Ann Arbor","state":"MI","country":"United States","canonicalUrl":"https://foursquare.com/v/alley-bar/4acd71e9f964a5201fcc20e3","category":"Dive Bar","checkinsCount":4988,"usersCount":1593,"tipCount":33,"visitsCount":5106,"url":"http://alleybarannarbor.com","tier":2,"message":"Moderate","currency":"$","rating":8.5},{"name":"Blue Tractor BBQ & Brewery","phone":"7342224095","twitter":"a2bluetractor","address":"207 E Washington St","lat":42.28052080230358,"lng":-83.74682442187799,"neighborhood":"Downtown Ann Arbor","city_fetched":"Ann Arbor","state":"MI","country":"United States","canonicalUrl":"https://foursquare.com/v/blue-tractor-bbq--brewery/4ac624e5f964a520f7b220e3","category":"BBQ Joint","checkinsCount":9759,"usersCount":4577,"tipCount":87,"visitsCount":9949,"url":"http://www.bluetractor.net/bta/a2/index","tier":2,"message":"Moderate","currency":"$","rating":8.5},{"name":"Knight's Downtown","phone":"7342459265","address":"600 Liberty St","lat":42.279218135927664,"lng":-83.7419229764794,"neighborhood":"Downtown Ann Arbor","city_fetched":"Ann Arbor","state":"MI","country":"United States","canonicalUrl":"https://foursquare.com/v/knights-downtown/5339fb1e498e222dc7b14e68","category":"Steakhouse","checkinsCount":1411,"usersCount":664,"tipCount":15,"visitsCount":1548,"url":"http://www.knightsrestaurants.com/downtownsteakhouse.html","tier":2,"message":"Moderate","currency":"$","rating":8.5},{"name":"Dominick's","phone":"7346625414","address":"812 Monroe St","lat":42.27316439151764,"lng":-83.738671,"neighborhood":"Central Ann Arbor","city_fetched":"Ann Arbor","state":"MI","country":"United States","canonicalUrl":"https://foursquare.com/v/dominicks/44b512a3f964a5205a351fe3","category":"Beer Garden","checkinsCount":6107,"usersCount":3534,"tipCount":25,"visitsCount":6763,"tier":2,"message":"Moderate","currency":"$","rating":8.4},{"name":"Old Town Tavern","phone":"7346629291","twitter":"oldtownaa","address":"122 W Liberty St","lat":42.279690201171675,"lng":-83.7498950958252,"neighborhood":"Downtown Ann Arbor","city_fetched":"Ann Arbor","state":"MI","country":"United States","canonicalUrl":"https://foursquare.com/v/old-town-tavern/4b4e221bf964a52065e226e3","category":"Bar","checkinsCount":3982,"usersCount":1362,"tipCount":18,"visitsCount":4094,"url":"http://oldtownaa.com","tier":2,"message":"Moderate","currency":"$","rating":8.4},{"name":"Casey's Tavern","phone":"7346656775","address":"304 Depot St","lat":42.2878310247159,"lng":-83.744365721941,"neighborhood":"Central Ann Arbor","city_fetched":"Ann Arbor","state":"MI","country":"United States","canonicalUrl":"https://foursquare.com/v/caseys-tavern/4a92cc93f964a520be1d20e3","category":"Pub","checkinsCount":2719,"usersCount":1436,"tipCount":31,"visitsCount":3105,"url":"http://caseys-tavern.com","tier":2,"message":"Moderate","currency":"$","rating":8.3},{"name":"Black Pearl","phone":"7342220400","twitter":"blackpearla2","address":"302 S Main St","lat":42.27941803101524,"lng":-83.74865004650731,"neighborhood":"Downtown Ann Arbor","city_fetched":"Ann Arbor","state":"MI","country":"United States","canonicalUrl":"https://foursquare.com/v/black-pearl/4b3d2f42f964a520c98f25e3","category":"Seafood Restaurant","checkinsCount":3867,"usersCount":1951,"tipCount":36,"visitsCount":3913,"url":"http://www.blackpearlonmain.com/therestaurant.html","tier":3,"message":"Expensive","currency":"$","rating":8.3},{"name":"Hilton Garden Inn Ann Arbor","phone":"7343276400","twitter":"hiltongardena2","address":"1401 Briarwood Cir","lat":42.238228057748174,"lng":-83.7505793414282,"neighborhood":"South Ann Arbor","city_fetched":"Ann Arbor","state":"MI","country":"United States","canonicalUrl":"https://foursquare.com/hiltongardena2","category":"Hotel","checkinsCount":1710,"usersCount":900,"tipCount":8,"visitsCount":2423,"url":"http://hiltongardeninn3.hilton.com/en/hotels/michigan/hilton-garden-inn-ann-arbor-ARBGIGI/maps-directions/index.html","tier":"","message":"","currency":"","rating":8.3},{"name":"Pinball Pete's","phone":"7342132502","address":"1214 S University Ave","lat":42.2749113802234,"lng":-83.7337052822113,"neighborhood":"Downtown Ann Arbor","city_fetched":"Ann Arbor","state":"MI","country":"United States","canonicalUrl":"https://foursquare.com/v/pinball-petes/44b6433bf964a52061351fe3","category":"Arcade","checkinsCount":2624,"usersCount":1560,"tipCount":33,"visitsCount":2659,"url":"http://www.pinballpetes.net","tier":"","message":"","currency":"","rating":8.2},{"name":"\\a√ºt\\ bar","phone":"7349943677","twitter":"autbar","address":"315 Braun Ct","lat":42.2838674,"lng":-83.7474233,"neighborhood":"Central Ann Arbor","city_fetched":"Ann Arbor","state":"MI","country":"United States","canonicalUrl":"https://foursquare.com/v/a%C3%BCt-bar/4b017f2df964a520e14222e3","category":"Gay Bar","checkinsCount":5200,"usersCount":1608,"tipCount":28,"visitsCount":5507,"tier":2,"message":"Moderate","currency":"$","rating":8},{"name":"Vinology","phone":"7342229841","twitter":"vinologya2","address":"110 S Main St","lat":42.281022768722366,"lng":-83.74869078397751,"neighborhood":"Downtown Ann Arbor","city_fetched":"Ann Arbor","state":"MI","country":"United States","canonicalUrl":"https://foursquare.com/v/vinology/4aaaf17df964a520305820e3","category":"Wine Bar","checkinsCount":3733,"usersCount":2119,"tipCount":38,"visitsCount":3907,"url":"http://www.vinowinebars.net/vinology/index.html","tier":"","message":"","currency":"","rating":8},{"name":"The Beer Grotto-Ann Arbor","phone":"7343694212","twitter":"beergrotto","address":"303 S Ashley St","lat":42.2794912506681,"lng":-83.74992587728705,"neighborhood":"Downtown Ann Arbor","city_fetched":"Ann Arbor","state":"MI","country":"United States","canonicalUrl":"https://foursquare.com/v/the-beer-grottoann-arbor/548898f2498eec70a815ad2d","category":"Bar","checkinsCount":886,"usersCount":464,"tipCount":8,"visitsCount":1010,"url":"http://beergrotto.com","tier":"","message":"","currency":"","rating":7.9},{"name":"Red Hawk","phone":"7349944004","address":"316 S State St","lat":42.278776,"lng":-83.740832,"neighborhood":"Downtown Ann Arbor","city_fetched":"Ann Arbor","state":"MI","country":"United States","canonicalUrl":"https://foursquare.com/v/red-hawk/44b642e0f964a52060351fe3","category":"Bar","checkinsCount":3827,"usersCount":1996,"tipCount":38,"visitsCount":3850,"url":"http://redhawkannarbor.com","tier":2,"message":"Moderate","currency":"$","rating":7.8},{"name":"Conor O'Neill's","phone":"7346652968","twitter":"conorsannarbor","address":"318 S Main St","lat":42.278898000460295,"lng":-83.74885750045279,"neighborhood":"Downtown Ann Arbor","city_fetched":"Ann Arbor","state":"MI","country":"United States","canonicalUrl":"https://foursquare.com/v/conor-oneills/4b512bc4f964a520d04527e3","category":"Irish Pub","checkinsCount":12997,"usersCount":4757,"tipCount":62,"visitsCount":13216,"url":"http://www.conoroneills.com/annarbor/","tier":2,"message":"Moderate","currency":"$","rating":7.8},{"name":"Good Time Charley's","phone":"7346688411","twitter":"gtcharleys","address":"1140 S University Ave","lat":42.27496301782022,"lng":-83.73453697168841,"neighborhood":"Downtown Ann Arbor","city_fetched":"Ann Arbor","state":"MI","country":"United States","canonicalUrl":"https://foursquare.com/v/good-time-charleys/44b54759f964a5205e351fe3","category":"American Restaurant","checkinsCount":14771,"usersCount":4686,"tipCount":46,"visitsCount":15468,"url":"http://www.good-time-charleys.com","tier":1,"message":"Cheap","currency":"$","rating":7.8},{"name":"Quarter Bistro & Tavern","phone":"7349299200","twitter":"qbistroa2","address":"300 S Maple Rd","lat":42.27835462864907,"lng":-83.78109991550446,"neighborhood":"West Ann Arbor","city_fetched":"Ann Arbor","state":"MI","country":"United States","canonicalUrl":"https://foursquare.com/v/quarter-bistro--tavern/4aabaea9f964a520c65920e3","category":"Cajun / Creole Restaurant","checkinsCount":2013,"usersCount":1140,"tipCount":28,"visitsCount":2295,"url":"http://www.thequarterbistro.com","tier":3,"message":"Expensive","currency":"$","rating":7.8},{"name":"Babs' Underground Lounge","phone":"7349970800","address":"213 S Ashley St","lat":42.27996009054638,"lng":-83.74959468841553,"neighborhood":"Downtown Ann Arbor","city_fetched":"Ann Arbor","state":"MI","country":"United States","canonicalUrl":"https://foursquare.com/v/babs-underground-lounge/4ad274d4f964a520c0e120e3","category":"Speakeasy","checkinsCount":4145,"usersCount":1845,"tipCount":11,"visitsCount":4267,"url":"http://www.babsundergroundlounge.com","tier":"","message":"","currency":"","rating":7.8},{"name":"Brown Jug Restaurant","phone":"7347613355","twitter":"brownjuga2","address":"1204 S University Ave","lat":42.274893,"lng":-83.734382,"neighborhood":"Downtown Ann Arbor","city_fetched":"Ann Arbor","state":"MI","country":"United States","canonicalUrl":"https://foursquare.com/v/brown-jug-restaurant/44b51216f964a52059351fe3","category":"Bar","checkinsCount":9316,"usersCount":3534,"tipCount":33,"visitsCount":9539,"url":"http://www.brownjug-annarbor.com","tier":2,"message":"Moderate","currency":"$","rating":7.6},{"name":"Heidelberg","phone":"7346637758","address":"215 N Main St","lat":42.282867950588326,"lng":-83.74855669200554,"neighborhood":"Downtown Ann Arbor","city_fetched":"Ann Arbor","state":"MI","country":"United States","canonicalUrl":"https://foursquare.com/v/heidelberg/44b51131f964a52058351fe3","category":"German Restaurant","checkinsCount":4839,"usersCount":2213,"tipCount":25,"visitsCount":4961,"url":"http://www.heidelbergannarbor.com","tier":2,"message":"Moderate","currency":"$","rating":7.6},{"name":"Old German Bar and Bierkeller","phone":"7347417325","address":"117 Ashley Street","lat":42.28067449801716,"lng":-83.74972343444824,"neighborhood":"Downtown Ann Arbor","city_fetched":"Ann Arbor","state":"MI","country":"United States","canonicalUrl":"https://foursquare.com/v/old-german-bar-and-bierkeller/51e4709a454a161e50eeae7c","category":"Pub","checkinsCount":1082,"usersCount":616,"tipCount":14,"visitsCount":1118,"tier":2,"message":"Moderate","currency":"$","rating":7.5},{"name":"Friends Karaoke","address":"621 Church St","lat":42.274272,"lng":-83.7345033,"neighborhood":"Central Ann Arbor","city_fetched":"Ann Arbor","state":"MI","country":"United States","canonicalUrl":"https://foursquare.com/v/friends-karaoke/4be61e5fcf200f471743143c","category":"Karaoke Bar","checkinsCount":239,"usersCount":168,"tipCount":2,"visitsCount":239,"tier":"","message":"","currency":"","rating":7.5},{"name":"Mash","phone":"7343326046","twitter":"mashannarbor","address":"211 E Washington St","lat":42.280564,"lng":-83.746771,"neighborhood":"Downtown Ann Arbor","city_fetched":"Ann Arbor","state":"MI","country":"United States","canonicalUrl":"https://foursquare.com/v/mash/5011d6bbe4b053556fc304b6","category":"Whisky Bar","checkinsCount":2896,"usersCount":1417,"tipCount":12,"visitsCount":2988,"url":"http://www.mashbar.net/ma/index","tier":2,"message":"Moderate","currency":"$","rating":7.4},{"name":"Paint And Pour: Underground","phone":"7347209777","address":"220 S Main St","lat":42.27976240954473,"lng":-83.7487485872179,"neighborhood":"Downtown Ann Arbor","city_fetched":"Ann Arbor","state":"MI","country":"United States","canonicalUrl":"https://foursquare.com/v/paint-and-pour-underground/51941005498e3139a29f4ea2","category":"Public Art","checkinsCount":137,"usersCount":103,"tipCount":1,"visitsCount":137,"tier":"","message":"","currency":"","rating":7.4},{"name":"Fraser's Pub","phone":"7346651955","address":"2045 Packard St","lat":42.25706301171368,"lng":-83.7269675731659,"neighborhood":"South Ann Arbor","city_fetched":"Ann Arbor","state":"MI","country":"United States","canonicalUrl":"https://foursquare.com/v/frasers-pub/4ba833edf964a5200bd139e3","category":"Pub","checkinsCount":2499,"usersCount":1184,"tipCount":14,"visitsCount":3369,"url":"http://fraserspubaa.com","tier":2,"message":"Moderate","currency":"$","rating":7.4},{"name":"Cafe Felix","phone":"7346628650","twitter":"wix","address":"204 S Main St","lat":42.28028523310858,"lng":-83.74851001470198,"neighborhood":"Downtown Ann Arbor","city_fetched":"Ann Arbor","state":"MI","country":"United States","canonicalUrl":"https://foursquare.com/v/cafe-felix/4a934beaf964a5207b1f20e3","category":"Lounge","checkinsCount":2473,"usersCount":1448,"tipCount":34,"visitsCount":2488,"url":"http://cafefelix.com","tier":2,"message":"Moderate","currency":"$","rating":7.3},{"name":"Circus Bar & Billiards","phone":"7349138890","address":"210 S 1st St","lat":42.28026173024424,"lng":-83.75126838684082,"neighborhood":"Downtown Ann Arbor","city_fetched":"Ann Arbor","state":"MI","country":"United States","canonicalUrl":"https://foursquare.com/v/circus-bar--billiards/4b08b9a4f964a520711123e3","category":"Karaoke Bar","checkinsCount":2662,"usersCount":1386,"tipCount":16,"visitsCount":2827,"url":"http://www.circusannarbor.com","tier":"","message":"","currency":"","rating":7.3},{"name":"Blue Leprechaun","phone":"7346657777","twitter":"bluleprechauna2","address":"1220 S University Ave","lat":42.2750070043135,"lng":-83.73343898747069,"neighborhood":"Downtown Ann Arbor","city_fetched":"Ann Arbor","state":"MI","country":"United States","canonicalUrl":"https://foursquare.com/v/blue-leprechaun/4b09e878f964a5208a1f23e3","category":"Bar","checkinsCount":9138,"usersCount":2902,"tipCount":29,"visitsCount":9290,"url":"http://www.theblueleprechaun.com","tier":1,"message":"Cheap","currency":"$","rating":7.3},{"name":"Buffalo Wild Wings","phone":"7349979464","twitter":"bwwings","address":"3150 Boardwalk St","lat":42.2417967574183,"lng":-83.73614447927618,"neighborhood":"South Ann Arbor","city_fetched":"Ann Arbor","state":"MI","country":"United States","canonicalUrl":"https://foursquare.com/v/buffalo-wild-wings/530f71f8498e9343110c8240","category":"Wings Joint","checkinsCount":1563,"usersCount":1473,"tipCount":17,"visitsCount":3084,"url":"http://www.buffalowildwings.com","tier":2,"message":"Moderate","currency":"$","rating":7.3},{"name":"Necto","phone":"7349945835","twitter":"necto","address":"516 E Liberty St","lat":42.27924127262683,"lng":-83.74261801980094,"neighborhood":"Downtown Ann Arbor","city_fetched":"Ann Arbor","state":"MI","country":"United States","canonicalUrl":"https://foursquare.com/v/necto/51662949e4b02ecc2418fe02","category":"Nightclub","checkinsCount":2032,"usersCount":928,"tipCount":15,"visitsCount":2297,"url":"http://www.thenecto.com","tier":2,"message":"Moderate","currency":"$","rating":7.1},{"name":"The Den","phone":"7347417325","address":"120 W Washington St","lat":42.280551,"lng":-83.749745,"neighborhood":"Downtown Ann Arbor","city_fetched":"Ann Arbor","state":"MI","country":"United States","canonicalUrl":"https://foursquare.com/v/the-den/4c0d5017b1b676b0ff65e086","category":"Bar","checkinsCount":783,"usersCount":116,"tipCount":4,"visitsCount":784,"tier":"","message":"","currency":"","rating":7},{"name":"Habitat Lounge","phone":"7346653636","address":"3050 Jackson Ave","lat":42.28436529636383,"lng":-83.791927,"neighborhood":"West Ann Arbor","city_fetched":"Ann Arbor","state":"MI","country":"United States","canonicalUrl":"https://foursquare.com/v/habitat-lounge/4c411599d7fad13a631a07da","category":"Lounge","checkinsCount":460,"usersCount":287,"tipCount":5,"visitsCount":462,"tier":"","message":"","currency":"","rating":7},{"name":"Paesano Italian Restaurant and Wine Bar","phone":"7349710484","twitter":"paesanoannarbor","address":"3411 Washtenaw Ave","lat":42.2562658720674,"lng":-83.6912884008259,"neighborhood":"Northeast Ann Arbor","city_fetched":"Ann Arbor","state":"MI","country":"United States","canonicalUrl":"https://foursquare.com/v/paesano-italian-restaurant-and-wine-bar/4ad75aabf964a520c20921e3","category":"Italian Restaurant","checkinsCount":1304,"usersCount":907,"tipCount":19,"visitsCount":1479,"url":"http://paesanosannarbor.com","tier":4,"message":"Very Expensive","currency":"$","rating":7}]