[{"name":"Cheaha Brewing Company","phone":"2567707300","twitter":"cheahabrewingco","address":"1208 Walnut Ave","lat":33.660183,"lng":-85.833808,"city_fetched":"Anniston","state":"AL","country":"United States","canonicalUrl":"https://foursquare.com/v/cheaha-brewing-company/5197f4d8498e3a5e9b798443","category":"Brewery","checkinsCount":414,"usersCount":310,"tipCount":12,"visitsCount":619,"url":"http://cheahabrewingcompany.com","tier":"","message":"","currency":"","rating":9.1},{"name":"The Peerless Saloon","phone":"2562371899","address":"13 W 10th St","lat":33.657205,"lng":-85.83031261666666,"city_fetched":"Anniston","state":"AL","country":"United States","canonicalUrl":"https://foursquare.com/v/the-peerless-saloon/4c1c3a27fcf8c9b683d5a90b","category":"Bar","checkinsCount":563,"usersCount":247,"tipCount":3,"visitsCount":654,"url":"http://http;//www.peerlesssaloon.com","tier":"","message":"","currency":"","rating":7.7},{"name":"The Smoking Moose Saloon","phone":"2567419300","address":"1214 Noble St","lat":33.66023750199382,"lng":-85.83002841159879,"city_fetched":"Anniston","state":"AL","country":"United States","canonicalUrl":"https://foursquare.com/v/the-smoking-moose-saloon/4b8deebef964a520bb1333e3","category":"Bar","checkinsCount":439,"usersCount":158,"tipCount":4,"visitsCount":481,"tier":"","message":"","currency":"","rating":6.2}]