[{"name":"Fox River House","phone":"9205743950","address":"211 S Walnut St","lat":44.26034849,"lng":-88.4123146533966,"city_fetched":"Appleton,US","state":"WI","country":"United States","canonicalUrl":"https://foursquare.com/v/fox-river-house/4b23081ef964a520665224e3","categoryId":"4bf58dd8d48988d116941735","category":"Bar","checkinsCount":3174,"usersCount":551,"tipCount":21,"visitsCount":3398,"tier":1,"message":"Cheap","currency":"$","rating":9},{"name":"Tigers Tavern","phone":"9207886641","address":"116 W Kimberly Ave","lat":44.2724883556366,"lng":-88.33512604236603,"city_fetched":"Appleton,US","state":"WI","country":"United States","canonicalUrl":"https://foursquare.com/v/tigers-tavern/4ba69c30f964a520aa6239e3","categoryId":"4bf58dd8d48988d116941735","category":"Bar","checkinsCount":2347,"usersCount":371,"tipCount":14,"visitsCount":2636,"tier":1,"message":"Cheap","currency":"$","rating":8.9},{"name":"Red & White Inc.","phone":"9208822141","address":"2400 S Kensington Dr #500","lat":44.239889,"lng":-88.3604421,"city_fetched":"Appleton,US","state":"WI","country":"United States","canonicalUrl":"https://foursquare.com/v/red--white-inc/4bacf78cf964a5202e1f3be3","categoryId":"4bf58dd8d48988d123941735","category":"Wine Bar","checkinsCount":1708,"usersCount":635,"tipCount":24,"visitsCount":1857,"url":"http://www.red-n-white.com","tier":"","message":"","currency":"","rating":8.7},{"name":"Lake Park Tavern","phone":"9207391901","address":"N8904 County Road Lp","lat":44.21490537342873,"lng":-88.3630528084433,"city_fetched":"Appleton,US","state":"WI","country":"United States","canonicalUrl":"https://foursquare.com/v/lake-park-tavern/4bbf987c920eb713cd9c172c","categoryId":"4bf58dd8d48988d116941735","category":"Bar","checkinsCount":801,"usersCount":402,"tipCount":5,"visitsCount":1046,"url":"http://lakeparkpub.org","tier":"","message":"","currency":"","rating":8.6},{"name":"Bazil's","phone":"9209541707","address":"109 W College Ave","lat":44.261628775451385,"lng":-88.40648889541626,"neighborhood":"College Avenue Historic District","city_fetched":"Appleton,US","state":"WI","country":"United States","canonicalUrl":"https://foursquare.com/v/bazils/4b64aaaff964a520e1c62ae3","categoryId":"4bf58dd8d48988d116941735","category":"Bar","checkinsCount":8321,"usersCount":1245,"tipCount":27,"visitsCount":8485,"url":"http://bazilpub.com","tier":1,"message":"Cheap","currency":"$","rating":8.5},{"name":"Dr. Jekyll's","phone":"9207339883","address":"314 E College Ave","lat":44.26197004303084,"lng":-88.40212275024804,"neighborhood":"Downtown Appleton","city_fetched":"Appleton,US","state":"WI","country":"United States","canonicalUrl":"https://foursquare.com/v/dr-jekylls/4b7f7c80f964a520303130e3","categoryId":"4bf58dd8d48988d116941735","category":"Bar","checkinsCount":2285,"usersCount":765,"tipCount":14,"visitsCount":2420,"url":"http://www.drjekyllsbar.com","tier":"","message":"","currency":"","rating":8.5},{"name":"Cena","phone":"9208307820","address":"125 E. College Ave","lat":44.2617336611693,"lng":-88.40484140244732,"neighborhood":"College Avenue Historic District","city_fetched":"Appleton,US","state":"WI","country":"United States","canonicalUrl":"https://foursquare.com/v/cena/4c104e1e81e976b0880b0feb","categoryId":"4bf58dd8d48988d121941735","category":"Lounge","checkinsCount":648,"usersCount":351,"tipCount":17,"visitsCount":719,"url":"http://www.cenarestaurant.net","tier":"","message":"","currency":"","rating":8.3},{"name":"Deja Vu Martini Lounge","phone":"9203809904","twitter":"dejavumartini","address":"519 W College Ave","lat":44.261734835631906,"lng":-88.41291109470245,"city_fetched":"Appleton,US","state":"WI","country":"United States","canonicalUrl":"https://foursquare.com/v/deja-vu-martini-lounge/4b63ac44f964a5203f8b2ae3","categoryId":"4bf58dd8d48988d11e941735","category":"Cocktail Bar","checkinsCount":2938,"usersCount":1060,"tipCount":15,"visitsCount":3055,"url":"http://www.dejavumartini.com","tier":3,"message":"Expensive","currency":"$","rating":8.3},{"name":"McGuinness Irish Pub","phone":"9208307616","address":"201 S Walnut St","lat":44.260530015174325,"lng":-88.4123146533966,"city_fetched":"Appleton,US","state":"WI","country":"United States","canonicalUrl":"https://foursquare.com/v/mcguinness-irish-pub/4b8996a5f964a5203c4432e3","categoryId":"4bf58dd8d48988d11b941735","category":"Pub","checkinsCount":3529,"usersCount":573,"tipCount":15,"visitsCount":3704,"url":"http://mcguinnessirishpub.com","tier":2,"message":"Moderate","currency":"$","rating":8.3},{"name":"The Stoneyard","phone":"9209680222","address":"W3010 Edgewood Trl","lat":44.31555014640741,"lng":-88.33844122804119,"city_fetched":"Appleton,US","state":"WI","country":"United States","canonicalUrl":"https://foursquare.com/v/the-stoneyard/4bad30cff964a52063373be3","categoryId":"4bf58dd8d48988d116941735","category":"Bar","checkinsCount":1475,"usersCount":795,"tipCount":15,"visitsCount":1775,"url":"http://stoneyardbar.com","tier":1,"message":"Cheap","currency":"$","rating":8.2},{"name":"Skyline Comedy Cafe","phone":"9207345653","twitter":"skylinecomedy","address":"1004 S Olde Oneida St","lat":44.25328835,"lng":-88.40323105,"city_fetched":"Appleton,US","state":"WI","country":"United States","canonicalUrl":"https://foursquare.com/v/skyline-comedy-cafe/4b4a6489f964a520428626e3","categoryId":"4bf58dd8d48988d11a941735","category":"Other Nightlife","checkinsCount":1830,"usersCount":1145,"tipCount":14,"visitsCount":1876,"url":"http://www.skylinecomedy.com","tier":2,"message":"Moderate","currency":"$","rating":8.1},{"name":"Camelot","phone":"9207317461","address":"1700 E Wisconsin Ave","lat":44.273325244082706,"lng":-88.37911154152793,"city_fetched":"Appleton,US","state":"WI","country":"United States","canonicalUrl":"https://foursquare.com/v/camelot/4bcf54f5b221c9b641d4d1d0","categoryId":"4bf58dd8d48988d116941735","category":"Bar","checkinsCount":1454,"usersCount":287,"tipCount":12,"visitsCount":1732,"url":"http://camelotbarandgrill.com","tier":"","message":"","currency":"","rating":8.1},{"name":"World of Beer","phone":"9209038337","twitter":"wobappleton","address":"149 N Mall Dr","lat":44.263181665071166,"lng":-88.47062395946656,"neighborhood":"Grand Chute","city_fetched":"Appleton,US","state":"WI","country":"United States","canonicalUrl":"https://foursquare.com/v/world-of-beer/54ff280a498e9beca09eb226","categoryId":"4bf58dd8d48988d116941735","category":"Bar","checkinsCount":380,"usersCount":318,"tipCount":5,"visitsCount":501,"url":"http://wobusa.com/appleton","tier":"","message":"","currency":"","rating":7.9},{"name":"Ambassador","lat":44.261337600770354,"lng":-88.4072331061906,"neighborhood":"College Avenue Historic District","city_fetched":"Appleton,US","state":"WI","country":"United States","canonicalUrl":"https://foursquare.com/v/ambassador/53e58bc1498ec9c3ab4c22b0","categoryId":"4bf58dd8d48988d11e941735","category":"Cocktail Bar","checkinsCount":214,"usersCount":62,"tipCount":6,"visitsCount":225,"tier":"","message":"","currency":"","rating":7.9},{"name":"Wishing Well","phone":"9207344472","address":"2709 E Newberry St","lat":44.26420032978058,"lng":-88.36663126945496,"city_fetched":"Appleton,US","state":"WI","country":"United States","canonicalUrl":"https://foursquare.com/v/wishing-well/4c361c4e3849c928ff77bbb1","categoryId":"4bf58dd8d48988d118941735","category":"Dive Bar","checkinsCount":798,"usersCount":272,"tipCount":12,"visitsCount":942,"tier":"","message":"","currency":"","rating":7.8},{"name":"Holidays Pub & Grill","phone":"9208860069","twitter":"holidayspub","address":"1395 West American Dr","lat":44.22166,"lng":-88.494048,"city_fetched":"Appleton,US","state":"WI","country":"United States","canonicalUrl":"https://foursquare.com/v/holidays-pub--grill/4b61f067f964a5205f2c2ae3","categoryId":"4bf58dd8d48988d11d941735","category":"Sports Bar","checkinsCount":2619,"usersCount":1115,"tipCount":24,"visitsCount":3153,"url":"http://www.holidayspub.com","tier":2,"message":"Moderate","currency":"$","rating":7.8},{"name":"Fox River Brewing Company","phone":"9208861880","address":"4301 W Wisconsin Ave","lat":44.26838529214963,"lng":-88.47153663427258,"neighborhood":"Grand Chute","city_fetched":"Appleton,US","state":"WI","country":"United States","canonicalUrl":"https://foursquare.com/v/fox-river-brewing-company/4b7ed7f2f964a520a70330e3","categoryId":"50327c8591d4c4b30a586d5d","category":"Brewery","checkinsCount":4061,"usersCount":1640,"tipCount":29,"visitsCount":4121,"url":"http://www.fratellosfieldhouse.com","tier":1,"message":"Cheap","currency":"$","rating":7.8},{"name":"Mr Brews Taphouse","phone":"9208153516","address":"201 S Riverheath Way","lat":44.260681545955,"lng":-88.38716709781329,"city_fetched":"Appleton,US","state":"WI","country":"United States","canonicalUrl":"https://foursquare.com/v/mr-brews-taphouse/557dcda1498ec5c4afc3de2c","categoryId":"4bf58dd8d48988d11b941735","category":"Pub","checkinsCount":145,"usersCount":205,"tipCount":6,"visitsCount":367,"url":"http://www.mrbrewstaphouse.com/locations/appleton-wi/","tier":"","message":"","currency":"","rating":7.7},{"name":"Tanner's","phone":"9207887275","address":"730 S Railroad St","lat":44.26119101192302,"lng":-88.33974091775752,"city_fetched":"Appleton,US","state":"WI","country":"United States","canonicalUrl":"https://foursquare.com/v/tanners/4b8db585f964a520d00933e3","categoryId":"4bf58dd8d48988d11d941735","category":"Sports Bar","checkinsCount":4920,"usersCount":1386,"tipCount":18,"visitsCount":5787,"url":"http://www.tannersgrillandbar.com","tier":1,"message":"Cheap","currency":"$","rating":7.6},{"name":"Scubas Pourhouse","address":"1309 E Wisconsin Ave","lat":44.27276564023333,"lng":-88.38457052977272,"city_fetched":"Appleton,US","state":"WI","country":"United States","canonicalUrl":"https://foursquare.com/v/scubas-pourhouse/4f7e5287e4b05c076a41cedd","categoryId":"4bf58dd8d48988d116941735","category":"Bar","checkinsCount":547,"usersCount":337,"tipCount":12,"visitsCount":877,"tier":"","message":"","currency":"","rating":7.6},{"name":"Willie Beamonsâ€Ž Bar & Grill","phone":"9209670391","address":"2590 County Ro. II","lat":44.20045115681328,"lng":-88.52834701538086,"city_fetched":"Appleton,US","state":"WI","country":"United States","canonicalUrl":"https://foursquare.com/v/willie-beamons-bar--grill/4bb7f3ceb35776b06174c801","categoryId":"4bf58dd8d48988d116941735","category":"Bar","checkinsCount":1887,"usersCount":841,"tipCount":6,"visitsCount":2309,"tier":"","message":"","currency":"","rating":7.6},{"name":"Hank & Karen's Tavern","phone":"9207311265","address":"1937 E John St","lat":44.2504864222653,"lng":-88.37501684729253,"city_fetched":"Appleton,US","state":"WI","country":"United States","canonicalUrl":"https://foursquare.com/v/hank--karens-tavern/4bbe5e5730c99c74f4a95311","categoryId":"4bf58dd8d48988d116941735","category":"Bar","checkinsCount":621,"usersCount":179,"tipCount":4,"visitsCount":633,"tier":"","message":"","currency":"","rating":7.5},{"name":"Dieter's Ale Haus","phone":"9208300718","twitter":"dietersalehaus","address":"830 E Northland Ave","lat":44.287669825902576,"lng":-88.3944347620883,"city_fetched":"Appleton,US","state":"WI","country":"United States","canonicalUrl":"https://foursquare.com/v/dieters-ale-haus/4bd392b0462cb71380d6de07","categoryId":"4bf58dd8d48988d116941735","category":"Bar","checkinsCount":1580,"usersCount":348,"tipCount":7,"visitsCount":1697,"url":"http://dietersalehaus.com","tier":"","message":"","currency":"","rating":7.5},{"name":"Olde Town Tavern","phone":"9209540103","address":"109 W College Ave","lat":44.26173651052695,"lng":-88.40641378500762,"neighborhood":"College Avenue Historic District","city_fetched":"Appleton,US","state":"WI","country":"United States","canonicalUrl":"https://foursquare.com/v/olde-town-tavern/4b77737df964a520419b2ee3","categoryId":"4bf58dd8d48988d116941735","category":"Bar","checkinsCount":1935,"usersCount":420,"tipCount":8,"visitsCount":1973,"tier":"","message":"","currency":"","rating":7.4},{"name":"Sluggers","phone":"9207399503","address":"2222 E Northland Ave","lat":44.288782310839466,"lng":-88.37163748428053,"city_fetched":"Appleton,US","state":"WI","country":"United States","canonicalUrl":"https://foursquare.com/v/sluggers/4b932f5ff964a520f13934e3","categoryId":"4bf58dd8d48988d116941735","category":"Bar","checkinsCount":1455,"usersCount":371,"tipCount":2,"visitsCount":1483,"tier":2,"message":"Moderate","currency":"$","rating":7.3},{"name":"Rascals Bar & Grill","phone":"9209549262","address":"702 E Wisconsin Ave","lat":44.27303389205999,"lng":-88.39691704738047,"city_fetched":"Appleton,US","state":"WI","country":"United States","canonicalUrl":"https://foursquare.com/v/rascals-bar--grill/4ba4480cf964a520b19238e3","categoryId":"4bf58dd8d48988d1d8941735","category":"Gay Bar","checkinsCount":2272,"usersCount":379,"tipCount":12,"visitsCount":2407,"url":"http://www.rascalsbar.com","tier":2,"message":"Moderate","currency":"$","rating":7.3},{"name":"The Monkey Bar","phone":"9203809904","address":"519 W College Ave","lat":44.261701,"lng":-88.41290805,"city_fetched":"Appleton,US","state":"WI","country":"United States","canonicalUrl":"https://foursquare.com/v/the-monkey-bar/4bd0f682caff95215200d0f0","categoryId":"4bf58dd8d48988d116941735","category":"Bar","checkinsCount":349,"usersCount":192,"tipCount":5,"visitsCount":350,"url":"http://www.dejavumartini.com","tier":"","message":"","currency":"","rating":7.3},{"name":"Silver Spur","phone":"9207330762","address":"W5779 County Road Kk","lat":44.24351115337424,"lng":-88.32753463066287,"city_fetched":"Appleton,US","state":"WI","country":"United States","canonicalUrl":"https://foursquare.com/v/silver-spur/4c4f96ac38b0be9ae1f519fc","categoryId":"4bf58dd8d48988d118941735","category":"Dive Bar","checkinsCount":875,"usersCount":328,"tipCount":2,"visitsCount":1077,"tier":"","message":"","currency":"","rating":7.2},{"name":"Images Bar","phone":"9205742426","address":"1200 S Oneida St","lat":44.251586,"lng":-88.404026,"city_fetched":"Appleton,US","state":"WI","country":"United States","canonicalUrl":"https://foursquare.com/v/images-bar/4d82cfb599b78cfa62c7931f","categoryId":"4bf58dd8d48988d116941735","category":"Bar","checkinsCount":1093,"usersCount":181,"tipCount":10,"visitsCount":1123,"tier":"","message":"","currency":"","rating":7.2},{"name":"Capitol Centre Sports Bar & Grill","phone":"9207359941","address":"725 W Capitol Dr","lat":44.29426575886318,"lng":-88.41717738077976,"city_fetched":"Appleton,US","state":"WI","country":"United States","canonicalUrl":"https://foursquare.com/v/capitol-centre-sports-bar--grill/4d41fffb5d01224bc3855b50","categoryId":"4bf58dd8d48988d11d941735","category":"Sports Bar","checkinsCount":722,"usersCount":345,"tipCount":2,"visitsCount":826,"tier":2,"message":"Moderate","currency":"$","rating":7.2},{"name":"Gameday Sports Bar","phone":"9208302510","address":"N225 Stoney Brook Rd","lat":44.247443200727055,"lng":-88.3531665802002,"city_fetched":"Appleton,US","state":"WI","country":"United States","canonicalUrl":"https://foursquare.com/v/gameday-sports-bar/4b22e642f964a520e24f24e3","categoryId":"4bf58dd8d48988d116941735","category":"Bar","checkinsCount":5167,"usersCount":1433,"tipCount":17,"visitsCount":5913,"url":"http://gameday-sportsbar.com","tier":"","message":"","currency":"","rating":7.1},{"name":"Leg Lamp Lodge","address":"427 W College Ave","lat":44.261833,"lng":-88.4119617,"neighborhood":"Downtown Appleton","city_fetched":"Appleton,US","state":"WI","country":"United States","canonicalUrl":"https://foursquare.com/v/leg-lamp-lodge/4b808edef964a520ba7c30e3","categoryId":"4bf58dd8d48988d116941735","category":"Bar","checkinsCount":902,"usersCount":541,"tipCount":6,"visitsCount":917,"tier":"","message":"","currency":"","rating":7.1},{"name":"Appleton Beer Factory","phone":"9203649931","twitter":"abeerfactory","address":"603 W College Ave","lat":44.26176707948576,"lng":-88.41423511505127,"city_fetched":"Appleton,US","state":"WI","country":"United States","canonicalUrl":"https://foursquare.com/v/appleton-beer-factory/4f78b1436d86fcc650e7e0ed","categoryId":"50327c8591d4c4b30a586d5d","category":"Brewery","checkinsCount":1441,"usersCount":871,"tipCount":27,"visitsCount":1927,"tier":2,"message":"Moderate","currency":"$","rating":7},{"name":"OB's Brau Haus","phone":"9207300202","address":"523 W College Ave","lat":44.261681238666625,"lng":-88.41310050593707,"city_fetched":"Appleton,US","state":"WI","country":"United States","canonicalUrl":"https://foursquare.com/v/obs-brau-haus/4bb577be46d4a593a21cc5c0","categoryId":"4bf58dd8d48988d116941735","category":"Bar","checkinsCount":2373,"usersCount":548,"tipCount":9,"visitsCount":2453,"url":"http://www.obs-brauhaus.com","tier":"","message":"","currency":"","rating":7},{"name":"Union Jacks","address":"812 S Olde Oneida St","lat":44.25510764122009,"lng":-88.40354038333334,"city_fetched":"Appleton,US","state":"WI","country":"United States","canonicalUrl":"https://foursquare.com/v/union-jacks/4bdcf39cedf50f473cd7c834","categoryId":"4bf58dd8d48988d116941735","category":"Bar","checkinsCount":494,"usersCount":181,"tipCount":1,"visitsCount":532,"tier":"","message":"","currency":"","rating":7},{"name":"Cleo's","phone":"9207392288","address":"203 W College Ave","lat":44.26171228419803,"lng":-88.40743201418499,"neighborhood":"College Avenue Historic District","city_fetched":"Appleton,US","state":"WI","country":"United States","canonicalUrl":"https://foursquare.com/v/cleos/4b5f9eaff964a52003c529e3","categoryId":"4bf58dd8d48988d121941735","category":"Lounge","checkinsCount":2160,"usersCount":1268,"tipCount":17,"visitsCount":2200,"tier":1,"message":"Cheap","currency":"$","rating":7},{"name":"Chesters Pub And Grub","address":"2611 N Richmond St","lat":44.285556,"lng":-88.4162242,"city_fetched":"Appleton,US","state":"WI","country":"United States","canonicalUrl":"https://foursquare.com/v/chesters-pub-and-grub/4e17f4e9b0fb8567c6683bd6","categoryId":"4bf58dd8d48988d116941735","category":"Bar","checkinsCount":505,"usersCount":201,"tipCount":2,"visitsCount":538,"tier":"","message":"","currency":"","rating":6.9},{"name":"Plan B","phone":"9204624239","address":"121 W Wisconsin Ave","lat":44.28197805235554,"lng":-88.26856593289263,"city_fetched":"Appleton,US","state":"WI","country":"United States","canonicalUrl":"https://foursquare.com/v/plan-b/4d9e7a707f1b721e92cf890f","categoryId":"4bf58dd8d48988d116941735","category":"Bar","checkinsCount":607,"usersCount":186,"tipCount":5,"visitsCount":658,"tier":"","message":"","currency":"","rating":6.8},{"name":"The Flagstone","phone":"9207346832","address":"2820 W Prospect Ave","lat":44.244391309651185,"lng":-88.45132556282498,"neighborhood":"Grand Chute","city_fetched":"Appleton,US","state":"WI","country":"United States","canonicalUrl":"https://foursquare.com/v/the-flagstone/4b529cd3f964a520eb8327e3","categoryId":"4bf58dd8d48988d116941735","category":"Bar","checkinsCount":1500,"usersCount":614,"tipCount":11,"visitsCount":1836,"tier":1,"message":"Cheap","currency":"$","rating":6.8},{"name":"The Bar","phone":"9208820690","address":"427 W College Ave","lat":44.26180535770001,"lng":-88.41201611535044,"neighborhood":"Downtown Appleton","city_fetched":"Appleton,US","state":"WI","country":"United States","canonicalUrl":"https://foursquare.com/v/the-bar/4b5bff71f964a520992029e3","categoryId":"4bf58dd8d48988d116941735","category":"Bar","checkinsCount":4866,"usersCount":2153,"tipCount":27,"visitsCount":4985,"url":"http://www.meetatthebar.com","tier":1,"message":"Cheap","currency":"$","rating":6.8},{"name":"Beefeaters British Grille-Pub","phone":"9207308300","address":"2331 E Evergreen Dr","lat":44.30142815528038,"lng":-88.37021077340074,"city_fetched":"Appleton,US","state":"WI","country":"United States","canonicalUrl":"https://foursquare.com/v/beefeaters-british-grillepub/4bae49bef964a520b99d3be3","categoryId":"4bf58dd8d48988d11b941735","category":"Pub","checkinsCount":1664,"usersCount":990,"tipCount":23,"visitsCount":1932,"url":"http://beefeaterspub.com","tier":2,"message":"Moderate","currency":"$","rating":6.8},{"name":"Chadwick's","phone":"9207381644","address":"419 College Ave","lat":44.261777735338875,"lng":-88.41126318180739,"neighborhood":"Downtown Appleton","city_fetched":"Appleton,US","state":"WI","country":"United States","canonicalUrl":"https://foursquare.com/v/chadwicks/4b495858f964a520f46d26e3","categoryId":"4bf58dd8d48988d116941735","category":"Bar","checkinsCount":1375,"usersCount":640,"tipCount":7,"visitsCount":1383,"tier":"","message":"","currency":"","rating":6.8},{"name":"The Bar","phone":"9209540888","address":"2435 W Nordale Dr","lat":44.28563317305586,"lng":-88.44544918076471,"neighborhood":"Grand Chute","city_fetched":"Appleton,US","state":"WI","country":"United States","canonicalUrl":"https://foursquare.com/v/the-bar/4b6cd858f964a520a6582ce3","categoryId":"4bf58dd8d48988d116941735","category":"Bar","checkinsCount":6947,"usersCount":1561,"tipCount":15,"visitsCount":7814,"url":"http://www.meetatthebar.com","tier":2,"message":"Moderate","currency":"$","rating":6.7},{"name":"The Durty Leprechaun","phone":"9207334814","address":"343 W College Ave","lat":44.26181717,"lng":-88.41054975986481,"neighborhood":"Downtown Appleton","city_fetched":"Appleton,US","state":"WI","country":"United States","canonicalUrl":"https://foursquare.com/v/the-durty-leprechaun/4b3dab5df964a520389625e3","categoryId":"4bf58dd8d48988d116941735","category":"Bar","checkinsCount":2664,"usersCount":1198,"tipCount":12,"visitsCount":2699,"tier":"","message":"","currency":"","rating":6.6},{"name":"Jim's Place","phone":"9207308091","address":"223 E College Ave","lat":44.261780008655236,"lng":-88.40339210746345,"neighborhood":"Downtown Appleton","city_fetched":"Appleton,US","state":"WI","country":"United States","canonicalUrl":"https://foursquare.com/v/jims-place/4b80d56ff964a520538e30e3","categoryId":"4bf58dd8d48988d116941735","category":"Bar","checkinsCount":1657,"usersCount":449,"tipCount":9,"visitsCount":1670,"tier":1,"message":"Cheap","currency":"$","rating":6.6},{"name":"The Wooden Nickel Sports Bar & Grill","phone":"9207350661","address":"217 E College Ave","lat":44.261566400527954,"lng":-88.4036063,"neighborhood":"Downtown Appleton","city_fetched":"Appleton,US","state":"WI","country":"United States","canonicalUrl":"https://foursquare.com/v/the-wooden-nickel-sports-bar--grill/4b6cef33f964a520e55e2ce3","categoryId":"4bf58dd8d48988d116941735","category":"Bar","checkinsCount":1981,"usersCount":740,"tipCount":7,"visitsCount":2002,"url":"http://woodennickelsportsbar.com","tier":"","message":"","currency":"","rating":6.6},{"name":"Chillerz Appleton","lat":44.277503967285156,"lng":-88.48207092285156,"neighborhood":"Grand Chute","city_fetched":"Appleton,US","state":"Wisconsin","country":"United States","canonicalUrl":"https://foursquare.com/v/chillerz-appleton/526c649c11d2e3d95c633378","categoryId":"4bf58dd8d48988d116941735","category":"Bar","checkinsCount":434,"usersCount":126,"tipCount":4,"visitsCount":539,"tier":"","message":"","currency":"","rating":6.6},{"name":"Speakeasy Ultra Lounge","phone":"9208301361","address":"425 W College Ave","lat":44.261769933344205,"lng":-88.41196402603231,"city_fetched":"Appleton,US","state":"WI","country":"United States","canonicalUrl":"https://foursquare.com/v/speakeasy-ultra-lounge/4b3c16c1f964a520a78125e3","categoryId":"4bf58dd8d48988d11f941735","category":"Nightclub","checkinsCount":871,"usersCount":424,"tipCount":5,"visitsCount":880,"tier":"","message":"","currency":"","rating":6.5},{"name":"Stars Cabaret","phone":"9208866566","address":"1413 Green Valley Rd","lat":44.12813310923355,"lng":-88.49878907203674,"city_fetched":"Appleton,US","state":"WI","country":"United States","canonicalUrl":"https://foursquare.com/v/stars-cabaret/4bc5361d4a9aa5934d49067b","categoryId":"4bf58dd8d48988d1d6941735","category":"Strip Club","checkinsCount":719,"usersCount":423,"tipCount":3,"visitsCount":832,"tier":"","message":"","currency":"","rating":6.5},{"name":"No Idea?","phone":"9209541770","address":"109 W College Ave","lat":44.26158838219824,"lng":-88.40634748087778,"neighborhood":"College Avenue Historic District","city_fetched":"Appleton,US","state":"WI","country":"United States","canonicalUrl":"https://foursquare.com/v/no-idea/4f175e73e4b01130e6ec14a6","categoryId":"4bf58dd8d48988d116941735","category":"Bar","checkinsCount":824,"usersCount":192,"tipCount":2,"visitsCount":826,"tier":"","message":"","currency":"","rating":6.4},{"name":"Emmett's Bar & Grill","phone":"9207337649","address":"139 N Richmond St","lat":44.26302970185595,"lng":-88.41588001997859,"city_fetched":"Appleton,US","state":"WI","country":"United States","canonicalUrl":"https://foursquare.com/v/emmetts-bar--grill/4c01eb70b58376b06a00453c","categoryId":"4bf58dd8d48988d116941735","category":"Bar","checkinsCount":740,"usersCount":302,"tipCount":5,"visitsCount":761,"tier":"","message":"","currency":"","rating":6.4},{"name":"D2 Sports Club","phone":"9202572582","twitter":"d2sportsapltn","address":"403 W College Ave","lat":44.26167266792532,"lng":-88.41073754115406,"neighborhood":"Downtown Appleton","city_fetched":"Appleton,US","state":"WI","country":"United States","canonicalUrl":"https://foursquare.com/v/d2-sports-club/4b11f82af964a520ab8723e3","categoryId":"4bf58dd8d48988d11d941735","category":"Sports Bar","checkinsCount":4160,"usersCount":1978,"tipCount":27,"visitsCount":4357,"url":"http://www.anduzzis.com","tier":2,"message":"Moderate","currency":"$","rating":6.4},{"name":"Trailside Taven","address":"977 Plank Rd","lat":44.209225284321086,"lng":-88.42595957967661,"city_fetched":"Appleton,US","state":"WI","country":"United States","canonicalUrl":"https://foursquare.com/v/trailside-taven/4e40c99eb0fb1399f6e5ca90","categoryId":"4bf58dd8d48988d11b941735","category":"Pub","checkinsCount":406,"usersCount":139,"tipCount":4,"visitsCount":451,"tier":"","message":"","currency":"","rating":6.2},{"name":"Rookies","phone":"9208301804","address":"325 N Appleton St","lat":44.26473677158356,"lng":-88.407561,"city_fetched":"Appleton,US","state":"WI","country":"United States","canonicalUrl":"https://foursquare.com/v/rookies/4b886487f964a5208af431e3","categoryId":"4bf58dd8d48988d116941735","category":"Bar","checkinsCount":589,"usersCount":225,"tipCount":8,"visitsCount":677,"tier":1,"message":"Cheap","currency":"$","rating":6.1},{"name":"Uncle Jim's Bar","phone":"9207348329","address":"317 N Appleton St","lat":44.26448547469458,"lng":-88.40750778841748,"city_fetched":"Appleton,US","state":"WI","country":"United States","canonicalUrl":"https://foursquare.com/v/uncle-jims-bar/4d4ddea5a7f86ea88a783bde","categoryId":"4bf58dd8d48988d118941735","category":"Dive Bar","checkinsCount":1049,"usersCount":92,"tipCount":9,"visitsCount":1058,"tier":"","message":"","currency":"","rating":6.1},{"name":"Eager Beaver","address":"1400 W 2nd St","lat":44.25509437949069,"lng":-88.42844951582988,"city_fetched":"Appleton,US","state":"WI","country":"United States","canonicalUrl":"https://foursquare.com/v/eager-beaver/4c1983766a21c9b634c6ca97","categoryId":"4bf58dd8d48988d116941735","category":"Bar","checkinsCount":606,"usersCount":226,"tipCount":3,"visitsCount":693,"tier":"","message":"","currency":"","rating":6},{"name":"Jack's Apple Pub","phone":"9207355583","address":"533 W. College Ave","lat":44.26162758345225,"lng":-88.41369714588049,"city_fetched":"Appleton,US","state":"WI","country":"United States","canonicalUrl":"https://foursquare.com/v/jacks-apple-pub/4bc5255b5935c9b649a2a5d2","categoryId":"4bf58dd8d48988d116941735","category":"Bar","checkinsCount":753,"usersCount":297,"tipCount":5,"visitsCount":771,"url":"http://www.applepub.com","tier":"","message":"","currency":"","rating":5.9},{"name":"Cold Shot","phone":"9209939005","address":"633 W Wisconsin Ave #B","lat":44.27259753333333,"lng":-88.415182,"city_fetched":"Appleton,US","state":"WI","country":"United States","canonicalUrl":"https://foursquare.com/v/cold-shot/4c6f4fbfb5a5236a6d114d52","categoryId":"4bf58dd8d48988d116941735","category":"Bar","checkinsCount":524,"usersCount":222,"tipCount":5,"visitsCount":536,"url":"http://coldshotbar.com","tier":"","message":"","currency":"","rating":5.8},{"name":"CU Saloon","phone":"9207492705","address":"409 W College Ave","lat":44.26184188436526,"lng":-88.41101220103447,"neighborhood":"Downtown Appleton","city_fetched":"Appleton,US","state":"WI","country":"United States","canonicalUrl":"https://foursquare.com/v/cu-saloon/4b2af537f964a520e0b224e3","categoryId":"4bf58dd8d48988d116941735","category":"Bar","checkinsCount":1717,"usersCount":543,"tipCount":7,"visitsCount":1722,"tier":"","message":"","currency":"","rating":5.8},{"name":"Clubhouse","phone":"9207338000","address":"333 W College Ave","lat":44.261513331943675,"lng":-88.40946840034088,"neighborhood":"Downtown Appleton","city_fetched":"Appleton,US","state":"WI","country":"United States","canonicalUrl":"https://foursquare.com/v/clubhouse/4c376c5552dfef3b1e0eef70","categoryId":"4bf58dd8d48988d11b941735","category":"Pub","checkinsCount":1576,"usersCount":651,"tipCount":7,"visitsCount":1589,"tier":"","message":"","currency":"","rating":5.4},{"name":"Mister G's","phone":"9207339990","address":"340 W Northland Ave","lat":44.28767172551119,"lng":-88.4103871104878,"neighborhood":"Grand Chute","city_fetched":"Appleton,US","state":"WI","country":"United States","canonicalUrl":"https://foursquare.com/v/mister-gs/4bd35d189854d13af89efd4d","categoryId":"4bf58dd8d48988d116941735","category":"Bar","checkinsCount":764,"usersCount":271,"tipCount":10,"visitsCount":816,"url":"http://mrgsbarandgrill.com","tier":"","message":"","currency":"","rating":5.2},{"name":"Bad Badger Sports Bar","phone":"9205742968","address":"215 W College Ave","lat":44.26160931587219,"lng":-88.40797974,"neighborhood":"College Avenue Historic District","city_fetched":"Appleton,US","state":"WI","country":"United States","canonicalUrl":"https://foursquare.com/v/bad-badger-sports-bar/4b52a500f964a520d48427e3","categoryId":"4bf58dd8d48988d11d941735","category":"Sports Bar","checkinsCount":1551,"usersCount":751,"tipCount":14,"visitsCount":1584,"tier":"","message":"","currency":"","rating":5}]