[{"name":"Lucky Baldwins Delirium Pub Cafe","phone":"6263551140","twitter":"luckybaldwins2","address":"21 Kersting Ct.","lat":34.1621,"lng":-118.0531635,"city_fetched":"Arcadia","state":"CA","country":"United States","canonicalUrl":"https://foursquare.com/v/lucky-baldwins-delirium-pub-cafe/4ac6cec7f964a52057b620e3","category":"Pub","checkinsCount":2824,"usersCount":830,"tipCount":32,"visitsCount":2863,"url":"http://www.luckybaldwins.com","tier":2,"message":"Moderate","currency":"$","rating":8.2},{"name":"BJ's Restaurant and Brewhouse","phone":"6264621494","twitter":"bjsrestaurants","address":"400 E Huntington Dr","lat":34.1397,"lng":-118.0223649,"city_fetched":"Arcadia","state":"CA","country":"United States","canonicalUrl":"https://foursquare.com/v/bjs-restaurant-and-brewhouse/4abee477f964a520749020e3","category":"American Restaurant","checkinsCount":5766,"usersCount":3569,"tipCount":49,"visitsCount":6602,"url":"http://t.co/bl46gcjDLN","tier":2,"message":"Moderate","currency":"$","rating":8.1},{"name":"Silver Dollar Saloon","address":"10729 Lower Azusa Rd","lat":34.09318755207184,"lng":-118.03443264666137,"neighborhood":"Northwest El Monte","city_fetched":"Arcadia","state":"CA","country":"United States","canonicalUrl":"https://foursquare.com/v/silver-dollar-saloon/4ba70e22f964a520a37e39e3","category":"Bar","checkinsCount":357,"usersCount":111,"tipCount":4,"visitsCount":402,"tier":"","message":"","currency":"","rating":8.1},{"name":"Sena On Myrtle","phone":"6264562830","address":"409 S Myrtle Ave","lat":34.14777572825981,"lng":-118.00117080595106,"city_fetched":"Arcadia","state":"CA","country":"United States","canonicalUrl":"https://foursquare.com/v/sena-on-myrtle/4d73df252804cbff09b2bbde","category":"Taco Place","checkinsCount":1927,"usersCount":733,"tipCount":19,"visitsCount":2041,"url":"http://senataco.com","tier":2,"message":"Moderate","currency":"$","rating":8.1},{"name":"Wood Ranch BBQ & Grill","phone":"6264474745","twitter":"woodranch","address":"400 S. Baldwin Avenue","lat":34.134790335451804,"lng":-118.04873943328857,"city_fetched":"Arcadia","state":"CA","country":"United States","canonicalUrl":"https://foursquare.com/v/wood-ranch-bbq--grill/4a48e510f964a520d0aa1fe3","category":"BBQ Joint","checkinsCount":4226,"usersCount":2284,"tipCount":44,"visitsCount":4283,"url":"https://www.woodranch.com","tier":2,"message":"Moderate","currency":"$","rating":8},{"name":"Dave & Buster's","phone":"6268026115","address":"400 S Baldwin Ave","lat":34.1356783777456,"lng":-118.04940462112427,"city_fetched":"Arcadia","state":"CA","country":"United States","canonicalUrl":"https://foursquare.com/v/dave--busters/4a9db0cbf964a520f43820e3","category":"Lounge","checkinsCount":10097,"usersCount":5892,"tipCount":50,"visitsCount":10376,"url":"http://daveandbusters.com","tier":2,"message":"Moderate","currency":"$","rating":7.9},{"name":"Pacific Plate Brewing Company","phone":"6262398456","address":"1999 S Myrtle Ave","lat":34.12837564599964,"lng":-118.0023145174433,"city_fetched":"Arcadia","state":"CA","country":"United States","canonicalUrl":"https://foursquare.com/v/pacific-plate-brewing-company/521ff585498ea0876f5f8399","category":"Brewery","checkinsCount":439,"usersCount":334,"tipCount":10,"visitsCount":596,"url":"http://www.pacificplatebrewing.com","tier":"","message":"","currency":"","rating":7.9},{"name":"Shady Brady's","phone":"6264461993","address":"4273 E Live Oak Ave","lat":34.11059433675152,"lng":-118.00979992752728,"city_fetched":"Arcadia","state":"CA","country":"United States","canonicalUrl":"https://foursquare.com/v/shady-bradys/4b6fc967f964a52095fc2ce3","category":"Bar","checkinsCount":568,"usersCount":240,"tipCount":7,"visitsCount":672,"tier":"","message":"","currency":"","rating":7.8},{"name":"First Cabin Bar","phone":"6264462575","twitter":"firstcabinbar","address":"46 E Huntington Dr","lat":34.139899,"lng":-118.029414,"city_fetched":"Arcadia","state":"CA","country":"United States","canonicalUrl":"https://foursquare.com/v/first-cabin-bar/4b25c793f964a5201e7624e3","category":"Bar","checkinsCount":513,"usersCount":358,"tipCount":6,"visitsCount":588,"url":"http://firstcabinbar-hub.com","tier":"","message":"","currency":"","rating":7.7},{"name":"California Pizza Kitchen at Santa Anita","phone":"6264452610","twitter":"calpizzakitchen","address":"400 S. Baldwin Ave., Ste. 115-U","lat":34.13401074582023,"lng":-118.05163925988194,"city_fetched":"Arcadia","state":"CA","country":"United States","canonicalUrl":"https://foursquare.com/v/california-pizza-kitchen-at-santa-anita/4a99c145f964a5204f3020e3","category":"Pizza Place","checkinsCount":3669,"usersCount":1809,"tipCount":17,"visitsCount":3830,"url":"http://cpk.com","tier":2,"message":"Moderate","currency":"$","rating":7.6},{"name":"The Buccaneer","phone":"6263559045","address":"70 W Sierra Madre Blvd","lat":34.16174790832027,"lng":-118.05420267011968,"city_fetched":"Arcadia","state":"CA","country":"United States","canonicalUrl":"https://foursquare.com/v/the-buccaneer/4a7df93af964a52071f01fe3","category":"Dive Bar","checkinsCount":1563,"usersCount":351,"tipCount":8,"visitsCount":1672,"tier":"","message":"","currency":"","rating":7.5},{"name":"T. Phillips Alehouse & Grill","phone":"6262564253","address":"601 S Myrtle Ave","lat":34.1457971460893,"lng":-118.00119368025297,"city_fetched":"Arcadia","state":"CA","country":"United States","canonicalUrl":"https://foursquare.com/v/t-phillips-alehouse--grill/4bd78a01e914a593519051fa","category":"Bar","checkinsCount":3095,"usersCount":1405,"tipCount":30,"visitsCount":3335,"url":"http://tphillipsalehouse.com","tier":2,"message":"Moderate","currency":"$","rating":7.5},{"name":"London Gastropub","phone":"6263572200","address":"419 S Myrtle Ave","lat":34.14738412294271,"lng":-118.00111413002014,"city_fetched":"Arcadia","state":"CA","country":"United States","canonicalUrl":"https://foursquare.com/v/london-gastropub/4b91f253f964a52095e033e3","category":"Gastropub","checkinsCount":2300,"usersCount":937,"tipCount":28,"visitsCount":2335,"url":"http://londongastropub.net","tier":2,"message":"Moderate","currency":"$","rating":7.4},{"name":"La Bufadora","phone":"6265757174","address":"10990 Lower Azusa Rd","lat":34.09200673220441,"lng":-118.02753925323486,"city_fetched":"Arcadia","state":"CA","country":"United States","canonicalUrl":"https://foursquare.com/v/la-bufadora/4a9f3314f964a520e63c20e3","category":"Mexican Restaurant","checkinsCount":681,"usersCount":332,"tipCount":9,"visitsCount":740,"url":"http://tacoslabufadora.com","tier":1,"message":"Cheap","currency":"$","rating":7.4},{"name":"The Station","phone":"6264456239","address":"1218 S Baldwin Ave","lat":34.1254777,"lng":-118.0546397,"city_fetched":"Arcadia","state":"CA","country":"United States","canonicalUrl":"https://foursquare.com/v/the-station/4b651d07f964a520c8e42ae3","category":"Dive Bar","checkinsCount":883,"usersCount":322,"tipCount":4,"visitsCount":914,"tier":"","message":"","currency":"","rating":7.3},{"name":"Fourth Dimension","phone":"6263038656","twitter":"enplug","address":"326 S Myrtle Ave","lat":34.148518426238475,"lng":-118.00095319747925,"city_fetched":"Arcadia","state":"CA","country":"United States","canonicalUrl":"https://foursquare.com/v/fourth-dimension/4ade929af964a520687621e3","category":"Pool Hall","checkinsCount":707,"usersCount":423,"tipCount":4,"visitsCount":713,"url":"http://www.club4-d.com","tier":"","message":"","currency":"","rating":7.1},{"name":"Action Lanes","twitter":"actionlanes","address":"10534 Lower Azusa Rd","lat":34.09143866704599,"lng":-118.03864067956668,"neighborhood":"Northwest El Monte","city_fetched":"Arcadia","state":"CA","country":"United States","canonicalUrl":"https://foursquare.com/v/action-lanes/4b52ab46f964a520868527e3","category":"Bowling Alley","checkinsCount":2884,"usersCount":1022,"tipCount":9,"visitsCount":3199,"tier":"","message":"","currency":"","rating":6.6},{"name":"Entrance Bar & Lounge","phone":"6263548860","address":"80 W Live Oak Ave","lat":34.10677287100429,"lng":-118.03421538137613,"city_fetched":"Arcadia","state":"CA","country":"United States","canonicalUrl":"https://foursquare.com/v/entrance-bar--lounge/4fee8047e4b09cfafd91c9a4","category":"Lounge","checkinsCount":630,"usersCount":432,"tipCount":2,"visitsCount":799,"tier":"","message":"","currency":"","rating":6.6},{"name":"The Crest Lounge","phone":"6262851811","address":"5921 Temple City Blvd","lat":34.10741293611269,"lng":-118.06117139014043,"city_fetched":"Arcadia","state":"CA","country":"United States","canonicalUrl":"https://foursquare.com/v/the-crest-lounge/4b6506bcf964a5202ce02ae3","category":"Dive Bar","checkinsCount":624,"usersCount":192,"tipCount":7,"visitsCount":658,"tier":"","message":"","currency":"","rating":6.6},{"name":"Old School Eatery","phone":"6263510388","address":"Michillinda","lat":34.16279564581905,"lng":-118.06832275974527,"neighborhood":"Hastings Ranch","city_fetched":"Arcadia","state":"CA","country":"United States","canonicalUrl":"https://foursquare.com/v/old-school-eatery/53bcbe46498e9c6bc933fbd3","category":"Gastropub","checkinsCount":95,"usersCount":101,"tipCount":6,"visitsCount":139,"url":"http://www.eatatoldschool.com","tier":2,"message":"Moderate","currency":"$","rating":6.5},{"name":"Jaime's Sports Bar","phone":"6263589985","twitter":"jaimessportsbar","address":"323 W Huntington Dr","lat":34.14057361078448,"lng":-118.00618592625896,"city_fetched":"Arcadia","state":"CA","country":"United States","canonicalUrl":"https://foursquare.com/v/jaimes-sports-bar/4b3f1185f964a520d3a325e3","category":"Mexican Restaurant","checkinsCount":455,"usersCount":123,"tipCount":4,"visitsCount":476,"tier":"","message":"","currency":"","rating":6.3},{"name":"The Vounge","phone":"6262792789","address":"10602 Lower Azusa Rd","lat":34.091843548881236,"lng":-118.03840626732277,"neighborhood":"Northwest El Monte","city_fetched":"Arcadia","state":"CA","country":"United States","canonicalUrl":"https://foursquare.com/v/the-vounge/52620652498ed5997c305943","category":"Lounge","checkinsCount":117,"usersCount":90,"tipCount":3,"visitsCount":121,"tier":"","message":"","currency":"","rating":6},{"name":"Gem City Grill","phone":"6263580342","address":"115 E Olive Ave","lat":34.14494238,"lng":-118.00014802,"city_fetched":"Arcadia","state":"CA","country":"United States","canonicalUrl":"https://foursquare.com/v/gem-city-grill/4b1a1b30f964a52098e723e3","category":"Rock Club","checkinsCount":392,"usersCount":198,"tipCount":6,"visitsCount":436,"tier":"","message":"","currency":"","rating":5.9}]