[{"name":"Two Frogs Grill","phone":"5802263704","address":"2646 W Broadway St","lat":34.172003428309715,"lng":-97.16386673750986,"city_fetched":"Ardmore","state":"OK","country":"United States","canonicalUrl":"https://foursquare.com/v/two-frogs-grill/4b71e9bdf964a520d7632de3","category":"Pub","checkinsCount":930,"usersCount":980,"tipCount":27,"visitsCount":1305,"url":"http://www.twofrogsgrill.com","tier":"","message":"","currency":"","rating":7.9},{"name":"Sporting News Grill","phone":"5802215170","address":"2207 N Rockford Rd","lat":34.19768498,"lng":-97.161984,"city_fetched":"Ardmore","state":"OK","country":"United States","canonicalUrl":"https://foursquare.com/v/sporting-news-grill/4ea3640a9adff6343a141882","category":"Sports Bar","checkinsCount":250,"usersCount":108,"tipCount":6,"visitsCount":258,"tier":"","message":"","currency":"","rating":5.9},{"name":"Interurban","phone":"5802230530","address":"322 Holiday Dr","lat":34.17984781873667,"lng":-97.16597615663396,"city_fetched":"Ardmore","state":"OK","country":"United States","canonicalUrl":"https://foursquare.com/v/interurban/4b785b45f964a52002c82ee3","category":"American Restaurant","checkinsCount":383,"usersCount":292,"tipCount":11,"visitsCount":420,"url":"http://www.interurban.us","tier":2,"message":"Moderate","currency":"$","rating":5.7}]