[{"name":"Battery Park Book Exchange And Champagne Bar","phone":"8282520020","twitter":"bpbookexchange","address":"O'Henry Ave.","lat":35.59501249418685,"lng":-82.55674123764038,"neighborhood":"Downtown Asheville","city_fetched":"Asheville","state":"NC","country":"United States","canonicalUrl":"https://foursquare.com/v/battery-park-book-exchange-and-champagne-bar/4b89f2a6f964a520095832e3","category":"Wine Bar","checkinsCount":3221,"usersCount":2296,"tipCount":55,"visitsCount":3693,"url":"http://www.batteryparkbookexchange.com","tier":2,"message":"Moderate","currency":"$","rating":9.4},{"name":"The Orange Peel","phone":"8283981837","twitter":"thepeel","address":"101 Biltmore Ave","lat":35.59142003260047,"lng":-82.55109706114935,"neighborhood":"Downtown Asheville","city_fetched":"Asheville","state":"NC","country":"United States","canonicalUrl":"https://foursquare.com/v/the-orange-peel/4b449634f964a5203ef725e3","category":"Rock Club","checkinsCount":7121,"usersCount":3712,"tipCount":51,"visitsCount":7371,"url":"http://theorangepeel.net","tier":"","message":"","currency":"","rating":9.4},{"name":"Sierra Nevada Brewing Co.","phone":"8287086176","twitter":"sierranevada","address":"100 Sierra Nevada Way","lat":35.43057542180444,"lng":-82.55382804147652,"city_fetched":"Asheville","state":"NC","country":"United States","canonicalUrl":"https://foursquare.com/v/sierra-nevada-brewing-co/51190c38e4b066681b6d11b9","category":"Brewery","checkinsCount":2410,"usersCount":3109,"tipCount":49,"visitsCount":4218,"url":"http://www.sierranevada.com","tier":"","message":"","currency":"","rating":9.4},{"name":"Highland Brewing Company","phone":"8282993370","twitter":"highlandbrews","address":"12 Old Charlotte Hwy","lat":35.57055257087338,"lng":-82.49820453166924,"city_fetched":"Asheville","state":"NC","country":"United States","canonicalUrl":"https://foursquare.com/v/highland-brewing-company/4b511650f964a520a44127e3","category":"Brewery","checkinsCount":3530,"usersCount":3052,"tipCount":30,"visitsCount":4329,"url":"http://www.highlandbrewing.com","tier":2,"message":"Moderate","currency":"$","rating":9.4},{"name":"Wicked Weed Brewing","phone":"8285759599","twitter":"wickedweedbeer","address":"91 Biltmore Ave","lat":35.5916855488226,"lng":-82.5510917786837,"neighborhood":"Downtown Asheville","city_fetched":"Asheville","state":"NC","country":"United States","canonicalUrl":"https://foursquare.com/v/wicked-weed-brewing/50dd9814e4b0e2165209d971","category":"Brewery","checkinsCount":13614,"usersCount":10596,"tipCount":219,"visitsCount":17573,"url":"http://www.wickedweedbrewing.com","tier":2,"message":"Moderate","currency":"$","rating":9.4},{"name":"Asheville Pizza & Brewing Company","phone":"8282540077","twitter":"ashevillepizza","address":"675 Merrimon Ave","lat":35.62208358806064,"lng":-82.55409215373606,"neighborhood":"Grace","city_fetched":"Asheville","state":"NC","country":"United States","canonicalUrl":"https://foursquare.com/v/asheville-pizza--brewing-company/4b44b96cf964a52063fa25e3","category":"Pizza Place","checkinsCount":4070,"usersCount":2073,"tipCount":81,"visitsCount":4497,"url":"http://ashevillebrewing.com","tier":2,"message":"Moderate","currency":"$","rating":9.3},{"name":"Burial Beer Co.","phone":"8284752739","twitter":"burialbeer","address":"40 Collier Ave","lat":35.58814069151103,"lng":-82.55373824307684,"neighborhood":"Downtown Asheville","city_fetched":"Asheville","state":"NC","country":"United States","canonicalUrl":"https://foursquare.com/v/burial-beer-co/51bcaa49498e39a39ab97837","category":"Brewery","checkinsCount":2762,"usersCount":2344,"tipCount":24,"visitsCount":3646,"url":"http://www.burialbeer.com","tier":1,"message":"Cheap","currency":"$","rating":9.3},{"name":"Appalachian Vintner","phone":"8285057500","twitter":"app_vintner","address":"745 Biltmore Ave #121","lat":35.571267529208434,"lng":-82.54534421536336,"city_fetched":"Asheville","state":"NC","country":"United States","canonicalUrl":"https://foursquare.com/v/appalachian-vintner/4b71f905f964a520a4672de3","category":"Wine Shop","checkinsCount":611,"usersCount":557,"tipCount":9,"visitsCount":939,"url":"http://www.appalachianvintner.com","tier":"","message":"","currency":"","rating":9.2},{"name":"Bouchon French Bistro","phone":"8283501140","twitter":"avlfrench25","address":"62 N Lexington Ave","lat":35.596916338171475,"lng":-82.55325227322905,"neighborhood":"Downtown Asheville","city_fetched":"Asheville","state":"NC","country":"United States","canonicalUrl":"https://foursquare.com/v/bouchon-french-bistro/4b510228f964a520503d27e3","category":"French Restaurant","checkinsCount":1280,"usersCount":958,"tipCount":24,"visitsCount":1358,"url":"http://www.ashevillebouchon.com","tier":3,"message":"Expensive","currency":"$","rating":9.2},{"name":"Universal Joint","phone":"8285057262","address":"784 Haywood Road Asheville","lat":35.57855204,"lng":-82.59474277496338,"city_fetched":"Asheville","state":"NC","country":"United States","canonicalUrl":"https://foursquare.com/v/universal-joint/4b5b3e10f964a520b9ed28e3","category":"Sandwich Place","checkinsCount":2837,"usersCount":1178,"tipCount":43,"visitsCount":3051,"url":"http://ujasheville.com","tier":2,"message":"Moderate","currency":"$","rating":9.1},{"name":"Catawba Brewing Co.","address":"32 Banks Ave Ste 105","lat":35.58916788594403,"lng":-82.55350743752615,"neighborhood":"Downtown Asheville","city_fetched":"Asheville","state":"NC","country":"United States","canonicalUrl":"https://foursquare.com/v/catawba-brewing-co/551c4fc1498e26378b5fbb58","category":"Brewery","checkinsCount":853,"usersCount":733,"tipCount":13,"visitsCount":992,"url":"http://catawbabrewing.com","tier":"","message":"","currency":"","rating":9.1},{"name":"Green Man Brewery","phone":"8282525502","twitter":"greenmanbrewing","address":"23 Buxton Ave","lat":35.58867825269555,"lng":-82.55252859436354,"neighborhood":"Downtown Asheville","city_fetched":"Asheville","state":"NC","country":"United States","canonicalUrl":"https://foursquare.com/v/green-man-brewery/4bb39c69715eef3b8d9686bb","category":"Brewery","checkinsCount":4739,"usersCount":3784,"tipCount":42,"visitsCount":5701,"url":"http://www.greenmanbrewery.com","tier":2,"message":"Moderate","currency":"$","rating":9},{"name":"Funkatorium","address":"147 Coxe Ave","lat":35.589317510112586,"lng":-82.55488976659235,"neighborhood":"Downtown Asheville","city_fetched":"Asheville","state":"NC","country":"United States","canonicalUrl":"https://foursquare.com/v/funkatorium/543842df498e0fa6d1fe1918","category":"Brewery","checkinsCount":2176,"usersCount":2084,"tipCount":21,"visitsCount":3037,"url":"http://wickedweedbrewing.com","tier":"","message":"","currency":"","rating":9},{"name":"Bywater","phone":"8282326967","address":"796 Riverside Dr","lat":35.61081478706419,"lng":-82.57665943219428,"city_fetched":"Asheville","state":"NC","country":"United States","canonicalUrl":"https://foursquare.com/v/bywater/4ceafdc30f196dcb320f55ae","category":"Bar","checkinsCount":2915,"usersCount":1090,"tipCount":31,"visitsCount":3314,"url":"http://bywaterbar.com","tier":2,"message":"Moderate","currency":"$","rating":9},{"name":"Village Wayside Bar & Grille","phone":"8282774121","address":"30 Lodge St, Biltmore Village","lat":35.56760342339395,"lng":-82.54243327146571,"city_fetched":"Asheville","state":"NC","country":"United States","canonicalUrl":"https://foursquare.com/v/village-wayside-bar--grille/4b6e0a1ef964a52093a52ce3","category":"American Restaurant","checkinsCount":1872,"usersCount":1194,"tipCount":49,"visitsCount":2171,"url":"http://villagewayside.com","tier":1,"message":"Cheap","currency":"$","rating":8.9},{"name":"Hi-Wire Brewing","phone":"8285759675","twitter":"hiwirebrewing","address":"197 Hilliard Ave","lat":35.591262,"lng":-82.55599,"neighborhood":"Downtown Asheville","city_fetched":"Asheville","state":"NC","country":"United States","canonicalUrl":"https://foursquare.com/v/hiwire-brewing/51c367ad498eb873bb4fbcc5","category":"Brewery","checkinsCount":2266,"usersCount":1908,"tipCount":29,"visitsCount":2592,"url":"http://hiwirebrewing.com","tier":1,"message":"Cheap","currency":"$","rating":8.9},{"name":"Sovereign Remedies","phone":"8289199518","twitter":"remediesavl","address":"29 Market","lat":35.59678764466367,"lng":-82.55133477168296,"neighborhood":"Downtown Asheville","city_fetched":"Asheville","state":"NC","country":"United States","canonicalUrl":"https://foursquare.com/v/sovereign-remedies/5441e258498ea805fa57e8ca","category":"Cocktail Bar","checkinsCount":271,"usersCount":352,"tipCount":5,"visitsCount":437,"url":"http://www.sovereignremedies.com","tier":"","message":"","currency":"","rating":8.9},{"name":"The Admiral","phone":"8282522541","twitter":"theadmiralnc#","address":"400 Haywood Rd","lat":35.5778455856956,"lng":-82.57979597580321,"city_fetched":"Asheville","state":"NC","country":"United States","canonicalUrl":"https://foursquare.com/v/the-admiral/4b5b3daaf964a52098ed28e3","category":"Bar","checkinsCount":1638,"usersCount":1337,"tipCount":43,"visitsCount":1794,"url":"http://www.theadmiralnc.com","tier":"","message":"","currency":"","rating":8.9},{"name":"Asheville Brewing Company","phone":"8282554077","twitter":"ashevillbrewing","address":"77 Coxe Ave","lat":35.59171732062187,"lng":-82.55526710338887,"neighborhood":"Downtown Asheville","city_fetched":"Asheville","state":"NC","country":"United States","canonicalUrl":"https://foursquare.com/v/asheville-brewing-company/4bbd211aa0a0c9b6c84d1b0f","category":"Brewery","checkinsCount":6730,"usersCount":5265,"tipCount":93,"visitsCount":8170,"url":"http://ashevillebrewing.com","tier":2,"message":"Moderate","currency":"$","rating":8.9},{"name":"Wedge Brewing Company","phone":"8285052792","address":"125 Roberts St","lat":35.58621497058811,"lng":-82.56637493968304,"city_fetched":"Asheville","state":"NC","country":"United States","canonicalUrl":"https://foursquare.com/v/wedge-brewing-company/4b6df4a4f964a520c69e2ce3","category":"Brewery","checkinsCount":4611,"usersCount":3519,"tipCount":43,"visitsCount":5539,"url":"http://wedgebrewing.com","tier":1,"message":"Cheap","currency":"$","rating":8.9},{"name":"Biltmore Estate Winery","phone":"8004113812","twitter":"biltmoreestate","address":"1 Approach Rd","lat":35.55497956363726,"lng":-82.58138531429167,"city_fetched":"Asheville","state":"NC","country":"United States","canonicalUrl":"https://foursquare.com/v/biltmore-estate-winery/4c48af273013a593e2f9bde1","category":"Winery","checkinsCount":5955,"usersCount":5502,"tipCount":52,"visitsCount":6354,"url":"http://www.biltmore.com/wine","tier":"","message":"","currency":"","rating":8.9},{"name":"Cedric's Tavern","phone":"8004113965","twitter":"biltmoreestate","address":"1 Approach Rd","lat":35.55587028284059,"lng":-82.58303269599232,"city_fetched":"Asheville","state":"NC","country":"United States","canonicalUrl":"https://foursquare.com/v/cedrics-tavern/4ba6307bf964a520243a39e3","category":"American Restaurant","checkinsCount":2958,"usersCount":2751,"tipCount":72,"visitsCount":3307,"tier":2,"message":"Moderate","currency":"$","rating":8.8},{"name":"The Barleycorn","phone":"8285055787","twitter":"barleycornavl","address":"697 Haywood Rd Ste A","lat":35.577650334259665,"lng":-82.59155937478866,"city_fetched":"Asheville","state":"NC","country":"United States","canonicalUrl":"https://foursquare.com/barleycornavl","category":"Gastropub","checkinsCount":160,"usersCount":125,"tipCount":11,"visitsCount":172,"url":"http://www.thebarleycornpub.com","tier":"","message":"","currency":"","rating":8.7},{"name":"Thirsty Monk Pub & Brewery","phone":"8282545470","address":"92 Patton Ave","lat":35.59415867405834,"lng":-82.55544439258635,"neighborhood":"Downtown Asheville","city_fetched":"Asheville","state":"NC","country":"United States","canonicalUrl":"https://foursquare.com/v/thirsty-monk-pub--brewery/4b4e524ff964a5205ce926e3","category":"Bar","checkinsCount":9265,"usersCount":5630,"tipCount":87,"visitsCount":9953,"url":"http://www.monkpub.com","tier":2,"message":"Moderate","currency":"$","rating":8.7},{"name":"Sant√© Wine Bar","phone":"8282548188","address":"1 Battle Sq","lat":35.59612879716283,"lng":-82.55666455399977,"neighborhood":"Downtown Asheville","city_fetched":"Asheville","state":"NC","country":"United States","canonicalUrl":"https://foursquare.com/v/sant%C3%A9-wine-bar/4b79bcd4f964a520bd0e2fe3","category":"Wine Bar","checkinsCount":2047,"usersCount":725,"tipCount":16,"visitsCount":2315,"url":"http://www.santewinebar.com","tier":"","message":"","currency":"","rating":8.6},{"name":"Storm Rhum Bar & Bistro","phone":"8285058560","twitter":"stormasheville","address":"125 S Lexington Ave","lat":35.591116670251246,"lng":-82.55202148638003,"neighborhood":"Downtown Asheville","city_fetched":"Asheville","state":"NC","country":"United States","canonicalUrl":"https://foursquare.com/v/storm-rhum-bar--bistro/4db4c2cb5da3a76f444540ab","category":"Cocktail Bar","checkinsCount":1301,"usersCount":968,"tipCount":29,"visitsCount":1507,"url":"http://stormrhumbar.com","tier":"","message":"","currency":"","rating":8.6},{"name":"New Belgium Brewing","phone":"8283336900","twitter":"newbelgium","address":"21 Craven St","lat":35.58675637195876,"lng":-82.57055490542841,"city_fetched":"Asheville","state":"NC","country":"United States","canonicalUrl":"https://foursquare.com/v/new-belgium-brewing/509ee3b9e4b083e9a591b56f","category":"Brewery","checkinsCount":479,"usersCount":682,"tipCount":6,"visitsCount":920,"url":"http://www.newbelgium.com/Brewery/asheville","tier":"","message":"","currency":"","rating":8.6},{"name":"Top of the Monk","phone":"8282545470","twitter":"topofmonk","address":"92 Patton Ave","lat":35.59414,"lng":-82.55534,"neighborhood":"Downtown Asheville","city_fetched":"Asheville","state":"North Carolina","country":"United States","canonicalUrl":"https://foursquare.com/v/top-of-the-monk/4e70f19d52b140871b768b28","category":"Bar","checkinsCount":421,"usersCount":281,"tipCount":9,"visitsCount":423,"url":"http://topofthemonk.com","tier":"","message":"","currency":"","rating":8.5},{"name":"Travinia Italian Kitchen and Wine Bar","phone":"8286848060","twitter":"hiltonhotels","address":"264 Thetford St","lat":35.48466239273404,"lng":-82.55731424148763,"neighborhood":"Biltmore Park","city_fetched":"Asheville","state":"NC","country":"United States","canonicalUrl":"https://foursquare.com/v/travinia-italian-kitchen-and-wine-bar/50ca02bd245f2d4aa8c2a856","category":"Italian Restaurant","checkinsCount":1045,"usersCount":651,"tipCount":24,"visitsCount":1056,"url":"http://www.travinaiitaliankitchen.com","tier":3,"message":"Expensive","currency":"$","rating":8.5},{"name":"O'Henrys","phone":"8282541891","address":"237 Haywood St","lat":35.594639670836,"lng":-82.56157139104413,"neighborhood":"Downtown Asheville","city_fetched":"Asheville","state":"NC","country":"United States","canonicalUrl":"https://foursquare.com/v/ohenrys/4c267be53703d13ac97ea536","category":"Gay Bar","checkinsCount":1311,"usersCount":574,"tipCount":10,"visitsCount":1891,"tier":"","message":"","currency":"","rating":8.5},{"name":"Jack of the Wood","phone":"8282525445","address":"95 Patton Ave","lat":35.59443839688205,"lng":-82.55571378073805,"neighborhood":"Downtown Asheville","city_fetched":"Asheville","state":"NC","country":"United States","canonicalUrl":"https://foursquare.com/v/jack-of-the-wood/4b44b1fff964a520acf925e3","category":"Pub","checkinsCount":5634,"usersCount":4137,"tipCount":59,"visitsCount":5688,"url":"http://jackofthewood.com","tier":2,"message":"Moderate","currency":"$","rating":8.5},{"name":"Creekside Taphouse","phone":"8285752880","twitter":"cstaphouse","address":"8 Beverly Rd","lat":35.59190513724697,"lng":-82.50479651494236,"neighborhood":"Haw Creek","city_fetched":"Asheville","state":"NC","country":"United States","canonicalUrl":"https://foursquare.com/v/creekside-taphouse/50521beee4b0f47dff237e56","category":"Beer Garden","checkinsCount":594,"usersCount":342,"tipCount":16,"visitsCount":942,"url":"http://creeksidetaphouse.com","tier":2,"message":"Moderate","currency":"$","rating":8.5},{"name":"Avenue M AVL","phone":"8283508181","address":"791 Merrimon Ave","lat":35.62571870726512,"lng":-82.55362731547976,"neighborhood":"Grace","city_fetched":"Asheville","state":"NC","country":"United States","canonicalUrl":"https://foursquare.com/v/avenue-m-avl/4d72fe4f95bc8eec48946ef9","category":"American Restaurant","checkinsCount":1106,"usersCount":623,"tipCount":16,"visitsCount":1524,"url":"http://avenuemavl.com","tier":2,"message":"Moderate","currency":"$","rating":8.5},{"name":"Rhubarb","phone":"8287851503","twitter":"rhubarbavl","address":"7 SW Pack Sq","lat":35.59488998304058,"lng":-82.55181547269198,"neighborhood":"Downtown Asheville","city_fetched":"Asheville","state":"NC","country":"United States","canonicalUrl":"https://foursquare.com/v/rhubarb/525738e711d204afed33eb9a","category":"American Restaurant","checkinsCount":786,"usersCount":701,"tipCount":12,"visitsCount":820,"url":"http://www.rhubarbasheville.com","tier":3,"message":"Expensive","currency":"$","rating":8.4},{"name":"Great Hall Bar at The Grove Park Inn Resort & Spa","phone":"8004385800","twitter":"greathallbar","address":"290 Macon Ave","lat":35.62027471657626,"lng":-82.54241213893575,"neighborhood":"Grove Park- Sunset","city_fetched":"Asheville","state":"NC","country":"United States","canonicalUrl":"https://foursquare.com/v/great-hall-bar-at-the-grove-park-inn-resort--spa/4db8547b90a0895926892dc5","category":"Hotel Bar","checkinsCount":570,"usersCount":413,"tipCount":7,"visitsCount":570,"tier":"","message":"","currency":"","rating":8.4},{"name":"Tasty Beverage Company","phone":"8282327120","address":"162 Coxe Ave Unit 101","lat":35.58873033191296,"lng":-82.55452529564222,"neighborhood":"Downtown Asheville","city_fetched":"Asheville","state":"NC","country":"United States","canonicalUrl":"https://foursquare.com/v/tasty-beverage-company/550eef58498ea2dd2c98fc9c","category":"Beer Store","checkinsCount":321,"usersCount":453,"tipCount":3,"visitsCount":623,"url":"http://www.tastybeverageco.com","tier":"","message":"","currency":"","rating":8.4},{"name":"Pack's Tavern","phone":"8282256944","twitter":"packstavern","address":"20 S Spruce St","lat":35.59517639784537,"lng":-82.54962852005434,"neighborhood":"Downtown Asheville","city_fetched":"Asheville","state":"NC","country":"United States","canonicalUrl":"https://foursquare.com/v/packs-tavern/4bc6317f51b376b0d9251b6f","category":"Bar","checkinsCount":5164,"usersCount":3562,"tipCount":68,"visitsCount":5938,"url":"http://packstavern.com","tier":1,"message":"Cheap","currency":"$","rating":8.4},{"name":"Oyster House Brewing Co","address":"625 Haywood Rd","lat":35.57874266979253,"lng":-82.58887741322927,"city_fetched":"Asheville","state":"NC","country":"United States","canonicalUrl":"https://foursquare.com/v/oyster-house-brewing-co/513a4405e4b047c401b521ba","category":"Bar","checkinsCount":488,"usersCount":377,"tipCount":8,"visitsCount":506,"url":"http://oysterhousebeers.com","tier":"","message":"","currency":"","rating":8.4},{"name":"Bhramari Brewhouse","lat":35.59143171178499,"lng":-82.5520162039855,"neighborhood":"Downtown Asheville","city_fetched":"Asheville","state":"NC","country":"United States","canonicalUrl":"https://foursquare.com/v/bhramari-brewhouse/569c1a9e498e53a0469e8c8e","category":"Brewery","checkinsCount":332,"usersCount":497,"tipCount":5,"visitsCount":569,"tier":"","message":"","currency":"","rating":8.3},{"name":"Barley's Taproom & Pizzeria","phone":"8282550504","address":"42 Biltmore Ave","lat":35.593180400888585,"lng":-82.55128194719103,"neighborhood":"Downtown Asheville","city_fetched":"Asheville","state":"NC","country":"United States","canonicalUrl":"https://foursquare.com/v/barleys-taproom--pizzeria/4bf99d9eb182c9b6d641795a","category":"Bar","checkinsCount":5858,"usersCount":3841,"tipCount":48,"visitsCount":6008,"url":"http://www.barleystaproom.com/asheville","tier":2,"message":"Moderate","currency":"$","rating":8.2},{"name":"The Double Crown","phone":"8284070573","address":"375 Haywood Rd","lat":35.578083564277534,"lng":-82.57882968221865,"city_fetched":"Asheville","state":"NC","country":"United States","canonicalUrl":"https://foursquare.com/v/the-double-crown/50d755c7e4b0ce6f6bf07aba","category":"Bar","checkinsCount":411,"usersCount":235,"tipCount":12,"visitsCount":439,"url":"http://www.thedoublecrown.com","tier":1,"message":"Cheap","currency":"$","rating":8.2},{"name":"Noble Cider","phone":"8285759622","twitter":"noblecider","address":"356 New Leicester Hwy","lat":35.60223122696342,"lng":-82.62447874428116,"city_fetched":"Asheville","state":"NC","country":"United States","canonicalUrl":"https://foursquare.com/noblecider","category":"Brewery","checkinsCount":71,"usersCount":138,"tipCount":0,"visitsCount":211,"url":"http://www.noblecider.com","tier":"","message":"","currency":"","rating":8.2},{"name":"5 Walnut Wine Bar","phone":"8282532593","address":"5 Walnut Street","lat":35.596581,"lng":-82.552598,"neighborhood":"Downtown Asheville","city_fetched":"Asheville","state":"NC","country":"United States","canonicalUrl":"https://foursquare.com/v/5-walnut-wine-bar/4c11995917002d7f8f95e609","category":"Wine Bar","checkinsCount":1884,"usersCount":991,"tipCount":20,"visitsCount":1953,"url":"http://5walnut.com","tier":"","message":"","currency":"","rating":8.2},{"name":"Twin Leaf Brewery","phone":"8287745000","address":"144 Coxe Ave","lat":35.58943052302915,"lng":-82.55457683068846,"neighborhood":"Downtown Asheville","city_fetched":"Asheville","state":"NC","country":"United States","canonicalUrl":"https://foursquare.com/v/twin-leaf-brewery/5318f988498ea455e8521f6f","category":"Brewery","checkinsCount":1434,"usersCount":1367,"tipCount":15,"visitsCount":1713,"url":"http://twinleafbrewery.com","tier":1,"message":"Cheap","currency":"$","rating":8.2},{"name":"Urban Orchard Cider Company","phone":"8287745151","twitter":"urbanorchardavl","address":"210 Haywood Rd","lat":35.579543,"lng":-82.574311,"neighborhood":"West Asheville","city_fetched":"Asheville","state":"NC","country":"United States","canonicalUrl":"https://foursquare.com/v/urban-orchard-cider-company/526824b611d2ffd5c1eaf4b3","category":"Brewery","checkinsCount":565,"usersCount":549,"tipCount":13,"visitsCount":762,"url":"http://www.urbanorchardcider.com","tier":"","message":"","currency":"","rating":8.2},{"name":"32* Ice Bar & Lounge","phone":"8286845778","twitter":"32icebar","address":"140 Airport Rd","lat":35.45233080246763,"lng":-82.52479063158258,"city_fetched":"Asheville","state":"NC","country":"United States","canonicalUrl":"https://foursquare.com/32icebar","category":"Bar","checkinsCount":980,"usersCount":213,"tipCount":11,"visitsCount":1265,"url":"http://www.32icebar.com","tier":1,"message":"Cheap","currency":"$","rating":8.2},{"name":"The Hickory Tavern","phone":"8282092700","twitter":"hiltonhotels","address":"43 Town Square Blvd","lat":35.48517173588738,"lng":-82.5564532721908,"neighborhood":"Biltmore Park","city_fetched":"Asheville","state":"NC","country":"United States","canonicalUrl":"https://foursquare.com/v/the-hickory-tavern/50ca02bd245f2d4aa8c2a860","category":"American Restaurant","checkinsCount":4783,"usersCount":1677,"tipCount":49,"visitsCount":5003,"url":"http://www.hilton.com","tier":2,"message":"Moderate","currency":"$","rating":8.2},{"name":"Rankin Vault","phone":"8282544993","address":"7 Rankin Ave","lat":35.59548152593766,"lng":-82.55352166998259,"neighborhood":"Downtown Asheville","city_fetched":"Asheville","state":"NC","country":"United States","canonicalUrl":"https://foursquare.com/v/rankin-vault/4b527801f964a520be7e27e3","category":"Lounge","checkinsCount":2535,"usersCount":1197,"tipCount":19,"visitsCount":2722,"url":"http://rankinvault.com","tier":2,"message":"Moderate","currency":"$","rating":8.1},{"name":"The Social Lounge and Tapas","phone":"8282252553","twitter":"socialloungeavl","address":"29 Broadway St","lat":35.59636785721263,"lng":-82.5523754058883,"neighborhood":"Downtown Asheville","city_fetched":"Asheville","state":"NC","country":"United States","canonicalUrl":"https://foursquare.com/v/the-social-lounge-and-tapas/4b4d1aacf964a5201acb26e3","category":"Cocktail Bar","checkinsCount":2191,"usersCount":1211,"tipCount":27,"visitsCount":2213,"url":"http://www.socialloungeasheville.com","tier":"","message":"","currency":"","rating":8.1},{"name":"Ben's Tune-Up","phone":"8284247580","twitter":"benstuneup","address":"195 Hilliard Ave","lat":35.591287187599725,"lng":-82.55577027797699,"neighborhood":"Downtown Asheville","city_fetched":"Asheville","state":"NC","country":"United States","canonicalUrl":"https://foursquare.com/v/bens-tuneup/51bb29188bbd56213c4e2dfb","category":"Japanese Restaurant","checkinsCount":1440,"usersCount":1167,"tipCount":43,"visitsCount":1736,"url":"http://benstuneup.com","tier":1,"message":"Cheap","currency":"$","rating":8.1},{"name":"One World Brewing","address":"10 Patton Ave","lat":35.594907058696414,"lng":-82.55235427641662,"neighborhood":"Downtown Asheville","city_fetched":"Asheville","state":"NC","country":"United States","canonicalUrl":"https://foursquare.com/v/one-world-brewing/5377c9b7498ea9fbf3b793f1","category":"Brewery","checkinsCount":938,"usersCount":788,"tipCount":13,"visitsCount":960,"tier":"","message":"","currency":"","rating":8.1},{"name":"Asheville Tourists Baseball","phone":"8282580428","address":"30 Buchanan Pl","lat":35.58746783228508,"lng":-82.54995075658096,"city_fetched":"Asheville","state":"NC","country":"United States","canonicalUrl":"https://foursquare.com/v/asheville-tourists-baseball/4f32ca5319836c91c7faf540","category":"Nightlife Spot","checkinsCount":196,"usersCount":139,"tipCount":3,"visitsCount":198,"url":"http://www.theashevilletourists.com","tier":"","message":"","currency":"","rating":8},{"name":"Lexington Avenue Brewery","phone":"8282520212","twitter":"lexavebrew","address":"39 N Lexington Ave","lat":35.596159995830575,"lng":-82.55326814764271,"neighborhood":"Downtown Asheville","city_fetched":"Asheville","state":"NC","country":"United States","canonicalUrl":"https://foursquare.com/v/lexington-avenue-brewery/4b4672e2f964a520552126e3","category":"Brewery","checkinsCount":9792,"usersCount":7510,"tipCount":146,"visitsCount":10851,"url":"http://www.lexavebrew.com","tier":2,"message":"Moderate","currency":"$","rating":8},{"name":"Edison Craft Ales & Kitchen","lat":35.62016989750715,"lng":-82.54244383772824,"neighborhood":"Grove Park- Sunset","city_fetched":"Asheville","state":"NC","country":"United States","canonicalUrl":"https://foursquare.com/v/edison-craft-ales--kitchen/51e86cb6498ea1fbff17fc3e","category":"Whisky Bar","checkinsCount":384,"usersCount":308,"tipCount":10,"visitsCount":386,"tier":"","message":"","currency":"","rating":7.9},{"name":"Sky Bar","phone":"8282256998","address":"18 Battery Park Ave","lat":35.59494,"lng":-82.555328,"neighborhood":"Downtown Asheville","city_fetched":"Asheville","state":"NC","country":"United States","canonicalUrl":"https://foursquare.com/v/sky-bar/4bdb952063c5c9b6fad72868","category":"Cocktail Bar","checkinsCount":1135,"usersCount":971,"tipCount":18,"visitsCount":1142,"url":"http://worldcoffeecafe.com","tier":2,"message":"Moderate","currency":"$","rating":7.9},{"name":"Ambrozia Bar and Bistro","twitter":"ambroziaavl","address":"1020 Merrimon Ave","lat":35.632323,"lng":-82.555204,"city_fetched":"Asheville","state":"NC","country":"United States","canonicalUrl":"https://foursquare.com/v/ambrozia-bar-and-bistro/51c48789191498a3923b4a0a","category":"Bar","checkinsCount":104,"usersCount":103,"tipCount":6,"visitsCount":184,"url":"http://www.ambrozia-avl.com","tier":"","message":"","currency":"","rating":7.9},{"name":"Root Bar","phone":"8282997597","twitter":"rootbar","address":"1410 Tunnel Rd","lat":35.583949484291296,"lng":-82.46488094329834,"city_fetched":"Asheville","state":"NC","country":"United States","canonicalUrl":"https://foursquare.com/v/root-bar/4bef6433d1b7d13aa5c3cdec","category":"Bar","checkinsCount":449,"usersCount":130,"tipCount":4,"visitsCount":475,"tier":"","message":"","currency":"","rating":7.9},{"name":"Beer City Fest","address":"Pack Square Park","lat":35.595553210092696,"lng":-82.54964436778772,"neighborhood":"Downtown Asheville","city_fetched":"Asheville","state":"NC","country":"United States","canonicalUrl":"https://foursquare.com/v/beer-city-fest/4c0a63c8bbc676b0c3af49d5","category":"Beer Garden","checkinsCount":230,"usersCount":167,"tipCount":1,"visitsCount":238,"url":"http://avlbeerweek.com/beer-city-festival/","tier":"","message":"","currency":"","rating":7.9},{"name":"Westville Pub","phone":"8282259782","address":"777 Haywood Rd","lat":35.57874272793602,"lng":-82.59430986004747,"city_fetched":"Asheville","state":"NC","country":"United States","canonicalUrl":"https://foursquare.com/v/westville-pub/4b5a8bc0f964a520abca28e3","category":"Bar","checkinsCount":2202,"usersCount":877,"tipCount":15,"visitsCount":2470,"url":"http://westvillepub.com","tier":2,"message":"Moderate","currency":"$","rating":7.8},{"name":"Tiger Mountain Thirst Parlour","address":"108 Broadway St","lat":35.59868238911039,"lng":-82.55366957363312,"neighborhood":"Downtown Asheville","city_fetched":"Asheville","state":"NC","country":"United States","canonicalUrl":"https://foursquare.com/v/tiger-mountain-thirst-parlour/4fda8833e4b034b3a8f0c0f6","category":"Cocktail Bar","checkinsCount":685,"usersCount":254,"tipCount":8,"visitsCount":691,"tier":"","message":"","currency":"","rating":7.8},{"name":"oneFIFTYone Boutique Bar & Kitchen","phone":"8282390186","twitter":"151boutiquebar","address":"151 Haywood St","lat":35.59593725069459,"lng":-82.55993843078613,"neighborhood":"Downtown Asheville","city_fetched":"Asheville","state":"NC","country":"United States","canonicalUrl":"https://foursquare.com/v/onefiftyone-boutique-bar--kitchen/4ca6460fb7106dcb116a5ca5","category":"Bar","checkinsCount":302,"usersCount":124,"tipCount":6,"visitsCount":302,"url":"http://www.ashevillehotellodgingdowntown.com/downtown-asheville-wine-bar.html","tier":"","message":"","currency":"","rating":7.7},{"name":"French Broad Brewery & Tasting Room","phone":"8282770222","address":"101 Fairview Rd","lat":35.566308151825716,"lng":-82.53772583994622,"city_fetched":"Asheville","state":"NC","country":"United States","canonicalUrl":"https://foursquare.com/v/french-broad-brewery--tasting-room/4b5a48b6f964a52030ba28e3","category":"Brewery","checkinsCount":1578,"usersCount":1213,"tipCount":10,"visitsCount":1719,"url":"http://frenchbroadbrewery.com","tier":"","message":"","currency":"","rating":7.7},{"name":"Lex 18 - Southern Appalachian Restaurant, Moonshine Cocktail Bar &  Jazz Super Club","phone":"8285759494","twitter":"lex18avl","address":"18 N Lexington Ave","lat":35.59555663787749,"lng":-82.5527293235724,"neighborhood":"Downtown Asheville","city_fetched":"Asheville","state":"NC","country":"United States","canonicalUrl":"https://foursquare.com/lex18avl","category":"Cocktail Bar","checkinsCount":182,"usersCount":183,"tipCount":11,"visitsCount":195,"url":"http://www.lex18avl.com","tier":3,"message":"Expensive","currency":"$","rating":7.7},{"name":"Brew Pump","lat":35.577969,"lng":-82.594011,"city_fetched":"Asheville","state":"NC","country":"United States","canonicalUrl":"https://foursquare.com/v/brew-pump/520d5f16498eca95ec23e843","category":"Beer Garden","checkinsCount":131,"usersCount":102,"tipCount":1,"visitsCount":140,"tier":"","message":"","currency":"","rating":7.7},{"name":"Hi-Wire Big Top","address":"2A Huntsman Pl","lat":35.57103799789658,"lng":-82.5456347746821,"city_fetched":"Asheville","state":"NC","country":"United States","canonicalUrl":"https://foursquare.com/v/hiwire-big-top/55b2f0d8498ea8677e17fdf4","category":"Brewery","checkinsCount":163,"usersCount":176,"tipCount":2,"visitsCount":226,"url":"http://hiwirebrewing.com","tier":"","message":"","currency":"","rating":7.7},{"name":"Catawba Brewing Co","address":"Sweeten Creek Road","lat":35.56633205862373,"lng":-82.53996600468878,"city_fetched":"Asheville","state":"NC","country":"United States","canonicalUrl":"https://foursquare.com/v/catawba-brewing-co/52f2b9d0498e60f3dd4ec09f","category":"Brewery","checkinsCount":434,"usersCount":403,"tipCount":7,"visitsCount":532,"tier":1,"message":"Cheap","currency":"$","rating":7.7},{"name":"Lobster House Oyster House Brewing Co.","lat":35.59489258244064,"lng":-82.55318360329929,"neighborhood":"Downtown Asheville","city_fetched":"Asheville","state":"NC","country":"United States","canonicalUrl":"https://foursquare.com/v/lobster-house-oyster-house-brewing-co/4cb0d889cbab236ae326a473","category":"Gastropub","checkinsCount":180,"usersCount":157,"tipCount":5,"visitsCount":180,"url":"http://oysterhousebeers.com","tier":"","message":"","currency":"","rating":7.7},{"name":"Imperial Life","phone":"8282548980","address":"48 College St","lat":35.59525067392854,"lng":-82.55324170862895,"neighborhood":"Downtown Asheville","city_fetched":"Asheville","state":"NC","country":"United States","canonicalUrl":"https://foursquare.com/v/imperial-life/50be829ce4b089ddbd50cba3","category":"Cocktail Bar","checkinsCount":691,"usersCount":353,"tipCount":15,"visitsCount":708,"url":"http://imperialbarasheville.com","tier":"","message":"","currency":"","rating":7.6},{"name":"Pour Taproom","phone":"8285050352","twitter":"pourtaproom","address":"800 Haywood Rd","lat":35.57876,"lng":-82.595198,"city_fetched":"Asheville","state":"NC","country":"United States","canonicalUrl":"https://foursquare.com/v/pour-taproom/541b59b1498e5208ed6f99ce","category":"Beer Garden","checkinsCount":333,"usersCount":227,"tipCount":3,"visitsCount":380,"url":"http://www.pourtaproom.com","tier":"","message":"","currency":"","rating":7.6},{"name":"Foggy Mountain Brew Pub","phone":"8282543008","address":"12 Church St","lat":35.59431907662071,"lng":-82.55320473251577,"neighborhood":"Downtown Asheville","city_fetched":"Asheville","state":"NC","country":"United States","canonicalUrl":"https://foursquare.com/v/foggy-mountain-brew-pub/5483d5c6498e5509ca8b1ae5","category":"Gastropub","checkinsCount":392,"usersCount":411,"tipCount":7,"visitsCount":562,"url":"http://www.foggymountainavl.com","tier":"","message":"","currency":"","rating":7.6},{"name":"M.G. Road","phone":"8282544363","address":"19 Wall St","lat":35.59479626065679,"lng":-82.55520669628046,"neighborhood":"Downtown Asheville","city_fetched":"Asheville","state":"NC","country":"United States","canonicalUrl":"https://foursquare.com/v/mg-road/505fa29ce4b0a054472dc056","category":"Cocktail Bar","checkinsCount":762,"usersCount":421,"tipCount":13,"visitsCount":771,"tier":"","message":"","currency":"","rating":7.6},{"name":"The Bier Garden","phone":"8282850002","address":"46 Haywood St","lat":35.59600704320497,"lng":-82.55521774291992,"neighborhood":"Downtown Asheville","city_fetched":"Asheville","state":"NC","country":"United States","canonicalUrl":"https://foursquare.com/v/the-bier-garden/4b43c615f964a5205ee925e3","category":"Beer Garden","checkinsCount":5492,"usersCount":3910,"tipCount":60,"visitsCount":5713,"url":"http://www.ashevillebiergarden.com","tier":2,"message":"Moderate","currency":"$","rating":7.6},{"name":"Thirsty Monk Pub & Brewery","phone":"8286873873","twitter":"monkpub","address":"2 Town Square Blvd","lat":35.48643312872875,"lng":-82.5549584348156,"neighborhood":"Biltmore Park","city_fetched":"Asheville","state":"NC","country":"United States","canonicalUrl":"https://foursquare.com/v/thirsty-monk-pub--brewery/5259cdb8498ed89f60b46999","category":"Bar","checkinsCount":705,"usersCount":483,"tipCount":13,"visitsCount":1005,"url":"http://www.monkpub.com","tier":2,"message":"Moderate","currency":"$","rating":7.5},{"name":"Scandals Nightclub","phone":"8285051612","twitter":"scandals_avl","address":"11 Grove St","lat":35.59339159578471,"lng":-82.55777377282679,"neighborhood":"Downtown Asheville","city_fetched":"Asheville","state":"NC","country":"United States","canonicalUrl":"https://foursquare.com/v/scandals-nightclub/4be61fc8bcef2d7f01dd04e5","category":"Gay Bar","checkinsCount":1827,"usersCount":797,"tipCount":19,"visitsCount":1972,"url":"http://www.scandalsnightclub.com","tier":2,"message":"Moderate","currency":"$","rating":7.5},{"name":"FATZ","phone":"8286659950","twitter":"my_fatz","address":"5 Spartan Ave","lat":35.56243113422777,"lng":-82.63312160467122,"city_fetched":"Asheville","state":"NC","country":"United States","canonicalUrl":"https://foursquare.com/v/fatz/4c7955fe93ef236aa42eaf0f","category":"American Restaurant","checkinsCount":958,"usersCount":762,"tipCount":20,"visitsCount":1203,"url":"https://www.facebook.com/FATZ","tier":2,"message":"Moderate","currency":"$","rating":7.5},{"name":"Biltmore Billiard Room","lat":35.54086483400415,"lng":-82.55254444142767,"city_fetched":"Asheville","state":"NC","country":"United States","canonicalUrl":"https://foursquare.com/v/biltmore-billiard-room/4cf15a38e3b9a09320233e53","category":"Other Nightlife","checkinsCount":363,"usersCount":304,"tipCount":0,"visitsCount":364,"tier":"","message":"","currency":"","rating":7.4},{"name":"The Prospect","phone":"8285050766","address":"15 Buxton Ave","lat":35.588737,"lng":-82.554042,"neighborhood":"Downtown Asheville","city_fetched":"Asheville","state":"NC","country":"United States","canonicalUrl":"https://foursquare.com/v/the-prospect/4bdd07a14ffaa593b5a76ef7","category":"Bar","checkinsCount":422,"usersCount":185,"tipCount":2,"visitsCount":428,"tier":"","message":"","currency":"","rating":7.4},{"name":"Seven Sows","phone":"8282552592","address":"77 Biltmore Ave Ste 111","lat":35.592091871436544,"lng":-82.55110762607943,"neighborhood":"Downtown Asheville","city_fetched":"Asheville","state":"NC","country":"United States","canonicalUrl":"https://foursquare.com/v/seven-sows/51423f32e4b0158df047efde","category":"Gastropub","checkinsCount":561,"usersCount":466,"tipCount":14,"visitsCount":569,"url":"http://sevensows.com","tier":3,"message":"Expensive","currency":"$","rating":7.4},{"name":"Roux","phone":"8282092700","twitter":"hiltonhotels","address":"43 Town Square Blvd","lat":35.48439187552364,"lng":-82.55720331966894,"neighborhood":"Biltmore Park","city_fetched":"Asheville","state":"NC","country":"United States","canonicalUrl":"https://foursquare.com/v/roux/50ca02c6245f2d4aa8c2c81b","category":"Hotel Bar","checkinsCount":321,"usersCount":198,"tipCount":2,"visitsCount":322,"url":"http://www.hilton.com","tier":"","message":"","currency":"","rating":7.4},{"name":"The Mothlight","address":"701 Haywood Rd","lat":35.577649,"lng":-82.591833,"city_fetched":"Asheville","state":"NC","country":"United States","canonicalUrl":"https://foursquare.com/v/the-mothlight/5227e69e8fb155f288071391","category":"Music Venue","checkinsCount":208,"usersCount":150,"tipCount":0,"visitsCount":234,"tier":"","message":"","currency":"","rating":7.4},{"name":"Altamont Brewery","phone":"8285752400","twitter":"altamontbrewing","address":"1042 Haywood Rd","lat":35.58159263333334,"lng":-82.60428517,"city_fetched":"Asheville","state":"NC","country":"United States","canonicalUrl":"https://foursquare.com/v/altamont-brewery/4d83f346e83fa1437bdd58a1","category":"Brewery","checkinsCount":1766,"usersCount":755,"tipCount":17,"visitsCount":2103,"url":"http://www.altamontbrewingcompany.com","tier":2,"message":"Moderate","currency":"$","rating":7.3},{"name":"Fat Cats Billiards","phone":"8286810555","address":"2345 Hendersonville Rd","lat":35.466643549740226,"lng":-82.51730210613688,"city_fetched":"Asheville","state":"NC","country":"United States","canonicalUrl":"https://foursquare.com/v/fat-cats-billiards/4c05c0e813b99c748e4caff3","category":"Bar","checkinsCount":596,"usersCount":262,"tipCount":7,"visitsCount":732,"tier":"","message":"","currency":"","rating":7.3},{"name":"W XYZ","lat":35.593040903016494,"lng":-82.55123440511358,"neighborhood":"Downtown Asheville","city_fetched":"Asheville","state":"NC","country":"United States","canonicalUrl":"https://foursquare.com/v/w-xyz/50382103e4b0461c0130ec12","category":"Hotel Bar","checkinsCount":543,"usersCount":376,"tipCount":3,"visitsCount":544,"tier":"","message":"","currency":"","rating":7.3},{"name":"FAIRVIEW TAVERN","phone":"8285057236","address":"831 Old Fairview Rd","lat":35.56593596935272,"lng":-82.5089188,"neighborhood":"Oakley","city_fetched":"Asheville","state":"NC","country":"United States","canonicalUrl":"https://foursquare.com/v/fairview-tavern/4c9670edbc279c74109b6753","category":"Bar","checkinsCount":286,"usersCount":131,"tipCount":5,"visitsCount":376,"tier":"","message":"","currency":"","rating":7.2},{"name":"Asheville Yacht Club","phone":"8282558454","address":"87 Patton Ave","lat":35.59430879680774,"lng":-82.55542854619156,"neighborhood":"Downtown Asheville","city_fetched":"Asheville","state":"NC","country":"United States","canonicalUrl":"https://foursquare.com/v/asheville-yacht-club/4b61019cf964a520b0052ae3","category":"Bar","checkinsCount":1863,"usersCount":1232,"tipCount":23,"visitsCount":1873,"url":"http://ashevilleyachtclub.com","tier":"","message":"","currency":"","rating":7.1},{"name":"Crow & Quill","address":"106 N Lexington Ave","lat":35.59855531671866,"lng":-82.55381747696501,"neighborhood":"Downtown Asheville","city_fetched":"Asheville","state":"NC","country":"United States","canonicalUrl":"https://foursquare.com/v/crow--quill/5359dfc7498e9f0abe836385","category":"Bar","checkinsCount":148,"usersCount":139,"tipCount":7,"visitsCount":182,"tier":"","message":"","currency":"","rating":7.1},{"name":"Asheville Growler","phone":"8287745115","address":"660 Merrimon Ave","lat":35.62116994550393,"lng":-82.55466263274917,"city_fetched":"Asheville","state":"NC","country":"United States","canonicalUrl":"https://foursquare.com/v/asheville-growler/520bf712498e07afdccf97a7","category":"Pub","checkinsCount":148,"usersCount":39,"tipCount":2,"visitsCount":151,"tier":"","message":"","currency":"","rating":7.1},{"name":"DeSoto Lounge","address":"504 Haywood Rd","lat":35.57827530341727,"lng":-82.58405700950526,"city_fetched":"Asheville","state":"NC","country":"United States","canonicalUrl":"https://foursquare.com/v/desoto-lounge/4b6a4fb3f964a520c6d12be3","category":"Lounge","checkinsCount":846,"usersCount":351,"tipCount":10,"visitsCount":953,"tier":"","message":"","currency":"","rating":7},{"name":"BOILER ROOM","phone":"8285051612","twitter":"boilerroomlive","address":"11 Grove St","lat":35.59321529532271,"lng":-82.55772829055786,"neighborhood":"Downtown Asheville","city_fetched":"Asheville","state":"NC","country":"United States","canonicalUrl":"https://foursquare.com/v/boiler-room/4ef446a5c2eecf2f99103c86","category":"Music Venue","checkinsCount":372,"usersCount":89,"tipCount":1,"visitsCount":378,"url":"http://www.boilerroomasheville.com","tier":"","message":"","currency":"","rating":7},{"name":"Hookah Joe's","phone":"8284070740","address":"79 Coxe Ave","lat":35.5916034034678,"lng":-82.55520141413099,"neighborhood":"Downtown Asheville","city_fetched":"Asheville","state":"NC","country":"United States","canonicalUrl":"https://foursquare.com/v/hookah-joes/5351d309498ecfe2c3660be7","category":"Hookah Bar","checkinsCount":79,"usersCount":59,"tipCount":3,"visitsCount":80,"tier":"","message":"","currency":"","rating":6.9}]