[{"name":"Mosaic","phone":"7187280708","twitter":"mosaicastoria","address":"25-19 24th Ave","lat":40.7746400583813,"lng":-73.91843900084496,"neighborhood":"Astoria","city_fetched":"Astoria,US","state":"NY","country":"United States","canonicalUrl":"https://foursquare.com/mosaicastoria","categoryId":"4bf58dd8d48988d116941735","category":"Bar","checkinsCount":5632,"usersCount":2145,"tipCount":43,"visitsCount":6601,"url":"http://mosaicastoria.com","tier":2,"message":"Moderate","currency":"$","rating":9.2},{"name":"Bemelmans Bar","phone":"2127441600","twitter":"thecarlylehotel","address":"35 E 76th St","lat":40.77457984211516,"lng":-73.96331378671937,"neighborhood":"Upper East Side","city_fetched":"Astoria,US","state":"NY","country":"United States","canonicalUrl":"https://foursquare.com/v/bemelmans-bar/3fd66200f964a520cdea1ee3","categoryId":"4bf58dd8d48988d1d5941735","category":"Hotel Bar","checkinsCount":5081,"usersCount":3074,"tipCount":109,"visitsCount":5139,"url":"http://www.thecarlyle.com/dining/bemelmans_bar","tier":4,"message":"Very Expensive","currency":"$","rating":9.2},{"name":"The Bonnie","phone":"7182742105","address":"29-12 23rd Ave","lat":40.77471102685053,"lng":-73.91347500464883,"neighborhood":"Astoria","city_fetched":"Astoria,US","state":"NY","country":"United States","canonicalUrl":"https://foursquare.com/v/the-bonnie/544ed5d6498e79ed1c48737a","categoryId":"4bf58dd8d48988d116941735","category":"Bar","checkinsCount":3320,"usersCount":1765,"tipCount":44,"visitsCount":3942,"url":"http://www.thebonnie.com","tier":"","message":"","currency":"","rating":9.2},{"name":"Bohemian Hall & Beer Garden","phone":"7182744925","twitter":"bohemianhall","address":"29-19 24th Ave","lat":40.772984726769415,"lng":-73.91593222690723,"neighborhood":"Astoria","city_fetched":"Astoria,US","state":"NY","country":"United States","canonicalUrl":"https://foursquare.com/bohemianhall","categoryId":"4bf58dd8d48988d117941735","category":"Beer Garden","checkinsCount":38065,"usersCount":23594,"tipCount":232,"visitsCount":41954,"url":"http://www.bohemianhall.com","tier":2,"message":"Moderate","currency":"$","rating":9.2},{"name":"Dutch Kills","phone":"7183832724","address":"27-24 Jackson Ave","lat":40.74783093755247,"lng":-73.94020423884278,"city_fetched":"Astoria,US","state":"NY","country":"United States","canonicalUrl":"https://foursquare.com/v/dutch-kills/49ff6b95f964a5201f701fe3","categoryId":"4bf58dd8d48988d11e941735","category":"Cocktail Bar","checkinsCount":12792,"usersCount":7628,"tipCount":231,"visitsCount":14717,"url":"http://dutchkillsbar.com","tier":2,"message":"Moderate","currency":"$","rating":9.2},{"name":"Crescent & Vine","phone":"7182044774","twitter":"crescentandvine","address":"25-03 Ditmars Blvd","lat":40.77870419353765,"lng":-73.91434766657366,"neighborhood":"Ditmars","city_fetched":"Astoria,US","state":"NY","country":"United States","canonicalUrl":"https://foursquare.com/v/crescent--vine/470b8bb9f964a520784b1fe3","categoryId":"4bf58dd8d48988d123941735","category":"Wine Bar","checkinsCount":2859,"usersCount":1206,"tipCount":29,"visitsCount":3419,"tier":2,"message":"Moderate","currency":"$","rating":9.1},{"name":"Sweet Afton","phone":"7187772570","twitter":"sweetaftonbar","address":"30-09 34th St","lat":40.76548383013281,"lng":-73.91906686259051,"neighborhood":"Astoria","city_fetched":"Astoria,US","state":"NY","country":"United States","canonicalUrl":"https://foursquare.com/v/sweet-afton/4a9b0e2cf964a520373420e3","categoryId":"4bf58dd8d48988d116941735","category":"Bar","checkinsCount":21038,"usersCount":8697,"tipCount":242,"visitsCount":22158,"url":"http://sweetaftonbar.com","tier":2,"message":"Moderate","currency":"$","rating":9.1},{"name":"P.J. Clarke's","phone":"2123171616","address":"915 3rd Ave","lat":40.758937738691245,"lng":-73.96846225850372,"neighborhood":"Midtown East","city_fetched":"Astoria,US","state":"NY","country":"United States","canonicalUrl":"https://foursquare.com/v/pj-clarkes/3fd66200f964a520fbe71ee3","categoryId":"4bf58dd8d48988d11b941735","category":"Pub","checkinsCount":20359,"usersCount":14118,"tipCount":272,"visitsCount":21763,"url":"http://pjclarkes.com","tier":3,"message":"Expensive","currency":"$","rating":9},{"name":"Saint Vitus Bar","twitter":"saintvitusbar","address":"1120 Manhattan Ave","lat":40.736705608400044,"lng":-73.95520911344471,"neighborhood":"Greenpoint","city_fetched":"Astoria,US","state":"NY","country":"United States","canonicalUrl":"https://foursquare.com/v/saint-vitus-bar/4d90ef861716a1430e6d6df7","categoryId":"4bf58dd8d48988d116941735","category":"Bar","checkinsCount":9064,"usersCount":4294,"tipCount":78,"visitsCount":9891,"url":"http://www.saintvitusbar.com","tier":1,"message":"Cheap","currency":"$","rating":9},{"name":"The Sparrow Tavern","phone":"7186062260","address":"24-01 29th St","lat":40.772903928006244,"lng":-73.91651208090563,"neighborhood":"Astoria","city_fetched":"Astoria,US","state":"NY","country":"United States","canonicalUrl":"https://foursquare.com/v/the-sparrow-tavern/428bd700f964a5209c231fe3","categoryId":"4bf58dd8d48988d116941735","category":"Bar","checkinsCount":13578,"usersCount":4309,"tipCount":120,"visitsCount":14398,"url":"http://www.thesparrowtavern.com","tier":2,"message":"Moderate","currency":"$","rating":9},{"name":"B BAR at the Baccarat Hotel","address":"20 W 53rd St","lat":40.761054069193676,"lng":-73.97720344000675,"neighborhood":"Midtown East","city_fetched":"Astoria,US","state":"NY","country":"United States","canonicalUrl":"https://foursquare.com/v/b-bar-at-the-baccarat-hotel/54f65a58498ea2df4742a66e","categoryId":"4bf58dd8d48988d1d5941735","category":"Hotel Bar","checkinsCount":777,"usersCount":553,"tipCount":17,"visitsCount":785,"tier":"","message":"","currency":"","rating":8.9},{"name":"Mar's","phone":"7186852480","twitter":"marsastorianyc","address":"34-21 34th Ave","lat":40.75830186596392,"lng":-73.92408447092404,"neighborhood":"Astoria","city_fetched":"Astoria,US","state":"NY","country":"United States","canonicalUrl":"https://foursquare.com/v/mars/51d4d4c6498e62117068703d","categoryId":"4bf58dd8d48988d11e941735","category":"Cocktail Bar","checkinsCount":2497,"usersCount":1467,"tipCount":56,"visitsCount":3270,"url":"http://lifeatmars.com","tier":3,"message":"Expensive","currency":"$","rating":8.9},{"name":"Diamond Dogs","address":"34-04 31st Ave","lat":40.763039,"lng":-73.920944,"neighborhood":"Astoria","city_fetched":"Astoria,US","state":"NY","country":"United States","canonicalUrl":"https://foursquare.com/v/diamond-dogs/553eb41e498eb72e075f296f","categoryId":"4bf58dd8d48988d116941735","category":"Bar","checkinsCount":1628,"usersCount":719,"tipCount":18,"visitsCount":1907,"tier":2,"message":"Moderate","currency":"$","rating":8.9},{"name":"Lantern's Keep","phone":"2124534287","twitter":"lanternskeep","address":"49 W 44th St","lat":40.75601936402115,"lng":-73.98213919107941,"neighborhood":"Midtown East","city_fetched":"Astoria,US","state":"NY","country":"United States","canonicalUrl":"https://foursquare.com/v/lanterns-keep/4da6347f6a23f2e805035620","categoryId":"4bf58dd8d48988d11e941735","category":"Cocktail Bar","checkinsCount":2897,"usersCount":2150,"tipCount":101,"visitsCount":3007,"url":"http://thelanternskeep.com","tier":3,"message":"Expensive","currency":"$","rating":8.8},{"name":"67 Orange Street","phone":"2126622030","twitter":"67orangestreet","address":"2082 Frederick Douglass Blvd","lat":40.80226972714813,"lng":-73.95685493946075,"neighborhood":"Central Harlem","city_fetched":"Astoria,US","state":"NY","country":"United States","canonicalUrl":"https://foursquare.com/v/67-orange-street/4ade4af8f964a520b67421e3","categoryId":"4bf58dd8d48988d1d4941735","category":"Speakeasy","checkinsCount":4382,"usersCount":2322,"tipCount":81,"visitsCount":4873,"url":"http://www.67orangestreet.com","tier":3,"message":"Expensive","currency":"$","rating":8.8},{"name":"Salon de Ning","phone":"2129033097","address":"700 5th Ave","lat":40.76161662634779,"lng":-73.97526927974744,"neighborhood":"Midtown East","city_fetched":"Astoria,US","state":"NY","country":"United States","canonicalUrl":"https://foursquare.com/v/salon-de-ning/48399e48f964a5200d501fe3","categoryId":"4bf58dd8d48988d1d5941735","category":"Hotel Bar","checkinsCount":9911,"usersCount":8144,"tipCount":75,"visitsCount":9937,"url":"http://bit.ly/SalondeNing%20%20","tier":4,"message":"Very Expensive","currency":"$","rating":8.8},{"name":"Rèst-âü-Ránt","phone":"7187299009","twitter":"rarbar","address":"3001 35th Ave","lat":40.75853428333333,"lng":-73.92913699150085,"neighborhood":"Astoria","city_fetched":"Astoria,US","state":"NY","country":"United States","canonicalUrl":"https://foursquare.com/rarbar","categoryId":"4bf58dd8d48988d123941735","category":"Wine Bar","checkinsCount":3392,"usersCount":1594,"tipCount":33,"visitsCount":4015,"url":"http://rarbarlic.com","tier":2,"message":"Moderate","currency":"$","rating":8.7},{"name":"Irish Rover","phone":"7182789372","address":"3718 28th Ave","lat":40.765859640049655,"lng":-73.914577960968,"neighborhood":"Astoria","city_fetched":"Astoria,US","state":"NY","country":"United States","canonicalUrl":"https://foursquare.com/v/irish-rover/4176fc00f964a520b61d1fe3","categoryId":"4bf58dd8d48988d11b941735","category":"Pub","checkinsCount":5370,"usersCount":1626,"tipCount":31,"visitsCount":6217,"tier":1,"message":"Cheap","currency":"$","rating":8.6},{"name":"Donovan's Pub","phone":"7184299339","address":"57-24 Roosevelt Ave","lat":40.74528179890397,"lng":-73.90669763088226,"neighborhood":"Woodside","city_fetched":"Astoria,US","state":"NY","country":"United States","canonicalUrl":"https://foursquare.com/v/donovans-pub/4532a38ef964a520843b1fe3","categoryId":"4bf58dd8d48988d11b941735","category":"Pub","checkinsCount":2881,"usersCount":1783,"tipCount":59,"visitsCount":3278,"url":"http://donovansny.com","tier":2,"message":"Moderate","currency":"$","rating":8.6},{"name":"Sugardaddys Gentlemens club","phone":"7187069600","twitter":"sugardaddysnyc","address":"51-07 27th Street","lat":40.7395023,"lng":-73.9426222,"neighborhood":"Hunters Point","city_fetched":"Astoria,US","state":"NY","country":"United States","canonicalUrl":"https://foursquare.com/v/sugardaddys-gentlemens-club/4bf09fcf17880f47ea902937","categoryId":"4bf58dd8d48988d11f941735","category":"Nightclub","checkinsCount":737,"usersCount":372,"tipCount":37,"visitsCount":985,"url":"http://sugardaddysnyc.com","tier":"","message":"","currency":"","rating":8.5},{"name":"Cronin & Phelan's","phone":"7185458999","address":"3814 Broadway","lat":40.758992940688046,"lng":-73.9194917678833,"neighborhood":"Astoria","city_fetched":"Astoria,US","state":"NY","country":"United States","canonicalUrl":"https://foursquare.com/v/cronin--phelans/45096dd1f964a5203c391fe3","categoryId":"4bf58dd8d48988d11b941735","category":"Pub","checkinsCount":2763,"usersCount":1122,"tipCount":42,"visitsCount":2856,"url":"http://www.croninandphelans.com","tier":2,"message":"Moderate","currency":"$","rating":8.5},{"name":"Upstairs","phone":"2127021600","twitter":"upstairsnyc","address":"145 E 50th St","lat":40.75619841795759,"lng":-73.97160178302643,"neighborhood":"Turtle Bay","city_fetched":"Astoria,US","state":"NY","country":"United States","canonicalUrl":"https://foursquare.com/upstairsnyc","categoryId":"4bf58dd8d48988d121941735","category":"Lounge","checkinsCount":8002,"usersCount":6344,"tipCount":75,"visitsCount":8089,"url":"http://www.upstairsnyc.com","tier":3,"message":"Expensive","currency":"$","rating":8.5},{"name":"Ryan's Daughter","phone":"2126282613","twitter":"rdaughter","address":"350 E 85th St","lat":40.7763117942933,"lng":-73.9505883790403,"neighborhood":"Yorkville","city_fetched":"Astoria,US","state":"NY","country":"United States","canonicalUrl":"https://foursquare.com/v/ryans-daughter/42f54f00f964a520cd261fe3","categoryId":"4bf58dd8d48988d11b941735","category":"Pub","checkinsCount":6627,"usersCount":3744,"tipCount":56,"visitsCount":7428,"url":"http://www.ryansdaughternyc.com","tier":1,"message":"Cheap","currency":"$","rating":8.4},{"name":"Champagne Bar Plaza Hotel","phone":"2125465309","twitter":"fairmonthotels","address":"768 5th Ave","lat":40.764031926929235,"lng":-73.97390330322037,"neighborhood":"Midtown East","city_fetched":"Astoria,US","state":"NY","country":"United States","canonicalUrl":"https://foursquare.com/v/champagne-bar-plaza-hotel/4c966879533aa093a188d145","categoryId":"4bf58dd8d48988d123941735","category":"Wine Bar","checkinsCount":750,"usersCount":656,"tipCount":6,"visitsCount":751,"url":"http://bit.ly/wWpDIs","tier":"","message":"","currency":"","rating":8.4},{"name":"Camaradas El Barrio","phone":"2123482703","twitter":"camaradas115","address":"2241 1st Ave","lat":40.795548929963644,"lng":-73.93599271774292,"neighborhood":"East Harlem","city_fetched":"Astoria,US","state":"NY","country":"United States","canonicalUrl":"https://foursquare.com/v/camaradas-el-barrio/42d84e00f964a5202a261fe3","categoryId":"4bf58dd8d48988d116941735","category":"Bar","checkinsCount":3885,"usersCount":1486,"tipCount":66,"visitsCount":4383,"url":"http://camaradaselbarrio.com","tier":2,"message":"Moderate","currency":"$","rating":8.4},{"name":"Manhattan Cricket Club","phone":"6468239252","twitter":"cricketclubuws","address":"226 W 79th St","lat":40.78340103809933,"lng":-73.97940158843994,"neighborhood":"Upper West Side","city_fetched":"Astoria,US","state":"NY","country":"United States","canonicalUrl":"https://foursquare.com/v/manhattan-cricket-club/525479688bbd5539a72fac63","categoryId":"4bf58dd8d48988d1d4941735","category":"Speakeasy","checkinsCount":1307,"usersCount":986,"tipCount":35,"visitsCount":1331,"url":"http://www.mccnewyork.com","tier":3,"message":"Expensive","currency":"$","rating":8.4},{"name":"George Keeley NYC","phone":"2128730251","twitter":"georgekeeleynyc","address":"485 Amsterdam Ave","lat":40.785953,"lng":-73.976422,"neighborhood":"Upper West Side","city_fetched":"Astoria,US","state":"NY","country":"United States","canonicalUrl":"https://foursquare.com/v/george-keeley-nyc/3fd66200f964a5200ce91ee3","categoryId":"4bf58dd8d48988d11b941735","category":"Pub","checkinsCount":12570,"usersCount":5392,"tipCount":104,"visitsCount":12823,"url":"http://georgekeeley.com","tier":2,"message":"Moderate","currency":"$","rating":8.3},{"name":"Seamstress","phone":"2122888033","twitter":"seamstress_ny","address":"339 E 75th St","lat":40.77005321000351,"lng":-73.95517467359709,"neighborhood":"Upper East Side","city_fetched":"Astoria,US","state":"NY","country":"United States","canonicalUrl":"https://foursquare.com/v/seamstress/54b5c278498e268f680d024b","categoryId":"4bf58dd8d48988d11e941735","category":"Cocktail Bar","checkinsCount":1781,"usersCount":1971,"tipCount":36,"visitsCount":2740,"url":"http://www.seamstressny.com","tier":"","message":"","currency":"","rating":8.3},{"name":"Karaoke Duet 48","phone":"2127530030","address":"304 E 48th St","lat":40.753499070431374,"lng":-73.96910190582275,"neighborhood":"Turtle Bay","city_fetched":"Astoria,US","state":"NY","country":"United States","canonicalUrl":"https://foursquare.com/v/karaoke-duet-48/4a85a71bf964a520c7fe1fe3","categoryId":"4bf58dd8d48988d120941735","category":"Karaoke Bar","checkinsCount":6118,"usersCount":4522,"tipCount":42,"visitsCount":6734,"url":"http://karaokeduet.com","tier":2,"message":"Moderate","currency":"$","rating":8.3},{"name":"Sekend Sun","phone":"9178326414","twitter":"sekendsun","address":"32-11 Broadway","lat":40.761485955948835,"lng":-73.92409595271674,"neighborhood":"Astoria","city_fetched":"Astoria,US","state":"NY","country":"United States","canonicalUrl":"https://foursquare.com/v/sekend-sun/5443e9c7498e4180ba4e2074","categoryId":"4bf58dd8d48988d11e941735","category":"Cocktail Bar","checkinsCount":2123,"usersCount":1254,"tipCount":26,"visitsCount":2516,"url":"http://www.sekendsun.com","tier":"","message":"","currency":"","rating":8.3},{"name":"Oliver's Astoria","phone":"7188061476","twitter":"oliversastoria","address":"37-19 Broadway","lat":40.75940076353531,"lng":-73.91965244827107,"neighborhood":"Astoria","city_fetched":"Astoria,US","state":"NY","country":"United States","canonicalUrl":"https://foursquare.com/v/olivers-astoria/51b11835498e02e0e1c93b76","categoryId":"4bf58dd8d48988d116941735","category":"Bar","checkinsCount":4111,"usersCount":2251,"tipCount":54,"visitsCount":4890,"url":"http://oliversastoria.com","tier":2,"message":"Moderate","currency":"$","rating":8.3},{"name":"The Roof","phone":"2127078008","twitter":"theroofny","address":"124 W 57th St","lat":40.76470728765237,"lng":-73.97845460749998,"neighborhood":"Theater District","city_fetched":"Astoria,US","state":"NY","country":"United States","canonicalUrl":"https://foursquare.com/v/the-roof/5314de2f498e8cb0eb67f5cd","categoryId":"4bf58dd8d48988d11e941735","category":"Cocktail Bar","checkinsCount":3145,"usersCount":2557,"tipCount":42,"visitsCount":3229,"url":"http://theroofny.com","tier":2,"message":"Moderate","currency":"$","rating":8.3},{"name":"Doyle's Corner","phone":"7186062777","twitter":"doylescornerny","address":"4202 Broadway","lat":40.75819388157515,"lng":-73.91739047030408,"neighborhood":"Astoria","city_fetched":"Astoria,US","state":"NY","country":"United States","canonicalUrl":"https://foursquare.com/v/doyles-corner/4b42d0b4f964a52022da25e3","categoryId":"4bf58dd8d48988d11b941735","category":"Pub","checkinsCount":2786,"usersCount":1058,"tipCount":21,"visitsCount":3198,"tier":2,"message":"Moderate","currency":"$","rating":8.3},{"name":"The Oak Room at The Plaza Hotel","phone":"2127587777","twitter":"oakroomny","address":"10 Central Park S","lat":40.764469357484714,"lng":-73.97447724411876,"neighborhood":"Midtown East","city_fetched":"Astoria,US","state":"NY","country":"United States","canonicalUrl":"https://foursquare.com/v/the-oak-room-at-the-plaza-hotel/4a131d33f964a520bb771fe3","categoryId":"4bf58dd8d48988d1d5941735","category":"Hotel Bar","checkinsCount":4635,"usersCount":3798,"tipCount":70,"visitsCount":4635,"url":"http://www.oakroomny.com","tier":"","message":"","currency":"","rating":8.2},{"name":"Biddy's","phone":"2125344785","address":"301 E 91st St","lat":40.781011019250265,"lng":-73.94914760571847,"neighborhood":"Yorkville","city_fetched":"Astoria,US","state":"NY","country":"United States","canonicalUrl":"https://foursquare.com/v/biddys/49df8fa5f964a520dd601fe3","categoryId":"4bf58dd8d48988d11b941735","category":"Pub","checkinsCount":3723,"usersCount":1494,"tipCount":23,"visitsCount":3914,"url":"http://biddysnyc.com","tier":1,"message":"Cheap","currency":"$","rating":8.2},{"name":"Z Hotel New York - Rooftop Bar/Lounge","phone":"2123197000","address":"1101 43rd Ave","lat":40.75213365945918,"lng":-73.94753694534302,"city_fetched":"Astoria,US","state":"NY","country":"United States","canonicalUrl":"https://foursquare.com/v/z-hotel-new-york--rooftop-barlounge/4df142ca18386ecb4e26dad1","categoryId":"4bf58dd8d48988d1d5941735","category":"Hotel Bar","checkinsCount":1537,"usersCount":1263,"tipCount":19,"visitsCount":1651,"tier":"","message":"","currency":"","rating":8.2},{"name":"The Shady Lady","phone":"7184409081","address":"34-19 30th Ave","lat":40.76538481161023,"lng":-73.91818273969238,"neighborhood":"Astoria","city_fetched":"Astoria,US","state":"NY","country":"United States","canonicalUrl":"https://foursquare.com/v/the-shady-lady/51284f34e4b0ac94e6be0e9c","categoryId":"4bf58dd8d48988d116941735","category":"Bar","checkinsCount":3557,"usersCount":2406,"tipCount":68,"visitsCount":4207,"tier":2,"message":"Moderate","currency":"$","rating":8.2},{"name":"The Garden at Studio Square","phone":"7183831001","twitter":"studiosquarenyc","address":"3533 36th St","lat":40.75516498518981,"lng":-73.92498404041469,"city_fetched":"Astoria,US","state":"NY","country":"United States","canonicalUrl":"https://foursquare.com/v/the-garden-at-studio-square/4a083214f964a520a3731fe3","categoryId":"4bf58dd8d48988d117941735","category":"Beer Garden","checkinsCount":36740,"usersCount":20692,"tipCount":219,"visitsCount":40049,"url":"http://www.studiosquarebeergarden.com","tier":2,"message":"Moderate","currency":"$","rating":8.1},{"name":"Grand Havana Room","phone":"2122451600","address":"666 5th Ave.","lat":40.76024243521573,"lng":-73.9765261991611,"neighborhood":"Midtown East","city_fetched":"Astoria,US","state":"NY","country":"United States","canonicalUrl":"https://foursquare.com/v/grand-havana-room/4ade5dfff964a5205e7521e3","categoryId":"4bf58dd8d48988d121941735","category":"Lounge","checkinsCount":2227,"usersCount":1006,"tipCount":21,"visitsCount":2243,"url":"http://grandhavana.com","tier":4,"message":"Very Expensive","currency":"$","rating":8.1},{"name":"Bar Pleiades","phone":"2127722600","address":"20 E 76th St","lat":40.774293,"lng":-73.963752,"neighborhood":"Upper East Side","city_fetched":"Astoria,US","state":"NY","country":"United States","canonicalUrl":"https://foursquare.com/v/bar-pleiades/4b316f99f964a520f10625e3","categoryId":"4bf58dd8d48988d11e941735","category":"Cocktail Bar","checkinsCount":1686,"usersCount":1233,"tipCount":25,"visitsCount":1698,"url":"http://www.danielnyc.com/BarPleiades.html","tier":4,"message":"Very Expensive","currency":"$","rating":8.1},{"name":"The Milton NYC","phone":"2123691900","address":"1754 2nd Ave","lat":40.78128692223716,"lng":-73.94939443218914,"neighborhood":"Yorkville","city_fetched":"Astoria,US","state":"NY","country":"United States","canonicalUrl":"https://foursquare.com/v/the-milton-nyc/5456e87a498ea36c781ed19d","categoryId":"4bf58dd8d48988d11e941735","category":"Cocktail Bar","checkinsCount":1486,"usersCount":1019,"tipCount":22,"visitsCount":1864,"url":"http://www.themiltonnyc.com","tier":"","message":"","currency":"","rating":8.1},{"name":"MObar at Mandarin Oriental Hotel","phone":"2128058876","twitter":"mo_hotels","address":"80 Columbus Cir","lat":40.7685689969209,"lng":-73.98234580115131,"neighborhood":"Hell's Kitchen","city_fetched":"Astoria,US","state":"NY","country":"United States","canonicalUrl":"https://foursquare.com/v/mobar-at-mandarin-oriental-hotel/44ae5146f964a52021351fe3","categoryId":"4bf58dd8d48988d1d5941735","category":"Hotel Bar","checkinsCount":2350,"usersCount":1629,"tipCount":23,"visitsCount":2354,"url":"http://www.mandarinoriental.com","tier":4,"message":"Very Expensive","currency":"$","rating":8},{"name":"Domaine Bar a Vins","phone":"7187842350","address":"50-04 Vernon Blvd","lat":40.74264585827384,"lng":-73.95410129526785,"neighborhood":"Hunters Point","city_fetched":"Astoria,US","state":"NY","country":"United States","canonicalUrl":"https://foursquare.com/v/domaine-bar-a-vins/4b1f141bf964a520bf2324e3","categoryId":"4bf58dd8d48988d123941735","category":"Wine Bar","checkinsCount":2537,"usersCount":1232,"tipCount":30,"visitsCount":2580,"url":"http://domainewinebar.com","tier":2,"message":"Moderate","currency":"$","rating":8},{"name":"Saints and Sinners","phone":"7183963268","address":"59-21 Roosevelt Ave","lat":40.74550203857481,"lng":-73.90443813086189,"neighborhood":"Woodside","city_fetched":"Astoria,US","state":"NY","country":"United States","canonicalUrl":"https://foursquare.com/v/saints-and-sinners/4a29a7eaf964a520b9951fe3","categoryId":"4bf58dd8d48988d11b941735","category":"Pub","checkinsCount":2408,"usersCount":1267,"tipCount":25,"visitsCount":2823,"url":"http://saintsandsinnerspub.com","tier":2,"message":"Moderate","currency":"$","rating":8},{"name":"Two E Bar/Lounge","phone":"2129408113","twitter":"two_e_bar","address":"2 E 61st St","lat":40.76519153110716,"lng":-73.97134350597584,"neighborhood":"Upper East Side","city_fetched":"Astoria,US","state":"NY","country":"United States","canonicalUrl":"https://foursquare.com/v/two-e-barlounge/4b9fa9bcf964a520c43237e3","categoryId":"4bf58dd8d48988d1d5941735","category":"Hotel Bar","checkinsCount":1682,"usersCount":729,"tipCount":23,"visitsCount":1684,"url":"http://twoeny.com","tier":"","message":"","currency":"","rating":8},{"name":"Raven's Head Public House","phone":"7187777565","twitter":"ravensheadpub","address":"3804 Broadway","lat":40.759313952165584,"lng":-73.91965818929843,"neighborhood":"Astoria","city_fetched":"Astoria,US","state":"NY","country":"United States","canonicalUrl":"https://foursquare.com/v/ravens-head-public-house/4e56c9c9483b0500f8ca6aa4","categoryId":"4bf58dd8d48988d11b941735","category":"Pub","checkinsCount":6885,"usersCount":3025,"tipCount":57,"visitsCount":7337,"url":"http://www.ravensheadpublichouse.com","tier":2,"message":"Moderate","currency":"$","rating":8},{"name":"Rock Star Karaoke NYC","twitter":"rockstarkaraoke","address":"1644 3rd Ave","lat":40.782611,"lng":-73.951255,"neighborhood":"Upper East Side","city_fetched":"Astoria,US","state":"NY","country":"United States","canonicalUrl":"https://foursquare.com/v/rock-star-karaoke-nyc/4c12ba36f1e0b713ed8834bc","categoryId":"4bf58dd8d48988d120941735","category":"Karaoke Bar","checkinsCount":220,"usersCount":158,"tipCount":1,"visitsCount":220,"url":"http://rockstarkaraokenyc.com","tier":"","message":"","currency":"","rating":8},{"name":"The Dead Poet","phone":"2125955670","twitter":"thedeadpoetbar","address":"450 Amsterdam Ave","lat":40.78482,"lng":-73.977128,"neighborhood":"Upper West Side","city_fetched":"Astoria,US","state":"NY","country":"United States","canonicalUrl":"https://foursquare.com/thedeadpoetbar","categoryId":"4bf58dd8d48988d11b941735","category":"Pub","checkinsCount":13215,"usersCount":5989,"tipCount":85,"visitsCount":13336,"url":"http://thedeadpoet.com","tier":2,"message":"Moderate","currency":"$","rating":8},{"name":"The Letlove Inn","phone":"7187775683","twitter":"theletloveinn","address":"27-20 23rd Ave","lat":40.775545,"lng":-73.914716,"neighborhood":"Astoria","city_fetched":"Astoria,US","state":"NY","country":"United States","canonicalUrl":"https://foursquare.com/v/the-letlove-inn/546d65bc498e1a75c89d5ede","categoryId":"4bf58dd8d48988d11e941735","category":"Cocktail Bar","checkinsCount":865,"usersCount":380,"tipCount":9,"visitsCount":1085,"url":"http://www.letloveinn.com","tier":"","message":"","currency":"","rating":7.9},{"name":"The Cuckoo's Nest","phone":"7184265684","address":"6104 Woodside Ave","lat":40.7446736037,"lng":-73.90347356049753,"neighborhood":"Woodside","city_fetched":"Astoria,US","state":"NY","country":"United States","canonicalUrl":"https://foursquare.com/v/the-cuckoos-nest/46c4e78af964a520004a1fe3","categoryId":"4bf58dd8d48988d11b941735","category":"Pub","checkinsCount":3174,"usersCount":1289,"tipCount":28,"visitsCount":3662,"url":"http://www.cuckoosnestnyc.com","tier":"","message":"","currency":"","rating":7.9},{"name":"Sidecar at P.J. Clarke's","phone":"2123172044","address":"205 E 55th St","lat":40.75884336310056,"lng":-73.9683646856237,"neighborhood":"Midtown East","city_fetched":"Astoria,US","state":"NY","country":"United States","canonicalUrl":"https://foursquare.com/v/sidecar-at-pj-clarkes/53c5b71d498efd710d9eca69","categoryId":"4bf58dd8d48988d1d4941735","category":"Speakeasy","checkinsCount":475,"usersCount":339,"tipCount":3,"visitsCount":480,"url":"http://pjclarkes.com/third-avenue/sidecar/","tier":"","message":"","currency":"","rating":7.9},{"name":"The Stag's Head","phone":"2128882453","twitter":"thestagshead","address":"252 E 51st St","lat":40.75554713431404,"lng":-73.96856546401978,"neighborhood":"Turtle Bay","city_fetched":"Astoria,US","state":"NY","country":"United States","canonicalUrl":"https://foursquare.com/v/the-stags-head/4a35a5f5f964a520439d1fe3","categoryId":"4bf58dd8d48988d11b941735","category":"Pub","checkinsCount":13301,"usersCount":7553,"tipCount":91,"visitsCount":13529,"url":"http://www.thestagsheadnyc.com","tier":2,"message":"Moderate","currency":"$","rating":7.9},{"name":"The Empire Hotel Lobby Bar","phone":"2122657400","twitter":"theempirehotel","address":"44 W 63rd St","lat":40.77168711598557,"lng":-73.98250075855944,"neighborhood":"Lincoln Square","city_fetched":"Astoria,US","state":"NY","country":"United States","canonicalUrl":"https://foursquare.com/v/the-empire-hotel-lobby-bar/4b1da7bcf964a520931324e3","categoryId":"4bf58dd8d48988d116941735","category":"Bar","checkinsCount":2786,"usersCount":1915,"tipCount":19,"visitsCount":2792,"url":"http://empirehotelnyc.com","tier":3,"message":"Expensive","currency":"$","rating":7.9},{"name":"The Quays Pub","phone":"7182048435","address":"4502 30th Ave","lat":40.76194673106341,"lng":-73.91106942290382,"neighborhood":"Astoria","city_fetched":"Astoria,US","state":"NY","country":"United States","canonicalUrl":"https://foursquare.com/v/the-quays-pub/447c62d1f964a520f3331fe3","categoryId":"4bf58dd8d48988d11b941735","category":"Pub","checkinsCount":3894,"usersCount":1417,"tipCount":34,"visitsCount":4231,"url":"http://thequaysnewyork.com","tier":1,"message":"Cheap","currency":"$","rating":7.9},{"name":"Cove Lounge","phone":"2126653455","twitter":"coveloungenyc","address":"325 Malcolm X Blvd","lat":40.80875338850544,"lng":-73.94519833934417,"neighborhood":"Central Harlem","city_fetched":"Astoria,US","state":"NY","country":"United States","canonicalUrl":"https://foursquare.com/coveloungenyc","categoryId":"4bf58dd8d48988d121941735","category":"Lounge","checkinsCount":1724,"usersCount":1035,"tipCount":25,"visitsCount":1765,"url":"http://www.coveloungenyc.com","tier":2,"message":"Moderate","currency":"$","rating":7.9},{"name":"Merrion Square","phone":"2128317696","twitter":"merrionsquare","address":"1840 2nd Ave","lat":40.78347598319028,"lng":-73.94755757648312,"neighborhood":"Yorkville","city_fetched":"Astoria,US","state":"NY","country":"United States","canonicalUrl":"https://foursquare.com/v/merrion-square/40df5f80f964a52094011fe3","categoryId":"4bf58dd8d48988d11b941735","category":"Pub","checkinsCount":5669,"usersCount":2550,"tipCount":61,"visitsCount":6277,"url":"http://www.merrionnyc.com","tier":1,"message":"Cheap","currency":"$","rating":7.9},{"name":"Judy & Punch","phone":"7186263100","twitter":"judyandpunchnyc","address":"34-08 30th Ave","lat":40.765601954220955,"lng":-73.91880851540608,"neighborhood":"Astoria","city_fetched":"Astoria,US","state":"NY","country":"United States","canonicalUrl":"https://foursquare.com/v/judy--punch/53fd1167498e3277ac80d4f1","categoryId":"4bf58dd8d48988d116941735","category":"Bar","checkinsCount":1864,"usersCount":951,"tipCount":16,"visitsCount":2124,"url":"http://www.judyandpunch.com","tier":"","message":"","currency":"","rating":7.8},{"name":"King Cole Bar","phone":"2123396857","twitter":"kingcolebarny","address":"2 E 55th St","lat":40.76145806122688,"lng":-73.97415009801645,"neighborhood":"Midtown East","city_fetched":"Astoria,US","state":"NY","country":"United States","canonicalUrl":"https://foursquare.com/v/king-cole-bar/4d042c5b28926ea811226ac2","categoryId":"4bf58dd8d48988d11e941735","category":"Cocktail Bar","checkinsCount":3635,"usersCount":2792,"tipCount":53,"visitsCount":3682,"url":"http://www.kingcolebar.com","tier":4,"message":"Very Expensive","currency":"$","rating":7.8},{"name":"The Auction House","phone":"2122894999","address":"300 E 89th St","lat":40.779611,"lng":-73.949873,"neighborhood":"Yorkville","city_fetched":"Astoria,US","state":"NY","country":"United States","canonicalUrl":"https://foursquare.com/v/the-auction-house/3fd66200f964a520cee81ee3","categoryId":"4bf58dd8d48988d116941735","category":"Bar","checkinsCount":5229,"usersCount":3661,"tipCount":56,"visitsCount":5479,"url":"http://www.auctionhousenyc.com","tier":2,"message":"Moderate","currency":"$","rating":7.8},{"name":"Flûte Midtown","phone":"2122655169","twitter":"champagnebar","address":"205 W 54th St","lat":40.76386375489065,"lng":-73.98224823531172,"neighborhood":"Theater District","city_fetched":"Astoria,US","state":"NY","country":"United States","canonicalUrl":"https://foursquare.com/v/fl%C3%BBte-midtown/3fd66200f964a5209ee71ee3","categoryId":"4bf58dd8d48988d121941735","category":"Lounge","checkinsCount":3726,"usersCount":2875,"tipCount":36,"visitsCount":3858,"url":"http://www.flutebar.com","tier":3,"message":"Expensive","currency":"$","rating":7.8},{"name":"Amsterdam Ale House","phone":"2123627268","twitter":"amsterdamale","address":"340 Amsterdam Ave","lat":40.78127438948975,"lng":-73.97990664030193,"neighborhood":"Upper West Side","city_fetched":"Astoria,US","state":"NY","country":"United States","canonicalUrl":"https://foursquare.com/v/amsterdam-ale-house/49ef2aabf964a52083681fe3","categoryId":"4bf58dd8d48988d11b941735","category":"Pub","checkinsCount":14085,"usersCount":7950,"tipCount":102,"visitsCount":14439,"url":"http://www.amsterdamalehouse.nyc","tier":2,"message":"Moderate","currency":"$","rating":7.8},{"name":"The Courtyard Ale House","phone":"7187294601","twitter":"courtyardnyc","address":"4018 Queens Blvd","lat":40.74366656208656,"lng":-73.9237170531996,"neighborhood":"Sunnyside","city_fetched":"Astoria,US","state":"NY","country":"United States","canonicalUrl":"https://foursquare.com/v/the-courtyard-ale-house/4b64ed10f964a52031da2ae3","categoryId":"4bf58dd8d48988d11b941735","category":"Pub","checkinsCount":3182,"usersCount":1331,"tipCount":29,"visitsCount":3350,"url":"http://www.courtyardalehouse.com","tier":2,"message":"Moderate","currency":"$","rating":7.8},{"name":"Judge Roy Bean Public House","phone":"2122628300","twitter":"judgeroybeannyc","address":"38 W 56th St","lat":40.76307567574933,"lng":-73.97650324180252,"neighborhood":"Midtown East","city_fetched":"Astoria,US","state":"NY","country":"United States","canonicalUrl":"https://foursquare.com/v/judge-roy-bean-public-house/4ae8ef2df964a52081b321e3","categoryId":"4bf58dd8d48988d11b941735","category":"Pub","checkinsCount":2704,"usersCount":1753,"tipCount":26,"visitsCount":2822,"url":"http://www.judgeroybeannyc.com","tier":2,"message":"Moderate","currency":"$","rating":7.8},{"name":"Gin Fizz Harlem","phone":"2122892220","twitter":"ginfizzharlem","address":"308 Malcolm X Blvd","lat":40.80797,"lng":-73.94491,"neighborhood":"Central Harlem","city_fetched":"Astoria,US","state":"NY","country":"United States","canonicalUrl":"https://foursquare.com/v/gin-fizz-harlem/54e146c1498ee6b4505be498","categoryId":"4bf58dd8d48988d11e941735","category":"Cocktail Bar","checkinsCount":195,"usersCount":129,"tipCount":4,"visitsCount":198,"url":"http://ginfizzharlem.com/#eOW0DX","tier":"","message":"","currency":"","rating":7.7},{"name":"The Barn","phone":"7187280305","address":"30-09 21st St","lat":40.76956289375933,"lng":-73.92783612012863,"neighborhood":"Astoria","city_fetched":"Astoria,US","state":"NY","country":"United States","canonicalUrl":"https://foursquare.com/v/the-barn/4aa2ea4af964a5209b4220e3","categoryId":"4bf58dd8d48988d116941735","category":"Bar","checkinsCount":1551,"usersCount":712,"tipCount":27,"visitsCount":1648,"url":"http://club21nyc.com","tier":1,"message":"Cheap","currency":"$","rating":7.7},{"name":"The Grand Ballroom at The Plaza Hotel","lat":40.7641277,"lng":-73.974858,"neighborhood":"Midtown East","city_fetched":"Astoria,US","state":"NY","country":"United States","canonicalUrl":"https://foursquare.com/v/the-grand-ballroom-at-the-plaza-hotel/4c9a84efdb10b60c7b5c936d","categoryId":"4bf58dd8d48988d1d5941735","category":"Hotel Bar","checkinsCount":627,"usersCount":485,"tipCount":2,"visitsCount":627,"tier":"","message":"","currency":"","rating":7.7},{"name":"Dominie's","phone":"7187281834","address":"34-07 30th Ave","lat":40.765700501377935,"lng":-73.91867647115707,"neighborhood":"Astoria","city_fetched":"Astoria,US","state":"NY","country":"United States","canonicalUrl":"https://foursquare.com/v/dominies/4f220a03e4b0c41c502b2ec5","categoryId":"4bf58dd8d48988d116941735","category":"Bar","checkinsCount":5209,"usersCount":1706,"tipCount":40,"visitsCount":5376,"url":"http://www.dominiesnyc.com/astoria/","tier":1,"message":"Cheap","currency":"$","rating":7.7},{"name":"McGuiness's Bar","phone":"7187299617","address":"44-23 Queens Blvd","lat":40.74339914350351,"lng":-73.91956633284042,"neighborhood":"Sunnyside","city_fetched":"Astoria,US","state":"NY","country":"United States","canonicalUrl":"https://foursquare.com/v/mcguinesss-bar/4bf8b627b182c9b62505785a","categoryId":"4bf58dd8d48988d116941735","category":"Bar","checkinsCount":901,"usersCount":426,"tipCount":8,"visitsCount":943,"tier":"","message":"","currency":"","rating":7.7},{"name":"Sean Og's","phone":"7188993499","address":"6002 Woodside Ave","lat":40.74485366,"lng":-73.904381,"neighborhood":"Woodside","city_fetched":"Astoria,US","state":"NY","country":"United States","canonicalUrl":"https://foursquare.com/v/sean-ogs/470f58caf964a5208f4b1fe3","categoryId":"4bf58dd8d48988d11b941735","category":"Pub","checkinsCount":3103,"usersCount":1350,"tipCount":31,"visitsCount":3694,"tier":2,"message":"Moderate","currency":"$","rating":7.7},{"name":"Daly's Pub","phone":"7186062561","twitter":"dalyspub","address":"31-86 31st St","lat":40.76227408198464,"lng":-73.92526709200627,"neighborhood":"Astoria","city_fetched":"Astoria,US","state":"NY","country":"United States","canonicalUrl":"https://foursquare.com/v/dalys-pub/4ad0ca02f964a520d1d920e3","categoryId":"4bf58dd8d48988d11b941735","category":"Pub","checkinsCount":4862,"usersCount":1283,"tipCount":32,"visitsCount":5011,"url":"http://dalyspubnyc.com","tier":1,"message":"Cheap","currency":"$","rating":7.6},{"name":"Star Lounge - The Ritz Carlton","phone":"2125216125","address":"50 Central Park S","lat":40.765476267432085,"lng":-73.97592930694746,"neighborhood":"Midtown East","city_fetched":"Astoria,US","state":"NY","country":"United States","canonicalUrl":"https://foursquare.com/v/star-lounge--the-ritz-carlton/4e4e499abd4101d0d7a6e5be","categoryId":"4bf58dd8d48988d1d5941735","category":"Hotel Bar","checkinsCount":1077,"usersCount":365,"tipCount":6,"visitsCount":1079,"url":"http://ritzcarlton.com","tier":"","message":"","currency":"","rating":7.6},{"name":"Astoria Craft","phone":"7182784300","twitter":"astoriacraft","address":"1801 26th Rd","lat":40.77331024430433,"lng":-73.92712712224487,"neighborhood":"Astoria","city_fetched":"Astoria,US","state":"NY","country":"United States","canonicalUrl":"https://foursquare.com/v/astoria-craft/55f0db72498e2a3d9bbbbfc4","categoryId":"4bf58dd8d48988d116941735","category":"Bar","checkinsCount":357,"usersCount":262,"tipCount":3,"visitsCount":643,"tier":"","message":"","currency":"","rating":7.6},{"name":"Rocky McBride's","phone":"7187772723","twitter":"rockymcbrides","address":"27-01 23rd Ave","lat":40.776174,"lng":-73.915098,"neighborhood":"Ditmars","city_fetched":"Astoria,US","state":"NY","country":"United States","canonicalUrl":"https://foursquare.com/v/rocky-mcbrides/4f500d15e4b080724525f0f3","categoryId":"4bf58dd8d48988d11d941735","category":"Sports Bar","checkinsCount":3076,"usersCount":758,"tipCount":19,"visitsCount":3417,"tier":1,"message":"Cheap","currency":"$","rating":7.6},{"name":"Starlets Gentlemen's Club","address":"49-09 25th Ave","lat":40.764582,"lng":-73.904072,"neighborhood":"Woodside","city_fetched":"Astoria,US","state":"NY","country":"United States","canonicalUrl":"https://foursquare.com/v/starlets-gentlemens-club/4ba84066f964a52072d339e3","categoryId":"4bf58dd8d48988d1d6941735","category":"Strip Club","checkinsCount":1769,"usersCount":1177,"tipCount":11,"visitsCount":2099,"url":"http://clubstarletsnyc.com","tier":"","message":"","currency":"","rating":7.6},{"name":"Sissy McGinty's","phone":"7185454286","twitter":"sissymcgintys","address":"25-67 Steinway St","lat":40.76617654750888,"lng":-73.9130973815918,"neighborhood":"Astoria","city_fetched":"Astoria,US","state":"NY","country":"United States","canonicalUrl":"https://foursquare.com/v/sissy-mcgintys/4bce4148c564ef3ba903eef0","categoryId":"4bf58dd8d48988d11b941735","category":"Pub","checkinsCount":1307,"usersCount":671,"tipCount":9,"visitsCount":1722,"tier":"","message":"","currency":"","rating":7.6},{"name":"Maggie Mae's Bar","phone":"7184333067","twitter":"maggiemaesbar","address":"41-15 Queens Blvd","lat":40.74394738147263,"lng":-73.92294202915836,"neighborhood":"Sunnyside","city_fetched":"Astoria,US","state":"NY","country":"United States","canonicalUrl":"https://foursquare.com/v/maggie-maes-bar/4b7e2303f964a52011e42fe3","categoryId":"4bf58dd8d48988d116941735","category":"Bar","checkinsCount":2653,"usersCount":920,"tipCount":20,"visitsCount":2736,"url":"http://www.maggiemaesbar.com","tier":1,"message":"Cheap","currency":"$","rating":7.5},{"name":"Deja Vu New York","phone":"7182678212","twitter":"dejavunewyork","address":"3322 28th Ave","lat":40.767223,"lng":-73.917736,"neighborhood":"Astoria","city_fetched":"Astoria,US","state":"NY","country":"United States","canonicalUrl":"https://foursquare.com/v/deja-vu-new-york/4b6b8540f964a520be0d2ce3","categoryId":"4bf58dd8d48988d121941735","category":"Lounge","checkinsCount":944,"usersCount":397,"tipCount":13,"visitsCount":977,"url":"http://dejavunewyork.com","tier":2,"message":"Moderate","currency":"$","rating":7.5},{"name":"Riverhead Gentlemen's Club","address":"4508 Vernon Blvd","lat":40.7486284851422,"lng":-73.95230466471841,"neighborhood":"Hunters Point","city_fetched":"Astoria,US","state":"NY","country":"United States","canonicalUrl":"https://foursquare.com/v/riverhead-gentlemens-club/4ad5279ef964a520280221e3","categoryId":"4bf58dd8d48988d1d6941735","category":"Strip Club","checkinsCount":178,"usersCount":82,"tipCount":4,"visitsCount":188,"tier":"","message":"","currency":"","rating":7.5},{"name":"McCann's Pub","phone":"7182782621","twitter":"mccannsastoria","address":"36-15 Ditmars Blvd","lat":40.7741556167282,"lng":-73.90756130218506,"neighborhood":"Astoria","city_fetched":"Astoria,US","state":"NY","country":"United States","canonicalUrl":"https://foursquare.com/v/mccanns-pub/40e0b100f964a52099011fe3","categoryId":"4bf58dd8d48988d11b941735","category":"Pub","checkinsCount":5804,"usersCount":1813,"tipCount":53,"visitsCount":5856,"url":"http://www.mccannspubnyc.com","tier":1,"message":"Cheap","currency":"$","rating":7.5},{"name":"Karaoke Shout","phone":"7185690080","twitter":"karaoke_shout","address":"32-46 Steinway St","lat":40.75789135498701,"lng":-73.92001066279377,"neighborhood":"Astoria","city_fetched":"Astoria,US","state":"NY","country":"United States","canonicalUrl":"https://foursquare.com/v/karaoke-shout/4b2b0669f964a520cab324e3","categoryId":"4bf58dd8d48988d120941735","category":"Karaoke Bar","checkinsCount":3661,"usersCount":2022,"tipCount":27,"visitsCount":3770,"url":"http://karaokeshout-hub.com","tier":1,"message":"Cheap","currency":"$","rating":7.5},{"name":"Rathbone's","phone":"2123697361","address":"1702 2nd Ave","lat":40.77925172541162,"lng":-73.9504685997963,"neighborhood":"Yorkville","city_fetched":"Astoria,US","state":"NY","country":"United States","canonicalUrl":"https://foursquare.com/v/rathbones/3fd66200f964a520dbe81ee3","categoryId":"4bf58dd8d48988d11d941735","category":"Sports Bar","checkinsCount":10405,"usersCount":4419,"tipCount":73,"visitsCount":10602,"url":"http://www.rathbonesnyc.com","tier":2,"message":"Moderate","currency":"$","rating":7.4},{"name":"Rotana","phone":"7182040820","address":"2551A Steinway St","lat":40.766588356621824,"lng":-73.91266549239172,"neighborhood":"Astoria","city_fetched":"Astoria,US","state":"NY","country":"United States","canonicalUrl":"https://foursquare.com/v/rotana/4b5bd63af964a520051929e3","categoryId":"4bf58dd8d48988d119941735","category":"Hookah Bar","checkinsCount":1017,"usersCount":464,"tipCount":16,"visitsCount":1058,"tier":"","message":"","currency":"","rating":7.4},{"name":"Amsterdam 106","phone":"2122808070","address":"938 Amsterdam Ave","lat":40.80066026010047,"lng":-73.96565558357753,"neighborhood":"Upper West Side","city_fetched":"Astoria,US","state":"NY","country":"United States","canonicalUrl":"https://foursquare.com/v/amsterdam-106/49f13b4bf964a520a1691fe3","categoryId":"4bf58dd8d48988d116941735","category":"Bar","checkinsCount":1476,"usersCount":514,"tipCount":16,"visitsCount":1481,"tier":"","message":"","currency":"","rating":7.4},{"name":"The Toolbox","phone":"2123481288","address":"1742 2nd Ave","lat":40.78090998095681,"lng":-73.9495034949479,"neighborhood":"Yorkville","city_fetched":"Astoria,US","state":"NY","country":"United States","canonicalUrl":"https://foursquare.com/v/the-toolbox/4acc0683f964a5209bc820e3","categoryId":"4bf58dd8d48988d1d8941735","category":"Gay Bar","checkinsCount":3112,"usersCount":902,"tipCount":20,"visitsCount":3159,"url":"http://thetoolboxnyc.com","tier":2,"message":"Moderate","currency":"$","rating":7.4},{"name":"Oasis Bar","address":"541 Lexington Ave","lat":40.755921285838134,"lng":-73.9725086197046,"neighborhood":"Turtle Bay","city_fetched":"Astoria,US","state":"NY","country":"United States","canonicalUrl":"https://foursquare.com/v/oasis-bar/4b40226cf964a5200bb625e3","categoryId":"4bf58dd8d48988d1d5941735","category":"Hotel Bar","checkinsCount":864,"usersCount":445,"tipCount":5,"visitsCount":866,"tier":"","message":"","currency":"","rating":7.4},{"name":"Union Club","phone":"2127345400","address":"101 E 69th St","lat":40.768943017484055,"lng":-73.96490942590171,"neighborhood":"Upper East Side","city_fetched":"Astoria,US","state":"NY","country":"United States","canonicalUrl":"https://foursquare.com/v/union-club/4a3d5a7ef964a52026a21fe3","categoryId":"4bf58dd8d48988d11a941735","category":"Other Nightlife","checkinsCount":1194,"usersCount":494,"tipCount":2,"visitsCount":1284,"url":"http://www.theunionclub.com","tier":"","message":"","currency":"","rating":7.4},{"name":"Astoria Tavern","address":"33-16 23rd St","lat":40.77316972988756,"lng":-73.9115631724164,"neighborhood":"Astoria","city_fetched":"Astoria,US","state":"NY","country":"United States","canonicalUrl":"https://foursquare.com/v/astoria-tavern/51f2b19f498e19dae32cad77","categoryId":"4bf58dd8d48988d11b941735","category":"Pub","checkinsCount":2032,"usersCount":661,"tipCount":17,"visitsCount":2310,"url":"http://theastoriatavern.com","tier":2,"message":"Moderate","currency":"$","rating":7.4},{"name":"Peacock Alley","phone":"2128721275","twitter":"waldorfnyc","address":"301 Park Ave","lat":40.75661117726572,"lng":-73.97400087329386,"neighborhood":"Midtown East","city_fetched":"Astoria,US","state":"NY","country":"United States","canonicalUrl":"https://foursquare.com/v/peacock-alley/3fd66200f964a520fce71ee3","categoryId":"4bf58dd8d48988d1d5941735","category":"Hotel Bar","checkinsCount":1869,"usersCount":1183,"tipCount":19,"visitsCount":1873,"url":"http://www.peacockalleyrestaurant.com/index2.htm","tier":3,"message":"Expensive","currency":"$","rating":7.4},{"name":"TY Bar at Four Seasons Hotel New York","phone":"2127585700","twitter":"fourseasons","address":"57 E 57th St","lat":40.7620377856995,"lng":-73.9717969254571,"neighborhood":"Midtown East","city_fetched":"Astoria,US","state":"NY","country":"United States","canonicalUrl":"https://foursquare.com/v/ty-bar-at-four-seasons-hotel-new-york/4b8981c2f964a520103d32e3","categoryId":"4bf58dd8d48988d1d5941735","category":"Hotel Bar","checkinsCount":1597,"usersCount":1134,"tipCount":15,"visitsCount":1604,"url":"http://www.fourseasons.com","tier":4,"message":"Very Expensive","currency":"$","rating":7.3},{"name":"Baker Street Pub","phone":"2126889663","twitter":"bakerstreetnyc","address":"1152 1st Ave","lat":40.76211020493421,"lng":-73.9602774440424,"neighborhood":"Upper East Side","city_fetched":"Astoria,US","state":"NY","country":"United States","canonicalUrl":"https://foursquare.com/v/baker-street-pub/4a01c708f964a520fd701fe3","categoryId":"4bf58dd8d48988d11b941735","category":"Pub","checkinsCount":8543,"usersCount":3983,"tipCount":43,"visitsCount":8922,"url":"http://www.bakerstreetnyc.com","tier":2,"message":"Moderate","currency":"$","rating":7.3},{"name":"Katch Astoria","phone":"7187772230","twitter":"katchastoria","address":"31-19 Newtown Ave","lat":40.76728490056343,"lng":-73.92041600342098,"neighborhood":"Astoria","city_fetched":"Astoria,US","state":"NY","country":"United States","canonicalUrl":"https://foursquare.com/v/katch-astoria/51782e64e4b07f1155daf64a","categoryId":"4bf58dd8d48988d11d941735","category":"Sports Bar","checkinsCount":4577,"usersCount":2505,"tipCount":60,"visitsCount":5658,"url":"http://katchastoria.com","tier":2,"message":"Moderate","currency":"$","rating":7.3},{"name":"The Irish Pub","phone":"2126649364","twitter":"theirishpubnyc_","address":"837 7th Ave","lat":40.76343162986088,"lng":-73.98166857841976,"neighborhood":"Theater District","city_fetched":"Astoria,US","state":"NY","country":"United States","canonicalUrl":"https://foursquare.com/theirishpubnyc_","categoryId":"4bf58dd8d48988d11b941735","category":"Pub","checkinsCount":8667,"usersCount":6650,"tipCount":73,"visitsCount":8772,"url":"http://www.theirishpubnyc.com","tier":2,"message":"Moderate","currency":"$","rating":7.3},{"name":"Mad 46 Rooftop Lounge","phone":"2126619600","twitter":"rooseveltnyc","address":"45 E 46th St., 19th Floor","lat":40.75518954040458,"lng":-73.97725582122803,"neighborhood":"Midtown East","city_fetched":"Astoria,US","state":"NY","country":"United States","canonicalUrl":"https://foursquare.com/v/mad-46-rooftop-lounge/4a11ef81f964a52060771fe3","categoryId":"4bf58dd8d48988d1d5941735","category":"Hotel Bar","checkinsCount":4099,"usersCount":3552,"tipCount":38,"visitsCount":4118,"url":"http://www.thenyknow.com","tier":"","message":"","currency":"","rating":7.3},{"name":"The Music Box (Caja Musical)","phone":"7184575306","address":"40-08 74th St","lat":40.74657125,"lng":-73.891369,"neighborhood":"Elmhurst","city_fetched":"Astoria,US","state":"NY","country":"United States","canonicalUrl":"https://foursquare.com/v/the-music-box-caja-musical/4b948ccbf964a5202a7d34e3","categoryId":"4bf58dd8d48988d1d8941735","category":"Gay Bar","checkinsCount":1544,"usersCount":534,"tipCount":12,"visitsCount":1641,"tier":"","message":"","currency":"","rating":7.3},{"name":"Gaby","phone":"2123548844","address":"44 W 45th St","lat":40.75646523502844,"lng":-73.98164562167516,"neighborhood":"Midtown East","city_fetched":"Astoria,US","state":"NY","country":"United States","canonicalUrl":"https://foursquare.com/v/gaby/4e1f35aecc3f012b97570e86","categoryId":"4bf58dd8d48988d1d5941735","category":"Hotel Bar","checkinsCount":339,"usersCount":201,"tipCount":4,"visitsCount":339,"url":"http://colettebarandbistro.com","tier":"","message":"","currency":"","rating":7.3},{"name":"Albatross Bar","phone":"7182049707","twitter":"albatross_bar","address":"3619 24th Ave","lat":40.770111596935436,"lng":-73.91221193440752,"neighborhood":"Astoria","city_fetched":"Astoria,US","state":"NY","country":"United States","canonicalUrl":"https://foursquare.com/v/albatross-bar/4b5a9504f964a52071cc28e3","categoryId":"4bf58dd8d48988d116941735","category":"Bar","checkinsCount":2158,"usersCount":957,"tipCount":16,"visitsCount":2707,"tier":1,"message":"Cheap","currency":"$","rating":7.3},{"name":"Bar 44","phone":"2128694400","twitter":"morganshotels","address":"44 W 44th St","lat":40.75553583934032,"lng":-73.98237449697706,"neighborhood":"Midtown East","city_fetched":"Astoria,US","state":"NY","country":"United States","canonicalUrl":"https://foursquare.com/v/bar-44/4bb637dcef159c74d09975f7","categoryId":"4bf58dd8d48988d1d5941735","category":"Hotel Bar","checkinsCount":5035,"usersCount":3699,"tipCount":39,"visitsCount":5054,"url":"http://backofhouse.morganshotelgroup.com","tier":3,"message":"Expensive","currency":"$","rating":7.3},{"name":"Jasmin Lounge","phone":"6462510493","address":"2550 Steinway St","lat":40.76673424184951,"lng":-73.9128205056377,"neighborhood":"Astoria","city_fetched":"Astoria,US","state":"NY","country":"United States","canonicalUrl":"https://foursquare.com/v/jasmin-lounge/4fc98019e4b0ddddfbb5eeaa","categoryId":"4bf58dd8d48988d119941735","category":"Hookah Bar","checkinsCount":568,"usersCount":260,"tipCount":3,"visitsCount":633,"tier":"","message":"","currency":"","rating":7.3},{"name":"Cassidy's Ale House","address":"75-02 31st Ave","lat":40.75845114784153,"lng":-73.89240936776443,"neighborhood":"Jackson Heights","city_fetched":"Astoria,US","state":"NY","country":"United States","canonicalUrl":"https://foursquare.com/v/cassidys-ale-house/4b2d53cbf964a52036d424e3","categoryId":"4bf58dd8d48988d116941735","category":"Bar","checkinsCount":582,"usersCount":295,"tipCount":12,"visitsCount":646,"tier":"","message":"","currency":"","rating":7.2},{"name":"Rose Club at The Plaza","phone":"2125465310","twitter":"fairmonthotels","address":"768 5th Ave Fl 3","lat":40.764036208578005,"lng":-73.97432228024489,"neighborhood":"Midtown East","city_fetched":"Astoria,US","state":"NY","country":"United States","canonicalUrl":"https://foursquare.com/v/rose-club-at-the-plaza/4b0e173ef964a520df5423e3","categoryId":"4bf58dd8d48988d1d5941735","category":"Hotel Bar","checkinsCount":1570,"usersCount":1248,"tipCount":8,"visitsCount":1573,"url":"http://bit.ly/wWpDIs","tier":"","message":"","currency":"","rating":7.2},{"name":"Gaslight Bar","address":"4317 Queens Blvd","lat":40.74360618204876,"lng":-73.92070305345358,"neighborhood":"Sunnyside","city_fetched":"Astoria,US","state":"NY","country":"United States","canonicalUrl":"https://foursquare.com/v/gaslight-bar/4ac42cc1f964a520679e20e3","categoryId":"4bf58dd8d48988d11b941735","category":"Pub","checkinsCount":2456,"usersCount":1009,"tipCount":20,"visitsCount":2546,"tier":"","message":"","currency":"","rating":7.2},{"name":"Fayrooz Cafe Hookah Lounge","phone":"7182047667","twitter":"fayrooz_cafe","address":"2808 Steinway St","lat":40.765317237237795,"lng":-73.91409784555435,"neighborhood":"Astoria","city_fetched":"Astoria,US","state":"NY","country":"United States","canonicalUrl":"https://foursquare.com/v/fayrooz-cafe-hookah-lounge/4bea291cb3352d7f8ff254d2","categoryId":"4bf58dd8d48988d119941735","category":"Hookah Bar","checkinsCount":1201,"usersCount":909,"tipCount":26,"visitsCount":1289,"url":"http://www.fayroozcafe.com","tier":2,"message":"Moderate","currency":"$","rating":7.2},{"name":"The Abbey Pub","phone":"2122228713","twitter":"abbeypubny","address":"237 W 105th St","lat":40.80051033447884,"lng":-73.96763575725062,"neighborhood":"Upper West Side","city_fetched":"Astoria,US","state":"NY","country":"United States","canonicalUrl":"https://foursquare.com/v/the-abbey-pub/40f32600f964a520710a1fe3","categoryId":"4bf58dd8d48988d116941735","category":"Bar","checkinsCount":3902,"usersCount":1646,"tipCount":32,"visitsCount":3981,"tier":2,"message":"Moderate","currency":"$","rating":7.2},{"name":"Melody Lounge","phone":"7187771514","address":"25-95 Steinway St","lat":40.765696,"lng":-73.913639,"neighborhood":"Astoria","city_fetched":"Astoria,US","state":"NY","country":"United States","canonicalUrl":"https://foursquare.com/v/melody-lounge/4c3a8632def90f4772a1fc2d","categoryId":"4bf58dd8d48988d119941735","category":"Hookah Bar","checkinsCount":1404,"usersCount":872,"tipCount":17,"visitsCount":1756,"tier":2,"message":"Moderate","currency":"$","rating":7.2},{"name":"The Gael Pub","phone":"2125174141","twitter":"thegaelpubnyc","address":"1465 3rd Ave","lat":40.776659854505354,"lng":-73.95561665117526,"neighborhood":"Upper East Side","city_fetched":"Astoria,US","state":"NY","country":"United States","canonicalUrl":"https://foursquare.com/v/the-gael-pub/44113ab4f964a520c8301fe3","categoryId":"4bf58dd8d48988d11b941735","category":"Pub","checkinsCount":6221,"usersCount":2703,"tipCount":24,"visitsCount":6316,"url":"http://www.thegaelpubnyc.com‎ ","tier":1,"message":"Cheap","currency":"$","rating":7.2},{"name":"Whiskey Blue","phone":"2127551200","twitter":"whiskeybluenyc","address":"541 Lexington Ave","lat":40.75622920527073,"lng":-73.97260045102877,"neighborhood":"Midtown East","city_fetched":"Astoria,US","state":"NY","country":"United States","canonicalUrl":"https://foursquare.com/v/whiskey-blue/3fd66200f964a52003e81ee3","categoryId":"4bf58dd8d48988d1d5941735","category":"Hotel Bar","checkinsCount":6202,"usersCount":4866,"tipCount":30,"visitsCount":6239,"url":"http://gerberbars.com/whiskey-blue-ny/","tier":3,"message":"Expensive","currency":"$","rating":7.2},{"name":"The Allie Way Sports Bar","phone":"9175120397","twitter":"thealliewayny","address":"413 E 70th St","lat":40.76617654750888,"lng":-73.95604491233826,"neighborhood":"Upper East Side","city_fetched":"Astoria,US","state":"NY","country":"United States","canonicalUrl":"https://foursquare.com/thealliewayny","categoryId":"4bf58dd8d48988d116941735","category":"Bar","checkinsCount":2572,"usersCount":859,"tipCount":15,"visitsCount":2602,"url":"http://www.thealliewayny.com","tier":"","message":"","currency":"","rating":7.2},{"name":"Cock & Bull British Pub and Eatery","phone":"2128191900","twitter":"cockandbullnyc","address":"23 W 45th St","lat":40.755902230302006,"lng":-73.98057813002355,"neighborhood":"Midtown East","city_fetched":"Astoria,US","state":"NY","country":"United States","canonicalUrl":"https://foursquare.com/v/cock--bull-british-pub-and-eatery/4fd757bd003937c44976c991","categoryId":"4bf58dd8d48988d11b941735","category":"Pub","checkinsCount":4636,"usersCount":3482,"tipCount":56,"visitsCount":4696,"url":"http://cockandbullnyc.com","tier":2,"message":"Moderate","currency":"$","rating":7.2},{"name":"Henry's Roof Top Bar - @RSHotel","phone":"2127551400","twitter":"rshotel","address":"501 Lexington Ave","lat":40.75430367870417,"lng":-73.97318587469047,"neighborhood":"Turtle Bay","city_fetched":"Astoria,US","state":"NY","country":"United States","canonicalUrl":"https://foursquare.com/v/henrys-roof-top-bar--rshotel/4bf709335ec320a1214286d3","categoryId":"4bf58dd8d48988d1d5941735","category":"Hotel Bar","checkinsCount":1234,"usersCount":865,"tipCount":13,"visitsCount":1238,"url":"http://rogersmith.com","tier":"","message":"","currency":"","rating":7.2},{"name":"ZBar Astoria","phone":"3476124715","address":"26-12 Hoyt Ave S","lat":40.772131122698205,"lng":-73.92047915446452,"neighborhood":"Astoria","city_fetched":"Astoria,US","state":"NY","country":"United States","canonicalUrl":"https://foursquare.com/v/zbar-astoria/540bd523498eadd8be8362c7","categoryId":"4bf58dd8d48988d116941735","category":"Bar","checkinsCount":230,"usersCount":182,"tipCount":1,"visitsCount":384,"tier":"","message":"","currency":"","rating":7.1},{"name":"Gilbey's","phone":"7185458567","address":"3201 Broadway","lat":40.76162593648898,"lng":-73.92446994781494,"neighborhood":"Astoria","city_fetched":"Astoria,US","state":"NY","country":"United States","canonicalUrl":"https://foursquare.com/v/gilbeys/47866c2cf964a520364d1fe3","categoryId":"4bf58dd8d48988d11b941735","category":"Pub","checkinsCount":3278,"usersCount":1198,"tipCount":25,"visitsCount":3312,"tier":2,"message":"Moderate","currency":"$","rating":7.1},{"name":"Caprice","phone":"7189567200","address":"3108 Astoria Blvd","lat":40.769956,"lng":-73.91797363758087,"neighborhood":"Astoria","city_fetched":"Astoria,US","state":"NY","country":"United States","canonicalUrl":"https://foursquare.com/v/caprice/4bf8c8d48d30d13a08640118","categoryId":"4bf58dd8d48988d121941735","category":"Lounge","checkinsCount":2562,"usersCount":668,"tipCount":16,"visitsCount":2792,"tier":"","message":"","currency":"","rating":7.1},{"name":"ICON","phone":"3478087592","twitter":"iconastoria","address":"31-84 33rd St","lat":40.76151216722143,"lng":-73.92354726791382,"neighborhood":"Astoria","city_fetched":"Astoria,US","state":"NY","country":"United States","canonicalUrl":"https://foursquare.com/v/icon/52aa0e6011d2a5eaa62e0cc9","categoryId":"4bf58dd8d48988d1d8941735","category":"Gay Bar","checkinsCount":1072,"usersCount":543,"tipCount":11,"visitsCount":1160,"url":"http://iconastoria.com","tier":2,"message":"Moderate","currency":"$","rating":7.1},{"name":"The Starting Gate","phone":"7184299269","address":"59-10 Woodside Ave","lat":40.74537121088314,"lng":-73.90528678894043,"neighborhood":"Woodside","city_fetched":"Astoria,US","state":"NY","country":"United States","canonicalUrl":"https://foursquare.com/v/the-starting-gate/4ae3e801f964a5208a9921e3","categoryId":"4bf58dd8d48988d116941735","category":"Bar","checkinsCount":321,"usersCount":145,"tipCount":5,"visitsCount":321,"tier":"","message":"","currency":"","rating":7.1},{"name":"The London Bar","phone":"2124688888","address":"151 W 54th St","lat":40.763198157486656,"lng":-73.98061256533065,"neighborhood":"Theater District","city_fetched":"Astoria,US","state":"NY","country":"United States","canonicalUrl":"https://foursquare.com/v/the-london-bar/5053d77ee4b08e1d3cdb2817","categoryId":"4bf58dd8d48988d1d5941735","category":"Hotel Bar","checkinsCount":269,"usersCount":227,"tipCount":2,"visitsCount":270,"url":"http://thelondonnyc.com","tier":3,"message":"Expensive","currency":"$","rating":7},{"name":"Pig 'n' Whistle","phone":"2126884646","address":"922 3rd Ave","lat":40.759330199337995,"lng":-73.96819249806782,"neighborhood":"Midtown East","city_fetched":"Astoria,US","state":"NY","country":"United States","canonicalUrl":"https://foursquare.com/v/pig-n-whistle/41536380f964a520151d1fe3","categoryId":"4bf58dd8d48988d116941735","category":"Bar","checkinsCount":9241,"usersCount":5809,"tipCount":51,"visitsCount":9424,"url":"http://www.pignwhistle.com","tier":1,"message":"Cheap","currency":"$","rating":6.9},{"name":"La Sala","twitter":"lasalanyc","address":"32-05 Crescent St","lat":40.76320496055331,"lng":-73.92859102240173,"neighborhood":"Astoria","city_fetched":"Astoria,US","state":"NY","country":"United States","canonicalUrl":"https://foursquare.com/v/la-sala/54235f4e498e5bdbb1ca771d","categoryId":"4bf58dd8d48988d121941735","category":"Lounge","checkinsCount":246,"usersCount":169,"tipCount":1,"visitsCount":288,"url":"http://lasalanyc.com","tier":"","message":"","currency":"","rating":6.9},{"name":"McAleer's Pub & Restaurant","phone":"2123627867","address":"425 Amsterdam Ave","lat":40.784031815480944,"lng":-73.97774293524516,"neighborhood":"Upper West Side","city_fetched":"Astoria,US","state":"NY","country":"United States","canonicalUrl":"https://foursquare.com/v/mcaleers-pub--restaurant/3fd66200f964a52051e81ee3","categoryId":"4bf58dd8d48988d116941735","category":"Bar","checkinsCount":6426,"usersCount":3699,"tipCount":51,"visitsCount":6488,"url":"http://mcaleerspub.com","tier":2,"message":"Moderate","currency":"$","rating":6.9},{"name":"Sin City Gentlemen's Cabaret","phone":"7184011700","twitter":"sincitycabaret","address":"2520 Park Ave","lat":40.812130207705216,"lng":-73.93015824444997,"neighborhood":"Mott Haven","city_fetched":"Astoria,US","state":"NY","country":"United States","canonicalUrl":"https://foursquare.com/v/sin-city-gentlemens-cabaret/4c16b4f5cd4bc9b698d74eeb","categoryId":"4bf58dd8d48988d1d6941735","category":"Strip Club","checkinsCount":3980,"usersCount":2466,"tipCount":43,"visitsCount":4585,"url":"http://sincitynewyork.com","tier":"","message":"","currency":"","rating":6.9},{"name":"Bill’s New York City","phone":"2123550243","twitter":"billsgay90s","address":"57 E 54th St","lat":40.76007708450551,"lng":-73.97303090977681,"neighborhood":"Midtown East","city_fetched":"Astoria,US","state":"NY","country":"United States","canonicalUrl":"https://foursquare.com/v/bills-new-york-city/4a81ef97f964a5200af81fe3","categoryId":"4bf58dd8d48988d116941735","category":"Bar","checkinsCount":1672,"usersCount":924,"tipCount":19,"visitsCount":1672,"url":"http://www.bills54.com","tier":"","message":"","currency":"","rating":6.9},{"name":"Doubles Club at the Sherry-Netherland Hotel","address":"781 5th Ave","lat":40.76446164266335,"lng":-73.97301369144537,"neighborhood":"Central Park","city_fetched":"Astoria,US","state":"NY","country":"United States","canonicalUrl":"https://foursquare.com/v/doubles-club-at-the-sherrynetherland-hotel/4b1da2d0f964a5205d1324e3","categoryId":"4bf58dd8d48988d1d4941735","category":"Speakeasy","checkinsCount":488,"usersCount":293,"tipCount":0,"visitsCount":488,"tier":"","message":"","currency":"","rating":6.9},{"name":"Sir Harry's","phone":"2128724890","address":"301 Park Ave","lat":40.757090373491025,"lng":-73.9738114725178,"neighborhood":"Midtown East","city_fetched":"Astoria,US","state":"NY","country":"United States","canonicalUrl":"https://foursquare.com/v/sir-harrys/4b8afdb0f964a520038d32e3","categoryId":"4bf58dd8d48988d1d5941735","category":"Hotel Bar","checkinsCount":910,"usersCount":667,"tipCount":11,"visitsCount":910,"tier":"","message":"","currency":"","rating":6.9},{"name":"Giorgio's Wine Bar","phone":"2124271010","twitter":"giorgioswinebar","address":"1742 2nd Ave","lat":40.78064990817299,"lng":-73.94936573145294,"neighborhood":"Yorkville","city_fetched":"Astoria,US","state":"NY","country":"United States","canonicalUrl":"https://foursquare.com/v/giorgios-wine-bar/4cb85777eb1eef3bf25046c7","categoryId":"4bf58dd8d48988d123941735","category":"Wine Bar","checkinsCount":1170,"usersCount":868,"tipCount":21,"visitsCount":1171,"url":"http://www.giorgioswinebarnyc.com","tier":"","message":"","currency":"","rating":6.9},{"name":"Bayard's Ale House","phone":"2128791500","address":"1589 1st Ave","lat":40.774718,"lng":-73.950974,"neighborhood":"Yorkville","city_fetched":"Astoria,US","state":"NY","country":"United States","canonicalUrl":"https://foursquare.com/v/bayards-ale-house/56203c17498e940a1c7d16f5","categoryId":"4bf58dd8d48988d11b941735","category":"Pub","checkinsCount":330,"usersCount":181,"tipCount":6,"visitsCount":359,"tier":"","message":"","currency":"","rating":6.9},{"name":"Iggy's","phone":"2123273043","twitter":"iggys_nyc","address":"1452 2nd Ave","lat":40.77124900752363,"lng":-73.9565694825131,"neighborhood":"Upper East Side","city_fetched":"Astoria,US","state":"NY","country":"United States","canonicalUrl":"https://foursquare.com/iggys_nyc","categoryId":"4bf58dd8d48988d120941735","category":"Karaoke Bar","checkinsCount":5473,"usersCount":3386,"tipCount":42,"visitsCount":5559,"url":"http://newyorkiggys.com","tier":"","message":"","currency":"","rating":6.9},{"name":"Layali Beirut","phone":"7187772111","address":"25-60 Steinway St","lat":40.76653740521854,"lng":-73.91288365914698,"neighborhood":"Astoria","city_fetched":"Astoria,US","state":"NY","country":"United States","canonicalUrl":"https://foursquare.com/v/layali-beirut/4a40db06f964a520a6a41fe3","categoryId":"4bf58dd8d48988d119941735","category":"Hookah Bar","checkinsCount":687,"usersCount":478,"tipCount":13,"visitsCount":736,"tier":"","message":"","currency":"","rating":6.8},{"name":"Mile 17","phone":"2127721734","address":"1446 1st Ave","lat":40.769869250211315,"lng":-73.95449735534578,"neighborhood":"Upper East Side","city_fetched":"Astoria,US","state":"NY","country":"United States","canonicalUrl":"https://foursquare.com/v/mile-17/561491ce498e6a4d7b59a928","categoryId":"4bf58dd8d48988d11d941735","category":"Sports Bar","checkinsCount":299,"usersCount":208,"tipCount":5,"visitsCount":306,"url":"http://www.mile17.nyc","tier":"","message":"","currency":"","rating":6.8},{"name":"Astoria Brewhouse","phone":"7187280050","twitter":"astoriabrew","address":"2850 31st St","lat":40.76732191310186,"lng":-73.92124844734768,"neighborhood":"Astoria","city_fetched":"Astoria,US","state":"NY","country":"United States","canonicalUrl":"https://foursquare.com/v/astoria-brewhouse/4b527fdcf964a520028027e3","categoryId":"4bf58dd8d48988d116941735","category":"Bar","checkinsCount":6085,"usersCount":2634,"tipCount":40,"visitsCount":6190,"url":"http://astoriabrewhouse.com","tier":2,"message":"Moderate","currency":"$","rating":6.7},{"name":"Cornerstone Tavern","phone":"2128887403","twitter":"nyc_cornerstone","address":"961 2nd Ave","lat":40.755613807146354,"lng":-73.96827285227972,"neighborhood":"Turtle Bay","city_fetched":"Astoria,US","state":"NY","country":"United States","canonicalUrl":"https://foursquare.com/nyc_cornerstone","categoryId":"4bf58dd8d48988d11d941735","category":"Sports Bar","checkinsCount":17705,"usersCount":10484,"tipCount":79,"visitsCount":17844,"url":"http://www.cornerstonetavern.com","tier":2,"message":"Moderate","currency":"$","rating":6.7},{"name":"The West End Lounge","phone":"2125314759","twitter":"westendcabaret","address":"955 W End Ave","lat":40.80230067756603,"lng":-73.9682154564175,"neighborhood":"Upper West Side","city_fetched":"Astoria,US","state":"NY","country":"United States","canonicalUrl":"https://foursquare.com/v/the-west-end-lounge/424de080f964a520af201fe3","categoryId":"4bf58dd8d48988d116941735","category":"Bar","checkinsCount":4380,"usersCount":2477,"tipCount":40,"visitsCount":4748,"url":"http://thewestendlounge.com","tier":2,"message":"Moderate","currency":"$","rating":6.7},{"name":"LOCL","phone":"2123621100","address":"2178 Broadway","lat":40.782274,"lng":-73.980329,"neighborhood":"Upper West Side","city_fetched":"Astoria,US","state":"NY","country":"United States","canonicalUrl":"https://foursquare.com/v/locl/5263368e11d269bc90b357ea","categoryId":"4bf58dd8d48988d1d5941735","category":"Hotel Bar","checkinsCount":324,"usersCount":191,"tipCount":5,"visitsCount":325,"tier":"","message":"","currency":"","rating":6.7},{"name":"M Bar at The Mansfield Hotel","phone":"2122778888","address":"12 W 44th St","lat":40.75527457209645,"lng":-73.98116926860618,"neighborhood":"Midtown East","city_fetched":"Astoria,US","state":"NY","country":"United States","canonicalUrl":"https://foursquare.com/v/m-bar-at-the-mansfield-hotel/3fd66200f964a5209fe81ee3","categoryId":"4bf58dd8d48988d1d5941735","category":"Hotel Bar","checkinsCount":1133,"usersCount":802,"tipCount":9,"visitsCount":1136,"url":"http://brasseriefortyfour.com","tier":"","message":"","currency":"","rating":6.7},{"name":"Banshee Pub","phone":"2127178177","address":"1373 1st Ave","lat":40.768908966666665,"lng":-73.955326,"neighborhood":"Upper East Side","city_fetched":"Astoria,US","state":"NY","country":"United States","canonicalUrl":"https://foursquare.com/v/banshee-pub/3fd66200f964a520f1e71ee3","categoryId":"4bf58dd8d48988d116941735","category":"Bar","checkinsCount":3293,"usersCount":1528,"tipCount":16,"visitsCount":3531,"url":"http://www.bansheepubnyc.com","tier":2,"message":"Moderate","currency":"$","rating":6.7},{"name":"Blue Bar at The Algonquin Hotel Times Square, Autograph Collection","phone":"2129406800","twitter":"algonquinnyc","address":"59 W 44th St","lat":40.755983390339466,"lng":-73.98262702005884,"neighborhood":"Midtown East","city_fetched":"Astoria,US","state":"NY","country":"United States","canonicalUrl":"https://foursquare.com/v/blue-bar-at-the-algonquin-hotel-times-square-autograph-collection/4afc81e8f964a520692322e3","categoryId":"4bf58dd8d48988d1d5941735","category":"Hotel Bar","checkinsCount":2688,"usersCount":2227,"tipCount":30,"visitsCount":2701,"url":"http://www.algonquinhotel.com/blue-bar","tier":3,"message":"Expensive","currency":"$","rating":6.6},{"name":"Halsey's Tavern","phone":"7182672735","twitter":"halseystavern","address":"30-95 33rd St","lat":40.763812,"lng":-73.921519,"neighborhood":"Astoria","city_fetched":"Astoria,US","state":"NY","country":"United States","canonicalUrl":"https://foursquare.com/v/halseys-tavern/548dd74f498eecad73225f72","categoryId":"4bf58dd8d48988d116941735","category":"Bar","checkinsCount":800,"usersCount":502,"tipCount":10,"visitsCount":1097,"url":"http://www.halseystavern.com","tier":"","message":"","currency":"","rating":6.6},{"name":"Murphy's Law","phone":"2126283724","twitter":"murphysisthelaw","address":"417 E 70th St","lat":40.766072452908034,"lng":-73.95588068924582,"neighborhood":"Upper East Side","city_fetched":"Astoria,US","state":"NY","country":"United States","canonicalUrl":"https://foursquare.com/v/murphys-law/4ad0eda5f964a52031db20e3","categoryId":"4bf58dd8d48988d11b941735","category":"Pub","checkinsCount":2287,"usersCount":1140,"tipCount":15,"visitsCount":2385,"url":"https://murphyslawnyc.wordpress.com","tier":2,"message":"Moderate","currency":"$","rating":6.6},{"name":"Flynn's Garden Inn","address":"46-08 Skillman Ave","lat":40.746354282266076,"lng":-73.91767178371727,"neighborhood":"Sunnyside","city_fetched":"Astoria,US","state":"NY","country":"United States","canonicalUrl":"https://foursquare.com/v/flynns-garden-inn/4c770ce4947ca1cd13604637","categoryId":"4bf58dd8d48988d11b941735","category":"Pub","checkinsCount":463,"usersCount":184,"tipCount":2,"visitsCount":465,"tier":"","message":"","currency":"","rating":6.6},{"name":"Perfection","phone":"7187288080","twitter":"clubperfection","address":"6205 30th Ave","lat":40.759913835936466,"lng":-73.9008669000535,"neighborhood":"Woodside","city_fetched":"Astoria,US","state":"NY","country":"United States","canonicalUrl":"https://foursquare.com/v/perfection/4bc535885935c9b618baa5d2","categoryId":"4bf58dd8d48988d1d6941735","category":"Strip Club","checkinsCount":2154,"usersCount":1295,"tipCount":20,"visitsCount":2226,"url":"http://clubperfections.com","tier":"","message":"","currency":"","rating":6.6},{"name":"Doc Watson's","phone":"2129885300","address":"1490 2nd Ave","lat":40.772271,"lng":-73.955686,"neighborhood":"Upper East Side","city_fetched":"Astoria,US","state":"NY","country":"United States","canonicalUrl":"https://foursquare.com/v/doc-watsons/3fd66200f964a520dfe71ee3","categoryId":"4bf58dd8d48988d11b941735","category":"Pub","checkinsCount":8572,"usersCount":4444,"tipCount":48,"visitsCount":8633,"url":"http://docwatsons.com/docs/","tier":2,"message":"Moderate","currency":"$","rating":6.6},{"name":"Hellgate on the Park","phone":"7182040023","address":"1919 Ditmars Blvd","lat":40.780925,"lng":-73.917272,"neighborhood":"Ditmars","city_fetched":"Astoria,US","state":"NY","country":"United States","canonicalUrl":"https://foursquare.com/v/hellgate-on-the-park/4617b368f964a5204a451fe3","categoryId":"4bf58dd8d48988d11b941735","category":"Pub","checkinsCount":475,"usersCount":249,"tipCount":6,"visitsCount":483,"tier":2,"message":"Moderate","currency":"$","rating":6.6},{"name":"Dorrian's Red Hand","phone":"2127726660","twitter":"dorriansnyc","address":"1616 2nd Ave","lat":40.776333037421246,"lng":-73.95268678665161,"neighborhood":"Yorkville","city_fetched":"Astoria,US","state":"NY","country":"United States","canonicalUrl":"https://foursquare.com/v/dorrians-red-hand/3fd66200f964a5206fe81ee3","categoryId":"4bf58dd8d48988d116941735","category":"Bar","checkinsCount":10218,"usersCount":5539,"tipCount":61,"visitsCount":11000,"url":"http://www.dorrians-nyc.com","tier":2,"message":"Moderate","currency":"$","rating":6.6},{"name":"Mad River Bar & Grille","phone":"2129881832","twitter":"madrivernyc","address":"1442 3rd Ave","lat":40.77628509076147,"lng":-73.95596104858693,"neighborhood":"Upper East Side","city_fetched":"Astoria,US","state":"NY","country":"United States","canonicalUrl":"https://foursquare.com/v/mad-river-bar--grille/3fd66200f964a52073e81ee3","categoryId":"4bf58dd8d48988d11b941735","category":"Pub","checkinsCount":10504,"usersCount":5839,"tipCount":39,"visitsCount":10886,"url":"http://www.madrivergrille.com","tier":2,"message":"Moderate","currency":"$","rating":6.6},{"name":"Bar Seine Lounge","address":"37 64th St","lat":40.76655,"lng":-73.9684826,"neighborhood":"Upper East Side","city_fetched":"Astoria,US","state":"NY","country":"United States","canonicalUrl":"https://foursquare.com/v/bar-seine-lounge/4b0f349af964a520646023e3","categoryId":"4bf58dd8d48988d1d5941735","category":"Hotel Bar","checkinsCount":210,"usersCount":162,"tipCount":9,"visitsCount":210,"tier":"","message":"","currency":"","rating":6.5},{"name":"Gallagher's 2000","phone":"7183611348","address":"4319 37th St","lat":40.74517613004631,"lng":-73.92747402191162,"neighborhood":"Sunnyside","city_fetched":"Astoria,US","state":"NY","country":"United States","canonicalUrl":"https://foursquare.com/v/gallaghers-2000/4ab43f54f964a5208f7020e3","categoryId":"4bf58dd8d48988d1d6941735","category":"Strip Club","checkinsCount":642,"usersCount":557,"tipCount":9,"visitsCount":854,"url":"http://www.gallaghers2000.net","tier":"","message":"","currency":"","rating":6.5},{"name":"WXYZ Bar at Aloft Harlem","phone":"8667168143","twitter":"aloftharlem","address":"2296 Frederick Douglass Blvd","lat":40.80909473653085,"lng":-73.95178231851682,"neighborhood":"Central Harlem","city_fetched":"Astoria,US","state":"NY","country":"United States","canonicalUrl":"https://foursquare.com/v/wxyz-bar-at-aloft-harlem/4d2e4dbb5055a35d2cbe91ca","categoryId":"4bf58dd8d48988d1d5941735","category":"Hotel Bar","checkinsCount":1510,"usersCount":794,"tipCount":24,"visitsCount":1515,"url":"http://aloftharlem.com","tier":"","message":"","currency":"","rating":6.5},{"name":"McCaffrey & Burke Bar & Grill","phone":"7182789751","address":"28-54 31st St","lat":40.76722859393558,"lng":-73.9212082604814,"neighborhood":"Astoria","city_fetched":"Astoria,US","state":"NY","country":"United States","canonicalUrl":"https://foursquare.com/v/mccaffrey--burke-bar--grill/4b90aa27f964a520ac9333e3","categoryId":"4bf58dd8d48988d118941735","category":"Dive Bar","checkinsCount":1502,"usersCount":359,"tipCount":6,"visitsCount":1509,"url":"http://mccaffreys.com","tier":1,"message":"Cheap","currency":"$","rating":6.5},{"name":"Lexington Bar & Books","phone":"2127173902","address":"1020 Lexington Ave","lat":40.77107228328751,"lng":-73.96180997080033,"neighborhood":"Upper East Side","city_fetched":"Astoria,US","state":"NY","country":"United States","canonicalUrl":"https://foursquare.com/v/lexington-bar--books/41842b00f964a520e51d1fe3","categoryId":"4bf58dd8d48988d11e941735","category":"Cocktail Bar","checkinsCount":1885,"usersCount":1269,"tipCount":26,"visitsCount":1956,"url":"http://www.barandbooks.cz/lexington/","tier":"","message":"","currency":"","rating":6.5},{"name":"Gleason's","phone":"7186265393","address":"33-08 Broadway","lat":40.76099075761586,"lng":-73.92349315768303,"neighborhood":"Astoria","city_fetched":"Astoria,US","state":"NY","country":"United States","canonicalUrl":"https://foursquare.com/v/gleasons/4a3d6d24f964a52041a21fe3","categoryId":"4bf58dd8d48988d116941735","category":"Bar","checkinsCount":6397,"usersCount":2676,"tipCount":49,"visitsCount":6598,"tier":2,"message":"Moderate","currency":"$","rating":6.5},{"name":"Keats Bar","phone":"2126825490","twitter":"keatsbar","address":"842 2nd Ave","lat":40.751659746995585,"lng":-73.97085564837951,"neighborhood":"Turtle Bay","city_fetched":"Astoria,US","state":"NY","country":"United States","canonicalUrl":"https://foursquare.com/v/keats-bar/3fd66200f964a52051eb1ee3","categoryId":"4bf58dd8d48988d11b941735","category":"Pub","checkinsCount":6482,"usersCount":3453,"tipCount":44,"visitsCount":6663,"url":"http://keatsbar.com","tier":1,"message":"Cheap","currency":"$","rating":6.5},{"name":"Blooms Tavern","phone":"2123089400","address":"208 E 58th St","lat":40.760635,"lng":-73.96669,"neighborhood":"Midtown East","city_fetched":"Astoria,US","state":"NY","country":"United States","canonicalUrl":"https://foursquare.com/v/blooms-tavern/52645c5611d29cd4dea4fe5e","categoryId":"4bf58dd8d48988d116941735","category":"Bar","checkinsCount":1846,"usersCount":1317,"tipCount":23,"visitsCount":2129,"url":"http://www.bloomsnyc.com","tier":2,"message":"Moderate","currency":"$","rating":6.5},{"name":"The Lobby at Royalton Hotel","twitter":"morganshotels","address":"44 W 44th St","lat":40.75577691667072,"lng":-73.9822654528164,"neighborhood":"Midtown East","city_fetched":"Astoria,US","state":"NY","country":"United States","canonicalUrl":"https://foursquare.com/v/the-lobby-at-royalton-hotel/4b4ea885f964a52087f326e3","categoryId":"4bf58dd8d48988d1d5941735","category":"Hotel Bar","checkinsCount":668,"usersCount":475,"tipCount":5,"visitsCount":668,"url":"http://backofhouse.morganshotelgroup.com","tier":"","message":"","currency":"","rating":6.4},{"name":"Sheraton Club Lounge","phone":"2125811000","address":"811 7th Ave","lat":40.76224021150137,"lng":-73.98177762291908,"neighborhood":"Theater District","city_fetched":"Astoria,US","state":"NY","country":"United States","canonicalUrl":"https://foursquare.com/v/sheraton-club-lounge/4bc25fcb4cdfc9b6d3149621","categoryId":"4bf58dd8d48988d1d5941735","category":"Hotel Bar","checkinsCount":1654,"usersCount":742,"tipCount":9,"visitsCount":1654,"url":"http://sheratonnewyork.com/club-lounge/","tier":"","message":"","currency":"","rating":6.4},{"name":"Townhouse Bar New York","phone":"2127544649","twitter":"thouseny","address":"236 E 58th St","lat":40.76023825473141,"lng":-73.96573593884727,"neighborhood":"Midtown East","city_fetched":"Astoria,US","state":"NY","country":"United States","canonicalUrl":"https://foursquare.com/v/townhouse-bar-new-york/4a99fad0f964a520503120e3","categoryId":"4bf58dd8d48988d1d8941735","category":"Gay Bar","checkinsCount":2762,"usersCount":1290,"tipCount":17,"visitsCount":2921,"url":"http://townhouseny.com","tier":2,"message":"Moderate","currency":"$","rating":6.4},{"name":"Johnny Utah's","phone":"2122658824","twitter":"johnnyutahsnyc","address":"25 W 51st St","lat":40.75969029112959,"lng":-73.97834556111567,"neighborhood":"Rockefeller Center","city_fetched":"Astoria,US","state":"NY","country":"United States","canonicalUrl":"https://foursquare.com/v/johnny-utahs/46d07785f964a5204f4a1fe3","categoryId":"4bf58dd8d48988d116941735","category":"Bar","checkinsCount":15258,"usersCount":11414,"tipCount":115,"visitsCount":15707,"url":"http://www.calicojacksnyc.com","tier":2,"message":"Moderate","currency":"$","rating":6.4},{"name":"Sweet Spot","address":"22-72 31st St","lat":40.77455654351791,"lng":-73.9128032819498,"neighborhood":"Ditmars","city_fetched":"Astoria,US","state":"NY","country":"United States","canonicalUrl":"https://foursquare.com/v/sweet-spot/5269c008498e3ba2a46642fb","categoryId":"4bf58dd8d48988d11d941735","category":"Sports Bar","checkinsCount":1844,"usersCount":1103,"tipCount":28,"visitsCount":2178,"tier":2,"message":"Moderate","currency":"$","rating":6.4},{"name":"Pig 'n' Whistle","phone":"2128322021","address":"951 2nd Ave","lat":40.75533,"lng":-73.968463,"neighborhood":"Turtle Bay","city_fetched":"Astoria,US","state":"NY","country":"United States","canonicalUrl":"https://foursquare.com/v/pig-n-whistle/4b60e6c6f964a52087002ae3","categoryId":"4bf58dd8d48988d11b941735","category":"Pub","checkinsCount":9802,"usersCount":5933,"tipCount":59,"visitsCount":9898,"url":"http://www.pignwhistleon2.com","tier":1,"message":"Cheap","currency":"$","rating":6.4},{"name":"Ice Lounge","address":"33-04 Broadway","lat":40.76114370916166,"lng":-73.9236481622989,"neighborhood":"Astoria","city_fetched":"Astoria,US","state":"NY","country":"United States","canonicalUrl":"https://foursquare.com/v/ice-lounge/4ff02651e4b0c664a703c8b6","categoryId":"4bf58dd8d48988d121941735","category":"Lounge","checkinsCount":565,"usersCount":193,"tipCount":6,"visitsCount":567,"tier":"","message":"","currency":"","rating":6.4},{"name":"Minus 5° Ice Bar","phone":"2127574610","twitter":"minus5icebar","address":"1335 Avenue of the Americas","lat":40.76200487034689,"lng":-73.97922940897627,"neighborhood":"Theater District","city_fetched":"Astoria,US","state":"NY","country":"United States","canonicalUrl":"https://foursquare.com/v/minus-5-ice-bar/516eb2e4e4b0edbfd5442a05","categoryId":"4bf58dd8d48988d11e941735","category":"Cocktail Bar","checkinsCount":2121,"usersCount":2005,"tipCount":58,"visitsCount":2121,"url":"http://www.minus5experience.com","tier":4,"message":"Very Expensive","currency":"$","rating":6.4},{"name":"PJ Leahy's","phone":"7184725131","address":"50-02 Vernon Blvd","lat":40.742695,"lng":-73.954032,"neighborhood":"Hunters Point","city_fetched":"Astoria,US","state":"NY","country":"United States","canonicalUrl":"https://foursquare.com/v/pj-leahys/44ddaf3cf964a520bd361fe3","categoryId":"4bf58dd8d48988d11b941735","category":"Pub","checkinsCount":2047,"usersCount":1018,"tipCount":22,"visitsCount":2128,"tier":2,"message":"Moderate","currency":"$","rating":6.4},{"name":"L Lounge","phone":"2129611010","address":"2141 Frederick Douglass Blvd","lat":40.80381515127595,"lng":-73.95580032987125,"neighborhood":"Central Harlem","city_fetched":"Astoria,US","state":"NY","country":"United States","canonicalUrl":"https://foursquare.com/v/l-lounge/4f52db39e4b050039e160c76","categoryId":"4bf58dd8d48988d116941735","category":"Bar","checkinsCount":598,"usersCount":426,"tipCount":20,"visitsCount":607,"url":"http://harlemllounge.com","tier":"","message":"","currency":"","rating":6.3},{"name":"Riviera","phone":"7189376664","address":"3448 Steinway St","lat":40.75546586313989,"lng":-73.92230272293091,"neighborhood":"Astoria","city_fetched":"Astoria,US","state":"NY","country":"United States","canonicalUrl":"https://foursquare.com/v/riviera/4c6a36cc8e7c0f47b0b8e10f","categoryId":"4bf58dd8d48988d1d6941735","category":"Strip Club","checkinsCount":1218,"usersCount":678,"tipCount":5,"visitsCount":1237,"tier":"","message":"","currency":"","rating":6.3},{"name":"McKeown's","phone":"2124522011","address":"1303 3rd Ave","lat":40.77142329502229,"lng":-73.95939350921594,"neighborhood":"Upper East Side","city_fetched":"Astoria,US","state":"NY","country":"United States","canonicalUrl":"https://foursquare.com/v/mckeowns/4a15c1d0f964a520c9781fe3","categoryId":"4bf58dd8d48988d11b941735","category":"Pub","checkinsCount":3142,"usersCount":1929,"tipCount":15,"visitsCount":3160,"url":"http://mckeownsnyc.com","tier":2,"message":"Moderate","currency":"$","rating":6.3},{"name":"The Parlour","phone":"2125808923","address":"250 W 86th St","lat":40.78849953864365,"lng":-73.97683612323384,"neighborhood":"Upper West Side","city_fetched":"Astoria,US","state":"NY","country":"United States","canonicalUrl":"https://foursquare.com/v/the-parlour/3fd66200f964a52064e91ee3","categoryId":"4bf58dd8d48988d116941735","category":"Bar","checkinsCount":9626,"usersCount":5469,"tipCount":53,"visitsCount":11338,"url":"http://theparlour.com","tier":2,"message":"Moderate","currency":"$","rating":6.3},{"name":"O'Flanagan's","phone":"2124390660","address":"1215 1st Ave","lat":40.763813694658516,"lng":-73.95900893890409,"neighborhood":"Upper East Side","city_fetched":"Astoria,US","state":"NY","country":"United States","canonicalUrl":"https://foursquare.com/v/oflanagans/3fd66200f964a52010eb1ee3","categoryId":"4bf58dd8d48988d11b941735","category":"Pub","checkinsCount":7409,"usersCount":3493,"tipCount":30,"visitsCount":7827,"url":"http://oflanagans.com","tier":2,"message":"Moderate","currency":"$","rating":6.2},{"name":"Show Palace","phone":"7189376969","address":"42-50 21st St","lat":40.75120702741366,"lng":-73.94558867740213,"city_fetched":"Astoria,US","state":"NY","country":"United States","canonicalUrl":"https://foursquare.com/v/show-palace/4f95f358e4b0266a4f369889","categoryId":"4bf58dd8d48988d1d6941735","category":"Strip Club","checkinsCount":802,"usersCount":382,"tipCount":6,"visitsCount":916,"url":"http://showpalaceny.com","tier":"","message":"","currency":"","rating":6.2},{"name":"Maggie's Place","phone":"2127535757","twitter":"maggiesplacenyc","address":"21 E 47th St","lat":40.75605,"lng":-73.977145,"neighborhood":"Midtown East","city_fetched":"Astoria,US","state":"NY","country":"United States","canonicalUrl":"https://foursquare.com/v/maggies-place/4b036126f964a520114f22e3","categoryId":"4bf58dd8d48988d116941735","category":"Bar","checkinsCount":3336,"usersCount":2308,"tipCount":21,"visitsCount":3553,"url":"http://www.maggiesnyc.com","tier":2,"message":"Moderate","currency":"$","rating":6.2},{"name":"After 8 Cafe Lounge","phone":"7187775757","address":"2587 Steinway St","lat":40.765853015988284,"lng":-73.9133774040587,"neighborhood":"Astoria","city_fetched":"Astoria,US","state":"NY","country":"United States","canonicalUrl":"https://foursquare.com/v/after-8-cafe-lounge/4c79d2223badb1f7e09a5054","categoryId":"4bf58dd8d48988d119941735","category":"Hookah Bar","checkinsCount":838,"usersCount":552,"tipCount":9,"visitsCount":925,"tier":"","message":"","currency":"","rating":6.2},{"name":"P.J. Carney's Pub","phone":"2126640056","address":"906 7th Ave","lat":40.765682095761896,"lng":-73.97971150609682,"neighborhood":"Theater District","city_fetched":"Astoria,US","state":"NY","country":"United States","canonicalUrl":"https://foursquare.com/v/pj-carneys-pub/3fd66200f964a520b3e71ee3","categoryId":"4bf58dd8d48988d11b941735","category":"Pub","checkinsCount":4039,"usersCount":2921,"tipCount":25,"visitsCount":4244,"url":"http://www.pjcarneys.com","tier":"","message":"","currency":"","rating":6.2},{"name":"McLoughlin's Pub","address":"3106 Broadway","lat":40.76183069473482,"lng":-73.92510634781598,"neighborhood":"Astoria","city_fetched":"Astoria,US","state":"NY","country":"United States","canonicalUrl":"https://foursquare.com/v/mcloughlins-pub/4ab438e8f964a520727020e3","categoryId":"4bf58dd8d48988d11b941735","category":"Pub","checkinsCount":1641,"usersCount":485,"tipCount":23,"visitsCount":1651,"tier":"","message":"","currency":"","rating":6.1},{"name":"Murphy's Pub","phone":"2127515400","twitter":"murphyspubnyc","address":"977 2nd Ave","lat":40.75603712470458,"lng":-73.96771037209267,"neighborhood":"Turtle Bay","city_fetched":"Astoria,US","state":"NY","country":"United States","canonicalUrl":"https://foursquare.com/v/murphys-pub/3fd66200f964a52005e81ee3","categoryId":"4bf58dd8d48988d11b941735","category":"Pub","checkinsCount":3676,"usersCount":2521,"tipCount":16,"visitsCount":3699,"url":"http://www.murphyspubnyc.com","tier":2,"message":"Moderate","currency":"$","rating":6.1},{"name":"Carlow East","phone":"2126509118","address":"1254 Lexington Ave","lat":40.778678,"lng":-73.9561676,"neighborhood":"Upper East Side","city_fetched":"Astoria,US","state":"NY","country":"United States","canonicalUrl":"https://foursquare.com/v/carlow-east/49f10726f964a5207f691fe3","categoryId":"4bf58dd8d48988d11b941735","category":"Pub","checkinsCount":4277,"usersCount":1828,"tipCount":28,"visitsCount":4341,"tier":1,"message":"Cheap","currency":"$","rating":6.1},{"name":"Eamonn's Bar & Grill","phone":"2128679013","address":"9 E 45th St","lat":40.755182769740934,"lng":-73.97856939310088,"neighborhood":"Midtown East","city_fetched":"Astoria,US","state":"NY","country":"United States","canonicalUrl":"https://foursquare.com/v/eamonns-bar--grill/4a07535af964a5204c731fe3","categoryId":"4bf58dd8d48988d11b941735","category":"Pub","checkinsCount":3622,"usersCount":2585,"tipCount":28,"visitsCount":3652,"url":"http://eamonns.biz","tier":2,"message":"Moderate","currency":"$","rating":6.1},{"name":"No Partners","phone":"7182789839","lat":40.7783641,"lng":-73.909139,"neighborhood":"Ditmars","city_fetched":"Astoria,US","state":"NY","country":"United States","canonicalUrl":"https://foursquare.com/v/no-partners/4e2248e67d8b71715bb4bb20","categoryId":"4bf58dd8d48988d116941735","category":"Bar","checkinsCount":787,"usersCount":239,"tipCount":9,"visitsCount":884,"tier":"","message":"","currency":"","rating":6.1},{"name":"CENSO Lounge","phone":"3478087592","address":"3184 33rd St","lat":40.7615765,"lng":-73.9236516,"neighborhood":"Astoria","city_fetched":"Astoria,US","state":"NY","country":"United States","canonicalUrl":"https://foursquare.com/v/censo-lounge/4e06807cd4c03ae0b9c47dcc","categoryId":"4bf58dd8d48988d121941735","category":"Lounge","checkinsCount":671,"usersCount":155,"tipCount":11,"visitsCount":673,"tier":"","message":"","currency":"","rating":6.1},{"name":"Vista Skylounge & Catering","phone":"3475363640","address":"27-05 39th Ave","lat":40.75439307432982,"lng":-73.93567085266113,"city_fetched":"Astoria,US","state":"NY","country":"United States","canonicalUrl":"https://foursquare.com/v/vista-skylounge--catering/4e0f45c11850f76fc9c95d70","categoryId":"4bf58dd8d48988d1d5941735","category":"Hotel Bar","checkinsCount":164,"usersCount":144,"tipCount":3,"visitsCount":167,"tier":"","message":"","currency":"","rating":6},{"name":"Connolly's Pub & Restaurant","phone":"2128673767","twitter":"connollysny","address":"14 E 47th St","lat":40.75637347380885,"lng":-73.97767980290183,"neighborhood":"Midtown East","city_fetched":"Astoria,US","state":"NY","country":"United States","canonicalUrl":"https://foursquare.com/v/connollys-pub--restaurant/41a12c00f964a520351e1fe3","categoryId":"4bf58dd8d48988d11b941735","category":"Pub","checkinsCount":7563,"usersCount":5298,"tipCount":31,"visitsCount":7623,"url":"http://connollyspubandrestaurant.com","tier":2,"message":"Moderate","currency":"$","rating":6},{"name":"Bungalo Lounge","phone":"7182047010","twitter":"bungaloastoria","address":"3203 Broadway","lat":40.761606,"lng":-73.924453,"neighborhood":"Astoria","city_fetched":"Astoria,US","state":"NY","country":"United States","canonicalUrl":"https://foursquare.com/v/bungalo-lounge/4aadcaa1f964a520736120e3","categoryId":"4bf58dd8d48988d121941735","category":"Lounge","checkinsCount":1529,"usersCount":684,"tipCount":11,"visitsCount":1537,"url":"http://bungaloastoria.com","tier":"","message":"","currency":"","rating":6},{"name":"Kelly's Bar and Grill","phone":"7182789734","address":"3104 Crescent St","lat":40.765686641922855,"lng":-73.92644970588745,"neighborhood":"Astoria","city_fetched":"Astoria,US","state":"NY","country":"United States","canonicalUrl":"https://foursquare.com/v/kellys-bar-and-grill/48976cd8f964a52079511fe3","categoryId":"4bf58dd8d48988d116941735","category":"Bar","checkinsCount":1127,"usersCount":428,"tipCount":2,"visitsCount":1474,"tier":"","message":"","currency":"","rating":6},{"name":"Connolly's Pub","phone":"2124890271","twitter":"connollysny","address":"43 W 54th St","lat":40.76207284418766,"lng":-73.97773145663882,"neighborhood":"Midtown East","city_fetched":"Astoria,US","state":"NY","country":"United States","canonicalUrl":"https://foursquare.com/v/connollys-pub/4b1c488ff964a520820524e3","categoryId":"4bf58dd8d48988d11b941735","category":"Pub","checkinsCount":3809,"usersCount":3015,"tipCount":30,"visitsCount":3822,"url":"http://connollyspubandrestaurant.com","tier":2,"message":"Moderate","currency":"$","rating":6},{"name":"Randolph's Bar & Lounge","phone":"2123147853","twitter":"randolphsbar","address":"65 W 54th St","lat":40.762245232000275,"lng":-73.97870139645721,"neighborhood":"Midtown East","city_fetched":"Astoria,US","state":"NY","country":"United States","canonicalUrl":"https://foursquare.com/v/randolphs-bar--lounge/40fc6080f964a520ff0a1fe3","categoryId":"4bf58dd8d48988d116941735","category":"Bar","checkinsCount":1248,"usersCount":902,"tipCount":16,"visitsCount":1249,"url":"http://www.warwickhotelny.com","tier":3,"message":"Expensive","currency":"$","rating":6},{"name":"The Stagecoach Tavern","phone":"2129759042","address":"834 7th Ave","lat":40.76328369515235,"lng":-73.9818263053894,"neighborhood":"Theater District","city_fetched":"Astoria,US","state":"NY","country":"United States","canonicalUrl":"https://foursquare.com/v/the-stagecoach-tavern/52015cfb8bbd513f19d06917","categoryId":"4bf58dd8d48988d11b941735","category":"Pub","checkinsCount":1491,"usersCount":1159,"tipCount":16,"visitsCount":1515,"url":"http://www.thestagecoachtavern.com","tier":2,"message":"Moderate","currency":"$","rating":5.9},{"name":"Cassidy's Pub and Restaurant","phone":"2123970814","address":"65 W 55th St","lat":40.762804091451905,"lng":-73.97765684568093,"neighborhood":"Midtown East","city_fetched":"Astoria,US","state":"NY","country":"United States","canonicalUrl":"https://foursquare.com/v/cassidys-pub-and-restaurant/43d17252f964a520052e1fe3","categoryId":"4bf58dd8d48988d11b941735","category":"Pub","checkinsCount":4302,"usersCount":2540,"tipCount":31,"visitsCount":4342,"url":"http://www.cassidyspubnyc.com","tier":2,"message":"Moderate","currency":"$","rating":5.9},{"name":"the POP BAR","phone":"7182048313","twitter":"thepopbar","address":"12-21 Astoria Blvd","lat":40.77220968971737,"lng":-73.92923086881638,"neighborhood":"Astoria","city_fetched":"Astoria,US","state":"NY","country":"United States","canonicalUrl":"https://foursquare.com/v/the-pop-bar/53593356498ee0732e6e7189","categoryId":"4bf58dd8d48988d116941735","category":"Bar","checkinsCount":327,"usersCount":159,"tipCount":3,"visitsCount":359,"tier":"","message":"","currency":"","rating":5.9},{"name":"Lobby Lounge","phone":"2125867000","twitter":"hiltonhotels","address":"1335 Avenue of the Americas","lat":40.7622099525472,"lng":-73.97953358944307,"neighborhood":"Theater District","city_fetched":"Astoria,US","state":"NY","country":"United States","canonicalUrl":"https://foursquare.com/v/lobby-lounge/50ca02c3245f2d4aa8c2beac","categoryId":"4bf58dd8d48988d1d5941735","category":"Hotel Bar","checkinsCount":830,"usersCount":585,"tipCount":4,"visitsCount":830,"url":"http://www.hilton.com","tier":"","message":"","currency":"","rating":5.9},{"name":"Jelsomino","phone":"2123337799","twitter":"jelsomino_nyc","address":"204 W 55th St","lat":40.7644663543349,"lng":-73.98200145090809,"neighborhood":"Theater District","city_fetched":"Astoria,US","state":"NY","country":"United States","canonicalUrl":"https://foursquare.com/v/jelsomino/4f7df52ce4b02c0a5b12dd89","categoryId":"4bf58dd8d48988d120941735","category":"Karaoke Bar","checkinsCount":347,"usersCount":245,"tipCount":10,"visitsCount":348,"url":"http://www.jelsomino.us","tier":"","message":"","currency":"","rating":5.9},{"name":"Oldcastle Pub","phone":"2124714860","address":"160 W 54th St","lat":40.763237,"lng":-73.980944,"neighborhood":"Theater District","city_fetched":"Astoria,US","state":"NY","country":"United States","canonicalUrl":"https://foursquare.com/v/oldcastle-pub/4a556dc4f964a5202eb41fe3","categoryId":"4bf58dd8d48988d11b941735","category":"Pub","checkinsCount":4650,"usersCount":3156,"tipCount":44,"visitsCount":4694,"url":"http://oldcastlepub.com","tier":2,"message":"Moderate","currency":"$","rating":5.9},{"name":"Crystal lounge","address":"25-83 Steinway St","lat":40.7659453661891,"lng":-73.91330850949505,"neighborhood":"Astoria","city_fetched":"Astoria,US","state":"NY","country":"United States","canonicalUrl":"https://foursquare.com/v/crystal-lounge/4fa8a412e4b0f6de2cbbf400","categoryId":"4bf58dd8d48988d119941735","category":"Hookah Bar","checkinsCount":389,"usersCount":300,"tipCount":14,"visitsCount":395,"tier":"","message":"","currency":"","rating":5.8},{"name":"Secrets Gentlemen's Club","phone":"7183960939","twitter":"secretsny","address":"4914 Queens Blvd","lat":40.742717874920544,"lng":-73.91542700617308,"neighborhood":"Sunnyside","city_fetched":"Astoria,US","state":"NY","country":"United States","canonicalUrl":"https://foursquare.com/v/secrets-gentlemens-club/4bda5ea3c79cc9280eb77ee9","categoryId":"4bf58dd8d48988d1d6941735","category":"Strip Club","checkinsCount":848,"usersCount":260,"tipCount":8,"visitsCount":851,"url":"http://www.secretsny.com","tier":"","message":"","currency":"","rating":5.8},{"name":"Broadway Station","phone":"7185455869","twitter":"bwaystationnyc","address":"3009 Broadway","lat":40.762219,"lng":-73.925739,"neighborhood":"Astoria","city_fetched":"Astoria,US","state":"NY","country":"United States","canonicalUrl":"https://foursquare.com/v/broadway-station/4b4a466cf964a520e88126e3","categoryId":"4bf58dd8d48988d11d941735","category":"Sports Bar","checkinsCount":4480,"usersCount":2112,"tipCount":32,"visitsCount":4496,"tier":1,"message":"Cheap","currency":"$","rating":5.8},{"name":"Niall's on 52nd","phone":"2128884648","address":"218 E 52nd St","lat":40.756727742132675,"lng":-73.96905343430825,"neighborhood":"Turtle Bay","city_fetched":"Astoria,US","state":"NY","country":"United States","canonicalUrl":"https://foursquare.com/v/nialls-on-52nd/4a7b83fef964a52045eb1fe3","categoryId":"4bf58dd8d48988d11b941735","category":"Pub","checkinsCount":3619,"usersCount":1843,"tipCount":32,"visitsCount":3688,"url":"http://niallson52nd.com","tier":2,"message":"Moderate","currency":"$","rating":5.8},{"name":"O'Hanlon's Irish Pub","phone":"7187289619","address":"22-57 31st St","lat":40.77485028667886,"lng":-73.9120352268219,"neighborhood":"Astoria","city_fetched":"Astoria,US","state":"NY","country":"United States","canonicalUrl":"https://foursquare.com/v/ohanlons-irish-pub/4b80c480f964a520ff8a30e3","categoryId":"4bf58dd8d48988d11b941735","category":"Pub","checkinsCount":1576,"usersCount":524,"tipCount":11,"visitsCount":1596,"tier":1,"message":"Cheap","currency":"$","rating":5.8},{"name":"The Met Bar","phone":"2127527000","address":"569 Lexington Ave","lat":40.75702412340581,"lng":-73.97201502558673,"neighborhood":"Midtown East","city_fetched":"Astoria,US","state":"NY","country":"United States","canonicalUrl":"https://foursquare.com/v/the-met-bar/4c86d27351ada1cdd1344310","categoryId":"4bf58dd8d48988d1d5941735","category":"Hotel Bar","checkinsCount":305,"usersCount":229,"tipCount":4,"visitsCount":306,"tier":"","message":"","currency":"","rating":5.7},{"name":"The Irish Exit","phone":"2127558383","address":"978 2nd Ave","lat":40.75580720140376,"lng":-73.96755695343018,"neighborhood":"Turtle Bay","city_fetched":"Astoria,US","state":"NY","country":"United States","canonicalUrl":"https://foursquare.com/v/the-irish-exit/4c082c5a340720a116b98293","categoryId":"4bf58dd8d48988d11b941735","category":"Pub","checkinsCount":15174,"usersCount":8204,"tipCount":73,"visitsCount":15508,"url":"http://www.calicojacksnyc.com","tier":2,"message":"Moderate","currency":"$","rating":5.7},{"name":"Static Lounge","address":"28-43 Steinway St","lat":40.76431,"lng":-73.914561,"neighborhood":"Astoria","city_fetched":"Astoria,US","state":"NY","country":"United States","canonicalUrl":"https://foursquare.com/v/static-lounge/4bf601d59abec9b6703425e8","categoryId":"4bf58dd8d48988d121941735","category":"Lounge","checkinsCount":671,"usersCount":438,"tipCount":3,"visitsCount":672,"tier":"","message":"","currency":"","rating":5.7},{"name":"VU 46","address":"59 W 46th St","lat":40.75693832170772,"lng":-73.98166857841976,"neighborhood":"Midtown East","city_fetched":"Astoria,US","state":"NY","country":"United States","canonicalUrl":"https://foursquare.com/v/vu-46/5466ca26498ebcd5abf5923b","categoryId":"4bf58dd8d48988d1d5941735","category":"Hotel Bar","checkinsCount":163,"usersCount":138,"tipCount":1,"visitsCount":165,"tier":"","message":"","currency":"","rating":5.6},{"name":"Evolve Lounge","phone":"2123553395","address":"221 E 58th St","lat":40.76047124261153,"lng":-73.96599996306912,"neighborhood":"Midtown East","city_fetched":"Astoria,US","state":"NY","country":"United States","canonicalUrl":"https://foursquare.com/v/evolve-lounge/4bc39cd3abf495216305c493","categoryId":"4bf58dd8d48988d1d8941735","category":"Gay Bar","checkinsCount":1777,"usersCount":876,"tipCount":20,"visitsCount":1807,"tier":"","message":"","currency":"","rating":5.6},{"name":"Pig 'N' Whistle @ Rockefeller Center","phone":"2123020112","twitter":"pignwhistle48st","address":"58 W 48th St","lat":40.7584256559778,"lng":-73.98044038873341,"neighborhood":"Rockefeller Center","city_fetched":"Astoria,US","state":"NY","country":"United States","canonicalUrl":"https://foursquare.com/v/pig-n-whistle--rockefeller-center/4d66eb81cba6a35d7300c7c1","categoryId":"4bf58dd8d48988d11b941735","category":"Pub","checkinsCount":4335,"usersCount":3290,"tipCount":17,"visitsCount":4394,"url":"http://thepigpubnyc.com","tier":2,"message":"Moderate","currency":"$","rating":5.5},{"name":"The Shannon Pot","address":"21-59 44th Dr","lat":40.74782330319835,"lng":-73.94507779360832,"city_fetched":"Astoria,US","state":"NY","country":"United States","canonicalUrl":"https://foursquare.com/v/the-shannon-pot/52ea9b5f498ef0a9ad71e051","categoryId":"4bf58dd8d48988d11b941735","category":"Pub","checkinsCount":515,"usersCount":393,"tipCount":8,"visitsCount":549,"tier":"","message":"","currency":"","rating":5.4},{"name":"P. J. Moran's Irish Pub & Restaurant","phone":"2127536440","address":"3 E 48th St","lat":40.756814951767126,"lng":-73.9773416519165,"neighborhood":"Midtown East","city_fetched":"Astoria,US","state":"NY","country":"United States","canonicalUrl":"https://foursquare.com/v/p-j-morans-irish-pub--restaurant/4b31275cf964a520450125e3","categoryId":"4bf58dd8d48988d11b941735","category":"Pub","checkinsCount":2794,"usersCount":2253,"tipCount":35,"visitsCount":2828,"url":"http://www.pjmorans.com","tier":"","message":"","currency":"","rating":5.4},{"name":"T.G. Whitney's","phone":"2128885772","address":"244 E 53rd St","lat":40.75703689232919,"lng":-73.96789977886964,"neighborhood":"Turtle Bay","city_fetched":"Astoria,US","state":"NY","country":"United States","canonicalUrl":"https://foursquare.com/v/tg-whitneys/40fc6080f964a520100b1fe3","categoryId":"4bf58dd8d48988d116941735","category":"Bar","checkinsCount":3249,"usersCount":1876,"tipCount":13,"visitsCount":3283,"url":"http://www.tgwhitneys.com","tier":2,"message":"Moderate","currency":"$","rating":5.2},{"name":"Eastern Nights","address":"2535 Steinway St","lat":40.766979,"lng":-73.912507,"neighborhood":"Astoria","city_fetched":"Astoria,US","state":"NY","country":"United States","canonicalUrl":"https://foursquare.com/v/eastern-nights/4c5a2aa52091a593b6ec5ed0","categoryId":"4bf58dd8d48988d119941735","category":"Hookah Bar","checkinsCount":324,"usersCount":211,"tipCount":13,"visitsCount":326,"tier":"","message":"","currency":"","rating":5.1},{"name":"Link at Sheraton","address":"811 7th Ave","lat":40.762806878519434,"lng":-73.98213345190757,"neighborhood":"Theater District","city_fetched":"Astoria,US","state":"NY","country":"United States","canonicalUrl":"https://foursquare.com/v/link-at-sheraton/4bd4ddf94e32d13ae317c080","categoryId":"4bf58dd8d48988d1d5941735","category":"Hotel Bar","checkinsCount":521,"usersCount":190,"tipCount":1,"visitsCount":522,"tier":"","message":"","currency":"","rating":4.9},{"name":"Vander Bar","phone":"2128856131","twitter":"rooseveltnyc","address":"45 E 45th St","lat":40.754511469457505,"lng":-73.97711161087928,"neighborhood":"Midtown East","city_fetched":"Astoria,US","state":"NY","country":"United States","canonicalUrl":"https://foursquare.com/v/vander-bar/4b97b324f964a520781035e3","categoryId":"4bf58dd8d48988d1d5941735","category":"Hotel Bar","checkinsCount":3297,"usersCount":2055,"tipCount":22,"visitsCount":3306,"url":"http://www.thenyknow.com","tier":"","message":"","currency":"","rating":4.9},{"name":"Bridges","phone":"2125867000","twitter":"hiltonhotels","address":"1335 Avenue of the Americas","lat":40.76287817410185,"lng":-73.97926384452497,"neighborhood":"Theater District","city_fetched":"Astoria,US","state":"NY","country":"United States","canonicalUrl":"https://foursquare.com/v/bridges/50ca02c2245f2d4aa8c2bd43","categoryId":"4bf58dd8d48988d1d5941735","category":"Hotel Bar","checkinsCount":1250,"usersCount":913,"tipCount":13,"visitsCount":1250,"url":"http://www.hilton.com","tier":"","message":"","currency":"","rating":4.8}]