[{"name":"Terrapin Beer Co.","phone":"7065493377","twitter":"terrapinbeerco","address":"265 Newton Bridge Rd","lat":33.98035551895,"lng":-83.39634269066565,"city_fetched":"Athens","state":"GA","country":"United States","canonicalUrl":"https://foursquare.com/terrapinbeerco","category":"Brewery","checkinsCount":7249,"usersCount":3397,"tipCount":43,"visitsCount":8044,"url":"http://terrapinbeer.com","tier":2,"message":"Moderate","currency":"$","rating":9.3},{"name":"The Royal Peasant","phone":"7065497920","address":"1675 S Lumpkin St","lat":33.938077315347115,"lng":-83.38709950447083,"city_fetched":"Athens","state":"GA","country":"United States","canonicalUrl":"https://foursquare.com/v/the-royal-peasant/4b5b9ec3f964a520800b29e3","category":"Pub","checkinsCount":2990,"usersCount":1076,"tipCount":32,"visitsCount":3219,"url":"http://royalpeasant.com","tier":2,"message":"Moderate","currency":"$","rating":9.1},{"name":"Trappeze Pub","phone":"7065438996","twitter":"trappezepub","address":"269 N Hull St","lat":33.95861187121276,"lng":-83.37890803813934,"city_fetched":"Athens","state":"GA","country":"United States","canonicalUrl":"https://foursquare.com/v/trappeze-pub/4e766e10ae60c3285192db22","category":"Pub","checkinsCount":5618,"usersCount":3078,"tipCount":53,"visitsCount":6464,"url":"http://trappezepub.com","tier":2,"message":"Moderate","currency":"$","rating":9.1},{"name":"Creature Comforts Brewing Co.","twitter":"creaturebeer","address":"297 W Hancock Ave","lat":33.959059041755864,"lng":-83.3800721168518,"city_fetched":"Athens","state":"GA","country":"United States","canonicalUrl":"https://foursquare.com/v/creature-comforts-brewing-co/5113c0211648ac19ebc179c9","category":"Brewery","checkinsCount":1370,"usersCount":1127,"tipCount":21,"visitsCount":2005,"url":"http://creaturecomfortsbeer.com","tier":"","message":"","currency":"","rating":9},{"name":"Five Points Bottle Shop","phone":"7065436989","address":"1655 S Lumpkin St","lat":33.93821,"lng":-83.38685,"city_fetched":"Athens","state":"GA","country":"United States","canonicalUrl":"https://foursquare.com/v/five-points-bottle-shop/4b5a3bf9f964a5205ab628e3","category":"Liquor Store","checkinsCount":2106,"usersCount":835,"tipCount":10,"visitsCount":2138,"tier":"","message":"","currency":"","rating":8.9},{"name":"The Globe","phone":"7063534721","address":"199 N Lumpkin St","lat":33.958155410538524,"lng":-83.37711039518425,"city_fetched":"Athens","state":"GA","country":"United States","canonicalUrl":"https://foursquare.com/v/the-globe/40e0b100f964a5206c061fe3","category":"Bar","checkinsCount":4935,"usersCount":2113,"tipCount":29,"visitsCount":4991,"tier":2,"message":"Moderate","currency":"$","rating":8.8},{"name":"Shokitini","phone":"7063537933","address":"251 W Clayton St","lat":33.9576820080183,"lng":-83.37932759423516,"city_fetched":"Athens","state":"GA","country":"United States","canonicalUrl":"https://foursquare.com/v/shokitini/4b55fe4ff964a520defa27e3","category":"Sushi Restaurant","checkinsCount":2490,"usersCount":1439,"tipCount":29,"visitsCount":2627,"url":"http://www.shokitini.com","tier":2,"message":"Moderate","currency":"$","rating":8.7},{"name":"Walkers Coffee and Pub","phone":"7065431433","address":"128 College Ave","lat":33.95800896591401,"lng":-83.37532997131348,"city_fetched":"Athens","state":"GA","country":"United States","canonicalUrl":"https://foursquare.com/v/walkers-coffee-and-pub/4b3d8035f964a520ee9425e3","category":"Bar","checkinsCount":9361,"usersCount":2414,"tipCount":34,"visitsCount":9501,"url":"http://www.walkerscoffee.com","tier":1,"message":"Cheap","currency":"$","rating":8.6},{"name":"Little Kings Shuffle Club","phone":"7063693144","address":"223 W Hancock Ave","lat":33.9593021,"lng":-83.37924,"city_fetched":"Athens","state":"GA","country":"United States","canonicalUrl":"https://foursquare.com/v/little-kings-shuffle-club/4b4523bff964a520010626e3","category":"Bar","checkinsCount":2351,"usersCount":1100,"tipCount":11,"visitsCount":2483,"tier":1,"message":"Cheap","currency":"$","rating":8.6},{"name":"Sister Louisa's CHURCH (It's a Glory Hole!)","address":"254 W Clayton St","lat":33.95783667941848,"lng":-83.37935889531887,"city_fetched":"Athens","state":"GA","country":"United States","canonicalUrl":"https://foursquare.com/v/sister-louisas-church-its-a-glory-hole/536a6995498e5db7e4cf0c90","category":"Bar","checkinsCount":209,"usersCount":140,"tipCount":1,"visitsCount":219,"tier":"","message":"","currency":"","rating":8.5},{"name":"The World Famous","address":"351 N Hull St","lat":33.95906057601171,"lng":-83.37906153440527,"city_fetched":"Athens","state":"GA","country":"United States","canonicalUrl":"https://foursquare.com/v/the-world-famous/5123d30ce4b05c0c2afb906f","category":"Bar","checkinsCount":930,"usersCount":503,"tipCount":12,"visitsCount":979,"url":"http://theworldfamousathens.com","tier":2,"message":"Moderate","currency":"$","rating":8.4},{"name":"South Kitchen and Bar","address":"247 E Washington St","lat":33.959530329920256,"lng":-83.3752322370718,"city_fetched":"Athens","state":"GA","country":"United States","canonicalUrl":"https://foursquare.com/v/south-kitchen-and-bar/53a61e8b498e65f063dc65d9","category":"Gastropub","checkinsCount":232,"usersCount":202,"tipCount":2,"visitsCount":272,"tier":"","message":"","currency":"","rating":8.4},{"name":"Georgia Bar","phone":"7065469884","address":"159 W Clayton St","lat":33.95816914781237,"lng":-83.37728261947632,"city_fetched":"Athens","state":"GA","country":"United States","canonicalUrl":"https://foursquare.com/v/georgia-bar/4b6279b2f964a52003492ae3","category":"Dive Bar","checkinsCount":1288,"usersCount":443,"tipCount":6,"visitsCount":1294,"url":"http://gabar.org","tier":"","message":"","currency":"","rating":8.4},{"name":"Georgia Theatre Rooftop Bar","phone":"7068507670","twitter":"gatheatre","address":"215 N Lumpkin St","lat":33.95832599229562,"lng":-83.37734833359718,"city_fetched":"Athens","state":"GA","country":"United States","canonicalUrl":"https://foursquare.com/v/georgia-theatre-rooftop-bar/4e3783d9483bda3eb11225e5","category":"Bar","checkinsCount":2492,"usersCount":1218,"tipCount":10,"visitsCount":2502,"url":"http://georgiatheatre.com","tier":2,"message":"Moderate","currency":"$","rating":8.4},{"name":"Southern Brewing Company","twitter":"southernbrewco","address":"231 Collins Industrial Blvd","lat":33.98343851375969,"lng":-83.34810018539429,"city_fetched":"Athens","state":"GA","country":"United States","canonicalUrl":"https://foursquare.com/v/southern-brewing-company/50f5b2858055f0bbf8822350","category":"Brewery","checkinsCount":160,"usersCount":153,"tipCount":1,"visitsCount":273,"url":"http://www.sobrewco.com/home/","tier":"","message":"","currency":"","rating":8.4},{"name":"Pauley's Original Crepe Bar","phone":"7065490034","twitter":"pauleys","address":"134 E Clayton St","lat":33.958151349838566,"lng":-83.37666034698486,"city_fetched":"Athens","state":"GA","country":"United States","canonicalUrl":"https://foursquare.com/v/pauleys-original-crepe-bar/4ac40f7ef964a5200e9e20e3","category":"Bar","checkinsCount":8560,"usersCount":2139,"tipCount":38,"visitsCount":8609,"url":"http://pauleyscrepebar.com","tier":2,"message":"Moderate","currency":"$","rating":8.3},{"name":"Highwire Lounge","phone":"7065438997","twitter":"highwirelounge","address":"269 N Hull St","lat":33.95835223,"lng":-83.378827,"city_fetched":"Athens","state":"GA","country":"United States","canonicalUrl":"https://foursquare.com/v/highwire-lounge/4b590263f964a520387828e3","category":"Cocktail Bar","checkinsCount":2979,"usersCount":1164,"tipCount":24,"visitsCount":2984,"url":"http://www.highwirelounge.com","tier":"","message":"","currency":"","rating":8.2},{"name":"Hi-Lo","address":"1354 Prince Ave","lat":33.963580364277846,"lng":-83.40085390472566,"city_fetched":"Athens","state":"GA","country":"United States","canonicalUrl":"https://foursquare.com/v/hilo/528e67ed11d2bf64d854cd26","category":"Bar","checkinsCount":428,"usersCount":151,"tipCount":2,"visitsCount":484,"url":"http://hiloathens.com","tier":"","message":"","currency":"","rating":8.1},{"name":"Normal Bar","phone":"7065486186","address":"1365 Prince Ave","lat":33.96336599688891,"lng":-83.40133666992188,"city_fetched":"Athens","state":"GA","country":"United States","canonicalUrl":"https://foursquare.com/v/normal-bar/4bd822be5cf276b060819c00","category":"Bar","checkinsCount":1856,"usersCount":594,"tipCount":22,"visitsCount":1910,"tier":"","message":"","currency":"","rating":8},{"name":"General Beauregard's","phone":"7065438201","address":"164 E Clayton St","lat":33.95822254171146,"lng":-83.37647795677185,"city_fetched":"Athens","state":"GA","country":"United States","canonicalUrl":"https://foursquare.com/v/general-beauregards/4b7e1745f964a52069e22fe3","category":"Bar","checkinsCount":3902,"usersCount":1222,"tipCount":9,"visitsCount":3912,"tier":"","message":"","currency":"","rating":8},{"name":"J's Bottle Shop","phone":"7063538881","address":"1452 Prince Ave","lat":33.9644165896043,"lng":-83.402183739397,"city_fetched":"Athens","state":"GA","country":"United States","canonicalUrl":"https://foursquare.com/v/js-bottle-shop/4b968bc3f964a520acd334e3","category":"Liquor Store","checkinsCount":422,"usersCount":211,"tipCount":7,"visitsCount":493,"tier":"","message":"","currency":"","rating":8},{"name":"Flicker Theatre & Bar","phone":"7065460039","address":"263 W Washington St","lat":33.958379,"lng":-83.37977793,"city_fetched":"Athens","state":"GA","country":"United States","canonicalUrl":"https://foursquare.com/v/flicker-theatre--bar/4b7cccfff964a520eca52fe3","category":"Bar","checkinsCount":1433,"usersCount":535,"tipCount":8,"visitsCount":1466,"url":"http://flickertheatreandbar.com","tier":"","message":"","currency":"","rating":7.9},{"name":"Allgood Lounge","phone":"7065490166","address":"256 E Clayton St","lat":33.958542904402364,"lng":-83.37493300437927,"city_fetched":"Athens","state":"GA","country":"United States","canonicalUrl":"https://foursquare.com/v/allgood-lounge/4b8f5d4cf964a5208a5233e3","category":"Bar","checkinsCount":8134,"usersCount":2994,"tipCount":24,"visitsCount":8365,"url":"http://allgoodlounge.com","tier":2,"message":"Moderate","currency":"$","rating":7.9},{"name":"Buddha Bar","phone":"7062087017","address":"431 E Broad St","lat":33.958107589620006,"lng":-83.37356271692767,"city_fetched":"Athens","state":"GA","country":"United States","canonicalUrl":"https://foursquare.com/v/buddha-bar/4b19d1ebf964a520c9e423e3","category":"Bar","checkinsCount":3105,"usersCount":1186,"tipCount":19,"visitsCount":3122,"tier":1,"message":"Cheap","currency":"$","rating":7.9},{"name":"The Rook & Pawn","phone":"7065435040","twitter":"rooknpawn","lat":33.9586207586241,"lng":-83.38031357101688,"city_fetched":"Athens","state":"GA","country":"United States","canonicalUrl":"https://foursquare.com/v/the-rook--pawn/5596f637498e83c3b8747d0d","category":"Caf√©","checkinsCount":186,"usersCount":87,"tipCount":4,"visitsCount":235,"url":"http://therookandpawn.com","tier":"","message":"","currency":"","rating":7.9},{"name":"Manhattan Cafe","phone":"7063699767","address":"337 N Hull St","lat":33.95892216505159,"lng":-83.37888937745525,"city_fetched":"Athens","state":"GA","country":"United States","canonicalUrl":"https://foursquare.com/v/manhattan-cafe/4a7e3c9af964a52087f11fe3","category":"Bar","checkinsCount":1586,"usersCount":792,"tipCount":19,"visitsCount":1608,"tier":"","message":"","currency":"","rating":7.8},{"name":"DePalma's Italian Cafe","phone":"7063690085","address":"1965 Barnett Shoals Rd","lat":33.92313553009509,"lng":-83.34018230438232,"city_fetched":"Athens","state":"GA","country":"United States","canonicalUrl":"https://foursquare.com/v/depalmas-italian-cafe/4b526cb5f964a5209b7c27e3","category":"Italian Restaurant","checkinsCount":911,"usersCount":551,"tipCount":9,"visitsCount":987,"url":"http://www.depalmasitaliancafe.com","tier":2,"message":"Moderate","currency":"$","rating":7.7},{"name":"Wonderbar","lat":33.95923242115817,"lng":-83.37546179268637,"city_fetched":"Athens","state":"GA","country":"United States","canonicalUrl":"https://foursquare.com/v/wonderbar/5291865b11d2d81232697d42","category":"Arcade","checkinsCount":303,"usersCount":162,"tipCount":2,"visitsCount":319,"tier":"","message":"","currency":"","rating":7.7},{"name":"Speakeasy","phone":"7065465556","address":"269 E Broad St","lat":33.957968367469185,"lng":-83.37475225449012,"city_fetched":"Athens","state":"GA","country":"United States","canonicalUrl":"https://foursquare.com/v/speakeasy/4b64ffbaf964a5208dde2ae3","category":"Tapas Restaurant","checkinsCount":1075,"usersCount":735,"tipCount":12,"visitsCount":1075,"url":"http://speakeasyathens.com","tier":"","message":"","currency":"","rating":7.7},{"name":"Catch 22 Gastropub","phone":"7065496333","twitter":"catch22gp","address":"1021 Parkway Blvd","lat":33.92231864777846,"lng":-83.44143527317873,"city_fetched":"Athens","state":"GA","country":"United States","canonicalUrl":"https://foursquare.com/v/catch-22-gastropub/52290e5e498e94135b9a7d57","category":"Gastropub","checkinsCount":626,"usersCount":362,"tipCount":19,"visitsCount":840,"url":"http://www.catch22athens.com","tier":2,"message":"Moderate","currency":"$","rating":7.6},{"name":"Cutter's Pub","phone":"7063539800","address":"120 E Clayton St","lat":33.958186945782465,"lng":-83.37662816047668,"city_fetched":"Athens","state":"GA","country":"United States","canonicalUrl":"https://foursquare.com/v/cutters-pub/4b5bd10af964a520d91729e3","category":"Bar","checkinsCount":5005,"usersCount":1339,"tipCount":14,"visitsCount":5077,"tier":"","message":"","currency":"","rating":7.5},{"name":"Blue Sky","phone":"7065431433","twitter":"blueskyathens","address":"128 College Ave","lat":33.957953347128765,"lng":-83.3749195933342,"city_fetched":"Athens","state":"GA","country":"United States","canonicalUrl":"https://foursquare.com/v/blue-sky/4b19e4ddf964a520dce523e3","category":"Bar","checkinsCount":2805,"usersCount":1215,"tipCount":15,"visitsCount":2818,"tier":"","message":"","currency":"","rating":7.5},{"name":"Copper Creek Brewing Co.","phone":"7065461102","twitter":"coppercreekbrew","address":"140 E Washington St","lat":33.95890331098768,"lng":-83.37680518627167,"city_fetched":"Athens","state":"GA","country":"United States","canonicalUrl":"https://foursquare.com/v/copper-creek-brewing-co/4b3d6c70f964a520f79325e3","category":"Brewery","checkinsCount":4334,"usersCount":1934,"tipCount":38,"visitsCount":4599,"url":"http://www.coppercreekathens.com","tier":2,"message":"Moderate","currency":"$","rating":7.4},{"name":"The Blind Pig Tavern","phone":"7065483442","address":"485 Baldwin St","lat":33.9536525,"lng":-83.370134,"city_fetched":"Athens","state":"GA","country":"United States","canonicalUrl":"https://foursquare.com/v/the-blind-pig-tavern/4aea5cb4f964a5203abb21e3","category":"American Restaurant","checkinsCount":2712,"usersCount":1277,"tipCount":19,"visitsCount":3052,"url":"http://blindpigtavern.com","tier":1,"message":"Cheap","currency":"$","rating":7.4},{"name":"DePalma's","phone":"7065521237","address":"2080 Timothy Rd","lat":33.938372,"lng":-83.452494,"city_fetched":"Athens","state":"GA","country":"United States","canonicalUrl":"https://foursquare.com/v/depalmas/4baa3854f964a520a8543ae3","category":"Italian Restaurant","checkinsCount":1221,"usersCount":651,"tipCount":5,"visitsCount":1397,"url":"http://depalmasitaliancafe.com","tier":2,"message":"Moderate","currency":"$","rating":7.4},{"name":"RoadHouse","phone":"7066132324","address":"137 N Lumpkin St","lat":33.957884379784566,"lng":-83.37685346603394,"city_fetched":"Athens","state":"GA","country":"United States","canonicalUrl":"https://foursquare.com/v/roadhouse/4b6102f7f964a520fe052ae3","category":"Bar","checkinsCount":1332,"usersCount":433,"tipCount":4,"visitsCount":1335,"tier":"","message":"","currency":"","rating":7.3},{"name":"Treppenhaus","phone":"7063553060","address":"114 College Ave","lat":33.957929,"lng":-83.37531433333334,"city_fetched":"Athens","state":"GA","country":"United States","canonicalUrl":"https://foursquare.com/v/treppenhaus/4e50714145ddff0031cfa9ed","category":"Bar","checkinsCount":1634,"usersCount":554,"tipCount":8,"visitsCount":1636,"tier":"","message":"","currency":"","rating":7.2},{"name":"The Old Pal","lat":33.96334255151469,"lng":-83.40072352728713,"city_fetched":"Athens","state":"GA","country":"United States","canonicalUrl":"https://foursquare.com/v/the-old-pal/524f252c498e13087c843758","category":"Cocktail Bar","checkinsCount":261,"usersCount":80,"tipCount":6,"visitsCount":289,"tier":"","message":"","currency":"","rating":7.2},{"name":"City Bar","phone":"7065467612","address":"220 College Ave","lat":33.95888328843968,"lng":-83.3755874633789,"city_fetched":"Athens","state":"GA","country":"United States","canonicalUrl":"https://foursquare.com/v/city-bar/4b442694f964a52014f225e3","category":"Bar","checkinsCount":2044,"usersCount":707,"tipCount":9,"visitsCount":2047,"tier":"","message":"","currency":"","rating":7.1},{"name":"Magnolias","phone":"7065430797","address":"312 E Broad St","lat":33.95779251724581,"lng":-83.37417835754859,"city_fetched":"Athens","state":"GA","country":"United States","canonicalUrl":"https://foursquare.com/v/magnolias/4b4566d6f964a520150c26e3","category":"Bar","checkinsCount":13174,"usersCount":2519,"tipCount":27,"visitsCount":13295,"url":"http://athensnightout.com","tier":1,"message":"Cheap","currency":"$","rating":7},{"name":"Genco Import Co","phone":"7063540203","address":"246 E Clayton St","lat":33.9585271161562,"lng":-83.3749139881534,"city_fetched":"Athens","state":"GA","country":"United States","canonicalUrl":"https://foursquare.com/v/genco-import-co/4b7b8331f964a520ed652fe3","category":"Bar","checkinsCount":2147,"usersCount":594,"tipCount":7,"visitsCount":2156,"tier":"","message":"","currency":"","rating":7},{"name":"Nowhere Bar","phone":"7065464742","address":"240 N Lumpkin St","lat":33.9586539750254,"lng":-83.37710517815472,"city_fetched":"Athens","state":"GA","country":"United States","canonicalUrl":"https://foursquare.com/v/nowhere-bar/4538ac29f964a520cd3b1fe3","category":"Dive Bar","checkinsCount":2145,"usersCount":846,"tipCount":9,"visitsCount":2187,"tier":1,"message":"Cheap","currency":"$","rating":6.9},{"name":"100 Proof","twitter":"100proofathens","address":"364 E Broad St","lat":33.95782798932142,"lng":-83.37375054011758,"city_fetched":"Athens","state":"GA","country":"United States","canonicalUrl":"https://foursquare.com/100proofathens","category":"Bar","checkinsCount":600,"usersCount":274,"tipCount":8,"visitsCount":618,"url":"http://www.100proofathens.com","tier":1,"message":"Cheap","currency":"$","rating":6.8}]