[{"name":"Vagabond Kitchen & Tap House","phone":"6093506721","twitter":"vagabondac","address":"672 N Trenton Ave","lat":39.359674147278845,"lng":-74.46312125696107,"neighborhood":"Chelsea Heights","city_fetched":"Atlantic City","state":"NJ","country":"United States","canonicalUrl":"https://foursquare.com/vagabondac","category":"Bar","checkinsCount":1749,"usersCount":1019,"tipCount":28,"visitsCount":2692,"url":"http://vagabondac.com","tier":2,"message":"Moderate","currency":"$","rating":9.3},{"name":"Angelos Fairmount Tavern","phone":"6093442439","twitter":"angelosacnj","address":"2300 Fairmount Ave","lat":39.360046,"lng":-74.441277,"city_fetched":"Atlantic City","state":"NJ","country":"United States","canonicalUrl":"https://foursquare.com/v/angelos-fairmount-tavern/53e28fd3498e2fc1a95f9d40","category":"Italian Restaurant","checkinsCount":2443,"usersCount":2271,"tipCount":50,"visitsCount":2968,"url":"http://angelosfairmounttavern.com","tier":2,"message":"Moderate","currency":"$","rating":9.1},{"name":"Fornelletto","phone":"6093171000","address":"1 Borgata Way","lat":39.37801392637634,"lng":-74.43444078701992,"city_fetched":"Atlantic City","state":"NJ","country":"United States","canonicalUrl":"https://foursquare.com/v/fornelletto/4b2d7b92f964a52096d724e3","category":"Italian Restaurant","checkinsCount":1671,"usersCount":1368,"tipCount":26,"visitsCount":1676,"url":"http://www.theborgata.com","tier":"","message":"","currency":"","rating":9},{"name":"Wet Willie's","phone":"6094498401","address":"The Quarter at Tropicana","lat":39.353296029375294,"lng":-74.44524373791036,"city_fetched":"Atlantic City","state":"NJ","country":"United States","canonicalUrl":"https://foursquare.com/v/wet-willies/5205c6dd11d2c03195b2dc65","category":"Bar","checkinsCount":1741,"usersCount":1334,"tipCount":34,"visitsCount":1764,"url":"http://www.wetwillies.com","tier":1,"message":"Cheap","currency":"$","rating":9},{"name":"Back Bay Ale House","phone":"6094490006","twitter":"backbayalehouse","address":"800 N New Hampshire Ave","lat":39.37582966741479,"lng":-74.4206198354358,"neighborhood":"Uptown Atlantic City","city_fetched":"Atlantic City","state":"NJ","country":"United States","canonicalUrl":"https://foursquare.com/v/back-bay-ale-house/4bb4fb54c29a9521370ca835","category":"American Restaurant","checkinsCount":2981,"usersCount":1737,"tipCount":54,"visitsCount":3618,"url":"http://www.backbayalehouse.com","tier":2,"message":"Moderate","currency":"$","rating":8.7},{"name":"Landshark Bar & Grill","phone":"6094314120","twitter":"margaritaville","address":"1133 Boardwalk","lat":39.35792475769459,"lng":-74.42109505586866,"city_fetched":"Atlantic City","state":"NJ","country":"United States","canonicalUrl":"https://foursquare.com/v/landshark-bar--grill/511a4983e4b091f458ae49a1","category":"American Restaurant","checkinsCount":9005,"usersCount":7134,"tipCount":123,"visitsCount":9872,"url":"http://atlanticcity.landsharkbarandgrill.com","tier":2,"message":"Moderate","currency":"$","rating":8.6},{"name":"Wonder Bar","phone":"6093448888","address":"3701 Sunset Ave","lat":39.35307045387386,"lng":-74.45688751499743,"city_fetched":"Atlantic City","state":"NJ","country":"United States","canonicalUrl":"https://foursquare.com/v/wonder-bar/4c1e39d0b4e62d7f44dedd93","category":"Bar","checkinsCount":2016,"usersCount":1023,"tipCount":25,"visitsCount":2270,"url":"http://www.wonderbaracnj.com","tier":2,"message":"Moderate","currency":"$","rating":8.6},{"name":"Kelsey's","phone":"6093442200","twitter":"kelseysac","address":"1545 Pacific Ave","lat":39.3596909409247,"lng":-74.4295228502301,"city_fetched":"Atlantic City","state":"NJ","country":"United States","canonicalUrl":"https://foursquare.com/v/kelseys/51453e78e4b0ec73275ea883","category":"Lounge","checkinsCount":551,"usersCount":694,"tipCount":26,"visitsCount":898,"url":"http://www.kelseysac.com","tier":2,"message":"Moderate","currency":"$","rating":8.6},{"name":"Anthem","phone":"6095720032","twitter":"anthemlounge","address":"Tropicana Casino & Resort","lat":39.3532814432756,"lng":-74.44511890411377,"city_fetched":"Atlantic City","state":"NJ","country":"United States","canonicalUrl":"https://foursquare.com/anthemlounge","category":"Lounge","checkinsCount":1903,"usersCount":711,"tipCount":10,"visitsCount":1906,"url":"http://anthemlounge.com","tier":"","message":"","currency":"","rating":8.6},{"name":"Gypsy Bar","phone":"6093171000","address":"1 Borgata Way","lat":39.377700839132416,"lng":-74.43533420562744,"city_fetched":"Atlantic City","state":"NJ","country":"United States","canonicalUrl":"https://foursquare.com/v/gypsy-bar/4a6b82ecf964a520e6ce1fe3","category":"Bar","checkinsCount":4070,"usersCount":2487,"tipCount":21,"visitsCount":4094,"url":"http://www.theborgata.com","tier":2,"message":"Moderate","currency":"$","rating":8.4},{"name":"H2O SkyLounge Bar & Pool","address":"Huron & Brigantine Blvd","lat":39.37967841801591,"lng":-74.42794839460282,"neighborhood":"Marina District","city_fetched":"Atlantic City","state":"NJ","country":"United States","canonicalUrl":"https://foursquare.com/v/h2o-skylounge-bar--pool/4fd7b036e4b0884f34e605b0","category":"Hotel Bar","checkinsCount":1012,"usersCount":702,"tipCount":13,"visitsCount":1026,"url":"http://www.goldennugget.com/AtlanticCity/stay_yearround.asp","tier":"","message":"","currency":"","rating":8.3},{"name":"Souzai Sushi and Sake","phone":"6093484443","address":"1 Atlantic Ocean","lat":39.354804964228364,"lng":-74.435144974015,"city_fetched":"Atlantic City","state":"NJ","country":"United States","canonicalUrl":"https://foursquare.com/v/souzai-sushi-and-sake/4c0312ddf56c2d7fd9731c66","category":"Sushi Restaurant","checkinsCount":2889,"usersCount":1630,"tipCount":36,"visitsCount":2897,"url":"http://souzaisushi.com","tier":2,"message":"Moderate","currency":"$","rating":8.3},{"name":"Atlantic City Super Strippers","phone":"6098919179","address":"1550 Atlantic Ave","lat":39.36106273467596,"lng":-74.43048477172852,"city_fetched":"Atlantic City","state":"NJ","country":"United States","canonicalUrl":"https://foursquare.com/v/atlantic-city-super-strippers/4eb55887a17cab61281cb827","category":"Strip Club","checkinsCount":31,"usersCount":13,"tipCount":3,"visitsCount":31,"url":"http://www.atlanticcitysuperstrippers.com","tier":"","message":"","currency":"","rating":8.3},{"name":"Vic & Anthony's Steakhouse","phone":"6094418355","twitter":"vic_n_anthonys","address":"Huron & Brigantine Blvd","lat":39.37935027551661,"lng":-74.42765640311356,"neighborhood":"Marina District","city_fetched":"Atlantic City","state":"NJ","country":"United States","canonicalUrl":"https://foursquare.com/v/vic--anthonys-steakhouse/4e45d400183849317e6e8911","category":"Steakhouse","checkinsCount":534,"usersCount":422,"tipCount":11,"visitsCount":541,"url":"http://www.vicandanthonys.com","tier":4,"message":"Very Expensive","currency":"$","rating":8.3},{"name":"The Pool at Harrah's","phone":"6094415233","twitter":"harrahsresort","address":"777 Harrahs Blvd","lat":39.38440140823418,"lng":-74.43009853363037,"neighborhood":"Marina District","city_fetched":"Atlantic City","state":"NJ","country":"United States","canonicalUrl":"https://foursquare.com/v/the-pool-at-harrahs/4abad89bf964a520238320e3","category":"Hotel Pool","checkinsCount":13211,"usersCount":8907,"tipCount":81,"visitsCount":13279,"url":"http://www.harrahsresort.com","tier":"","message":"","currency":"","rating":8.2},{"name":"The Quarter","phone":"8003458767","twitter":"tropicanaac","address":"Tropicana Casino & Resort","lat":39.35275172998373,"lng":-74.445636017672,"city_fetched":"Atlantic City","state":"NJ","country":"United States","canonicalUrl":"https://foursquare.com/v/the-quarter/4bdefb10ffdec928544feaa1","category":"Shopping Mall","checkinsCount":5535,"usersCount":2737,"tipCount":13,"visitsCount":5535,"tier":"","message":"","currency":"","rating":8.2},{"name":"Perfectly Innocent Amusement Co.","phone":"6095414909","twitter":"piacnj","address":"142 S Tennessee Ave","lat":39.35893404126643,"lng":-74.42605330402026,"city_fetched":"Atlantic City","state":"NJ","country":"United States","canonicalUrl":"https://foursquare.com/piacnj","category":"Cocktail Bar","checkinsCount":127,"usersCount":82,"tipCount":4,"visitsCount":148,"url":"http://www.perfectlyinnocentac.com","tier":2,"message":"Moderate","currency":"$","rating":8.2},{"name":"Bar Anticipation","lat":39.353867616408586,"lng":-74.43615831136324,"city_fetched":"Atlantic City","state":"NJ","country":"United States","canonicalUrl":"https://foursquare.com/v/bar-anticipation/53779f83498e8b55637d25c6","category":"Beach Bar","checkinsCount":180,"usersCount":158,"tipCount":4,"visitsCount":182,"tier":"","message":"","currency":"","rating":8.1},{"name":"Wingcraft","phone":"6095412799","twitter":"wingcraft_ac","address":"2010 Baltic Ave","lat":39.361908200736174,"lng":-74.43803611891722,"city_fetched":"Atlantic City","state":"NJ","country":"United States","canonicalUrl":"https://foursquare.com/v/wingcraft/537b5d4f498eeca2266bb222","category":"Wings Joint","checkinsCount":917,"usersCount":855,"tipCount":30,"visitsCount":1231,"url":"http://wingcraftac.com","tier":2,"message":"Moderate","currency":"$","rating":8.1},{"name":"Atlantic City Bar & Grill","phone":"6093488080","twitter":"acbarandgrill","address":"1217 Pacific Ave","lat":39.36113881323625,"lng":-74.42608193091684,"city_fetched":"Atlantic City","state":"NJ","country":"United States","canonicalUrl":"https://foursquare.com/v/atlantic-city-bar--grill/4b638273f964a520847f2ae3","category":"Seafood Restaurant","checkinsCount":2956,"usersCount":1580,"tipCount":31,"visitsCount":3164,"url":"http://acbarandgrill.com/home.html","tier":2,"message":"Moderate","currency":"$","rating":8.1},{"name":"Haven Nightclub","twitter":"haven_ac","address":"Huron & Brigantine Blvd","lat":39.37912725179039,"lng":-74.42902565002441,"neighborhood":"Marina District","city_fetched":"Atlantic City","state":"NJ","country":"United States","canonicalUrl":"https://foursquare.com/haven_ac","category":"Nightclub","checkinsCount":2156,"usersCount":1728,"tipCount":18,"visitsCount":2617,"url":"http://www.havenac.com","tier":"","message":"","currency":"","rating":8.1},{"name":"FIN","phone":"8003458767","twitter":"tropicanaac","address":"2831 Boardwalk","lat":39.351655392316125,"lng":-74.44569826126099,"city_fetched":"Atlantic City","state":"NJ","country":"United States","canonicalUrl":"https://foursquare.com/v/fin/4c0b0a84a1b32d7f6d7f9af0","category":"Seafood Restaurant","checkinsCount":748,"usersCount":620,"tipCount":21,"visitsCount":753,"url":"http://www.tropicana.net/dining/fine-dining/fin/","tier":4,"message":"Very Expensive","currency":"$","rating":8},{"name":"Hunk-O-Mania Male Strip Club","phone":"6093456555","twitter":"hunkomaniausa","address":"9","lat":39.360252109763856,"lng":-74.43093698572979,"city_fetched":"Atlantic City","state":"NJ","country":"United States","canonicalUrl":"https://foursquare.com/v/hunkomania-male-strip-club/502703f9e4b069e8b54e39fa","category":"Strip Club","checkinsCount":101,"usersCount":102,"tipCount":22,"visitsCount":102,"url":"http://www.hunkomaniaatlanticcity.com","tier":"","message":"","currency":"","rating":8},{"name":"Chickie's & Pete's","phone":"6093441080","twitter":"chickiesnpetes","address":"2831 Boardwalk","lat":39.352153273206135,"lng":-74.44444799455552,"city_fetched":"Atlantic City","state":"NJ","country":"United States","canonicalUrl":"https://foursquare.com/v/chickies--petes/51c2f752498ea62730ba1c74","category":"Sports Bar","checkinsCount":2164,"usersCount":1836,"tipCount":24,"visitsCount":2317,"url":"http://chickiesandpetes.com/location/tropicana/","tier":2,"message":"Moderate","currency":"$","rating":8},{"name":"Pic A Lilli Pub","phone":"6093441113","twitter":"picalilli_pub","address":"231 S Tennessee Ave","lat":39.35818127868479,"lng":-74.42529755228033,"city_fetched":"Atlantic City","state":"NJ","country":"United States","canonicalUrl":"https://foursquare.com/v/pic-a-lilli-pub/4bd3896bb221c9b6410ddad0","category":"Pub","checkinsCount":844,"usersCount":484,"tipCount":21,"visitsCount":953,"url":"http://www.picalilliac.com","tier":"","message":"","currency":"","rating":8},{"name":"Bungalow Beach","phone":"6093506823","twitter":"bungalowac","address":"California Ave Beach","lat":39.35201712870277,"lng":-74.44234126104826,"city_fetched":"Atlantic City","state":"NJ","country":"United States","canonicalUrl":"https://foursquare.com/v/bungalow-beach/51cb512e498e0628ad004091","category":"Lounge","checkinsCount":787,"usersCount":820,"tipCount":17,"visitsCount":967,"url":"http://bungalowbeachac.com","tier":"","message":"","currency":"","rating":8},{"name":"Firewaters","phone":"6093446699","address":"2821 Boardwalk","lat":39.35207001012426,"lng":-74.44468843537119,"city_fetched":"Atlantic City","state":"NJ","country":"United States","canonicalUrl":"https://foursquare.com/v/firewaters/4b397183f964a520aa5c25e3","category":"Bar","checkinsCount":2082,"usersCount":1441,"tipCount":18,"visitsCount":2085,"url":"http://www.firewatersbar.com","tier":"","message":"","currency":"","rating":7.9},{"name":"The Deck","address":"Huron Ave & Brigantine Blvd","lat":39.378771541793476,"lng":-74.42714112284216,"neighborhood":"Marina District","city_fetched":"Atlantic City","state":"NJ","country":"United States","canonicalUrl":"https://foursquare.com/v/the-deck/4de98cb9fa76cc1b8ace77dc","category":"Bar","checkinsCount":1629,"usersCount":1133,"tipCount":12,"visitsCount":1840,"url":"http://www.goldennugget.com/AtlanticCity/drink_thedeck.asp","tier":"","message":"","currency":"","rating":7.9},{"name":"Los Amigos","phone":"6093442293","address":"1930 Atlantic Ave","lat":39.35909686809514,"lng":-74.43504764752387,"city_fetched":"Atlantic City","state":"NJ","country":"United States","canonicalUrl":"https://foursquare.com/v/los-amigos/4b5b791af964a520e70029e3","category":"Mexican Restaurant","checkinsCount":2119,"usersCount":1730,"tipCount":42,"visitsCount":2197,"url":"http://www.losamigosrest.com/ac","tier":2,"message":"Moderate","currency":"$","rating":7.9},{"name":"Diamond Club","phone":"6093484411","address":"2100 Pacific Ave","lat":39.35505272434662,"lng":-74.43522512520286,"city_fetched":"Atlantic City","state":"NJ","country":"United States","canonicalUrl":"https://foursquare.com/v/diamond-club/4c5e246d9b28d13a54d25b70","category":"Lounge","checkinsCount":730,"usersCount":373,"tipCount":2,"visitsCount":736,"tier":"","message":"","currency":"","rating":7.8},{"name":"Bally's Bikini Beach Bar","phone":"6093340442","twitter":"ballysac","address":"1900 Pacific Ave","lat":39.355127297099315,"lng":-74.43204045295715,"city_fetched":"Atlantic City","state":"NJ","country":"United States","canonicalUrl":"https://foursquare.com/v/ballys-bikini-beach-bar/4c7893ca97028cfa8686d8fe","category":"Bar","checkinsCount":6356,"usersCount":5731,"tipCount":46,"visitsCount":7490,"url":"http://www.ballysac.com","tier":"","message":"","currency":"","rating":7.8},{"name":"Bungalow Restaurant & Lounge","phone":"6093506823","twitter":"bungalowac","address":"2641 Boardwalk","lat":39.352627159660805,"lng":-74.44246148292892,"city_fetched":"Atlantic City","state":"NJ","country":"United States","canonicalUrl":"https://foursquare.com/v/bungalow-restaurant--lounge/4f5a22a3e4b0c181e3a440a6","category":"American Restaurant","checkinsCount":1753,"usersCount":1794,"tipCount":37,"visitsCount":2360,"url":"http://www.hookahbarinatlanticcitynj.com","tier":"","message":"","currency":"","rating":7.7},{"name":"Diamond Club","address":"1900 Pacific Ave","lat":39.35587224379975,"lng":-74.43136065165905,"city_fetched":"Atlantic City","state":"NJ","country":"United States","canonicalUrl":"https://foursquare.com/v/diamond-club/4c4f4ca124edc9b6f0f875bb","category":"Bar","checkinsCount":509,"usersCount":301,"tipCount":5,"visitsCount":513,"tier":"","message":"","currency":"","rating":7.6},{"name":"Ducktown Tavern","phone":"6094491212","address":"2400 Atlantic Ave","lat":39.3569348270357,"lng":-74.44036045068202,"city_fetched":"Atlantic City","state":"NJ","country":"United States","canonicalUrl":"https://foursquare.com/v/ducktown-tavern/4b4ff3e9f964a520381a27e3","category":"Bar","checkinsCount":5245,"usersCount":1563,"tipCount":51,"visitsCount":5526,"url":"http://ducktowntavern.com","tier":2,"message":"Moderate","currency":"$","rating":7.6},{"name":"Cuba Libre Restaurant & Rum Bar","phone":"6093486700","address":"2801 Pacific Ave","lat":39.35334546151804,"lng":-74.44514069221013,"city_fetched":"Atlantic City","state":"NJ","country":"United States","canonicalUrl":"https://foursquare.com/v/cuba-libre-restaurant--rum-bar/4b11d796f964a520d28523e3","category":"Cuban Restaurant","checkinsCount":5318,"usersCount":4224,"tipCount":59,"visitsCount":5323,"url":"http://www.cubalibrerestaurant.com","tier":2,"message":"Moderate","currency":"$","rating":7.6},{"name":"Seven Stars Lounge","address":"2100 Pacific Ave","lat":39.35485332296812,"lng":-74.4353510769962,"city_fetched":"Atlantic City","state":"NJ","country":"United States","canonicalUrl":"https://foursquare.com/v/seven-stars-lounge/4e3b2a18483b04e17a77fa20","category":"Lounge","checkinsCount":335,"usersCount":132,"tipCount":5,"visitsCount":335,"tier":"","message":"","currency":"","rating":7.6},{"name":"El Charro Bar","address":"Fairmount Ave","lat":39.35932299065773,"lng":-74.44362934837466,"city_fetched":"Atlantic City","state":"NJ","country":"United States","canonicalUrl":"https://foursquare.com/v/el-charro-bar/4be22272b02ec9b6ea5f4cc0","category":"Bar","checkinsCount":180,"usersCount":156,"tipCount":1,"visitsCount":297,"tier":"","message":"","currency":"","rating":7.5},{"name":"The Pool After Dark","phone":"8006456774","twitter":"harrahsresort","address":"777 Harrahs Blvd","lat":39.38458506236103,"lng":-74.42964880607634,"neighborhood":"Marina District","city_fetched":"Atlantic City","state":"NJ","country":"United States","canonicalUrl":"https://foursquare.com/v/the-pool-after-dark/4f52e35ae4b028a91fe64443","category":"Nightclub","checkinsCount":5788,"usersCount":4887,"tipCount":33,"visitsCount":6165,"url":"http://www.harrahsresort.com","tier":3,"message":"Expensive","currency":"$","rating":7.5},{"name":"Hard Rock Cafe Atlantic City","phone":"6094410007","twitter":"hardrock","address":"1000 Boardwalk","lat":39.35855755209105,"lng":-74.42052841186523,"neighborhood":"Uptown Atlantic City","city_fetched":"Atlantic City","state":"NJ","country":"United States","canonicalUrl":"https://foursquare.com/v/hard-rock-cafe-atlantic-city/4ada3ce8f964a5205e2021e3","category":"Theme Restaurant","checkinsCount":7118,"usersCount":6265,"tipCount":61,"visitsCount":7529,"url":"http://www.facebook.com/hardrock","tier":2,"message":"Moderate","currency":"$","rating":7.5},{"name":"Tony's Baltimore Grill","phone":"6093455766","address":"2800 Atlantic Ave","lat":39.35490769481747,"lng":-74.44562157163077,"city_fetched":"Atlantic City","state":"NJ","country":"United States","canonicalUrl":"https://foursquare.com/v/tonys-baltimore-grill/4b525ea2f964a520ce7927e3","category":"Pizza Place","checkinsCount":2690,"usersCount":1735,"tipCount":57,"visitsCount":3139,"url":"http://baltimoregrill.com","tier":1,"message":"Cheap","currency":"$","rating":7.5},{"name":"Cabana Restaurant Lounge","address":"Boardwalk","lat":39.35678612403122,"lng":-74.4268548553779,"city_fetched":"Atlantic City","state":"NJ","country":"United States","canonicalUrl":"https://foursquare.com/v/cabana-restaurant-lounge/53ad75f4498ee47d2a30f72c","category":"Restaurant","checkinsCount":162,"usersCount":137,"tipCount":4,"visitsCount":165,"tier":"","message":"","currency":"","rating":7.4},{"name":"BoneYard Bar & Grill","phone":"6093483360","twitter":"boneyardac","address":"20 S Virginia Ave","lat":39.36340827275657,"lng":-74.42267529779953,"city_fetched":"Atlantic City","state":"NJ","country":"United States","canonicalUrl":"https://foursquare.com/v/boneyard-bar--grill/4bb9422a7421a5935dabc240","category":"Bar","checkinsCount":2982,"usersCount":814,"tipCount":23,"visitsCount":3179,"url":"http://www.boneyardac.com","tier":1,"message":"Cheap","currency":"$","rating":7.4},{"name":"Borgata Beer Garden","lat":39.37993584150535,"lng":-74.43452093852639,"city_fetched":"Atlantic City","state":"NJ","country":"United States","canonicalUrl":"https://foursquare.com/v/borgata-beer-garden/57743d0e498edf9d772a7da0","category":"General Entertainment","checkinsCount":91,"usersCount":92,"tipCount":1,"visitsCount":103,"tier":"","message":"","currency":"","rating":7.4},{"name":"Margaritaville","phone":"6094314100","twitter":"margaritaville","address":"1133 Boardwalk","lat":39.35832511705158,"lng":-74.42155256209342,"city_fetched":"Atlantic City","state":"NJ","country":"United States","canonicalUrl":"https://foursquare.com/v/margaritaville/529d0d9d498e3bde0645e5be","category":"American Restaurant","checkinsCount":1566,"usersCount":1446,"tipCount":22,"visitsCount":1720,"url":"http://www.margaritavilleatlanticcity.com/welcome.html","tier":3,"message":"Expensive","currency":"$","rating":7.3},{"name":"5 O'Clock Somewhere","address":"1133 Boardwalk","lat":39.358841432338224,"lng":-74.42160462817274,"city_fetched":"Atlantic City","state":"NJ","country":"United States","canonicalUrl":"https://foursquare.com/v/5-oclock-somewhere/51a433d1498e210b7f02d44d","category":"Bar","checkinsCount":411,"usersCount":320,"tipCount":1,"visitsCount":411,"tier":"","message":"","currency":"","rating":7.2},{"name":"Ri Ra Irish Pub","phone":"6093488600","address":"2801 Pacific Ave","lat":39.353347811898715,"lng":-74.44550514221191,"city_fetched":"Atlantic City","state":"NJ","country":"United States","canonicalUrl":"https://foursquare.com/v/ri-ra-irish-pub/4bfb1c85d0382d7f8b4ac90a","category":"Pub","checkinsCount":4720,"usersCount":3554,"tipCount":32,"visitsCount":4725,"url":"http://rira.com","tier":2,"message":"Moderate","currency":"$","rating":7.2},{"name":"Diamond Club Lounge","address":"777 Harrahs Blvd","lat":39.384872516624526,"lng":-74.42639110110537,"neighborhood":"Marina District","city_fetched":"Atlantic City","state":"NJ","country":"United States","canonicalUrl":"https://foursquare.com/v/diamond-club-lounge/4c818299e602b1f753b2937a","category":"Lounge","checkinsCount":561,"usersCount":298,"tipCount":7,"visitsCount":565,"tier":"","message":"","currency":"","rating":7.1},{"name":"Planet Rose AC","phone":"6093446565","twitter":"planetroseac","address":"2801 Pacific Ave #305","lat":39.35319097115377,"lng":-74.4459078087602,"city_fetched":"Atlantic City","state":"NJ","country":"United States","canonicalUrl":"https://foursquare.com/v/planet-rose-ac/4bc8e858fb84c9b621051a3e","category":"Karaoke Bar","checkinsCount":1336,"usersCount":1011,"tipCount":7,"visitsCount":1337,"url":"http://www.planet-rose.com","tier":"","message":"","currency":"","rating":7.1},{"name":"Boogie Nights","address":"in Tropicana Casino & Resort","lat":39.3526314545814,"lng":-74.44582766241066,"city_fetched":"Atlantic City","state":"NJ","country":"United States","canonicalUrl":"https://foursquare.com/v/boogie-nights/4f99d64ae4b098157d3a08f1","category":"Nightclub","checkinsCount":1272,"usersCount":939,"tipCount":16,"visitsCount":1278,"url":"http://boogienightsusa.com","tier":"","message":"","currency":"","rating":7.1},{"name":"Dos Caminos","phone":"6094415747","twitter":"doscaminos","address":"777 Harrahs Blvd","lat":39.38502418668048,"lng":-74.42647698161768,"neighborhood":"Marina District","city_fetched":"Atlantic City","state":"NJ","country":"United States","canonicalUrl":"https://foursquare.com/v/dos-caminos/4dd4515f7d8b194450c01e2a","category":"Mexican Restaurant","checkinsCount":3424,"usersCount":3000,"tipCount":38,"visitsCount":3613,"url":"http://www.doscaminos.com","tier":3,"message":"Expensive","currency":"$","rating":7},{"name":"Mur.Mur","phone":"6093171000","address":"1 Borgata Way","lat":39.37864763726803,"lng":-74.43420033228293,"city_fetched":"Atlantic City","state":"NJ","country":"United States","canonicalUrl":"https://foursquare.com/v/murmur/4a6bdaa5f964a5201bd01fe3","category":"Nightclub","checkinsCount":8687,"usersCount":5645,"tipCount":58,"visitsCount":8721,"url":"http://www.theborgata.com","tier":2,"message":"Moderate","currency":"$","rating":7},{"name":"Rush Lounge","address":"Huron & Brigantine Blvd","lat":39.379602433854785,"lng":-74.42782816287135,"neighborhood":"Marina District","city_fetched":"Atlantic City","state":"NJ","country":"United States","canonicalUrl":"https://foursquare.com/v/rush-lounge/4f0cdbb8e4b050caceafa2b5","category":"Lounge","checkinsCount":393,"usersCount":276,"tipCount":7,"visitsCount":393,"url":"http://www.goldennugget.com/AtlanticCity/drink_rushlounge.asp","tier":"","message":"","currency":"","rating":7},{"name":"B Bar","phone":"6093171000","address":"1 Borgata Way","lat":39.37806541303516,"lng":-74.4341087303925,"city_fetched":"Atlantic City","state":"NJ","country":"United States","canonicalUrl":"https://foursquare.com/v/b-bar/4a6b7f00f964a520cbce1fe3","category":"Bar","checkinsCount":5253,"usersCount":3144,"tipCount":15,"visitsCount":5266,"url":"http://www.theborgata.com","tier":3,"message":"Expensive","currency":"$","rating":7},{"name":"T Street at the Playground","phone":"+6093453100","twitter":"tstreetbars","address":"1 Atlantic Ocean","lat":39.3535487458387,"lng":-74.43374804748856,"city_fetched":"Atlantic City","state":"NJ","country":"United States","canonicalUrl":"https://foursquare.com/v/t-street-at-the-playground/55805e9b498e9b9ebc0cbe9d","category":"Bar","checkinsCount":118,"usersCount":102,"tipCount":1,"visitsCount":126,"tier":"","message":"","currency":"","rating":6.7}]