[{"name":"Monday Night Brewing","phone":"4043527703","twitter":"mondaynight","address":"670 Trabert Ave NW","lat":33.79500735298172,"lng":-84.41002622334364,"neighborhood":"Berkeley Park","city_fetched":"Atlanta,US","state":"GA","country":"United States","canonicalUrl":"https://foursquare.com/v/monday-night-brewing/502ac781e4b0e2cc5acf7ab3","categoryId":"50327c8591d4c4b30a586d5d","category":"Brewery","checkinsCount":5230,"usersCount":3680,"tipCount":43,"visitsCount":6527,"url":"http://mondaynightbrewing.com","tier":1,"message":"Cheap","currency":"$","rating":9.5},{"name":"Wrecking Bar Brewpub","phone":"4042212600","twitter":"wreckingbar","address":"292 Moreland Ave NE","lat":33.76217492442969,"lng":-84.34969904648257,"neighborhood":"Little Five Points","city_fetched":"Atlanta,US","state":"GA","country":"United States","canonicalUrl":"https://foursquare.com/v/wrecking-bar-brewpub/4bafa4e8f964a52030133ce3","categoryId":"50327c8591d4c4b30a586d5d","category":"Brewery","checkinsCount":11232,"usersCount":6013,"tipCount":137,"visitsCount":13424,"url":"http://www.wreckingbarbrewpub.com","tier":2,"message":"Moderate","currency":"$","rating":9.5},{"name":"SweetWater Brewing Company","phone":"4046912537","twitter":"sweetwaterbrew","address":"195 Ottley Dr NE","lat":33.808360627608494,"lng":-84.38117912469514,"neighborhood":"Brookwood Hills","city_fetched":"Atlanta,US","state":"GA","country":"United States","canonicalUrl":"https://foursquare.com/v/sweetwater-brewing-company/40e0b100f964a5208e071fe3","categoryId":"50327c8591d4c4b30a586d5d","category":"Brewery","checkinsCount":24942,"usersCount":13701,"tipCount":140,"visitsCount":27337,"url":"http://www.sweetwaterbrew.com","tier":1,"message":"Cheap","currency":"$","rating":9.3},{"name":"The Porter Beer Bar","phone":"4042230393","twitter":"porterbeerbar","address":"1156 Euclid Ave NE","lat":33.765261397320515,"lng":-84.34979259967804,"neighborhood":"Little Five Points","city_fetched":"Atlanta,US","state":"GA","country":"United States","canonicalUrl":"https://foursquare.com/v/the-porter-beer-bar/49df5b35f964a520c1601fe3","categoryId":"56aa371ce4b08b9a8d57356c","category":"Beer Bar","checkinsCount":21315,"usersCount":8915,"tipCount":194,"visitsCount":22116,"url":"http://www.theporterbeerbar.com","tier":2,"message":"Moderate","currency":"$","rating":9.3},{"name":"Torched Hop Brewing Company","phone":"4048352040","twitter":"torched_hop","address":"249 Ponce de Leon Ave NE","lat":33.772347339748436,"lng":-84.37927007675171,"neighborhood":"Midtown","city_fetched":"Atlanta,US","state":"GA","country":"United States","canonicalUrl":"https://foursquare.com/v/torched-hop-brewing-company/55946a6e498e7b2012f4665c","categoryId":"50327c8591d4c4b30a586d5d","category":"Brewery","checkinsCount":499,"usersCount":372,"tipCount":12,"visitsCount":618,"url":"http://www.torchedhopbrewing.com","tier":"","message":"","currency":"","rating":9.2},{"name":"Manuel's Tavern","phone":"4045253447","twitter":"manuelstavern","address":"602 N Highland Ave NE","lat":33.7706929650967,"lng":-84.35265183448792,"neighborhood":"Poncey-Highland","city_fetched":"Atlanta,US","state":"GA","country":"United States","canonicalUrl":"https://foursquare.com/v/manuels-tavern/43027e00f964a52007271fe3","categoryId":"4bf58dd8d48988d116941735","category":"Bar","checkinsCount":18871,"usersCount":6400,"tipCount":129,"visitsCount":21231,"url":"http://manuelstavern.com","tier":2,"message":"Moderate","currency":"$","rating":9.2},{"name":"The Vortex Bar & Grill","phone":"4046881828","twitter":"thevortexl5p","address":"438 Moreland Ave NE","lat":33.76624695365775,"lng":-84.34921860694885,"neighborhood":"Little Five Points","city_fetched":"Atlanta,US","state":"GA","country":"United States","canonicalUrl":"https://foursquare.com/v/the-vortex-bar--grill/4a665445f964a5206ac81fe3","categoryId":"4bf58dd8d48988d116941735","category":"Bar","checkinsCount":19868,"usersCount":14211,"tipCount":290,"visitsCount":20984,"url":"https://thevortexatl.com","tier":2,"message":"Moderate","currency":"$","rating":9.2},{"name":"The Vortex Bar & Grill","phone":"4048751667","twitter":"vortexmidtown","address":"878 Peachtree St NE","lat":33.779067072239236,"lng":-84.38439846038818,"neighborhood":"Midtown","city_fetched":"Atlanta,US","state":"GA","country":"United States","canonicalUrl":"https://foursquare.com/v/the-vortex-bar--grill/4387a580f964a520062b1fe3","categoryId":"4bf58dd8d48988d116941735","category":"Bar","checkinsCount":25230,"usersCount":15842,"tipCount":317,"visitsCount":25968,"url":"http://www.thevortexbarandgrill.com","tier":2,"message":"Moderate","currency":"$","rating":9.2},{"name":"Red Brick Brewing Company","phone":"4043555558","twitter":"redbrickbrewing","address":"2323 Defoor Hills Rd NW","lat":33.818388911537745,"lng":-84.43494175678131,"neighborhood":"Underwood Hills","city_fetched":"Atlanta,US","state":"GA","country":"United States","canonicalUrl":"https://foursquare.com/v/red-brick-brewing-company/4a5b96d7f964a52076bb1fe3","categoryId":"50327c8591d4c4b30a586d5d","category":"Brewery","checkinsCount":6481,"usersCount":4194,"tipCount":50,"visitsCount":7180,"url":"http://www.redbrickbrewing.com","tier":2,"message":"Moderate","currency":"$","rating":9.1},{"name":"Cypress Street Pint & Plate","phone":"4048159243","twitter":"cypressstreet","address":"817 W Peachtree St NW","lat":33.77736377917085,"lng":-84.385986328125,"neighborhood":"Midtown","city_fetched":"Atlanta,US","state":"GA","country":"United States","canonicalUrl":"https://foursquare.com/v/cypress-street-pint--plate/49e463a6f964a5200c631fe3","categoryId":"56aa371ce4b08b9a8d57356c","category":"Beer Bar","checkinsCount":27182,"usersCount":9648,"tipCount":221,"visitsCount":32098,"url":"http://cypressbar.com","tier":2,"message":"Moderate","currency":"$","rating":9.1},{"name":"The Earl","phone":"4045223950","twitter":"earl_eav","address":"488 Flat Shoals Ave SE","lat":33.74095548888933,"lng":-84.34606327877289,"neighborhood":"East Atlanta Village","city_fetched":"Atlanta,US","state":"GA","country":"United States","canonicalUrl":"https://foursquare.com/v/the-earl/40e0b100f964a52036061fe3","categoryId":"4bf58dd8d48988d116941735","category":"Bar","checkinsCount":15286,"usersCount":5034,"tipCount":94,"visitsCount":15707,"url":"http://www.badearl.com","tier":"","message":"","currency":"","rating":9.1},{"name":"Barcelona Wine Bar Inman Park","phone":"4045891010","twitter":"barcelonawineba","address":"240 N Highland Ave NE","lat":33.762576,"lng":-84.358923,"neighborhood":"Inman Park","city_fetched":"Atlanta,US","state":"GA","country":"United States","canonicalUrl":"https://foursquare.com/v/barcelona-wine-bar-inman-park/4ea1b66ab6347b99677a40e1","categoryId":"4bf58dd8d48988d123941735","category":"Wine Bar","checkinsCount":13264,"usersCount":6986,"tipCount":146,"visitsCount":14415,"url":"http://www.barcelonawinebar.com/atlanta.htm","tier":2,"message":"Moderate","currency":"$","rating":9.1},{"name":"The Book House Pub","phone":"4042541176","address":"736 Ponce de Leon Ave NE","lat":33.77433165534679,"lng":-84.36279058456421,"neighborhood":"Virginia Highland","city_fetched":"Atlanta,US","state":"GA","country":"United States","canonicalUrl":"https://foursquare.com/v/the-book-house-pub/49e67a3ef964a5204f641fe3","categoryId":"4bf58dd8d48988d11b941735","category":"Pub","checkinsCount":12391,"usersCount":4731,"tipCount":98,"visitsCount":12741,"url":"http://www.thebookhousepub.net","tier":2,"message":"Moderate","currency":"$","rating":9.1},{"name":"Après Diem","phone":"4048723333","twitter":"apres_diem","address":"931 Monroe Dr NE","lat":33.77914733128647,"lng":-84.36722159385681,"neighborhood":"Midtown","city_fetched":"Atlanta,US","state":"GA","country":"United States","canonicalUrl":"https://foursquare.com/v/apr%C3%A8s-diem/44df635af964a520ef361fe3","categoryId":"4bf58dd8d48988d123941735","category":"Wine Bar","checkinsCount":10543,"usersCount":5076,"tipCount":93,"visitsCount":10661,"url":"http://apresdiem.com","tier":2,"message":"Moderate","currency":"$","rating":9},{"name":"The Sound Table","phone":"4048352534","twitter":"thesoundtable","address":"483 Edgewood Ave SE","lat":33.754204706274386,"lng":-84.3718118100296,"neighborhood":"Old Fourth Ward","city_fetched":"Atlanta,US","state":"GA","country":"United States","canonicalUrl":"https://foursquare.com/v/the-sound-table/4ba04120f964a520686437e3","categoryId":"4bf58dd8d48988d11e941735","category":"Cocktail Bar","checkinsCount":9675,"usersCount":4527,"tipCount":93,"visitsCount":9985,"url":"http://www.thesoundtable.com","tier":2,"message":"Moderate","currency":"$","rating":9},{"name":"The Albert","phone":"4048724990","twitter":"thealbertatl","address":"918 Austin Ave NE","lat":33.76195234245617,"lng":-84.35774803161621,"neighborhood":"Inman Park","city_fetched":"Atlanta,US","state":"GA","country":"United States","canonicalUrl":"https://foursquare.com/v/the-albert/49e36b2ef964a5207d621fe3","categoryId":"4bf58dd8d48988d116941735","category":"Bar","checkinsCount":10281,"usersCount":3756,"tipCount":92,"visitsCount":12243,"url":"http://www.thealbertatlanta.com","tier":2,"message":"Moderate","currency":"$","rating":9},{"name":"Gold Room Nightclub","phone":"4046939693","twitter":"goldroomatl","address":"2416 Piedmont Rd NE","lat":33.82100108985553,"lng":-84.36848223209381,"neighborhood":"Lindbergh - Morosgo","city_fetched":"Atlanta,US","state":"GA","country":"United States","canonicalUrl":"https://foursquare.com/goldroomatl","categoryId":"4bf58dd8d48988d11f941735","category":"Nightclub","checkinsCount":5297,"usersCount":3049,"tipCount":15,"visitsCount":6426,"url":"http://www.goldroomatl.com","tier":"","message":"","currency":"","rating":9},{"name":"Midway Pub","phone":"4045840335","twitter":"midwaypub","address":"552 Flat Shoals Ave SE","lat":33.7394087947404,"lng":-84.34419482946396,"neighborhood":"East Atlanta Village","city_fetched":"Atlanta,US","state":"GA","country":"United States","canonicalUrl":"https://foursquare.com/v/midway-pub/4894b1cef964a52068511fe3","categoryId":"4bf58dd8d48988d11b941735","category":"Pub","checkinsCount":19201,"usersCount":4884,"tipCount":92,"visitsCount":20480,"url":"http://www.themidwaypub.com","tier":2,"message":"Moderate","currency":"$","rating":8.9},{"name":"Ormsby's","phone":"4049682033","twitter":"ormsbysatl","address":"1170 Howell Mill Rd NW","lat":33.78567034505195,"lng":-84.41184729244804,"city_fetched":"Atlanta,US","state":"GA","country":"United States","canonicalUrl":"https://foursquare.com/v/ormsbys/4b2bbb77f964a520e7b924e3","categoryId":"4bf58dd8d48988d116941735","category":"Bar","checkinsCount":27343,"usersCount":12212,"tipCount":165,"visitsCount":28394,"url":"http://www.ormsbysatlanta.com","tier":2,"message":"Moderate","currency":"$","rating":8.9},{"name":"Marlow's Tavern","phone":"7704322526","twitter":"marlowstavern","address":"2355 Cumberland Pkwy SE Ste 10","lat":33.85946038887134,"lng":-84.48078061624177,"city_fetched":"Atlanta,US","state":"GA","country":"United States","canonicalUrl":"https://foursquare.com/v/marlows-tavern/4a858f74f964a52079fe1fe3","categoryId":"4bf58dd8d48988d116941735","category":"Bar","checkinsCount":6649,"usersCount":3626,"tipCount":88,"visitsCount":7585,"url":"http://marlowstavern.com","tier":2,"message":"Moderate","currency":"$","rating":8.9},{"name":"The Highlander","phone":"4048720060","twitter":"thehighlander11","address":"931 Monroe Dr NE","lat":33.77921867259864,"lng":-84.36761856079102,"neighborhood":"Midtown","city_fetched":"Atlanta,US","state":"GA","country":"United States","canonicalUrl":"https://foursquare.com/v/the-highlander/40e0b100f964a52085061fe3","categoryId":"4bf58dd8d48988d118941735","category":"Dive Bar","checkinsCount":15784,"usersCount":4245,"tipCount":96,"visitsCount":16224,"url":"http://www.thehighlanderatlanta.com","tier":1,"message":"Cheap","currency":"$","rating":8.9},{"name":"Sister Louisa’s Church of the Living Room and Ping Pong Emporium","phone":"4045228275","address":"466 Edgewood Ave NE","lat":33.754459670670265,"lng":-84.3724250793457,"neighborhood":"Sweet Auburn","city_fetched":"Atlanta,US","state":"GA","country":"United States","canonicalUrl":"https://foursquare.com/v/sister-louisas-church-of-the-living-room-and-ping-pong-emporium/4bbffdae2a89ef3bd306f088","categoryId":"4bf58dd8d48988d118941735","category":"Dive Bar","checkinsCount":15024,"usersCount":6316,"tipCount":66,"visitsCount":15980,"tier":1,"message":"Cheap","currency":"$","rating":8.8},{"name":"Eventide Brewing","twitter":"eventidebrewing","address":"1015 Grant St SE","lat":33.72668586670703,"lng":-84.37699096420515,"neighborhood":"Grant Park","city_fetched":"Atlanta,US","state":"GA","country":"United States","canonicalUrl":"https://foursquare.com/v/eventide-brewing/50f5ba058055f0bbf88c250d","categoryId":"50327c8591d4c4b30a586d5d","category":"Brewery","checkinsCount":304,"usersCount":331,"tipCount":0,"visitsCount":467,"tier":"","message":"","currency":"","rating":8.8},{"name":"The Local","phone":"4048735002","address":"758 Ponce de Leon Ave NE","lat":33.774009,"lng":-84.36229988,"neighborhood":"Virginia Highland","city_fetched":"Atlanta,US","state":"GA","country":"United States","canonicalUrl":"https://foursquare.com/v/the-local/40e5f700f964a520010a1fe3","categoryId":"4bf58dd8d48988d116941735","category":"Bar","checkinsCount":13967,"usersCount":3996,"tipCount":78,"visitsCount":14612,"tier":1,"message":"Cheap","currency":"$","rating":8.8},{"name":"Vickery's","phone":"4046278818","twitter":"vickerysglenwd","address":"933 Garrett St SE","lat":33.740444492513305,"lng":-84.3573715848886,"neighborhood":"Ormewood Park","city_fetched":"Atlanta,US","state":"GA","country":"United States","canonicalUrl":"https://foursquare.com/v/vickerys/49e4648ef964a5200d631fe3","categoryId":"4bf58dd8d48988d116941735","category":"Bar","checkinsCount":4919,"usersCount":1659,"tipCount":42,"visitsCount":5119,"url":"http://www.vickerysatlanta.com","tier":2,"message":"Moderate","currency":"$","rating":8.7},{"name":"Anatolia Cafe & Hookah Lounge","phone":"4045898008","twitter":"jaredronis","address":"52 Peachtree St NW","lat":33.755116317213535,"lng":-84.38934928655335,"neighborhood":"Fairlie-Poplar","city_fetched":"Atlanta,US","state":"GA","country":"United States","canonicalUrl":"https://foursquare.com/v/anatolia-cafe--hookah-lounge/4b6315eaf964a520e8612ae3","categoryId":"4bf58dd8d48988d119941735","category":"Hookah Bar","checkinsCount":8141,"usersCount":2507,"tipCount":69,"visitsCount":9086,"url":"http://www.anatoliaatl.com","tier":1,"message":"Cheap","currency":"$","rating":8.7},{"name":"Krog Bar","phone":"4045241618","twitter":"rathbuns","address":"112 Krog St NE","lat":33.75610097860058,"lng":-84.36452865600586,"neighborhood":"Inman Park","city_fetched":"Atlanta,US","state":"GA","country":"United States","canonicalUrl":"https://foursquare.com/v/krog-bar/44df6115f964a520ec361fe3","categoryId":"4bf58dd8d48988d123941735","category":"Wine Bar","checkinsCount":3041,"usersCount":1791,"tipCount":25,"visitsCount":3165,"url":"http://krogbar.com","tier":2,"message":"Moderate","currency":"$","rating":8.7},{"name":"Whiskey Mistress","address":"3161 Maple Dr NE","lat":33.841675747824226,"lng":-84.37192473994884,"neighborhood":"Buckhead Village","city_fetched":"Atlanta,US","state":"GA","country":"United States","canonicalUrl":"https://foursquare.com/v/whiskey-mistress/563ac370cd109c48c545e9c0","categoryId":"4bf58dd8d48988d122941735","category":"Whisky Bar","checkinsCount":114,"usersCount":172,"tipCount":2,"visitsCount":242,"tier":"","message":"","currency":"","rating":8.7},{"name":"Fred Bar","phone":"4049411503","twitter":"tmacrestaurants","address":"5600 Roswell Rd","lat":33.90796406605169,"lng":-84.37963485717773,"city_fetched":"Atlanta,US","state":"GA","country":"United States","canonicalUrl":"https://foursquare.com/v/fred-bar/4b07116ef964a5209bf622e3","categoryId":"4bf58dd8d48988d1d4941735","category":"Speakeasy","checkinsCount":7747,"usersCount":1889,"tipCount":37,"visitsCount":7829,"url":"http://www.tacomac.com","tier":3,"message":"Expensive","currency":"$","rating":8.7},{"name":"Ziba's Bistro","phone":"4046224440","twitter":"zibasbistro","address":"560 Boulevard SE","lat":33.73919794932291,"lng":-84.3681312028932,"neighborhood":"Grant Park","city_fetched":"Atlanta,US","state":"GA","country":"United States","canonicalUrl":"https://foursquare.com/v/zibas-bistro/4bcb051d68f976b0213f6083","categoryId":"4bf58dd8d48988d123941735","category":"Wine Bar","checkinsCount":2175,"usersCount":1010,"tipCount":26,"visitsCount":2514,"url":"http://www.zibasbistro.com","tier":2,"message":"Moderate","currency":"$","rating":8.7},{"name":"Bantam Pub","phone":"4042231500","twitter":"bantam_pub","address":"737 Ralph Mcgill Blvd NE","lat":33.766364066644314,"lng":-84.36301801177144,"neighborhood":"Old Fourth Ward","city_fetched":"Atlanta,US","state":"GA","country":"United States","canonicalUrl":"https://foursquare.com/bantam_pub","categoryId":"4bf58dd8d48988d116941735","category":"Bar","checkinsCount":3634,"usersCount":2036,"tipCount":40,"visitsCount":5261,"url":"http://www.bantampub.com","tier":2,"message":"Moderate","currency":"$","rating":8.7},{"name":"Fontaine's Oyster House","phone":"4048720869","address":"1026 N Highland Ave NE","lat":33.78263989310165,"lng":-84.35455665798195,"neighborhood":"Virginia Highland","city_fetched":"Atlanta,US","state":"GA","country":"United States","canonicalUrl":"https://foursquare.com/v/fontaines-oyster-house/412d2800f964a520cd0c1fe3","categoryId":"4bf58dd8d48988d116941735","category":"Bar","checkinsCount":9990,"usersCount":4829,"tipCount":86,"visitsCount":10147,"url":"http://nnnwcorp.com/fontainesmain.html","tier":2,"message":"Moderate","currency":"$","rating":8.7},{"name":"Urban Tree Cidery","twitter":"urbantreecider","address":"1465 Howell Mill Rd NW","lat":33.79477181280573,"lng":-84.41485834487753,"neighborhood":"Berkeley Park","city_fetched":"Atlanta,US","state":"GA","country":"United States","canonicalUrl":"https://foursquare.com/v/urban-tree-cidery/55dbb5c6498efaebcefae263","categoryId":"50327c8591d4c4b30a586d5d","category":"Brewery","checkinsCount":225,"usersCount":294,"tipCount":3,"visitsCount":385,"tier":"","message":"","currency":"","rating":8.7},{"name":"Studio No.7","phone":"4045499839","twitter":"s7atl","address":"393 Marietta St NW","lat":33.76366045492791,"lng":-84.39709244488458,"neighborhood":"Downtown Atlanta","city_fetched":"Atlanta,US","state":"GA","country":"United States","canonicalUrl":"https://foursquare.com/s7atl","categoryId":"4bf58dd8d48988d121941735","category":"Lounge","checkinsCount":491,"usersCount":634,"tipCount":7,"visitsCount":878,"url":"http://www.studiono7.com","tier":"","message":"","currency":"","rating":8.6},{"name":"Bellwoods Social House","phone":"6789748748","address":"1000 Marietta St NW Ste 200","lat":33.77881685361236,"lng":-84.40992875608232,"neighborhood":"Marietta Street Artery","city_fetched":"Atlanta,US","state":"GA","country":"United States","canonicalUrl":"https://foursquare.com/v/bellwoods-social-house/53dfe5a0498e069de506578c","categoryId":"4bf58dd8d48988d11e941735","category":"Cocktail Bar","checkinsCount":702,"usersCount":478,"tipCount":12,"visitsCount":748,"url":"http://www.bellwoodsatl.com","tier":3,"message":"Expensive","currency":"$","rating":8.6},{"name":"Elliott Street Deli & Pub","phone":"4045232174","address":"51 Elliott St SW","lat":33.753245610365745,"lng":-84.39811350105613,"neighborhood":"Castleberry Hill","city_fetched":"Atlanta,US","state":"GA","country":"United States","canonicalUrl":"https://foursquare.com/v/elliott-street-deli--pub/49f2218cf964a520f3691fe3","categoryId":"4bf58dd8d48988d118941735","category":"Dive Bar","checkinsCount":2879,"usersCount":1225,"tipCount":38,"visitsCount":3063,"url":"http://www.elliottstreet.com","tier":1,"message":"Cheap","currency":"$","rating":8.6},{"name":"One Eared Stag","phone":"4045254479","twitter":"oneearedstag","address":"1029 Edgewood Ave NE","lat":33.75722489960053,"lng":-84.35412168502808,"neighborhood":"Inman Park","city_fetched":"Atlanta,US","state":"GA","country":"United States","canonicalUrl":"https://foursquare.com/v/one-eared-stag/4dbc5771cda109aa6c98f09c","categoryId":"4bf58dd8d48988d116941735","category":"Bar","checkinsCount":3857,"usersCount":2278,"tipCount":80,"visitsCount":4399,"url":"http://www.oneearedstag.com","tier":2,"message":"Moderate","currency":"$","rating":8.6},{"name":"Amer","address":"Inman Quarter, 299 North Highland Avenue Northeast","lat":33.762396539222856,"lng":-84.35904933608549,"neighborhood":"Inman Park","city_fetched":"Atlanta,US","state":"GA","country":"United States","canonicalUrl":"https://foursquare.com/v/amer/56e9d76f498ecbb9758fbd61","categoryId":"4bf58dd8d48988d11e941735","category":"Cocktail Bar","checkinsCount":260,"usersCount":152,"tipCount":7,"visitsCount":266,"url":"http://www.ameratlanta.com","tier":"","message":"","currency":"","rating":8.6},{"name":"The Righteous Room","phone":"4048740939","address":"1051 Ponce de Leon Ave NE","lat":33.773495596755964,"lng":-84.35297515392556,"neighborhood":"Poncey-Highland","city_fetched":"Atlanta,US","state":"GA","country":"United States","canonicalUrl":"https://foursquare.com/v/the-righteous-room/40e0b100f964a52047071fe3","categoryId":"4bf58dd8d48988d116941735","category":"Bar","checkinsCount":7142,"usersCount":2454,"tipCount":48,"visitsCount":7243,"tier":1,"message":"Cheap","currency":"$","rating":8.6},{"name":"Burkhart's Pub","phone":"4048724403","twitter":"burkhartspub","address":"1492 Piedmont Ave NE","lat":33.795982233116845,"lng":-84.37113761901855,"neighborhood":"Piedmont Heights","city_fetched":"Atlanta,US","state":"GA","country":"United States","canonicalUrl":"https://foursquare.com/v/burkharts-pub/40e0b100f964a520db051fe3","categoryId":"4bf58dd8d48988d1d8941735","category":"Gay Bar","checkinsCount":23523,"usersCount":4935,"tipCount":69,"visitsCount":25109,"url":"http://www.burkharts.com","tier":2,"message":"Moderate","currency":"$","rating":8.6},{"name":"Bourbon Bar","phone":"4049469070","twitter":"southernart","address":"3315 Peachtree Rd NE","lat":33.84569000161387,"lng":-84.36854701521074,"neighborhood":"North Buckhead","city_fetched":"Atlanta,US","state":"GA","country":"United States","canonicalUrl":"https://foursquare.com/v/bourbon-bar/4eaa3cee49015844896e765f","categoryId":"4bf58dd8d48988d116941735","category":"Bar","checkinsCount":1937,"usersCount":1244,"tipCount":15,"visitsCount":1959,"url":"http://www.southernart.com","tier":3,"message":"Expensive","currency":"$","rating":8.6},{"name":"MJQ Concourse","twitter":"mjq_concourse","address":"736 Ponce de Leon Ave NE","lat":33.774218,"lng":-84.36332945712407,"neighborhood":"Virginia Highland","city_fetched":"Atlanta,US","state":"GA","country":"United States","canonicalUrl":"https://foursquare.com/v/mjq-concourse/40e0b100f964a520f9061fe3","categoryId":"4bf58dd8d48988d11f941735","category":"Nightclub","checkinsCount":7538,"usersCount":3252,"tipCount":55,"visitsCount":7811,"url":"http://tinyurl.com/mjq-concourse","tier":1,"message":"Cheap","currency":"$","rating":8.5},{"name":"Highland Cigar Co.","phone":"4044772415","twitter":"highland_cigar","address":"245 N Highland Ave NE Ste 140","lat":33.76193896326884,"lng":-84.35973018407822,"neighborhood":"Inman Park","city_fetched":"Atlanta,US","state":"GA","country":"United States","canonicalUrl":"https://foursquare.com/v/highland-cigar-co/4a934ffaf964a520891f20e3","categoryId":"4bf58dd8d48988d122941735","category":"Whisky Bar","checkinsCount":5185,"usersCount":1448,"tipCount":40,"visitsCount":5407,"url":"http://www.highlandcigar.com","tier":2,"message":"Moderate","currency":"$","rating":8.5},{"name":"Noni's Bar & Deli","phone":"4043431808","twitter":"nonisdeli","address":"357 Edgewood Ave. NE","lat":33.75422478083557,"lng":-84.37597980731974,"neighborhood":"Sweet Auburn","city_fetched":"Atlanta,US","state":"GA","country":"United States","canonicalUrl":"https://foursquare.com/v/nonis-bar--deli/4a0e2586f964a520cc751fe3","categoryId":"4bf58dd8d48988d116941735","category":"Bar","checkinsCount":11046,"usersCount":5209,"tipCount":86,"visitsCount":12503,"url":"http://www.nonisdeli.com","tier":2,"message":"Moderate","currency":"$","rating":8.5},{"name":"The Gathering Spot","lat":33.76788688045944,"lng":-84.40064297593835,"neighborhood":"Northyards","city_fetched":"Atlanta,US","state":"GA","country":"United States","canonicalUrl":"https://foursquare.com/v/the-gathering-spot/570e912ecd10e9dcc4b3b4e2","categoryId":"4bf58dd8d48988d1d4941735","category":"Speakeasy","checkinsCount":151,"usersCount":88,"tipCount":3,"visitsCount":167,"tier":"","message":"","currency":"","rating":8.5},{"name":"Diesel Filling Station","phone":"4048151820","twitter":"dieselatlanta","address":"870 N Highland Ave NE","lat":33.778326901925674,"lng":-84.35295224189758,"neighborhood":"Virginia Highland","city_fetched":"Atlanta,US","state":"GA","country":"United States","canonicalUrl":"https://foursquare.com/v/diesel-filling-station/4a32d0fdf964a5209c9a1fe3","categoryId":"4bf58dd8d48988d116941735","category":"Bar","checkinsCount":20807,"usersCount":4035,"tipCount":79,"visitsCount":22570,"url":"http://www.dieselatlanta.com","tier":2,"message":"Moderate","currency":"$","rating":8.5},{"name":"Trapeze","phone":"4046990100","address":"4470 Commerce Dr SW","lat":33.76160786155082,"lng":-84.53346905456071,"city_fetched":"Atlanta,US","state":"GA","country":"United States","canonicalUrl":"https://foursquare.com/v/trapeze/4b090556f964a520e11323e3","categoryId":"4bf58dd8d48988d11a941735","category":"Other Nightlife","checkinsCount":1808,"usersCount":355,"tipCount":9,"visitsCount":2228,"tier":"","message":"","currency":"","rating":8.5},{"name":"Meehan's Public House","phone":"7704331920","twitter":"meehanspubhouse","address":"2810 Paces Ferry Rd SE","lat":33.86493,"lng":-84.470129,"city_fetched":"Atlanta,US","state":"GA","country":"United States","canonicalUrl":"https://foursquare.com/v/meehans-public-house/4a561d47f964a52079b41fe3","categoryId":"4bf58dd8d48988d11b941735","category":"Pub","checkinsCount":7339,"usersCount":3013,"tipCount":46,"visitsCount":7925,"url":"http://www.meehansdowntown.com","tier":2,"message":"Moderate","currency":"$","rating":8.5},{"name":"Blake's On The Park","phone":"4048925786","twitter":"blakesonthepark","address":"227 10th St NE","lat":33.78164598224152,"lng":-84.37993683815601,"neighborhood":"Midtown","city_fetched":"Atlanta,US","state":"GA","country":"United States","canonicalUrl":"https://foursquare.com/v/blakes-on-the-park/40e0b100f964a520be051fe3","categoryId":"4bf58dd8d48988d1d8941735","category":"Gay Bar","checkinsCount":28133,"usersCount":6589,"tipCount":64,"visitsCount":29447,"url":"http://www.blakesontheparkatlanta.com","tier":2,"message":"Moderate","currency":"$","rating":8.5},{"name":"Sun Dial Restaurant, Bar & View","phone":"4045897506","twitter":"sundialatl","address":"210 Peachtree St NW","lat":33.75949945653734,"lng":-84.38864707946777,"neighborhood":"Downtown Atlanta","city_fetched":"Atlanta,US","state":"GA","country":"United States","canonicalUrl":"https://foursquare.com/v/sun-dial-restaurant-bar--view/4a4d3521f964a520b4ad1fe3","categoryId":"4bf58dd8d48988d1d5941735","category":"Hotel Bar","checkinsCount":9086,"usersCount":7600,"tipCount":141,"visitsCount":9360,"url":"http://www.sundialrestaurant.com","tier":3,"message":"Expensive","currency":"$","rating":8.4},{"name":"Park Bar","phone":"4045240444","twitter":"park_bar","address":"150 Walton St NW","lat":33.75815665026873,"lng":-84.39278739512656,"neighborhood":"Downtown Atlanta","city_fetched":"Atlanta,US","state":"GA","country":"United States","canonicalUrl":"https://foursquare.com/v/park-bar/4f4968fee4b0156c2fb762ba","categoryId":"4bf58dd8d48988d11d941735","category":"Sports Bar","checkinsCount":4985,"usersCount":3415,"tipCount":52,"visitsCount":5536,"url":"http://www.parkbaratlanta.com","tier":2,"message":"Moderate","currency":"$","rating":8.4},{"name":"Meehan's Public House","phone":"4048438058","twitter":"meehanspubhouse","address":"227 Sandy Springs Pl","lat":33.92062494615838,"lng":-84.38330411911011,"neighborhood":"Downtown Sandy Springs","city_fetched":"Atlanta,US","state":"GA","country":"United States","canonicalUrl":"https://foursquare.com/v/meehans-public-house/4a6e2a94f964a5201ad41fe3","categoryId":"4bf58dd8d48988d11b941735","category":"Pub","checkinsCount":5361,"usersCount":2653,"tipCount":37,"visitsCount":5756,"url":"http://www.meehansdowntown.com","tier":2,"message":"Moderate","currency":"$","rating":8.4},{"name":"Orpheus Brewing","twitter":"orpheusbrewing","address":"1440 Dutch Valley Pl NE","lat":33.79368189623221,"lng":-84.36864852905273,"neighborhood":"Morningside - Lenox Park","city_fetched":"Atlanta,US","state":"GA","country":"United States","canonicalUrl":"https://foursquare.com/v/orpheus-brewing/4e9f985bbe7b667c5fa2786c","categoryId":"50327c8591d4c4b30a586d5d","category":"Brewery","checkinsCount":1325,"usersCount":1313,"tipCount":14,"visitsCount":2066,"url":"http://www.orpheusbrewing.com","tier":1,"message":"Cheap","currency":"$","rating":8.4},{"name":"Augustine's","phone":"4046813344","twitter":"augustinesatl","address":"327 Memorial Dr SE","lat":33.746549,"lng":-84.376743,"neighborhood":"Grant Park","city_fetched":"Atlanta,US","state":"GA","country":"United States","canonicalUrl":"https://foursquare.com/v/augustines/4b85f65ef964a520b97b31e3","categoryId":"4bf58dd8d48988d11b941735","category":"Pub","checkinsCount":8081,"usersCount":2735,"tipCount":74,"visitsCount":8979,"url":"http://www.augustinesatlanta.com","tier":2,"message":"Moderate","currency":"$","rating":8.4},{"name":"Churchill Grounds Jazz Club","phone":"4048763030","twitter":"churchilljazz","address":"660 Peachtree St NE","lat":33.77295632652003,"lng":-84.38499235008906,"neighborhood":"Midtown","city_fetched":"Atlanta,US","state":"GA","country":"United States","canonicalUrl":"https://foursquare.com/v/churchill-grounds-jazz-club/4b592488f964a520b87e28e3","categoryId":"4bf58dd8d48988d116941735","category":"Bar","checkinsCount":2600,"usersCount":893,"tipCount":30,"visitsCount":2605,"url":"http://churchillgrounds.com","tier":"","message":"","currency":"","rating":8.3},{"name":"Bucket Shop Café","phone":"4042619244","twitter":"bucketshopcafe","address":"3475 Lenox Rd NE","lat":33.849051042177244,"lng":-84.36107221319125,"neighborhood":"Lenox","city_fetched":"Atlanta,US","state":"GA","country":"United States","canonicalUrl":"https://foursquare.com/v/bucket-shop-caf%C3%A9/450d4d0ef964a52058391fe3","categoryId":"4bf58dd8d48988d11b941735","category":"Pub","checkinsCount":11771,"usersCount":3753,"tipCount":61,"visitsCount":12801,"url":"http://bucketshopcafe.com","tier":1,"message":"Cheap","currency":"$","rating":8.3},{"name":"Living Room W Downtown","address":"45 Ivan Allen Jr Blvd NW","lat":33.764720411708076,"lng":-84.3894313929792,"neighborhood":"Downtown Atlanta","city_fetched":"Atlanta,US","state":"GA","country":"United States","canonicalUrl":"https://foursquare.com/v/living-room-w-downtown/4e015b6d7d8beaa1649f93d8","categoryId":"4bf58dd8d48988d121941735","category":"Lounge","checkinsCount":487,"usersCount":323,"tipCount":4,"visitsCount":492,"tier":3,"message":"Expensive","currency":"$","rating":8.3},{"name":"Karaoke Melody II","address":"7130 Buford Hwy NE Ste B-240","lat":33.91936301832552,"lng":-84.25593995833565,"city_fetched":"Atlanta,US","state":"GA","country":"United States","canonicalUrl":"https://foursquare.com/v/karaoke-melody-ii/4d0c20cfeea9b60ce1b0563f","categoryId":"4bf58dd8d48988d120941735","category":"Karaoke Bar","checkinsCount":848,"usersCount":864,"tipCount":5,"visitsCount":1073,"url":"http://karaokemelody.com","tier":"","message":"","currency":"","rating":8.3},{"name":"Tripp's Bar","phone":"4045551212","twitter":"trippsatlanta","address":"1931 Piedmont Cir NE","lat":33.8100252990475,"lng":-84.36743817584856,"neighborhood":"Piedmont Heights","city_fetched":"Atlanta,US","state":"GA","country":"United States","canonicalUrl":"https://foursquare.com/v/tripps-bar/40e0b100f964a520ac071fe3","categoryId":"4bf58dd8d48988d1d8941735","category":"Gay Bar","checkinsCount":637,"usersCount":263,"tipCount":5,"visitsCount":708,"url":"http://www.trippsatlanta.com","tier":"","message":"","currency":"","rating":8.3},{"name":"Dantanna's","phone":"4047608873","address":"3400 Around Lenox Rd NE","lat":33.84765663780956,"lng":-84.36515092849731,"neighborhood":"Lenox","city_fetched":"Atlanta,US","state":"GA","country":"United States","canonicalUrl":"https://foursquare.com/v/dantannas/4a4cf0b8f964a5205cad1fe3","categoryId":"4bf58dd8d48988d116941735","category":"Bar","checkinsCount":9894,"usersCount":4814,"tipCount":106,"visitsCount":10274,"url":"http://www.dantannas.com","tier":3,"message":"Expensive","currency":"$","rating":8.3},{"name":"Rose & Crown Tavern","phone":"7709335595","address":"1931 Powers Ferry Rd SE","lat":33.9047634601593,"lng":-84.4615834672004,"neighborhood":"East Cobb","city_fetched":"Atlanta,US","state":"GA","country":"United States","canonicalUrl":"https://foursquare.com/v/rose--crown-tavern/4c3e4936ca012d7fa74d2fbe","categoryId":"4bf58dd8d48988d11b941735","category":"Pub","checkinsCount":9788,"usersCount":3868,"tipCount":83,"visitsCount":12387,"url":"http://roseandcrowntavern.com","tier":2,"message":"Moderate","currency":"$","rating":8.3},{"name":"Atlanta Eagle","phone":"4048732453","twitter":"atlantaeagle","address":"306 Ponce de Leon Ave NE","lat":33.77288656047284,"lng":-84.37748883710917,"neighborhood":"Midtown","city_fetched":"Atlanta,US","state":"GA","country":"United States","canonicalUrl":"https://foursquare.com/v/atlanta-eagle/40e0b100f964a52034061fe3","categoryId":"4bf58dd8d48988d1d8941735","category":"Gay Bar","checkinsCount":6196,"usersCount":2078,"tipCount":39,"visitsCount":7389,"url":"http://www.atlantaeagle.com","tier":2,"message":"Moderate","currency":"$","rating":8.3},{"name":"Swinging Richards","phone":"4043520532","twitter":"richardsatl","address":"1400 Northside Dr NW","lat":33.79294185223241,"lng":-84.40828084945679,"neighborhood":"Berkeley Park","city_fetched":"Atlanta,US","state":"GA","country":"United States","canonicalUrl":"https://foursquare.com/v/swinging-richards/40e0b100f964a52090071fe3","categoryId":"4bf58dd8d48988d1d6941735","category":"Strip Club","checkinsCount":4737,"usersCount":2833,"tipCount":41,"visitsCount":6283,"url":"http://www.swingingrichards.com","tier":"","message":"","currency":"","rating":8.3},{"name":"Atkins Park Tavern","phone":"4048767249","twitter":"atkinspark","address":"794 N Highland Ave NE","lat":33.776061266666666,"lng":-84.352691,"neighborhood":"Virginia Highland","city_fetched":"Atlanta,US","state":"GA","country":"United States","canonicalUrl":"https://foursquare.com/v/atkins-park-tavern/46093634f964a520e0441fe3","categoryId":"4bf58dd8d48988d116941735","category":"Bar","checkinsCount":14134,"usersCount":5329,"tipCount":60,"visitsCount":15545,"url":"http://www.atkinspark.com","tier":2,"message":"Moderate","currency":"$","rating":8.3},{"name":"Diamonds of Atlanta","phone":"6789745831","twitter":"diamondsofatl","address":"1271 Marietta Blvd NW","lat":33.78937725889975,"lng":-84.42840360667446,"neighborhood":"Northwest Atlanta","city_fetched":"Atlanta,US","state":"GA","country":"United States","canonicalUrl":"https://foursquare.com/v/diamonds-of-atlanta/4e68371fe4cda3907eb81cbe","categoryId":"4bf58dd8d48988d1d6941735","category":"Strip Club","checkinsCount":1165,"usersCount":1021,"tipCount":20,"visitsCount":1511,"url":"http://diamondsofatl.com","tier":"","message":"","currency":"","rating":8.3},{"name":"Black Bear Tavern","phone":"4043559089","twitter":"blackbeartavern","address":"1931 Peachtree Rd NE","lat":33.807531587450114,"lng":-84.3935416995458,"neighborhood":"Brookwood Hills","city_fetched":"Atlanta,US","state":"GA","country":"United States","canonicalUrl":"https://foursquare.com/v/black-bear-tavern/4a3a578ff964a520d79f1fe3","categoryId":"4bf58dd8d48988d116941735","category":"Bar","checkinsCount":4272,"usersCount":1413,"tipCount":34,"visitsCount":4412,"url":"http://www.blackbeartavern.net","tier":2,"message":"Moderate","currency":"$","rating":8.2},{"name":"J&J  Liquor","lat":33.5041398180956,"lng":-84.23878994440129,"city_fetched":"Atlanta,US","state":"Georgia","country":"United States","canonicalUrl":"https://foursquare.com/v/jj--liquor/54615f81498e9fcea0660de4","categoryId":"52e81612bcbc57f1066b7a0d","category":"Beach Bar","checkinsCount":90,"usersCount":64,"tipCount":2,"visitsCount":167,"tier":"","message":"","currency":"","rating":8.2},{"name":"Magic City","phone":"4045845847","twitter":"magiccityatl","address":"241 Forsyth St SW","lat":33.74829254636558,"lng":-84.39729255276664,"neighborhood":"South Downtown","city_fetched":"Atlanta,US","state":"GA","country":"United States","canonicalUrl":"https://foursquare.com/v/magic-city/40e0b100f964a520dd061fe3","categoryId":"4bf58dd8d48988d1d6941735","category":"Strip Club","checkinsCount":3569,"usersCount":2688,"tipCount":34,"visitsCount":4443,"url":"http://www.magiccity.com","tier":"","message":"","currency":"","rating":8.2},{"name":"BJ Roosters","phone":"4046345895","twitter":"bjroostersatl","address":"2345 Cheshire Bridge Rd NE","lat":33.81864337850636,"lng":-84.35160927542229,"neighborhood":"Lindridge - Martin Manor","city_fetched":"Atlanta,US","state":"GA","country":"United States","canonicalUrl":"https://foursquare.com/v/bj-roosters/4b08228af964a520870423e3","categoryId":"4bf58dd8d48988d1d6941735","category":"Strip Club","checkinsCount":3424,"usersCount":837,"tipCount":11,"visitsCount":3424,"url":"http://www.bjroosters.com","tier":"","message":"","currency":"","rating":8.2},{"name":"Little Trouble","phone":"4044048008","address":"1170 Howell Mill Rd NW","lat":33.78574976847392,"lng":-84.41242694485777,"city_fetched":"Atlanta,US","state":"GA","country":"United States","canonicalUrl":"https://foursquare.com/v/little-trouble/55ac1294498e8f5c007013da","categoryId":"4bf58dd8d48988d11e941735","category":"Cocktail Bar","checkinsCount":1144,"usersCount":750,"tipCount":7,"visitsCount":1267,"tier":"","message":"","currency":"","rating":8.2},{"name":"Woofs","phone":"4048699422","address":"2425 Piedmont Rd NE","lat":33.82127169638319,"lng":-84.36735090519892,"neighborhood":"Lindbergh - Morosgo","city_fetched":"Atlanta,US","state":"GA","country":"United States","canonicalUrl":"https://foursquare.com/v/woofs/44c5f303f964a520d4351fe3","categoryId":"4bf58dd8d48988d1d8941735","category":"Gay Bar","checkinsCount":12347,"usersCount":2088,"tipCount":51,"visitsCount":13791,"url":"http://www.woofsatlanta.com","tier":2,"message":"Moderate","currency":"$","rating":8.2},{"name":"Sivas","phone":"4043436783","twitter":"thesivas","address":"794 Juniper St NE","lat":33.776218,"lng":-84.38321,"neighborhood":"Midtown","city_fetched":"Atlanta,US","state":"GA","country":"United States","canonicalUrl":"https://foursquare.com/v/sivas/5431f335498ecb8ef98a6c59","categoryId":"4bf58dd8d48988d116941735","category":"Bar","checkinsCount":582,"usersCount":473,"tipCount":10,"visitsCount":865,"url":"http://www.sivasmidtown.com","tier":"","message":"","currency":"","rating":8.2},{"name":"Moe's and Joe's Tavern","phone":"4048736090","twitter":"moesandjoes_atl","address":"1033 N Highland Ave NE","lat":33.78281803298146,"lng":-84.35419722896182,"neighborhood":"Virginia Highland","city_fetched":"Atlanta,US","state":"GA","country":"United States","canonicalUrl":"https://foursquare.com/v/moes-and-joes-tavern/40e0b100f964a520fb061fe3","categoryId":"4bf58dd8d48988d116941735","category":"Bar","checkinsCount":11744,"usersCount":3195,"tipCount":60,"visitsCount":12144,"url":"http://www.moesandjoes.com","tier":1,"message":"Cheap","currency":"$","rating":8.1},{"name":"Edgewood Corner Tavern","phone":"4045772310","address":"464 Edgewood Ave NE","lat":33.754366583333336,"lng":-84.372359,"neighborhood":"Sweet Auburn","city_fetched":"Atlanta,US","state":"GA","country":"United States","canonicalUrl":"https://foursquare.com/v/edgewood-corner-tavern/4a175317f964a5204c791fe3","categoryId":"4bf58dd8d48988d116941735","category":"Bar","checkinsCount":6573,"usersCount":2953,"tipCount":50,"visitsCount":6677,"url":"http://www.thecornertavern.com","tier":2,"message":"Moderate","currency":"$","rating":8.1},{"name":"5 Seasons Brewing","phone":"4048753232","twitter":"5seasonswest","address":"1000 Marietta St NW","lat":33.7788753419887,"lng":-84.41019058227539,"neighborhood":"Marietta Street Artery","city_fetched":"Atlanta,US","state":"GA","country":"United States","canonicalUrl":"https://foursquare.com/v/5-seasons-brewing/4a5619b1f964a5206eb41fe3","categoryId":"50327c8591d4c4b30a586d5d","category":"Brewery","checkinsCount":12241,"usersCount":6209,"tipCount":111,"visitsCount":12518,"url":"http://5seasons.info","tier":2,"message":"Moderate","currency":"$","rating":8.1},{"name":"Tongue & Groove","phone":"4042612325","twitter":"tongueandgroove","address":"2420 Piedmont Rd NE","lat":33.82267194641414,"lng":-84.36846487967668,"neighborhood":"Lindbergh - Morosgo","city_fetched":"Atlanta,US","state":"GA","country":"United States","canonicalUrl":"https://foursquare.com/v/tongue--groove/40e0b100f964a520a7071fe3","categoryId":"4bf58dd8d48988d11f941735","category":"Nightclub","checkinsCount":10445,"usersCount":4455,"tipCount":45,"visitsCount":11121,"url":"http://www.tandgonline.com","tier":3,"message":"Expensive","currency":"$","rating":8.1},{"name":"The Independent","phone":"4042499869","address":"931 Monroe Dr NE","lat":33.77908794455263,"lng":-84.36746897722347,"neighborhood":"Midtown","city_fetched":"Atlanta,US","state":"GA","country":"United States","canonicalUrl":"https://foursquare.com/v/the-independent/453e1501f964a5202e3c1fe3","categoryId":"4bf58dd8d48988d116941735","category":"Bar","checkinsCount":6217,"usersCount":2069,"tipCount":20,"visitsCount":6277,"url":"http://theindependentatlanta.com","tier":2,"message":"Moderate","currency":"$","rating":8.1},{"name":"10 High","phone":"4048733607","twitter":"10highclub","address":"816 N Highland Ave NE","lat":33.776900049537794,"lng":-84.35264110565186,"neighborhood":"Virginia Highland","city_fetched":"Atlanta,US","state":"GA","country":"United States","canonicalUrl":"https://foursquare.com/v/10-high/4144e300f964a520b01c1fe3","categoryId":"4bf58dd8d48988d116941735","category":"Bar","checkinsCount":4217,"usersCount":1637,"tipCount":15,"visitsCount":4270,"url":"http://www.10highclub.com","tier":2,"message":"Moderate","currency":"$","rating":8.1},{"name":"755 Club","phone":"4046142177","twitter":"braves","address":"Turner Field","lat":33.736016129792965,"lng":-84.38997534515806,"neighborhood":"Summerhill","city_fetched":"Atlanta,US","state":"GA","country":"United States","canonicalUrl":"https://foursquare.com/v/755-club/4dfce578aeb7594e8621a96b","categoryId":"4bf58dd8d48988d121941735","category":"Lounge","checkinsCount":7054,"usersCount":4294,"tipCount":20,"visitsCount":7101,"url":"http://www.braves.com","tier":2,"message":"Moderate","currency":"$","rating":8.1},{"name":"Graveyard Tavern","phone":"4046228686","twitter":"graveyard_eav","address":"1245 Glenwood Ave SE","lat":33.74002299342367,"lng":-84.34673601537695,"neighborhood":"East Atlanta Village","city_fetched":"Atlanta,US","state":"GA","country":"United States","canonicalUrl":"https://foursquare.com/v/graveyard-tavern/438dd57ef964a520372b1fe3","categoryId":"4bf58dd8d48988d116941735","category":"Bar","checkinsCount":14063,"usersCount":5122,"tipCount":90,"visitsCount":14336,"url":"http://www.graveyardtavern.com","tier":2,"message":"Moderate","currency":"$","rating":8.1},{"name":"The S.O.S. Tiki Bar","phone":"4043779308","address":"340 Church St","lat":33.77425303900331,"lng":-84.2951596121237,"neighborhood":"Downtown Decatur","city_fetched":"Atlanta,US","state":"GA","country":"United States","canonicalUrl":"https://foursquare.com/v/the-sos-tiki-bar/563aacd2cd108114437ea9dc","categoryId":"4bf58dd8d48988d11e941735","category":"Cocktail Bar","checkinsCount":395,"usersCount":248,"tipCount":4,"visitsCount":398,"tier":2,"message":"Moderate","currency":"$","rating":8.1},{"name":"Establishment","phone":"4048690002","address":"3167 Peachtree Rd NE","lat":33.840669,"lng":-84.375791,"neighborhood":"Buckhead Village","city_fetched":"Atlanta,US","state":"GA","country":"United States","canonicalUrl":"https://foursquare.com/v/establishment/52704e6f11d2db007406b549","categoryId":"4bf58dd8d48988d11e941735","category":"Cocktail Bar","checkinsCount":786,"usersCount":484,"tipCount":11,"visitsCount":865,"url":"http://establishmentatlanta.com","tier":2,"message":"Moderate","currency":"$","rating":8.1},{"name":"The Daiquiri Factory","phone":"4048818188","twitter":"daiquirifactory","address":"889 W Peachtree St NW","lat":33.779112856997216,"lng":-84.38702973271226,"neighborhood":"Midtown","city_fetched":"Atlanta,US","state":"GA","country":"United States","canonicalUrl":"https://foursquare.com/v/the-daiquiri-factory/4c080d7a7e3fc928d4b5ef82","categoryId":"4bf58dd8d48988d116941735","category":"Bar","checkinsCount":8460,"usersCount":3798,"tipCount":115,"visitsCount":9262,"url":"http://thedaiquirifactory.net","tier":2,"message":"Moderate","currency":"$","rating":8.1},{"name":"Slice","phone":"4049171820","address":"85 Poplar St NW","lat":33.756971,"lng":-84.390107,"neighborhood":"Fairlie-Poplar","city_fetched":"Atlanta,US","state":"GA","country":"United States","canonicalUrl":"https://foursquare.com/v/slice/4a3c3268f964a5203fa11fe3","categoryId":"4bf58dd8d48988d121941735","category":"Lounge","checkinsCount":3191,"usersCount":1365,"tipCount":38,"visitsCount":3318,"url":"http://www.sliceatlanta.com","tier":2,"message":"Moderate","currency":"$","rating":8},{"name":"Edgewood Speakeasy","phone":"4043434404","twitter":"edgewoodspeak","address":"327 Edgewood Ave SE","lat":33.75428172242784,"lng":-84.37688830947508,"neighborhood":"Sweet Auburn","city_fetched":"Atlanta,US","state":"GA","country":"United States","canonicalUrl":"https://foursquare.com/v/edgewood-speakeasy/5008aba1e4b034274e2c4a97","categoryId":"4bf58dd8d48988d116941735","category":"Bar","checkinsCount":2061,"usersCount":1040,"tipCount":15,"visitsCount":2104,"tier":2,"message":"Moderate","currency":"$","rating":8},{"name":"Euclid Avenue Yacht Club","phone":"4046882582","address":"1136 Euclid Ave NE","lat":33.76479313885187,"lng":-84.35018174457552,"neighborhood":"Little Five Points","city_fetched":"Atlanta,US","state":"GA","country":"United States","canonicalUrl":"https://foursquare.com/v/euclid-avenue-yacht-club/40e0b100f964a52045061fe3","categoryId":"4bf58dd8d48988d116941735","category":"Bar","checkinsCount":6756,"usersCount":2514,"tipCount":33,"visitsCount":6900,"url":"http://www.theeayc.com","tier":2,"message":"Moderate","currency":"$","rating":8},{"name":"Milltown Arms Tavern","phone":"4048270434","address":"180 Carroll St SE","lat":33.749644006881134,"lng":-84.36798233110378,"neighborhood":"Cabbagetown","city_fetched":"Atlanta,US","state":"GA","country":"United States","canonicalUrl":"https://foursquare.com/v/milltown-arms-tavern/4a2fc074f964a520d8981fe3","categoryId":"4bf58dd8d48988d11b941735","category":"Pub","checkinsCount":4496,"usersCount":1320,"tipCount":34,"visitsCount":4968,"url":"http://www.milltowntaverncabbagetown.com","tier":1,"message":"Cheap","currency":"$","rating":8},{"name":"The North Highland Pub","phone":"4045224600","address":"469 N Highland Ave NE","lat":33.76677488222909,"lng":-84.35298542356907,"neighborhood":"Inman Park","city_fetched":"Atlanta,US","state":"GA","country":"United States","canonicalUrl":"https://foursquare.com/v/the-north-highland-pub/40e0b100f964a52010071fe3","categoryId":"4bf58dd8d48988d116941735","category":"Bar","checkinsCount":3826,"usersCount":1318,"tipCount":30,"visitsCount":3973,"url":"http://www.bucketshopcafe.com/nhp/","tier":2,"message":"Moderate","currency":"$","rating":8},{"name":"The Blind Pig","lat":33.84257842921776,"lng":-84.3828933103964,"neighborhood":"Buckhead","city_fetched":"Atlanta,US","state":"GA","country":"United States","canonicalUrl":"https://foursquare.com/v/the-blind-pig/4bf9b51f5efe2d7f79b56c34","categoryId":"4bf58dd8d48988d121941735","category":"Lounge","checkinsCount":69,"usersCount":53,"tipCount":2,"visitsCount":69,"tier":"","message":"","currency":"","rating":8},{"name":"Spin","phone":"4048800703","twitter":"thespinningpie","address":"259 Peters St SW","lat":33.74760137879563,"lng":-84.40181275715058,"neighborhood":"Castleberry Hill","city_fetched":"Atlanta,US","state":"GA","country":"United States","canonicalUrl":"https://foursquare.com/v/spin/4f7a616ce4b0a96f6b2a9ae2","categoryId":"4bf58dd8d48988d121941735","category":"Lounge","checkinsCount":2328,"usersCount":1176,"tipCount":29,"visitsCount":2406,"url":"http://www.thespinningpie.com","tier":"","message":"","currency":"","rating":8},{"name":"Whiskey Blue","phone":"6785003190","twitter":"whiskeyblueatl","address":"3377 Peachtree Rd NE","lat":33.847867194009964,"lng":-84.36615990460294,"neighborhood":"Lenox","city_fetched":"Atlanta,US","state":"GA","country":"United States","canonicalUrl":"https://foursquare.com/v/whiskey-blue/4a6a44f1f964a52000cd1fe3","categoryId":"4bf58dd8d48988d122941735","category":"Whisky Bar","checkinsCount":6873,"usersCount":4448,"tipCount":43,"visitsCount":6992,"url":"http://gerberbars.com/whiskey-blue-atlanta","tier":3,"message":"Expensive","currency":"$","rating":8},{"name":"Follies","phone":"4042489979","address":"4075 Buford Hwy NE","lat":33.862172992617595,"lng":-84.30688243032483,"city_fetched":"Atlanta,US","state":"GA","country":"United States","canonicalUrl":"https://foursquare.com/v/follies/40e0b100f964a52058061fe3","categoryId":"4bf58dd8d48988d1d6941735","category":"Strip Club","checkinsCount":2320,"usersCount":1607,"tipCount":16,"visitsCount":3229,"url":"http://folliesatlanta.com","tier":"","message":"","currency":"","rating":8},{"name":"Mary's","phone":"4046244411","twitter":"marysatlanta","address":"1287 Glenwood Ave SE","lat":33.73975785956614,"lng":-84.34547424316406,"neighborhood":"East Atlanta Village","city_fetched":"Atlanta,US","state":"GA","country":"United States","canonicalUrl":"https://foursquare.com/v/marys/40e0b100f964a520e7061fe3","categoryId":"4bf58dd8d48988d1d8941735","category":"Gay Bar","checkinsCount":5527,"usersCount":1807,"tipCount":30,"visitsCount":5633,"url":"http://www.marysatlanta.com","tier":2,"message":"Moderate","currency":"$","rating":8},{"name":"Northside Tavern","phone":"4048748745","address":"1058 Howell Mill Rd NW","lat":33.78362834110732,"lng":-84.41199605334641,"city_fetched":"Atlanta,US","state":"GA","country":"United States","canonicalUrl":"https://foursquare.com/v/northside-tavern/40e0b100f964a52011071fe3","categoryId":"4bf58dd8d48988d118941735","category":"Dive Bar","checkinsCount":5158,"usersCount":2189,"tipCount":40,"visitsCount":5747,"url":"http://northsidetavern.com","tier":1,"message":"Cheap","currency":"$","rating":8},{"name":"{three} Sheets","phone":"4043038423","twitter":"threesheetsatl","address":"6017 Sandy Springs Cir","lat":33.91980587440071,"lng":-84.38330411911011,"neighborhood":"Downtown Sandy Springs","city_fetched":"Atlanta,US","state":"GA","country":"United States","canonicalUrl":"https://foursquare.com/v/three-sheets/4baadd59f964a520058b3ae3","categoryId":"4bf58dd8d48988d116941735","category":"Bar","checkinsCount":3432,"usersCount":2121,"tipCount":44,"visitsCount":3778,"url":"http://www.threesheetsatlanta.com","tier":2,"message":"Moderate","currency":"$","rating":7.9},{"name":"Maggie's Neighborhood Bar","phone":"4046365300","twitter":"meetatmaggies","address":"2937 N Druid Hills Rd NE","lat":33.81487550809915,"lng":-84.31204158578153,"city_fetched":"Atlanta,US","state":"GA","country":"United States","canonicalUrl":"https://foursquare.com/v/maggies-neighborhood-bar/40e0b100f964a520db061fe3","categoryId":"4bf58dd8d48988d116941735","category":"Bar","checkinsCount":4034,"usersCount":823,"tipCount":30,"visitsCount":4277,"url":"http://meetatmaggies.com","tier":"","message":"","currency":"","rating":7.9},{"name":"El Bar","twitter":"elaztecaponce","address":"939 Ponce de Leon Ave NE","lat":33.773667089426255,"lng":-84.35668237915704,"neighborhood":"Poncey-Highland","city_fetched":"Atlanta,US","state":"GA","country":"United States","canonicalUrl":"https://foursquare.com/v/el-bar/4a764206f964a520b9e21fe3","categoryId":"4bf58dd8d48988d116941735","category":"Bar","checkinsCount":3608,"usersCount":1909,"tipCount":22,"visitsCount":3836,"tier":1,"message":"Cheap","currency":"$","rating":7.9},{"name":"Bigelow's","phone":"4042415777","address":"2564 Gresham Rd SE","lat":33.71329441776874,"lng":-84.3101352171184,"city_fetched":"Atlanta,US","state":"GA","country":"United States","canonicalUrl":"https://foursquare.com/v/bigelows/40e0b100f964a520b7051fe3","categoryId":"4bf58dd8d48988d116941735","category":"Bar","checkinsCount":668,"usersCount":563,"tipCount":12,"visitsCount":1334,"tier":"","message":"","currency":"","rating":7.9},{"name":"Limerick Junction","phone":"4048747147","twitter":"limerickpub","address":"822 N Highland Ave NE","lat":33.77703403130532,"lng":-84.35264138953916,"neighborhood":"Virginia Highland","city_fetched":"Atlanta,US","state":"GA","country":"United States","canonicalUrl":"https://foursquare.com/v/limerick-junction/40e0b100f964a520c7061fe3","categoryId":"4bf58dd8d48988d11b941735","category":"Pub","checkinsCount":6617,"usersCount":2174,"tipCount":33,"visitsCount":6721,"url":"http://www.limerickjunction.com","tier":1,"message":"Cheap","currency":"$","rating":7.9},{"name":"Bench Warmers Sports Grill","phone":"4043210303","twitter":"benchwarmersatl","address":"2775 Clairmont Rd NE","lat":33.83841553049451,"lng":-84.3110036244669,"city_fetched":"Atlanta,US","state":"GA","country":"United States","canonicalUrl":"https://foursquare.com/v/bench-warmers-sports-grill/44dbbbbef964a5209f361fe3","categoryId":"4bf58dd8d48988d116941735","category":"Bar","checkinsCount":5156,"usersCount":1563,"tipCount":35,"visitsCount":5724,"url":"http://www.benchwarmersgrill.com","tier":1,"message":"Cheap","currency":"$","rating":7.9},{"name":"The Brewhouse Cafe","phone":"4045257799","twitter":"brewhouse_cafe","address":"401 Moreland Ave NE","lat":33.76516328701956,"lng":-84.34882164001465,"neighborhood":"Little Five Points","city_fetched":"Atlanta,US","state":"GA","country":"United States","canonicalUrl":"https://foursquare.com/v/the-brewhouse-cafe/40e0b100f964a520cf051fe3","categoryId":"4bf58dd8d48988d11d941735","category":"Sports Bar","checkinsCount":12266,"usersCount":4990,"tipCount":79,"visitsCount":12459,"url":"http://www.brewhousecafe.com","tier":2,"message":"Moderate","currency":"$","rating":7.9},{"name":"Opera Nightclub","phone":"4048740428","twitter":"operanightclub","address":"1150 Crescent Ave NE","lat":33.78593786606736,"lng":-84.38402831554413,"neighborhood":"Midtown","city_fetched":"Atlanta,US","state":"GA","country":"United States","canonicalUrl":"https://foursquare.com/operanightclub","categoryId":"4bf58dd8d48988d11f941735","category":"Nightclub","checkinsCount":16135,"usersCount":7072,"tipCount":77,"visitsCount":16310,"url":"http://operaatlanta.com","tier":2,"message":"Moderate","currency":"$","rating":7.9},{"name":"Tattletale Lounge","phone":"4048732294","twitter":"tattletaleatl","address":"2075 Piedmont Rd NE","lat":33.81195904982643,"lng":-84.36666813624734,"neighborhood":"Lindridge - Martin Manor","city_fetched":"Atlanta,US","state":"GA","country":"United States","canonicalUrl":"https://foursquare.com/v/tattletale-lounge/40e0b100f964a52093071fe3","categoryId":"4bf58dd8d48988d118941735","category":"Dive Bar","checkinsCount":2039,"usersCount":1073,"tipCount":8,"visitsCount":2409,"url":"http://www.tattletaleatlanta.com","tier":"","message":"","currency":"","rating":7.9},{"name":"Mardi Gras Atlanta","phone":"7709551638","twitter":"mardigrasatl","address":"6300 Powers Ferry Rd","lat":33.90597726529553,"lng":-84.42794719095303,"city_fetched":"Atlanta,US","state":"GA","country":"United States","canonicalUrl":"https://foursquare.com/mardigrasatl","categoryId":"4bf58dd8d48988d1d6941735","category":"Strip Club","checkinsCount":1400,"usersCount":619,"tipCount":7,"visitsCount":1491,"url":"http://mardigrasatl.com","tier":"","message":"","currency":"","rating":7.9},{"name":"Flatiron","phone":"4046888864","twitter":"flatironbareav","address":"520 Flat Shoals Ave SE","lat":33.74006560016934,"lng":-84.3451543018802,"neighborhood":"East Atlanta Village","city_fetched":"Atlanta,US","state":"GA","country":"United States","canonicalUrl":"https://foursquare.com/v/flatiron/40e0b100f964a52055061fe3","categoryId":"4bf58dd8d48988d116941735","category":"Bar","checkinsCount":6835,"usersCount":2076,"tipCount":45,"visitsCount":6930,"url":"http://www.flatironatlanta.com","tier":1,"message":"Cheap","currency":"$","rating":7.9},{"name":"Goldrush Show Bar","phone":"4047662532","address":"2608 Metropolitan Pkwy SW","lat":33.68360572013559,"lng":-84.40732272937281,"neighborhood":"Southside","city_fetched":"Atlanta,US","state":"GA","country":"United States","canonicalUrl":"https://foursquare.com/v/goldrush-show-bar/40e0b100f964a5206f061fe3","categoryId":"4bf58dd8d48988d1d6941735","category":"Strip Club","checkinsCount":785,"usersCount":659,"tipCount":8,"visitsCount":1185,"url":"http://www.showbars.com","tier":"","message":"","currency":"","rating":7.8},{"name":"Pals Lounge","phone":"4046581515","address":"254 Auburn Ave NE","lat":33.755595088005066,"lng":-84.3793773651123,"neighborhood":"Downtown Atlanta","city_fetched":"Atlanta,US","state":"GA","country":"United States","canonicalUrl":"https://foursquare.com/v/pals-lounge/4b651384f964a520ffe22ae3","categoryId":"4bf58dd8d48988d120941735","category":"Karaoke Bar","checkinsCount":431,"usersCount":262,"tipCount":10,"visitsCount":441,"tier":"","message":"","currency":"","rating":7.8},{"name":"World of Beer","phone":"4048159221","address":"855 Peachtree St NE Ste 5","lat":33.77774473,"lng":-84.38441756,"neighborhood":"Midtown","city_fetched":"Atlanta,US","state":"GA","country":"United States","canonicalUrl":"https://foursquare.com/v/world-of-beer/53fe0831498e6664d535fe77","categoryId":"4bf58dd8d48988d116941735","category":"Bar","checkinsCount":1699,"usersCount":1239,"tipCount":13,"visitsCount":2207,"url":"http://worldofbeer.com/Locations/MidtownAtlanta","tier":"","message":"","currency":"","rating":7.8},{"name":"Johnny's Hideaway","phone":"4042338026","twitter":"johnnyshideaway","address":"3771 Roswell Rd NE","lat":33.857871948188674,"lng":-84.38107252120972,"neighborhood":"North Buckhead","city_fetched":"Atlanta,US","state":"GA","country":"United States","canonicalUrl":"https://foursquare.com/v/johnnys-hideaway/40e0b100f964a520a8061fe3","categoryId":"4bf58dd8d48988d11f941735","category":"Nightclub","checkinsCount":6242,"usersCount":4019,"tipCount":44,"visitsCount":7369,"url":"http://www.johnnyshideaway.com","tier":2,"message":"Moderate","currency":"$","rating":7.8},{"name":"Clermont Lounge","phone":"4048744783","address":"789 Ponce de Leon Ave NE","lat":33.77358252586945,"lng":-84.36139583587646,"neighborhood":"Poncey-Highland","city_fetched":"Atlanta,US","state":"GA","country":"United States","canonicalUrl":"https://foursquare.com/v/clermont-lounge/40e0b100f964a520fa051fe3","categoryId":"4bf58dd8d48988d118941735","category":"Dive Bar","checkinsCount":9235,"usersCount":5969,"tipCount":84,"visitsCount":9944,"url":"http://www.clermontlounge.net","tier":2,"message":"Moderate","currency":"$","rating":7.8},{"name":"Opus 1","phone":"4046346478","address":"1086 Alco St NE","lat":33.8173564234815,"lng":-84.35281597422278,"neighborhood":"Lindridge - Martin Manor","city_fetched":"Atlanta,US","state":"GA","country":"United States","canonicalUrl":"https://foursquare.com/v/opus-1/4b173517f964a520c4c323e3","categoryId":"4bf58dd8d48988d1d8941735","category":"Gay Bar","checkinsCount":1402,"usersCount":279,"tipCount":9,"visitsCount":1536,"tier":"","message":"","currency":"","rating":7.7},{"name":"North River Tavern","phone":"7705528784","twitter":"northrivertavrn","address":"8879 Roswell Rd","lat":34.0012805756897,"lng":-84.35017660951019,"city_fetched":"Atlanta,US","state":"GA","country":"United States","canonicalUrl":"https://foursquare.com/v/north-river-tavern/45865c7bf964a520b13f1fe3","categoryId":"4bf58dd8d48988d11d941735","category":"Sports Bar","checkinsCount":10059,"usersCount":2923,"tipCount":68,"visitsCount":11682,"url":"http://northrivertavern.com","tier":2,"message":"Moderate","currency":"$","rating":7.7},{"name":"Taco Mac","phone":"6789047211","twitter":"tmacrestaurants","address":"933 Peachtree St NE","lat":33.78060981630946,"lng":-84.38390493392944,"neighborhood":"Midtown","city_fetched":"Atlanta,US","state":"GA","country":"United States","canonicalUrl":"https://foursquare.com/v/taco-mac/45f5ac0ff964a52019441fe3","categoryId":"4bf58dd8d48988d11d941735","category":"Sports Bar","checkinsCount":22227,"usersCount":10254,"tipCount":130,"visitsCount":22850,"url":"http://www.tacomac.com","tier":1,"message":"Cheap","currency":"$","rating":7.7},{"name":"Dugan's Tavern","phone":"4048851217","address":"777 Ponce de Leon Ave NE","lat":33.77362711709314,"lng":-84.36201810836792,"neighborhood":"Poncey-Highland","city_fetched":"Atlanta,US","state":"GA","country":"United States","canonicalUrl":"https://foursquare.com/v/dugans-tavern/4d95297fe07ea35d35e4a102","categoryId":"4bf58dd8d48988d116941735","category":"Bar","checkinsCount":4110,"usersCount":2189,"tipCount":51,"visitsCount":4449,"url":"http://dugansatl.com","tier":1,"message":"Cheap","currency":"$","rating":7.7},{"name":"Felix's Atlanta","phone":"4042497899","twitter":"felixsatlanta","address":"1510 Piedmont Ave NE","lat":33.796267541909884,"lng":-84.37092304229736,"neighborhood":"Piedmont Heights","city_fetched":"Atlanta,US","state":"GA","country":"United States","canonicalUrl":"https://foursquare.com/v/felixs-atlanta/4a566a71f964a5201bb51fe3","categoryId":"4bf58dd8d48988d120941735","category":"Karaoke Bar","checkinsCount":6623,"usersCount":1163,"tipCount":30,"visitsCount":6896,"url":"http://www.felixsatlanta.com","tier":1,"message":"Cheap","currency":"$","rating":7.7},{"name":"Heretic","phone":"4043253061","address":"2069 Cheshire Bridge Rd NE","lat":33.81148554746416,"lng":-84.35556818219345,"neighborhood":"Lindridge - Martin Manor","city_fetched":"Atlanta,US","state":"GA","country":"United States","canonicalUrl":"https://foursquare.com/v/heretic/40e0b100f964a52082061fe3","categoryId":"4bf58dd8d48988d1d8941735","category":"Gay Bar","checkinsCount":4129,"usersCount":1715,"tipCount":21,"visitsCount":4946,"url":"http://www.hereticatlanta.com","tier":2,"message":"Moderate","currency":"$","rating":7.7},{"name":"Highland Tap","phone":"4048753673","address":"1026 N Highland Ave NE","lat":33.78253518135449,"lng":-84.35453611923974,"neighborhood":"Virginia Highland","city_fetched":"Atlanta,US","state":"GA","country":"United States","canonicalUrl":"https://foursquare.com/v/highland-tap/40e0b100f964a52084061fe3","categoryId":"4bf58dd8d48988d11b941735","category":"Pub","checkinsCount":4496,"usersCount":2413,"tipCount":39,"visitsCount":4557,"url":"http://nnnwcorp.com/highlandtap.html","tier":2,"message":"Moderate","currency":"$","rating":7.7},{"name":"Hand in Hand","phone":"4048721001","twitter":"handinhandatl","address":"752 N Highland Ave NE","lat":33.77512291059786,"lng":-84.35274922131647,"neighborhood":"Virginia Highland","city_fetched":"Atlanta,US","state":"GA","country":"United States","canonicalUrl":"https://foursquare.com/v/hand-in-hand/4133bf80f964a520af1a1fe3","categoryId":"4bf58dd8d48988d116941735","category":"Bar","checkinsCount":17889,"usersCount":7321,"tipCount":81,"visitsCount":19264,"url":"http://www.handinhandatl.com","tier":2,"message":"Moderate","currency":"$","rating":7.6},{"name":"St. Regis Bar","phone":"4045637900","address":"88 W Paces Ferry Rd NW","lat":33.84012729354103,"lng":-84.38214913410852,"neighborhood":"Buckhead","city_fetched":"Atlanta,US","state":"GA","country":"United States","canonicalUrl":"https://foursquare.com/v/st-regis-bar/4c48f48e1b430f4775f8ddc2","categoryId":"4bf58dd8d48988d1d5941735","category":"Hotel Bar","checkinsCount":2485,"usersCount":1350,"tipCount":8,"visitsCount":2515,"url":"http://stregisatlanta.com","tier":2,"message":"Moderate","currency":"$","rating":7.6},{"name":"Stats","phone":"4048851472","twitter":"statsatl","address":"300 Marietta St NW","lat":33.76146294067318,"lng":-84.39617912334474,"neighborhood":"Downtown Atlanta","city_fetched":"Atlanta,US","state":"GA","country":"United States","canonicalUrl":"https://foursquare.com/v/stats/4a45051af964a520aba71fe3","categoryId":"4bf58dd8d48988d11d941735","category":"Sports Bar","checkinsCount":10182,"usersCount":8036,"tipCount":75,"visitsCount":10893,"url":"http://www.statsatl.com","tier":2,"message":"Moderate","currency":"$","rating":7.6},{"name":"Lumen","address":"181 Peachtree St NE","lat":33.75863502518745,"lng":-84.387573707081,"neighborhood":"Downtown Atlanta","city_fetched":"Atlanta,US","state":"GA","country":"United States","canonicalUrl":"https://foursquare.com/v/lumen/4c394b1593db0f47da502392","categoryId":"4bf58dd8d48988d11e941735","category":"Cocktail Bar","checkinsCount":306,"usersCount":218,"tipCount":6,"visitsCount":306,"tier":"","message":"","currency":"","rating":7.6},{"name":"Wet Willie's Atlanta","phone":"4048160151","twitter":"wetwillies","address":"2450 Piedmont Rd NE","lat":33.822797102536015,"lng":-84.36757564544678,"neighborhood":"Lindbergh - Morosgo","city_fetched":"Atlanta,US","state":"GA","country":"United States","canonicalUrl":"https://foursquare.com/v/wet-willies-atlanta/4b649a9af964a52063c12ae3","categoryId":"4bf58dd8d48988d116941735","category":"Bar","checkinsCount":6959,"usersCount":4774,"tipCount":86,"visitsCount":7652,"url":"http://www.wetwillies.com","tier":2,"message":"Moderate","currency":"$","rating":7.6},{"name":"Bat & Ball","phone":"7709860140","address":"2050-B Johnson Ferry Rd","lat":33.89232229,"lng":-84.32545786,"city_fetched":"Atlanta,US","state":"GA","country":"United States","canonicalUrl":"https://foursquare.com/v/bat--ball/4a0e3d50f964a520d6751fe3","categoryId":"4bf58dd8d48988d11b941735","category":"Pub","checkinsCount":2769,"usersCount":893,"tipCount":20,"visitsCount":2876,"url":"http://www.dunwoodyrestaurantgroup.com/tbb_location.asp","tier":2,"message":"Moderate","currency":"$","rating":7.6},{"name":"Amsterdam Cafe","phone":"4048922227","twitter":"amsterdamatl","address":"502 Amsterdam Ave NE","lat":33.78948748957087,"lng":-84.36992276839914,"neighborhood":"Morningside - Lenox Park","city_fetched":"Atlanta,US","state":"GA","country":"United States","canonicalUrl":"https://foursquare.com/v/amsterdam-cafe/4a78dacbf964a52097e61fe3","categoryId":"4bf58dd8d48988d116941735","category":"Bar","checkinsCount":7441,"usersCount":1940,"tipCount":40,"visitsCount":7766,"url":"http://www.amsterdamatlanta.com","tier":1,"message":"Cheap","currency":"$","rating":7.6},{"name":"Oscar's","phone":"4048158841","twitter":"oscarsatlanta","address":"1510 Piedmont Ave NE Ste C","lat":33.79636048446558,"lng":-84.37085703024854,"neighborhood":"Piedmont Heights","city_fetched":"Atlanta,US","state":"GA","country":"United States","canonicalUrl":"https://foursquare.com/v/oscars/4c48e52d9f2ad13a198e8c52","categoryId":"4bf58dd8d48988d1d8941735","category":"Gay Bar","checkinsCount":4940,"usersCount":973,"tipCount":18,"visitsCount":5039,"url":"http://www.oscarsatlanta.com","tier":2,"message":"Moderate","currency":"$","rating":7.6},{"name":"Model T","phone":"4048722209","twitter":"modeltatlanta","address":"699 Ponce de Leon Ave NE","lat":33.7725535983207,"lng":-84.36375729572815,"neighborhood":"Poncey-Highland","city_fetched":"Atlanta,US","state":"GA","country":"United States","canonicalUrl":"https://foursquare.com/v/model-t/40e0b100f964a520fa061fe3","categoryId":"4bf58dd8d48988d1d8941735","category":"Gay Bar","checkinsCount":1699,"usersCount":386,"tipCount":10,"visitsCount":1703,"url":"http://www.modeltatlanta.com","tier":"","message":"","currency":"","rating":7.6},{"name":"Havana Club","phone":"4049414847","twitter":"havana_clubatl","address":"3112 Piedmont Rd NE","lat":33.8410250700733,"lng":-84.37047203402696,"neighborhood":"Buckhead Village","city_fetched":"Atlanta,US","state":"GA","country":"United States","canonicalUrl":"https://foursquare.com/v/havana-club/4b5a7f69f964a5204fc828e3","categoryId":"4bf58dd8d48988d11f941735","category":"Nightclub","checkinsCount":8838,"usersCount":4621,"tipCount":56,"visitsCount":9886,"url":"http://www.havanaclubatl.com","tier":2,"message":"Moderate","currency":"$","rating":7.6},{"name":"Kat's Cafe","address":"970 Piedmont Ave NE","lat":33.781106045099605,"lng":-84.38084038748639,"neighborhood":"Midtown","city_fetched":"Atlanta,US","state":"GA","country":"United States","canonicalUrl":"https://foursquare.com/v/kats-cafe/4d5f1cbd5b276dcbb77703c6","categoryId":"4bf58dd8d48988d11e941735","category":"Cocktail Bar","checkinsCount":296,"usersCount":216,"tipCount":10,"visitsCount":297,"url":"http://katscafeatlanta.com","tier":"","message":"","currency":"","rating":7.6},{"name":"Saltwood Charcuterie & Bar","phone":"4047455000","twitter":"loews_hotels","address":"1065 Peachtree St NE","lat":33.78309755600527,"lng":-84.38326796110721,"neighborhood":"Midtown","city_fetched":"Atlanta,US","state":"GA","country":"United States","canonicalUrl":"https://foursquare.com/v/saltwood-charcuterie--bar/4c806109d92ea093c8b23772","categoryId":"4bf58dd8d48988d1d5941735","category":"Hotel Bar","checkinsCount":1524,"usersCount":904,"tipCount":15,"visitsCount":1524,"url":"http://www.loewshotels.com/atlanta-hotel/dining/bar-eleven-lounge","tier":3,"message":"Expensive","currency":"$","rating":7.6},{"name":"Las Margaritas Latin Restaurant Tequila & Rum Bar","phone":"4048734464","address":"1842 Cheshire Bridge Rd NE","lat":33.809440739443694,"lng":-84.36234032667284,"neighborhood":"Lindridge - Martin Manor","city_fetched":"Atlanta,US","state":"GA","country":"United States","canonicalUrl":"https://foursquare.com/v/las-margaritas-latin-restaurant-tequila--rum-bar/4b11ec8bf964a5200b8723e3","categoryId":"4bf58dd8d48988d120941735","category":"Karaoke Bar","checkinsCount":5535,"usersCount":2662,"tipCount":58,"visitsCount":5927,"url":"http://lasmargaritasmidtown.com","tier":2,"message":"Moderate","currency":"$","rating":7.6},{"name":"Proof and Provision","phone":"4048971991","twitter":"proof_provision","address":"659 Peachtree St NE","lat":33.772423145907766,"lng":-84.3844199180603,"neighborhood":"Midtown","city_fetched":"Atlanta,US","state":"GA","country":"United States","canonicalUrl":"https://foursquare.com/v/proof-and-provision/4fc96d86e4b02b2b9903da3d","categoryId":"4bf58dd8d48988d1d4941735","category":"Speakeasy","checkinsCount":3090,"usersCount":2077,"tipCount":35,"visitsCount":3208,"url":"http://www.proofandprovision.com","tier":2,"message":"Moderate","currency":"$","rating":7.5},{"name":"Divan Restaurant & Hookah Lounge","phone":"4044674297","twitter":"divanatlanta","address":"3125 Piedmont Rd NE","lat":33.84200755417796,"lng":-84.37005623528398,"neighborhood":"Buckhead","city_fetched":"Atlanta,US","state":"GA","country":"United States","canonicalUrl":"https://foursquare.com/v/divan-restaurant--hookah-lounge/453dbb70f964a520223c1fe3","categoryId":"4bf58dd8d48988d119941735","category":"Hookah Bar","checkinsCount":2658,"usersCount":1822,"tipCount":50,"visitsCount":2844,"url":"http://www.divanatlanta.com","tier":3,"message":"Expensive","currency":"$","rating":7.5},{"name":"Cockpit","address":"465 Boulevard Ave. SE","lat":33.74189423058926,"lng":-84.3682492733555,"neighborhood":"Grant Park","city_fetched":"Atlanta,US","state":"GA","country":"United States","canonicalUrl":"https://foursquare.com/v/cockpit/4fed0025e4b0430e0a204fff","categoryId":"4bf58dd8d48988d1d8941735","category":"Gay Bar","checkinsCount":1058,"usersCount":411,"tipCount":7,"visitsCount":1179,"tier":"","message":"","currency":"","rating":7.5},{"name":"Mixx","phone":"4042284372","twitter":"mixxatlanta","address":"1492 Piedmont Ave NE #B","lat":33.795880388658794,"lng":-84.37095969548305,"neighborhood":"Piedmont Heights","city_fetched":"Atlanta,US","state":"GA","country":"United States","canonicalUrl":"https://foursquare.com/v/mixx/4a7ceb5ff964a52017ee1fe3","categoryId":"4bf58dd8d48988d1d8941735","category":"Gay Bar","checkinsCount":4214,"usersCount":1193,"tipCount":22,"visitsCount":4435,"url":"http://mixxatlanta.com","tier":2,"message":"Moderate","currency":"$","rating":7.5},{"name":"Union EAV","phone":"6783878324","address":"485 Flat Shoals Ave SE","lat":33.74078628054162,"lng":-84.34640735112292,"neighborhood":"East Atlanta Village","city_fetched":"Atlanta,US","state":"GA","country":"United States","canonicalUrl":"https://foursquare.com/v/union-eav/428d2880f964a520ab231fe3","categoryId":"4bf58dd8d48988d11f941735","category":"Nightclub","checkinsCount":2945,"usersCount":1163,"tipCount":37,"visitsCount":2965,"url":"http://unioneav.com","tier":1,"message":"Cheap","currency":"$","rating":7.5},{"name":"Jungle Atlanta","phone":"4048448800","twitter":"jungleatlanta","address":"2115 Faulkner Rd NE","lat":33.81202937492808,"lng":-84.356632232666,"neighborhood":"Lindridge - Martin Manor","city_fetched":"Atlanta,US","state":"GA","country":"United States","canonicalUrl":"https://foursquare.com/v/jungle-atlanta/431f7f00f964a52089271fe3","categoryId":"4bf58dd8d48988d11f941735","category":"Nightclub","checkinsCount":9237,"usersCount":3378,"tipCount":20,"visitsCount":10299,"url":"http://www.jungleatl.com","tier":1,"message":"Cheap","currency":"$","rating":7.5},{"name":"Blue Flame Lounge","phone":"4047941446","twitter":"blueflamelounge","address":"1097 Harwell Rd NW","lat":33.78526190335195,"lng":-84.49120121489716,"city_fetched":"Atlanta,US","state":"GA","country":"United States","canonicalUrl":"https://foursquare.com/v/blue-flame-lounge/40e0b100f964a520c3051fe3","categoryId":"4bf58dd8d48988d1d6941735","category":"Strip Club","checkinsCount":1260,"usersCount":1003,"tipCount":9,"visitsCount":1644,"url":"http://theblueflame.com","tier":"","message":"","currency":"","rating":7.5},{"name":"Taco Mac","phone":"4045745813","twitter":"tmacrestaurants","address":"573 Main Street","lat":33.8222811,"lng":-84.368312,"neighborhood":"Lindbergh - Morosgo","city_fetched":"Atlanta,US","state":"GA","country":"United States","canonicalUrl":"https://foursquare.com/v/taco-mac/49e59de0f964a520d9631fe3","categoryId":"4bf58dd8d48988d11d941735","category":"Sports Bar","checkinsCount":21679,"usersCount":8980,"tipCount":103,"visitsCount":22902,"url":"http://www.tacomac.com","tier":2,"message":"Moderate","currency":"$","rating":7.5},{"name":"97 Estoria","phone":"4045220966","address":"727 Wylie St SE","lat":33.75200099504399,"lng":-84.36360195279121,"neighborhood":"Cabbagetown","city_fetched":"Atlanta,US","state":"GA","country":"United States","canonicalUrl":"https://foursquare.com/v/97-estoria/428a8580f964a52086231fe3","categoryId":"4bf58dd8d48988d116941735","category":"Bar","checkinsCount":8767,"usersCount":2576,"tipCount":54,"visitsCount":9422,"url":"http://97estoria.com","tier":1,"message":"Cheap","currency":"$","rating":7.5},{"name":"Cafe 290","phone":"4042563942","address":"290 Hilderbrand Dr","lat":33.92324540241627,"lng":-84.37795077727861,"neighborhood":"Downtown Sandy Springs","city_fetched":"Atlanta,US","state":"GA","country":"United States","canonicalUrl":"https://foursquare.com/v/cafe-290/40e0b100f964a520df051fe3","categoryId":"4bf58dd8d48988d116941735","category":"Bar","checkinsCount":1124,"usersCount":829,"tipCount":21,"visitsCount":1173,"url":"http://www.cafe290atlanta.com","tier":"","message":"","currency":"","rating":7.5},{"name":"XS Ultra Lounge","address":"708 Spring St NW","lat":33.77399238430153,"lng":-84.389267180013,"neighborhood":"Midtown","city_fetched":"Atlanta,US","state":"GA","country":"United States","canonicalUrl":"https://foursquare.com/v/xs-ultra-lounge/4da4f1decda109f02fb3f402","categoryId":"4bf58dd8d48988d1d8941735","category":"Gay Bar","checkinsCount":706,"usersCount":329,"tipCount":5,"visitsCount":714,"tier":"","message":"","currency":"","rating":7.5},{"name":"CosmoLava Lounge","phone":"4048736189","twitter":"cosmolavalounge","address":"45 13th St NE","lat":33.7855558441406,"lng":-84.3858134699536,"neighborhood":"Midtown","city_fetched":"Atlanta,US","state":"GA","country":"United States","canonicalUrl":"https://foursquare.com/v/cosmolava-lounge/4b2af82af964a52013b324e3","categoryId":"4bf58dd8d48988d11f941735","category":"Nightclub","checkinsCount":7452,"usersCount":3852,"tipCount":24,"visitsCount":7914,"url":"http://cosmolava.com","tier":2,"message":"Moderate","currency":"$","rating":7.5},{"name":"Backstage Night Club & Lounge","twitter":"backstageatl","address":"2505 Godby Rd","lat":33.616828253720165,"lng":-84.47158291966457,"city_fetched":"Atlanta,US","state":"GA","country":"United States","canonicalUrl":"https://foursquare.com/v/backstage-night-club--lounge/4de326a318385df2b035f402","categoryId":"4bf58dd8d48988d11f941735","category":"Nightclub","checkinsCount":558,"usersCount":369,"tipCount":12,"visitsCount":699,"tier":1,"message":"Cheap","currency":"$","rating":7.5},{"name":"The Pullman","phone":"4043711115","address":"1992 Hosea L Williams Dr NE","lat":33.75137914311427,"lng":-84.32260514743726,"neighborhood":"Kirkwood","city_fetched":"Atlanta,US","state":"GA","country":"United States","canonicalUrl":"https://foursquare.com/v/the-pullman/4ec7585549010f98cc60eadd","categoryId":"4bf58dd8d48988d116941735","category":"Bar","checkinsCount":1823,"usersCount":572,"tipCount":16,"visitsCount":1881,"url":"http://thepullmanatl.com","tier":2,"message":"Moderate","currency":"$","rating":7.5},{"name":"Royal Peacock","phone":"4045230579","address":"186 1/2 Auburn Ave NE","lat":33.75570849478018,"lng":-84.38165187835693,"neighborhood":"Downtown Atlanta","city_fetched":"Atlanta,US","state":"GA","country":"United States","canonicalUrl":"https://foursquare.com/v/royal-peacock/4c79e02b794e224b30306728","categoryId":"4bf58dd8d48988d11f941735","category":"Nightclub","checkinsCount":662,"usersCount":230,"tipCount":6,"visitsCount":676,"tier":"","message":"","currency":"","rating":7.5},{"name":"High Velocity @ Atlanta Marriott Marquis","phone":"4045866174","address":"265 Peachtree Center Ave NE","lat":33.76143637545714,"lng":-84.38504367041602,"neighborhood":"Downtown Atlanta","city_fetched":"Atlanta,US","state":"GA","country":"United States","canonicalUrl":"https://foursquare.com/v/high-velocity--atlanta-marriott-marquis/4a496372f964a52041ab1fe3","categoryId":"4bf58dd8d48988d116941735","category":"Bar","checkinsCount":2871,"usersCount":1950,"tipCount":29,"visitsCount":2897,"url":"http://highvelocityatlanta.com","tier":2,"message":"Moderate","currency":"$","rating":7.5},{"name":"House of Hookah","phone":"4047481379","twitter":"houseofhookahga","address":"398 14th St NW","lat":33.78596889585284,"lng":-84.40050957835734,"city_fetched":"Atlanta,US","state":"GA","country":"United States","canonicalUrl":"https://foursquare.com/v/house-of-hookah/4d43c2f72e326ea83249dda6","categoryId":"4bf58dd8d48988d119941735","category":"Hookah Bar","checkinsCount":3232,"usersCount":1389,"tipCount":40,"visitsCount":4013,"tier":"","message":"","currency":"","rating":7.5},{"name":"Red Phone Booth","phone":"4042287528","address":"17 Andrew Young International Blvd. N.E.","lat":34.0781149,"lng":-84.4304949,"neighborhood":"Downtown Atlanta","city_fetched":"Atlanta,US","state":"GA","country":"United States","canonicalUrl":"https://foursquare.com/v/red-phone-booth/579621f3498ef64cfb804770","categoryId":"4bf58dd8d48988d116941735","category":"Bar","checkinsCount":34,"usersCount":21,"tipCount":1,"visitsCount":34,"url":"http://redphonebooth.com","tier":"","message":"","currency":"","rating":7.5},{"name":"Sherlock's Wine Merchants","phone":"4049499945","address":"4062 Peachtree Rd.","lat":33.862109898821735,"lng":-84.3391403228075,"city_fetched":"Atlanta,US","state":"GA","country":"United States","canonicalUrl":"https://foursquare.com/v/sherlocks-wine-merchants/4b181deff964a52034cd23e3","categoryId":"4bf58dd8d48988d123941735","category":"Wine Bar","checkinsCount":162,"usersCount":107,"tipCount":8,"visitsCount":162,"url":"http://sherlocks.com","tier":"","message":"","currency":"","rating":7.5},{"name":"Cirque Daiquiri Bar & Grill","phone":"4049099134","address":"2160 Monroe Dr NE","lat":33.8109918929691,"lng":-84.36990736835453,"neighborhood":"Piedmont Heights","city_fetched":"Atlanta,US","state":"GA","country":"United States","canonicalUrl":"https://foursquare.com/v/cirque-daiquiri-bar--grill/54715290498e0e46bde5162b","categoryId":"4bf58dd8d48988d116941735","category":"Bar","checkinsCount":435,"usersCount":721,"tipCount":2,"visitsCount":1062,"url":"http://cirqueatlanta.com","tier":"","message":"","currency":"","rating":7.5},{"name":"Taco Mac","phone":"6783361381","twitter":"tmacrestaurants","address":"1211 Ashford Crossing","lat":33.9291232,"lng":-84.3452423,"neighborhood":"Perimeter Center","city_fetched":"Atlanta,US","state":"GA","country":"United States","canonicalUrl":"https://foursquare.com/v/taco-mac/4a44e2e9f964a52095a71fe3","categoryId":"4bf58dd8d48988d11d941735","category":"Sports Bar","checkinsCount":21133,"usersCount":9008,"tipCount":98,"visitsCount":23056,"url":"http://www.tacomac.com","tier":2,"message":"Moderate","currency":"$","rating":7.5},{"name":"Copeland's Cheesecake Bistro","phone":"4048158800","address":"265 18th St NW #4130","lat":33.79292237249321,"lng":-84.39665630996285,"neighborhood":"Atlantic Station","city_fetched":"Atlanta,US","state":"GA","country":"United States","canonicalUrl":"https://foursquare.com/v/copelands-cheesecake-bistro/4acfd466f964a52050d620e3","categoryId":"4bf58dd8d48988d116941735","category":"Bar","checkinsCount":6007,"usersCount":4576,"tipCount":65,"visitsCount":6026,"url":"http://www.copelandscheesecakebistro.com","tier":2,"message":"Moderate","currency":"$","rating":7.4},{"name":"Halo Lounge","phone":"4049627333","twitter":"halolounge","address":"817 W Peachtree St NW Suite E-100","lat":33.777435121968495,"lng":-84.38647985458374,"neighborhood":"Midtown","city_fetched":"Atlanta,US","state":"GA","country":"United States","canonicalUrl":"https://foursquare.com/v/halo-lounge/40e0b100f964a52078061fe3","categoryId":"4bf58dd8d48988d121941735","category":"Lounge","checkinsCount":4318,"usersCount":2171,"tipCount":31,"visitsCount":4366,"url":"http://www.halolounge.com","tier":"","message":"","currency":"","rating":7.4},{"name":"Marquette Club","phone":"4046581863","address":"868 Joseph E Boone Blvd NW","lat":33.76320195203162,"lng":-84.41598680858802,"neighborhood":"Vine City","city_fetched":"Atlanta,US","state":"GA","country":"United States","canonicalUrl":"https://foursquare.com/v/marquette-club/4d7c5075f260a093ffd038ba","categoryId":"4bf58dd8d48988d1d8941735","category":"Gay Bar","checkinsCount":165,"usersCount":91,"tipCount":2,"visitsCount":167,"tier":"","message":"","currency":"","rating":7.4},{"name":"Dark Horse Tavern","phone":"4048733607","twitter":"darkhorseatl","address":"816 N Highland Ave NE","lat":33.77681173186418,"lng":-84.35258490614866,"neighborhood":"Virginia Highland","city_fetched":"Atlanta,US","state":"GA","country":"United States","canonicalUrl":"https://foursquare.com/v/dark-horse-tavern/40e0b100f964a5201b061fe3","categoryId":"4bf58dd8d48988d116941735","category":"Bar","checkinsCount":11566,"usersCount":5805,"tipCount":36,"visitsCount":11927,"url":"http://www.darkhorseatlanta.com","tier":2,"message":"Moderate","currency":"$","rating":7.4},{"name":"Cheetah Lounge","phone":"4048923037","twitter":"cheetah_lounge","address":"887 Spring St NW","lat":33.77914733128647,"lng":-84.38864707946777,"neighborhood":"Midtown","city_fetched":"Atlanta,US","state":"GA","country":"United States","canonicalUrl":"https://foursquare.com/v/cheetah-lounge/40e0b100f964a520ef051fe3","categoryId":"4bf58dd8d48988d1d6941735","category":"Strip Club","checkinsCount":7028,"usersCount":3106,"tipCount":27,"visitsCount":7879,"url":"http://thecheetah.com","tier":"","message":"","currency":"","rating":7.4},{"name":"Bar Margot","phone":"4048819898","address":"75 14th St NE","lat":33.786741439690076,"lng":-84.38559279511504,"neighborhood":"Midtown","city_fetched":"Atlanta,US","state":"GA","country":"United States","canonicalUrl":"https://foursquare.com/v/bar-margot/560c809a498ee05b950fa258","categoryId":"4bf58dd8d48988d121941735","category":"Lounge","checkinsCount":239,"usersCount":163,"tipCount":5,"visitsCount":241,"url":"http://barmargotatl.com","tier":"","message":"","currency":"","rating":7.4},{"name":"Gibney's Pub","phone":"4046880928","twitter":"gibneyspub","address":"231 Peachtree Center Ave NE","lat":33.76043335793763,"lng":-84.38609059532371,"neighborhood":"Downtown Atlanta","city_fetched":"Atlanta,US","state":"GA","country":"United States","canonicalUrl":"https://foursquare.com/v/gibneys-pub/49e38b9af964a52092621fe3","categoryId":"4bf58dd8d48988d11b941735","category":"Pub","checkinsCount":3155,"usersCount":2010,"tipCount":27,"visitsCount":3208,"url":"http://gibneyspub.com","tier":2,"message":"Moderate","currency":"$","rating":7.4},{"name":"The Hangar","phone":"7063130842","address":"151 Sampson St NE","lat":33.758349656603514,"lng":-84.36523070209203,"neighborhood":"Old Fourth Ward","city_fetched":"Atlanta,US","state":"GA","country":"United States","canonicalUrl":"https://foursquare.com/v/the-hangar/515e257be4b03f2e0ee63696","categoryId":"4bf58dd8d48988d118941735","category":"Dive Bar","checkinsCount":207,"usersCount":98,"tipCount":4,"visitsCount":212,"tier":"","message":"","currency":"","rating":7.4},{"name":"Space Atlanta","phone":"4047569494","twitter":"spaceatlanta","address":"1310 White St SW","lat":33.737268300721446,"lng":-84.43042922911562,"neighborhood":"West End","city_fetched":"Atlanta,US","state":"GA","country":"United States","canonicalUrl":"https://foursquare.com/v/space-atlanta/4a67be83f964a520ffc91fe3","categoryId":"4bf58dd8d48988d121941735","category":"Lounge","checkinsCount":550,"usersCount":358,"tipCount":8,"visitsCount":550,"url":"http://www.spaceatlanta.com","tier":"","message":"","currency":"","rating":7.4},{"name":"Gordon Biersch Brewery Restaurant","phone":"4042640253","twitter":"gbbuckhead","address":"3242 Peachtree Rd NE","lat":33.84372254879549,"lng":-84.37311172485352,"neighborhood":"Buckhead","city_fetched":"Atlanta,US","state":"GA","country":"United States","canonicalUrl":"https://foursquare.com/v/gordon-biersch-brewery-restaurant/4a5bd835f964a520debb1fe3","categoryId":"50327c8591d4c4b30a586d5d","category":"Brewery","checkinsCount":9856,"usersCount":5880,"tipCount":68,"visitsCount":10347,"url":"http://gordonbiersch.com","tier":2,"message":"Moderate","currency":"$","rating":7.4},{"name":"The Basement","address":"1245 Glenwood Ave SE","lat":33.74004948652724,"lng":-84.34677709828013,"neighborhood":"East Atlanta Village","city_fetched":"Atlanta,US","state":"GA","country":"United States","canonicalUrl":"https://foursquare.com/v/the-basement/4d82e8a702eb5481869c0ff5","categoryId":"4bf58dd8d48988d11f941735","category":"Nightclub","checkinsCount":1489,"usersCount":789,"tipCount":10,"visitsCount":1521,"tier":"","message":"","currency":"","rating":7.4},{"name":"Taco Mac","phone":"6783855897","twitter":"tmacrestaurants","address":"3101 Cobb Pkwy SE, Ste 210","lat":33.877575179697914,"lng":-84.45605099201208,"neighborhood":"Cumberland","city_fetched":"Atlanta,US","state":"GA","country":"United States","canonicalUrl":"https://foursquare.com/v/taco-mac/545c2a64498e12f62f41dce3","categoryId":"4bf58dd8d48988d11d941735","category":"Sports Bar","checkinsCount":1971,"usersCount":2165,"tipCount":15,"visitsCount":3932,"url":"http://www.tacomac.com","tier":"","message":"","currency":"","rating":7.4},{"name":"Oasis Goodtime Emporium","phone":"7704548065","address":"6363 Peachtree Industrial Blvd","lat":33.921382583899906,"lng":-84.28166599598164,"city_fetched":"Atlanta,US","state":"GA","country":"United States","canonicalUrl":"https://foursquare.com/v/oasis-goodtime-emporium/4a45cfb0f964a5207fa81fe3","categoryId":"4bf58dd8d48988d1d6941735","category":"Strip Club","checkinsCount":1961,"usersCount":1426,"tipCount":18,"visitsCount":2989,"url":"http://oasisatl.com","tier":"","message":"","currency":"","rating":7.4},{"name":"Space2","address":"485 Edgewood Ave SE","lat":33.75422551412448,"lng":-84.3716499209404,"neighborhood":"Old Fourth Ward","city_fetched":"Atlanta,US","state":"GA","country":"United States","canonicalUrl":"https://foursquare.com/v/space2/4eb4dc08991165b76229d711","categoryId":"4bf58dd8d48988d11f941735","category":"Nightclub","checkinsCount":367,"usersCount":190,"tipCount":1,"visitsCount":368,"tier":"","message":"","currency":"","rating":7.4},{"name":"Cafe Circa","phone":"4044770008","twitter":"cafecirca","address":"464 Edgewood Ave SE","lat":33.754446497506116,"lng":-84.37240212312639,"neighborhood":"Sweet Auburn","city_fetched":"Atlanta,US","state":"GA","country":"United States","canonicalUrl":"https://foursquare.com/v/cafe-circa/4a4bdbc1f964a520cfac1fe3","categoryId":"4bf58dd8d48988d121941735","category":"Lounge","checkinsCount":4675,"usersCount":2401,"tipCount":64,"visitsCount":4765,"url":"http://www.cafecircaatl.com","tier":2,"message":"Moderate","currency":"$","rating":7.3},{"name":"The Pub","phone":"7705570883","twitter":"pubperimeter","address":"4400 Ashford Dunwoody Rd NE","lat":33.923768985149444,"lng":-84.33959742724932,"neighborhood":"Perimeter Center","city_fetched":"Atlanta,US","state":"GA","country":"United States","canonicalUrl":"https://foursquare.com/v/the-pub/53e3a5a5498eaec3f20144ca","categoryId":"4bf58dd8d48988d11b941735","category":"Pub","checkinsCount":1351,"usersCount":1150,"tipCount":33,"visitsCount":1838,"url":"http://www.experiencethepub.com","tier":"","message":"","currency":"","rating":7.3},{"name":"Intercontinental Buckhead Club Lounge","lat":33.845793,"lng":-84.368375,"neighborhood":"Buckhead","city_fetched":"Atlanta,US","state":"GA","country":"United States","canonicalUrl":"https://foursquare.com/v/intercontinental-buckhead-club-lounge/51b512f0498ef03529a54c1c","categoryId":"4bf58dd8d48988d121941735","category":"Lounge","checkinsCount":113,"usersCount":78,"tipCount":3,"visitsCount":114,"tier":"","message":"","currency":"","rating":7.3},{"name":"Midtown Tavern","phone":"4045411372","address":"554 Piedmont Ave NE","lat":33.770073613247845,"lng":-84.38210294354626,"neighborhood":"SoNo","city_fetched":"Atlanta,US","state":"GA","country":"United States","canonicalUrl":"https://foursquare.com/v/midtown-tavern/453e15a5f964a5202f3c1fe3","categoryId":"4bf58dd8d48988d120941735","category":"Karaoke Bar","checkinsCount":5777,"usersCount":1851,"tipCount":46,"visitsCount":5966,"url":"http://midtowntavern.net","tier":1,"message":"Cheap","currency":"$","rating":7.3},{"name":"Metalsome","address":"816 N Highland Ave NE","lat":33.776813097055424,"lng":-84.35263111983582,"neighborhood":"Virginia Highland","city_fetched":"Atlanta,US","state":"GA","country":"United States","canonicalUrl":"https://foursquare.com/v/metalsome/4d60800e29ef236a404ca659","categoryId":"4bf58dd8d48988d120941735","category":"Karaoke Bar","checkinsCount":524,"usersCount":286,"tipCount":5,"visitsCount":534,"tier":"","message":"","currency":"","rating":7.3},{"name":"The Pool Hall","phone":"4048418989","address":"30 Irby Ave NW","lat":33.84112040654678,"lng":-84.3802655562508,"neighborhood":"Buckhead","city_fetched":"Atlanta,US","state":"GA","country":"United States","canonicalUrl":"https://foursquare.com/v/the-pool-hall/4b187d2bf964a52069d323e3","categoryId":"4bf58dd8d48988d116941735","category":"Bar","checkinsCount":6491,"usersCount":2156,"tipCount":26,"visitsCount":6688,"tier":1,"message":"Cheap","currency":"$","rating":7.3},{"name":"Five Paces Inn","phone":"4043650777","twitter":"fivepacesinn","address":"41 Irby Ave NW","lat":33.84152151850534,"lng":-84.38025444746017,"neighborhood":"Buckhead","city_fetched":"Atlanta,US","state":"GA","country":"United States","canonicalUrl":"https://foursquare.com/v/five-paces-inn/40e0b100f964a52052061fe3","categoryId":"4bf58dd8d48988d116941735","category":"Bar","checkinsCount":10085,"usersCount":3677,"tipCount":31,"visitsCount":10739,"url":"http://www.5pacesinn.com","tier":1,"message":"Cheap","currency":"$","rating":7.3},{"name":"Churchills British Pub","phone":"4042335633","twitter":"churchillsatl","address":"3223 Cains Hill Pl NW","lat":33.84259266141583,"lng":-84.38024502646009,"neighborhood":"Buckhead","city_fetched":"Atlanta,US","state":"GA","country":"United States","canonicalUrl":"https://foursquare.com/v/churchills-british-pub/4b63ddf4f964a520fb942ae3","categoryId":"4bf58dd8d48988d116941735","category":"Bar","checkinsCount":5856,"usersCount":2594,"tipCount":29,"visitsCount":6084,"url":"http://www.churchillsofbuckhead.com","tier":2,"message":"Moderate","currency":"$","rating":7.3},{"name":"HangOvers Buckhead","phone":"4048468989","address":"3188 Roswell Rd NW","lat":33.84222020626109,"lng":-84.3791826000258,"neighborhood":"Buckhead","city_fetched":"Atlanta,US","state":"GA","country":"United States","canonicalUrl":"https://foursquare.com/v/hangovers-buckhead/4f74b706e4b07d85bf85e351","categoryId":"4bf58dd8d48988d121941735","category":"Lounge","checkinsCount":10001,"usersCount":2597,"tipCount":28,"visitsCount":10735,"url":"http://hangoversbuckhead.com","tier":2,"message":"Moderate","currency":"$","rating":7.3},{"name":"Taco Mac","phone":"4048736529","twitter":"tmacrestaurants","address":"1006 N Highland Ave","lat":33.7820263,"lng":-84.3545749,"neighborhood":"Virginia Highland","city_fetched":"Atlanta,US","state":"GA","country":"United States","canonicalUrl":"https://foursquare.com/v/taco-mac/42829c80f964a52073221fe3","categoryId":"4bf58dd8d48988d11d941735","category":"Sports Bar","checkinsCount":8509,"usersCount":3766,"tipCount":37,"visitsCount":8640,"url":"http://www.tacomac.com","tier":2,"message":"Moderate","currency":"$","rating":7.3},{"name":"Hole in the Wall","phone":"4048446403","twitter":"hitw_atl","address":"3177 Peachtree Rd NE","lat":33.840938519545475,"lng":-84.37549218739275,"neighborhood":"Buckhead Village","city_fetched":"Atlanta,US","state":"GA","country":"United States","canonicalUrl":"https://foursquare.com/v/hole-in-the-wall/40e0b100f964a52087061fe3","categoryId":"4bf58dd8d48988d11f941735","category":"Nightclub","checkinsCount":4577,"usersCount":2244,"tipCount":38,"visitsCount":4652,"url":"http://www.holeinthewallatlanta.com","tier":2,"message":"Moderate","currency":"$","rating":7.3},{"name":"The Bird Rotisserie & Sports","phone":"7708048288","address":"4719 Ashford Dunwoody Rd","lat":33.9322346433338,"lng":-84.3326784893318,"city_fetched":"Atlanta,US","state":"GA","country":"United States","canonicalUrl":"https://foursquare.com/v/the-bird-rotisserie--sports/4a8c42def964a5207d0d20e3","categoryId":"4bf58dd8d48988d11d941735","category":"Sports Bar","checkinsCount":8401,"usersCount":2122,"tipCount":48,"visitsCount":9450,"url":"http://www.thebirdatlanta.com","tier":1,"message":"Cheap","currency":"$","rating":7.3},{"name":"Onyx","phone":"4048769992","address":"1888 Cheshire Bridge Rd NE","lat":33.81036025894843,"lng":-84.36120570010438,"neighborhood":"Lindridge - Martin Manor","city_fetched":"Atlanta,US","state":"GA","country":"United States","canonicalUrl":"https://foursquare.com/v/onyx/4b886ccff964a520d6f631e3","categoryId":"4bf58dd8d48988d1d6941735","category":"Strip Club","checkinsCount":3512,"usersCount":1789,"tipCount":33,"visitsCount":3914,"url":"http://onyxatl.com","tier":"","message":"","currency":"","rating":7.3},{"name":"Gordon Biersch Brewery Restaurant","phone":"4048700805","twitter":"gbmidtown","address":"848 Peachtree St NE","lat":33.777764,"lng":-84.38443601131439,"neighborhood":"Midtown","city_fetched":"Atlanta,US","state":"GA","country":"United States","canonicalUrl":"https://foursquare.com/v/gordon-biersch-brewery-restaurant/40e0b100f964a52073061fe3","categoryId":"50327c8591d4c4b30a586d5d","category":"Brewery","checkinsCount":8698,"usersCount":5366,"tipCount":70,"visitsCount":8847,"url":"http://gordonbiersch.com","tier":2,"message":"Moderate","currency":"$","rating":7.3},{"name":"BoogalouATL","phone":"4044647705","twitter":"boogalouatl","address":"239 Ponce de Leon Ave NE","lat":33.772461783449074,"lng":-84.37956753935292,"neighborhood":"Midtown","city_fetched":"Atlanta,US","state":"GA","country":"United States","canonicalUrl":"https://foursquare.com/v/boogalouatl/52dc0fbd498e7460bf317441","categoryId":"4bf58dd8d48988d121941735","category":"Lounge","checkinsCount":1353,"usersCount":955,"tipCount":27,"visitsCount":1554,"url":"http://www.boogalouatl.com","tier":"","message":"","currency":"","rating":7.3},{"name":"Meehan's Public House","phone":"4042497812","twitter":"meehanspubhouse","address":"232 19th St NW Ste 7165","lat":33.793016001919575,"lng":-84.39581994806862,"neighborhood":"Atlantic Station","city_fetched":"Atlanta,US","state":"GA","country":"United States","canonicalUrl":"https://foursquare.com/v/meehans-public-house/4ffcba36e4b03bbc7f32ef76","categoryId":"4bf58dd8d48988d11b941735","category":"Pub","checkinsCount":5444,"usersCount":3060,"tipCount":51,"visitsCount":5585,"url":"http://www.meehansdowntown.com","tier":2,"message":"Moderate","currency":"$","rating":7.3},{"name":"J & J Bourbon Bar & Grill","lat":33.77552524322101,"lng":-84.35272354710163,"neighborhood":"Virginia Highland","city_fetched":"Atlanta,US","state":"GA","country":"United States","canonicalUrl":"https://foursquare.com/v/j--j-bourbon-bar--grill/55967de8498e83c3b6e17f01","categoryId":"4bf58dd8d48988d116941735","category":"Bar","checkinsCount":228,"usersCount":186,"tipCount":2,"visitsCount":256,"tier":"","message":"","currency":"","rating":7.2},{"name":"Scenario","twitter":"scenario16","address":"4279 Roswell Rd NE","lat":33.87137146350492,"lng":-84.37960859939936,"neighborhood":"North Buckhead","city_fetched":"Atlanta,US","state":"GA","country":"United States","canonicalUrl":"https://foursquare.com/v/scenario/4fa1d5b1e4b04c7030c2921c","categoryId":"4bf58dd8d48988d116941735","category":"Bar","checkinsCount":518,"usersCount":288,"tipCount":4,"visitsCount":519,"url":"http://www.scenarioatl.com","tier":"","message":"","currency":"","rating":7.2},{"name":"King George Tavern","address":"4511 Chamblee Dunwoody Rd","lat":33.92275619506836,"lng":-84.31388854980469,"city_fetched":"Atlanta,US","state":"GA","country":"United States","canonicalUrl":"https://foursquare.com/v/king-george-tavern/5490ea11498e98cd5c2f4827","categoryId":"4bf58dd8d48988d11b941735","category":"Pub","checkinsCount":230,"usersCount":78,"tipCount":5,"visitsCount":307,"url":"http://dunwoodyrestaurantgroup.com","tier":"","message":"","currency":"","rating":7.2},{"name":"255 Tapas Lounge","phone":"4045222612","twitter":"255tapaslounge","address":"255 Peters St SW, Atlanta,","lat":33.74776558623762,"lng":-84.40175119029841,"neighborhood":"Castleberry Hill","city_fetched":"Atlanta,US","state":"GA","country":"United States","canonicalUrl":"https://foursquare.com/v/255-tapas-lounge/4ae4c612f964a520069e21e3","categoryId":"4bf58dd8d48988d11e941735","category":"Cocktail Bar","checkinsCount":4793,"usersCount":2371,"tipCount":61,"visitsCount":5006,"url":"http://www.255tapaslounge.com","tier":2,"message":"Moderate","currency":"$","rating":7.2},{"name":"Renaissance Club Lounge","address":"1 Hartsfield Center Pkwy","lat":33.65393058437165,"lng":-84.42723435480382,"city_fetched":"Atlanta,US","state":"GA","country":"United States","canonicalUrl":"https://foursquare.com/v/renaissance-club-lounge/4d4335922dd93704eaea267c","categoryId":"4bf58dd8d48988d121941735","category":"Lounge","checkinsCount":372,"usersCount":222,"tipCount":3,"visitsCount":373,"tier":"","message":"","currency":"","rating":7.2},{"name":"Sky Lounge At The Glenn Hotel","lat":33.757053,"lng":-84.39295,"neighborhood":"Downtown Atlanta","city_fetched":"Atlanta,US","state":"GA","country":"United States","canonicalUrl":"https://foursquare.com/v/sky-lounge-at-the-glenn-hotel/4c5b8a836ebe2d7fc1e2cd2e","categoryId":"4bf58dd8d48988d121941735","category":"Lounge","checkinsCount":2229,"usersCount":1764,"tipCount":20,"visitsCount":2244,"tier":"","message":"","currency":"","rating":7.2},{"name":"Bulldogs Bar","phone":"4048723025","twitter":"bulldogsbaratl","address":"893 Peachtree St NE","lat":33.77899837150685,"lng":-84.38407370867142,"neighborhood":"Midtown","city_fetched":"Atlanta,US","state":"GA","country":"United States","canonicalUrl":"https://foursquare.com/v/bulldogs-bar/456ecb51f964a5201c3e1fe3","categoryId":"4bf58dd8d48988d1d8941735","category":"Gay Bar","checkinsCount":5300,"usersCount":1360,"tipCount":21,"visitsCount":5793,"tier":1,"message":"Cheap","currency":"$","rating":7.2},{"name":"The Brass Tap","phone":"7705570232","address":"4505 Ashford Dunwoody Rd NE","lat":33.924804370612115,"lng":-84.33547822368268,"city_fetched":"Atlanta,US","state":"GA","country":"United States","canonicalUrl":"https://foursquare.com/v/the-brass-tap/56bde093498e44ed415a2960","categoryId":"56aa371ce4b08b9a8d57356c","category":"Beer Bar","checkinsCount":357,"usersCount":173,"tipCount":2,"visitsCount":365,"url":"http://brasstapbeerbar.com/Atlanta","tier":"","message":"","currency":"","rating":7.1},{"name":"Kramer's","phone":"4048690522","address":"3167 Roswell Rd NE","lat":33.84161659704386,"lng":-84.37873093467535,"neighborhood":"Buckhead","city_fetched":"Atlanta,US","state":"GA","country":"United States","canonicalUrl":"https://foursquare.com/v/kramers/4be4d6dfcf200f474d9d123c","categoryId":"4bf58dd8d48988d116941735","category":"Bar","checkinsCount":7057,"usersCount":1817,"tipCount":13,"visitsCount":7457,"tier":1,"message":"Cheap","currency":"$","rating":7.1},{"name":"Cigaros","phone":"6789499334","address":"3220 Butner Rd SW Apt 210","lat":33.66717870113501,"lng":-84.5490134842485,"city_fetched":"Atlanta,US","state":"GA","country":"United States","canonicalUrl":"https://foursquare.com/v/cigaros/52a10e75498ee57976dea90a","categoryId":"4bf58dd8d48988d123941735","category":"Wine Bar","checkinsCount":201,"usersCount":142,"tipCount":8,"visitsCount":310,"url":"http://cigarosofga.com","tier":"","message":"","currency":"","rating":7.1},{"name":"595 North Event Center","phone":"4048352329","twitter":"595north","address":"595 North Ave NW","lat":33.77021013662614,"lng":-84.40684562929381,"neighborhood":"English Avenue","city_fetched":"Atlanta,US","state":"GA","country":"United States","canonicalUrl":"https://foursquare.com/v/595-north-event-center/4a770aeaf964a52071e31fe3","categoryId":"4bf58dd8d48988d11f941735","category":"Nightclub","checkinsCount":1899,"usersCount":1525,"tipCount":12,"visitsCount":2355,"url":"http://595north.com","tier":"","message":"","currency":"","rating":7.1},{"name":"Prince Place Cigar Bar","address":"365 Peachtree Hills Ave NE","lat":33.82055612372339,"lng":-84.37301809570779,"neighborhood":"Peachtree Hills","city_fetched":"Atlanta,US","state":"GA","country":"United States","canonicalUrl":"https://foursquare.com/v/prince-place-cigar-bar/52f6d4a9498e689094f46c81","categoryId":"4bf58dd8d48988d1d4941735","category":"Speakeasy","checkinsCount":117,"usersCount":73,"tipCount":4,"visitsCount":124,"tier":2,"message":"Moderate","currency":"$","rating":7.1},{"name":"M Bar Atlanta","phone":"4043315500","twitter":"mbaratlanta","address":"186 Auburn Ave NE Ste B","lat":33.75560145342641,"lng":-84.38158750534056,"neighborhood":"Downtown Atlanta","city_fetched":"Atlanta,US","state":"GA","country":"United States","canonicalUrl":"https://foursquare.com/v/m-bar-atlanta/558454f9498ea911aa849b63","categoryId":"4bf58dd8d48988d11e941735","category":"Cocktail Bar","checkinsCount":263,"usersCount":226,"tipCount":3,"visitsCount":337,"url":"http://mbaratlanta.com","tier":"","message":"","currency":"","rating":7.1},{"name":"Mingles Martini Bar & Grill","phone":"4045255151","twitter":"minglesbaratl","address":"182 Courtland St NE","lat":33.75931642428359,"lng":-84.38433544595405,"neighborhood":"Downtown Atlanta","city_fetched":"Atlanta,US","state":"GA","country":"United States","canonicalUrl":"https://foursquare.com/minglesbaratl","categoryId":"4bf58dd8d48988d121941735","category":"Lounge","checkinsCount":1103,"usersCount":689,"tipCount":15,"visitsCount":1103,"tier":"","message":"","currency":"","rating":7.1},{"name":"GME Sports Lounge and Grill","phone":"4047489545","twitter":"gmesportslounge","address":"899 Martin Luther King Jr Dr NW","lat":33.754896,"lng":-84.417022,"neighborhood":"Vine City","city_fetched":"Atlanta,US","state":"GA","country":"United States","canonicalUrl":"https://foursquare.com/v/gme-sports-lounge-and-grill/4fcab729e4b02fed0dfc8ea9","categoryId":"4bf58dd8d48988d11d941735","category":"Sports Bar","checkinsCount":348,"usersCount":114,"tipCount":7,"visitsCount":350,"url":"http://www.gmesportslounge.com","tier":"","message":"","currency":"","rating":7.1},{"name":"Rusty Nail","phone":"4046346306","address":"2900 Buford Hwy NE","lat":33.83308868846033,"lng":-84.34130254970869,"neighborhood":"Buckhead","city_fetched":"Atlanta,US","state":"GA","country":"United States","canonicalUrl":"https://foursquare.com/v/rusty-nail/4a48d9f1f964a520c8aa1fe3","categoryId":"4bf58dd8d48988d118941735","category":"Dive Bar","checkinsCount":2232,"usersCount":887,"tipCount":23,"visitsCount":2357,"url":"http://rustynailpub.com","tier":2,"message":"Moderate","currency":"$","rating":7.1},{"name":"Kirkyard Public House","phone":"4045001357","twitter":"kirkyardpub","address":"1963 Hosea L Williams Dr SE Ste R105","lat":33.75165549623204,"lng":-84.32341172328304,"neighborhood":"Kirkwood","city_fetched":"Atlanta,US","state":"GA","country":"United States","canonicalUrl":"https://foursquare.com/v/kirkyard-public-house/52b22b78498e1c6599022c07","categoryId":"4bf58dd8d48988d11d941735","category":"Sports Bar","checkinsCount":904,"usersCount":437,"tipCount":13,"visitsCount":989,"url":"http://www.kirkyardpub.com","tier":2,"message":"Moderate","currency":"$","rating":7.1},{"name":"Pleasers","phone":"4047673833","address":"849 Cleveland Ave SW","lat":33.68160455676093,"lng":-84.41186781121503,"neighborhood":"Southside","city_fetched":"Atlanta,US","state":"GA","country":"United States","canonicalUrl":"https://foursquare.com/v/pleasers/40e0b100f964a52034071fe3","categoryId":"4bf58dd8d48988d1d6941735","category":"Strip Club","checkinsCount":317,"usersCount":105,"tipCount":7,"visitsCount":321,"url":"http://www.pleasersonline.com/home.htm","tier":"","message":"","currency":"","rating":7.1},{"name":"Dugans","phone":"7709912004","address":"6175 Old National Hwy","lat":33.58485556158725,"lng":-84.46980470222405,"city_fetched":"Atlanta,US","state":"GA","country":"United States","canonicalUrl":"https://foursquare.com/v/dugans/4bb13935f964a520e8843ce3","categoryId":"4bf58dd8d48988d116941735","category":"Bar","checkinsCount":1878,"usersCount":1261,"tipCount":29,"visitsCount":2362,"url":"http://dugansatl.com","tier":1,"message":"Cheap","currency":"$","rating":7.1},{"name":"Park 75 Lounge and Terrace","phone":"4048819898","twitter":"fourseasons","address":"75 14th St NE","lat":33.78677406179107,"lng":-84.38544909942678,"neighborhood":"Midtown","city_fetched":"Atlanta,US","state":"GA","country":"United States","canonicalUrl":"https://foursquare.com/v/park-75-lounge-and-terrace/4af9fa4df964a520b21522e3","categoryId":"4bf58dd8d48988d116941735","category":"Bar","checkinsCount":874,"usersCount":568,"tipCount":16,"visitsCount":877,"url":"http://www.fourseasons.com/atlanta/dining/park_75_lounge_and_terrace","tier":"","message":"","currency":"","rating":7.1},{"name":"Laseter's Tavern","phone":"7708508570","address":"4355 Cobb Pkwy SE","lat":33.87245842232571,"lng":-84.45551038036722,"city_fetched":"Atlanta,US","state":"GA","country":"United States","canonicalUrl":"https://foursquare.com/v/laseters-tavern/43601880f964a5202a291fe3","categoryId":"4bf58dd8d48988d11d941735","category":"Sports Bar","checkinsCount":3241,"usersCount":1294,"tipCount":24,"visitsCount":3783,"url":"http://www.laseterstavern.com","tier":2,"message":"Moderate","currency":"$","rating":7.1},{"name":"Tosca Blu Bar","twitter":"renhotels","address":"2450 Galleria Pkwy SE","lat":33.884893,"lng":-84.464668,"neighborhood":"Cobb Galleria","city_fetched":"Atlanta,US","state":"GA","country":"United States","canonicalUrl":"https://foursquare.com/v/tosca-blu-bar/4b7dada9f964a52009ce2fe3","categoryId":"4bf58dd8d48988d1d5941735","category":"Hotel Bar","checkinsCount":544,"usersCount":330,"tipCount":5,"visitsCount":546,"url":"http://www.renhotels.com","tier":3,"message":"Expensive","currency":"$","rating":7},{"name":"Gatsby's","address":"931 Monroe Dr NE Ste B111","lat":33.780106015423165,"lng":-84.3680387997578,"neighborhood":"Midtown","city_fetched":"Atlanta,US","state":"GA","country":"United States","canonicalUrl":"https://foursquare.com/v/gatsbys/5131599de4b008f25f1901ae","categoryId":"4bf58dd8d48988d121941735","category":"Lounge","checkinsCount":195,"usersCount":146,"tipCount":5,"visitsCount":195,"tier":"","message":"","currency":"","rating":7},{"name":"Friends on Ponce","phone":"4048173820","twitter":"friendsonponce","address":"736 Ponce de Leon Ave NE","lat":33.773972337323386,"lng":-84.36325930685905,"neighborhood":"Virginia Highland","city_fetched":"Atlanta,US","state":"GA","country":"United States","canonicalUrl":"https://foursquare.com/v/friends-on-ponce/4b6f26d3f964a52096e02ce3","categoryId":"4bf58dd8d48988d116941735","category":"Bar","checkinsCount":2482,"usersCount":860,"tipCount":11,"visitsCount":2558,"url":"http://www.friendsonponce-atl.com","tier":1,"message":"Cheap","currency":"$","rating":7},{"name":"Blu Cantina","address":"257 Peters St SW","lat":33.74757683357081,"lng":-84.4016896233818,"neighborhood":"Castleberry Hill","city_fetched":"Atlanta,US","state":"GA","country":"United States","canonicalUrl":"https://foursquare.com/v/blu-cantina/51fc8140498ebb3a3738d70f","categoryId":"4bf58dd8d48988d116941735","category":"Bar","checkinsCount":667,"usersCount":388,"tipCount":10,"visitsCount":708,"url":"http://blucantina.com","tier":"","message":"","currency":"","rating":7},{"name":"La Vie Hookah & Bistro","address":"320 Luckie St NW","lat":33.76333011940376,"lng":-84.39621504075176,"neighborhood":"Downtown Atlanta","city_fetched":"Atlanta,US","state":"GA","country":"United States","canonicalUrl":"https://foursquare.com/v/la-vie-hookah--bistro/562c8805498e640cb5000ce7","categoryId":"4bf58dd8d48988d121941735","category":"Lounge","checkinsCount":154,"usersCount":187,"tipCount":2,"visitsCount":278,"tier":"","message":"","currency":"","rating":7},{"name":"Euro Hookah Lounge","lat":33.816748045627065,"lng":-84.38981113370917,"neighborhood":"Peachtree Hills","city_fetched":"Atlanta,US","state":"GA","country":"United States","canonicalUrl":"https://foursquare.com/v/euro-hookah-lounge/54c47f23498ed3371d47e652","categoryId":"4bf58dd8d48988d119941735","category":"Hookah Bar","checkinsCount":160,"usersCount":108,"tipCount":5,"visitsCount":191,"tier":"","message":"","currency":"","rating":7},{"name":"The Family Dog","lat":33.79264402463719,"lng":-84.35239491616586,"neighborhood":"Morningside - Lenox Park","city_fetched":"Atlanta,US","state":"GA","country":"United States","canonicalUrl":"https://foursquare.com/v/the-family-dog/56a441fb498ebb9cccb1a66f","categoryId":"4bf58dd8d48988d118941735","category":"Dive Bar","checkinsCount":174,"usersCount":115,"tipCount":3,"visitsCount":186,"tier":"","message":"","currency":"","rating":7},{"name":"Babes","address":"304 Fulton Industrial Cir SW","lat":33.765623242182095,"lng":-84.53283940993938,"city_fetched":"Atlanta,US","state":"GA","country":"United States","canonicalUrl":"https://foursquare.com/v/babes/4bfa96018f32ef3b14ea04aa","categoryId":"4bf58dd8d48988d1d6941735","category":"Strip Club","checkinsCount":523,"usersCount":238,"tipCount":6,"visitsCount":711,"tier":"","message":"","currency":"","rating":7},{"name":"The Braves Chop House","address":"755 Hank Aaron Dr SW","lat":33.736028480093744,"lng":-84.38862562179565,"neighborhood":"Summerhill","city_fetched":"Atlanta,US","state":"GA","country":"United States","canonicalUrl":"https://foursquare.com/v/the-braves-chop-house/4bb63c4af562ef3bfbd52f97","categoryId":"4bf58dd8d48988d11d941735","category":"Sports Bar","checkinsCount":3888,"usersCount":2543,"tipCount":23,"visitsCount":3898,"tier":"","message":"","currency":"","rating":7},{"name":"Hookah Hook-Up","phone":"4045894446","twitter":"thehookahhookup","address":"421A Moreland Ave NE","lat":33.765815,"lng":-84.34911658,"neighborhood":"Little Five Points","city_fetched":"Atlanta,US","state":"GA","country":"United States","canonicalUrl":"https://foursquare.com/v/hookah-hookup/4bc9ff72cc8cd13acca6bccf","categoryId":"4bf58dd8d48988d119941735","category":"Hookah Bar","checkinsCount":720,"usersCount":509,"tipCount":1,"visitsCount":728,"url":"http://www.thehookahhookup.net","tier":"","message":"","currency":"","rating":6.9},{"name":"red Martini","lat":33.84113138540284,"lng":-84.37531253692897,"neighborhood":"Buckhead Village","city_fetched":"Atlanta,US","state":"GA","country":"United States","canonicalUrl":"https://foursquare.com/v/red-martini/54e82f3b498e0faca54d5c70","categoryId":"4bf58dd8d48988d121941735","category":"Lounge","checkinsCount":325,"usersCount":204,"tipCount":1,"visitsCount":360,"tier":"","message":"","currency":"","rating":6.9},{"name":"Cru Urban Lounge","phone":"4042491600","twitter":"cruurbanlounge","address":"620 Glen Iris Dr NE","lat":33.771898789229816,"lng":-84.36812606938948,"neighborhood":"Old Fourth Ward","city_fetched":"Atlanta,US","state":"GA","country":"United States","canonicalUrl":"https://foursquare.com/v/cru-urban-lounge/4b3d4b51f964a520cb9125e3","categoryId":"4bf58dd8d48988d121941735","category":"Lounge","checkinsCount":1160,"usersCount":572,"tipCount":17,"visitsCount":1238,"url":"http://www.cruurbanlounge.com","tier":"","message":"","currency":"","rating":6.9},{"name":"Old 4th Distillery","phone":"8446533687","twitter":"old4th","address":"487 Edgewood Ave SE","lat":33.754326123860636,"lng":-84.37168861350736,"neighborhood":"Old Fourth Ward","city_fetched":"Atlanta,US","state":"GA","country":"United States","canonicalUrl":"https://foursquare.com/v/old-4th-distillery/52eadd0711d28aa7f4c52161","categoryId":"50327c8591d4c4b30a586d5d","category":"Brewery","checkinsCount":119,"usersCount":96,"tipCount":0,"visitsCount":121,"url":"http://old4th.com","tier":"","message":"","currency":"","rating":6.9},{"name":"Rain Night Club","phone":"4045525211","address":"448 Ralph David Abernathy Blvd SW Ste 6","lat":33.736775396385056,"lng":-84.40262851185695,"neighborhood":"Mechanicsville","city_fetched":"Atlanta,US","state":"GA","country":"United States","canonicalUrl":"https://foursquare.com/v/rain-night-club/4c24c4ebf7ced13a7454236d","categoryId":"4bf58dd8d48988d11f941735","category":"Nightclub","checkinsCount":2071,"usersCount":976,"tipCount":17,"visitsCount":2455,"tier":"","message":"","currency":"","rating":6.9},{"name":"The Hideaway","phone":"4048748247","twitter":"atlantahideaway","address":"1544 Piedmont Ave NE","lat":33.7982267851991,"lng":-84.37168478965759,"neighborhood":"Piedmont Heights","city_fetched":"Atlanta,US","state":"GA","country":"United States","canonicalUrl":"https://foursquare.com/v/the-hideaway/40e0b100f964a52008071fe3","categoryId":"4bf58dd8d48988d1d8941735","category":"Gay Bar","checkinsCount":5132,"usersCount":813,"tipCount":31,"visitsCount":5293,"url":"http://www.atlantahideaway.com","tier":1,"message":"Cheap","currency":"$","rating":6.9},{"name":"Neighbor's Pub","phone":"4048725440","twitter":"neighborspub","address":"752 N Highland Ave NE","lat":33.77514996666667,"lng":-84.35297098211778,"neighborhood":"Virginia Highland","city_fetched":"Atlanta,US","state":"GA","country":"United States","canonicalUrl":"https://foursquare.com/v/neighbors-pub/40e0b100f964a52007071fe3","categoryId":"4bf58dd8d48988d11b941735","category":"Pub","checkinsCount":10580,"usersCount":4570,"tipCount":40,"visitsCount":10906,"url":"http://www.neighborsatlanta.com","tier":2,"message":"Moderate","currency":"$","rating":6.8},{"name":"Elbow Room Bar","phone":"4042313308","twitter":"elbowroomatl","address":"248 Pharr Rd NE","lat":33.83721297225543,"lng":-84.37921339526453,"neighborhood":"Buckhead Village","city_fetched":"Atlanta,US","state":"GA","country":"United States","canonicalUrl":"https://foursquare.com/elbowroomatl","categoryId":"4bf58dd8d48988d11d941735","category":"Sports Bar","checkinsCount":3484,"usersCount":1240,"tipCount":23,"visitsCount":3747,"url":"http://elbowroomatlanta.com","tier":1,"message":"Cheap","currency":"$","rating":6.8},{"name":"Mr. C's","phone":"4046050888","address":"1983 Howell Mill Rd NW","lat":33.808672,"lng":-84.41261,"neighborhood":"Buckhead","city_fetched":"Atlanta,US","state":"GA","country":"United States","canonicalUrl":"https://foursquare.com/v/mr-cs/45f9292df964a52044441fe3","categoryId":"4bf58dd8d48988d11b941735","category":"Pub","checkinsCount":7431,"usersCount":880,"tipCount":32,"visitsCount":7863,"tier":1,"message":"Cheap","currency":"$","rating":6.8},{"name":"Thrive- Embrace Saturdays","address":"101 Marietta St NW","lat":33.75704329567774,"lng":-84.39227425734322,"neighborhood":"Fairlie-Poplar","city_fetched":"Atlanta,US","state":"GA","country":"United States","canonicalUrl":"https://foursquare.com/v/thrive-embrace-saturdays/4ce8b63dbaa6a1cd4cfd2f6c","categoryId":"4bf58dd8d48988d11f941735","category":"Nightclub","checkinsCount":435,"usersCount":155,"tipCount":7,"visitsCount":440,"tier":"","message":"","currency":"","rating":6.8},{"name":"Stilettos","phone":"4047240401","twitter":"stilettosatl","address":"806 Marietta St NW","lat":33.77415764685391,"lng":-84.40594271962185,"neighborhood":"Marietta Street Artery","city_fetched":"Atlanta,US","state":"GA","country":"United States","canonicalUrl":"https://foursquare.com/stilettosatl","categoryId":"4bf58dd8d48988d1d6941735","category":"Strip Club","checkinsCount":358,"usersCount":152,"tipCount":5,"visitsCount":362,"url":"http://www.stilettosatl.com","tier":"","message":"","currency":"","rating":6.8},{"name":"Prive' Lounge","phone":"4042209599","address":"960 Spring St NW","lat":33.78079962421112,"lng":-84.38920046836462,"neighborhood":"Midtown","city_fetched":"Atlanta,US","state":"GA","country":"United States","canonicalUrl":"https://foursquare.com/v/prive-lounge/519acb2f498e9ff6d9c00c20","categoryId":"4bf58dd8d48988d121941735","category":"Lounge","checkinsCount":1479,"usersCount":1093,"tipCount":9,"visitsCount":1689,"url":"http://www.privenightclub.com","tier":2,"message":"Moderate","currency":"$","rating":6.8},{"name":"Rush Lounge","phone":"6785689657","address":"2715 Buford Hwy NE","lat":33.828185107417426,"lng":-84.34575515257951,"neighborhood":"Buckhead","city_fetched":"Atlanta,US","state":"GA","country":"United States","canonicalUrl":"https://foursquare.com/v/rush-lounge/4fb88089e4b07bf810a70d65","categoryId":"4bf58dd8d48988d11f941735","category":"Nightclub","checkinsCount":2229,"usersCount":1103,"tipCount":16,"visitsCount":2879,"url":"http://irispresents.com","tier":1,"message":"Cheap","currency":"$","rating":6.7},{"name":"Arif Cafè","phone":"4045104851","twitter":"arifcafeatlanta","address":"2781 Clairmont Rd NE","lat":33.8384477514436,"lng":-84.31202103226862,"city_fetched":"Atlanta,US","state":"GA","country":"United States","canonicalUrl":"https://foursquare.com/v/arif-caf%C3%A8/4e093f0d6284d9ee92e0ae86","categoryId":"4bf58dd8d48988d119941735","category":"Hookah Bar","checkinsCount":1919,"usersCount":763,"tipCount":8,"visitsCount":2505,"url":"http://ariflounge.com","tier":1,"message":"Cheap","currency":"$","rating":6.7},{"name":"Red Door Tavern","phone":"6788090338","twitter":"reddooratl","address":"3180 Roswell Rd NW","lat":33.8419349,"lng":-84.379168,"neighborhood":"Buckhead","city_fetched":"Atlanta,US","state":"GA","country":"United States","canonicalUrl":"https://foursquare.com/v/red-door-tavern/4b08bf3df964a520c31123e3","categoryId":"4bf58dd8d48988d116941735","category":"Bar","checkinsCount":6196,"usersCount":2053,"tipCount":20,"visitsCount":6344,"url":"http://reddooratl.com","tier":1,"message":"Cheap","currency":"$","rating":6.7},{"name":"The Purple Corkscrew","lat":33.78761297136919,"lng":-84.32514813588841,"neighborhood":"Eastside","city_fetched":"Atlanta,US","state":"GA","country":"United States","canonicalUrl":"https://foursquare.com/v/the-purple-corkscrew/4fda7f36e4b0f3760b05b634","categoryId":"4bf58dd8d48988d123941735","category":"Wine Bar","checkinsCount":217,"usersCount":121,"tipCount":6,"visitsCount":220,"tier":"","message":"","currency":"","rating":6.7},{"name":"Ship & Anchor Pub","phone":"4042563550","twitter":"theshipdrg","address":"5975 Roswell Rd #361","lat":33.9188642,"lng":-84.37711803333333,"neighborhood":"Downtown Sandy Springs","city_fetched":"Atlanta,US","state":"GA","country":"United States","canonicalUrl":"https://foursquare.com/v/ship--anchor-pub/4a37d55ef964a5207a9e1fe3","categoryId":"4bf58dd8d48988d11b941735","category":"Pub","checkinsCount":3240,"usersCount":1384,"tipCount":26,"visitsCount":3565,"url":"http://www.dunwoodyrestaurantgroup.com/the-ship-anchor-pub","tier":2,"message":"Moderate","currency":"$","rating":6.7},{"name":"Harlem Nights Lounge","phone":"6789279267","address":"201 Courtland St NE","lat":33.75970660041142,"lng":-84.38403778385558,"neighborhood":"Downtown Atlanta","city_fetched":"Atlanta,US","state":"GA","country":"United States","canonicalUrl":"https://foursquare.com/v/harlem-nights-lounge/4d0407e0a26854816f76b5bd","categoryId":"4bf58dd8d48988d11f941735","category":"Nightclub","checkinsCount":2377,"usersCount":1417,"tipCount":70,"visitsCount":2617,"url":"http://harlemnightsatl.com","tier":"","message":"","currency":"","rating":6.7},{"name":"Andrews Entertainment District","phone":"4048691132","twitter":"eastandrews","address":"56 E Andrews Dr NW","lat":33.84312551379405,"lng":-84.38079357147217,"neighborhood":"Buckhead","city_fetched":"Atlanta,US","state":"GA","country":"United States","canonicalUrl":"https://foursquare.com/v/andrews-entertainment-district/4101a680f964a5205f0b1fe3","categoryId":"4bf58dd8d48988d11f941735","category":"Nightclub","checkinsCount":8171,"usersCount":3971,"tipCount":22,"visitsCount":8189,"url":"http://andrewsdistrict.com","tier":2,"message":"Moderate","currency":"$","rating":6.7},{"name":"Dantanna's","phone":"4045228873","address":"190 Marietta St NW Ste 269","lat":33.7580276912933,"lng":-84.39499855041504,"neighborhood":"Downtown Atlanta","city_fetched":"Atlanta,US","state":"GA","country":"United States","canonicalUrl":"https://foursquare.com/v/dantannas/49f0bccaf964a52052691fe3","categoryId":"4bf58dd8d48988d11d941735","category":"Sports Bar","checkinsCount":6009,"usersCount":3580,"tipCount":60,"visitsCount":6059,"url":"http://www.dantannas.com","tier":2,"message":"Moderate","currency":"$","rating":6.7},{"name":"Doll House","phone":"4046340666","twitter":"dollhouseatl","address":"2050 Cheshire Bridge Rd NE","lat":33.81206503189209,"lng":-84.3559455871582,"neighborhood":"Lindridge - Martin Manor","city_fetched":"Atlanta,US","state":"GA","country":"United States","canonicalUrl":"https://foursquare.com/v/doll-house/40e0b100f964a5202a061fe3","categoryId":"4bf58dd8d48988d1d6941735","category":"Strip Club","checkinsCount":569,"usersCount":220,"tipCount":3,"visitsCount":576,"url":"http://www.dollhouseatl.com","tier":"","message":"","currency":"","rating":6.7},{"name":"Compound","phone":"4048724621","address":"1008 Brady Ave NW","lat":33.78261082260734,"lng":-84.41370421184352,"city_fetched":"Atlanta,US","state":"GA","country":"United States","canonicalUrl":"https://foursquare.com/v/compound/40e5f700f964a520000a1fe3","categoryId":"4bf58dd8d48988d11f941735","category":"Nightclub","checkinsCount":3371,"usersCount":2554,"tipCount":20,"visitsCount":3864,"tier":2,"message":"Moderate","currency":"$","rating":6.7},{"name":"Buckhead Saloon","phone":"4049637739","twitter":"buckheadsaloon","address":"3227 Roswell Rd NE","lat":33.84315224679377,"lng":-84.37890529632568,"neighborhood":"Buckhead","city_fetched":"Atlanta,US","state":"GA","country":"United States","canonicalUrl":"https://foursquare.com/v/buckhead-saloon/4beecb8b35dc0f477047405b","categoryId":"4bf58dd8d48988d116941735","category":"Bar","checkinsCount":14311,"usersCount":6163,"tipCount":45,"visitsCount":15569,"url":"http://www.buckheadsaloonatlanta.com","tier":2,"message":"Moderate","currency":"$","rating":6.7},{"name":"Rose Bar","phone":"4048691090","twitter":"rosebaratl","address":"3115 Piedmont Rd NE","lat":33.84158462739914,"lng":-84.36988683495545,"neighborhood":"Buckhead","city_fetched":"Atlanta,US","state":"GA","country":"United States","canonicalUrl":"https://foursquare.com/v/rose-bar/4fce9401e4b0f62da35465bc","categoryId":"4bf58dd8d48988d11e941735","category":"Cocktail Bar","checkinsCount":2162,"usersCount":1517,"tipCount":15,"visitsCount":2756,"url":"http://www.rosebaratl.com","tier":2,"message":"Moderate","currency":"$","rating":6.7},{"name":"Stooges","phone":"4043555445","address":"857 Collier Rd NW","lat":33.809890032165015,"lng":-84.41576111758008,"neighborhood":"Buckhead","city_fetched":"Atlanta,US","state":"GA","country":"United States","canonicalUrl":"https://foursquare.com/v/stooges/4a628cdff964a5204cc41fe3","categoryId":"4bf58dd8d48988d11d941735","category":"Sports Bar","checkinsCount":5296,"usersCount":700,"tipCount":33,"visitsCount":5423,"url":"http://www.stooges-atlanta.com","tier":1,"message":"Cheap","currency":"$","rating":6.7},{"name":"Koo Koo Room","phone":"4049855775","twitter":"kookooroom","address":"1140 Crescent Ave NE","lat":33.785739513830165,"lng":-84.38435084222857,"neighborhood":"Midtown","city_fetched":"Atlanta,US","state":"GA","country":"United States","canonicalUrl":"https://foursquare.com/v/koo-koo-room/4bb24cd52397b713b5d336b3","categoryId":"4bf58dd8d48988d121941735","category":"Lounge","checkinsCount":3764,"usersCount":1504,"tipCount":20,"visitsCount":3791,"url":"http://kookooroom.com","tier":2,"message":"Moderate","currency":"$","rating":6.7},{"name":"The Ivy Buckhead","phone":"4049413081","twitter":"theivybuckhead","address":"3717 Roswell Rd NE","lat":33.856465689269584,"lng":-84.3822928378483,"neighborhood":"North Buckhead","city_fetched":"Atlanta,US","state":"GA","country":"United States","canonicalUrl":"https://foursquare.com/v/the-ivy-buckhead/4c9bf77c0e9bb1f753c8cf5f","categoryId":"4bf58dd8d48988d116941735","category":"Bar","checkinsCount":11908,"usersCount":5739,"tipCount":51,"visitsCount":14296,"url":"http://www.theivybuckhead.com","tier":2,"message":"Moderate","currency":"$","rating":6.6},{"name":"Hangbok - Happy Karaoke","phone":"7704588661","address":"5425 Buford Hwy NE","lat":33.900111,"lng":-84.27724474,"city_fetched":"Atlanta,US","state":"GA","country":"United States","canonicalUrl":"https://foursquare.com/v/hangbok--happy-karaoke/4b230a79f964a5208b5224e3","categoryId":"4bf58dd8d48988d120941735","category":"Karaoke Bar","checkinsCount":1449,"usersCount":998,"tipCount":14,"visitsCount":1687,"tier":"","message":"","currency":"","rating":6.6},{"name":"Martinis & IMAX","address":"767 Clifton Rd NE","lat":33.774058571160054,"lng":-84.32789649548099,"neighborhood":"Eastside","city_fetched":"Atlanta,US","state":"GA","country":"United States","canonicalUrl":"https://foursquare.com/v/martinis--imax/51a949a2498edfe7d140c0b4","categoryId":"4bf58dd8d48988d121941735","category":"Lounge","checkinsCount":174,"usersCount":164,"tipCount":4,"visitsCount":181,"tier":"","message":"","currency":"","rating":6.6},{"name":"A-Bar Wine & Beer Lounge","twitter":"abaratlairport","address":"Gate A28, Concourse A","lat":33.642812581414034,"lng":-84.43920270000912,"city_fetched":"Atlanta,US","state":"GA","country":"United States","canonicalUrl":"https://foursquare.com/v/abar-wine--beer-lounge/4b674e08f964a520f5462be3","categoryId":"4bf58dd8d48988d123941735","category":"Wine Bar","checkinsCount":1284,"usersCount":896,"tipCount":27,"visitsCount":1284,"url":"http://www.atlanta-airport.com/Concessions/view_stores.aspx?comp_id=1","tier":2,"message":"Moderate","currency":"$","rating":6.6},{"name":"Establishment","phone":"4043475291","address":"1197 Peachtree St NE","lat":33.7866717799182,"lng":-84.38238521863876,"neighborhood":"Midtown","city_fetched":"Atlanta,US","state":"GA","country":"United States","canonicalUrl":"https://foursquare.com/v/establishment/56d9c63f498e2e8d3e35de0d","categoryId":"4bf58dd8d48988d121941735","category":"Lounge","checkinsCount":249,"usersCount":206,"tipCount":1,"visitsCount":279,"tier":"","message":"","currency":"","rating":6.6},{"name":"Sahara Hookah Lounge","phone":"4045650390","twitter":"saharahookahatl","address":"321 Pharr Rd NE, D","lat":33.83699171286548,"lng":-84.37697043327346,"neighborhood":"Garden Hills","city_fetched":"Atlanta,US","state":"GA","country":"United States","canonicalUrl":"https://foursquare.com/v/sahara-hookah-lounge/50122442e4b0354628a29b5d","categoryId":"4bf58dd8d48988d11e941735","category":"Cocktail Bar","checkinsCount":675,"usersCount":551,"tipCount":10,"visitsCount":821,"url":"http://www.hookahbaratlantaga.com","tier":"","message":"","currency":"","rating":6.6},{"name":"Chaparral","phone":"6785689657","address":"2715 Buford Hwy NE","lat":33.82821841889415,"lng":-84.34563703711264,"neighborhood":"Buckhead","city_fetched":"Atlanta,US","state":"GA","country":"United States","canonicalUrl":"https://foursquare.com/v/chaparral/4b25cce6f964a5205c7624e3","categoryId":"4bf58dd8d48988d11f941735","category":"Nightclub","checkinsCount":1871,"usersCount":571,"tipCount":6,"visitsCount":1889,"url":"http://www.chaparralatlanta.com","tier":"","message":"","currency":"","rating":6.6},{"name":"Second Self Beer Co","phone":"6789168035","twitter":"secondselfbeer","address":"1311 Logan Cir NW","lat":33.80550202496687,"lng":-84.42987026687067,"neighborhood":"Underwood Hills","city_fetched":"Atlanta,US","state":"GA","country":"United States","canonicalUrl":"https://foursquare.com/v/second-self-beer-co/538a2f7e498ed10827108716","categoryId":"50327c8591d4c4b30a586d5d","category":"Brewery","checkinsCount":351,"usersCount":326,"tipCount":4,"visitsCount":604,"tier":"","message":"","currency":"","rating":6.6},{"name":"Famous Pub & Sports Palace","phone":"4046333555","address":"2947 N Druid Hills Rd NE","lat":33.814440706082415,"lng":-84.31160996051294,"city_fetched":"Atlanta,US","state":"GA","country":"United States","canonicalUrl":"https://foursquare.com/v/famous-pub--sports-palace/40e0b100f964a52048061fe3","categoryId":"4bf58dd8d48988d11b941735","category":"Pub","checkinsCount":6114,"usersCount":2574,"tipCount":61,"visitsCount":6376,"url":"http://famouspubsports.com","tier":2,"message":"Moderate","currency":"$","rating":6.5},{"name":"Southern Comfort Restaurant & Lounge","phone":"4043615675","address":"1383 Cedar Grove Rd","lat":33.65726917,"lng":-84.33380068333334,"city_fetched":"Atlanta,US","state":"GA","country":"United States","canonicalUrl":"https://foursquare.com/v/southern-comfort-restaurant--lounge/4b15dc36f964a52021b523e3","categoryId":"4bf58dd8d48988d120941735","category":"Karaoke Bar","checkinsCount":1087,"usersCount":677,"tipCount":10,"visitsCount":1235,"tier":"","message":"","currency":"","rating":6.5},{"name":"Gordon Biersch Brewery","address":"Concourse A","lat":33.64081786352769,"lng":-84.4396436463708,"city_fetched":"Atlanta,US","state":"GA","country":"United States","canonicalUrl":"https://foursquare.com/v/gordon-biersch-brewery/54b84679498ea0b8412a3024","categoryId":"50327c8591d4c4b30a586d5d","category":"Brewery","checkinsCount":1342,"usersCount":1127,"tipCount":16,"visitsCount":1359,"url":"http://gordonbiersch.com","tier":"","message":"","currency":"","rating":6.5},{"name":"Josephine Lounge","phone":"6789734441","twitter":"josephinelounge","lat":33.9204644717794,"lng":-84.28145007319264,"city_fetched":"Atlanta,US","state":"GA","country":"United States","canonicalUrl":"https://foursquare.com/v/josephine-lounge/4d3befeb8edf3704ec58aba5","categoryId":"4bf58dd8d48988d121941735","category":"Lounge","checkinsCount":1057,"usersCount":371,"tipCount":10,"visitsCount":1283,"url":"http://www.josephineatl.com","tier":2,"message":"Moderate","currency":"$","rating":6.5},{"name":"Pulse @ Atlanta Marriott Marquis","phone":"4045866081","address":"265 Peachtree Center Ave NE","lat":33.76150699625972,"lng":-84.38493076563768,"neighborhood":"Downtown Atlanta","city_fetched":"Atlanta,US","state":"GA","country":"United States","canonicalUrl":"https://foursquare.com/v/pulse--atlanta-marriott-marquis/4a496405f964a52045ab1fe3","categoryId":"4bf58dd8d48988d1d5941735","category":"Hotel Bar","checkinsCount":1985,"usersCount":1193,"tipCount":11,"visitsCount":1993,"tier":"","message":"","currency":"","rating":6.5},{"name":"Kamals 21","twitter":"kamals21","address":"1905 Piedmont Rd NE","lat":33.809695,"lng":-84.365524,"neighborhood":"Lindridge - Martin Manor","city_fetched":"Atlanta,US","state":"GA","country":"United States","canonicalUrl":"https://foursquare.com/v/kamals-21/4cd24f416e165481967938a7","categoryId":"4bf58dd8d48988d1d6941735","category":"Strip Club","checkinsCount":919,"usersCount":416,"tipCount":16,"visitsCount":953,"url":"http://kamals21atl.ning.com","tier":"","message":"","currency":"","rating":6.5},{"name":"Sidebar","phone":"4045881850","twitter":"sidebaratlanta","address":"79 Poplar St NW","lat":33.75693410504415,"lng":-84.38987271305619,"neighborhood":"Fairlie-Poplar","city_fetched":"Atlanta,US","state":"GA","country":"United States","canonicalUrl":"https://foursquare.com/v/sidebar/4144e300f964a520b21c1fe3","categoryId":"4bf58dd8d48988d116941735","category":"Bar","checkinsCount":3578,"usersCount":2164,"tipCount":41,"visitsCount":3738,"url":"http://www.sidebaratlanta.com","tier":1,"message":"Cheap","currency":"$","rating":6.5},{"name":"Deadwood Saloon","phone":"4046714290","twitter":"deadwoodsaloon","address":"66 12th St NE","lat":33.784724358544494,"lng":-84.38554147526663,"neighborhood":"Midtown","city_fetched":"Atlanta,US","state":"GA","country":"United States","canonicalUrl":"https://foursquare.com/v/deadwood-saloon/4c45a1ec2d3ec9b6df7930ae","categoryId":"4bf58dd8d48988d116941735","category":"Bar","checkinsCount":3423,"usersCount":1430,"tipCount":31,"visitsCount":3530,"url":"http://www.deadwoodatlanta.com","tier":1,"message":"Cheap","currency":"$","rating":6.5},{"name":"Flip Flops","phone":"6787058555","twitter":"flipflopsatl","address":"1140 Crescent Ave NE","lat":33.78587799164383,"lng":-84.38431491758178,"neighborhood":"Midtown","city_fetched":"Atlanta,US","state":"GA","country":"United States","canonicalUrl":"https://foursquare.com/v/flip-flops/4a3f566ff964a520baa31fe3","categoryId":"4bf58dd8d48988d116941735","category":"Bar","checkinsCount":8744,"usersCount":4433,"tipCount":42,"visitsCount":8856,"url":"http://www.flipflopsatlanta.com","tier":1,"message":"Cheap","currency":"$","rating":6.5},{"name":"Cellar 56","phone":"6782443600","twitter":"cellar_56","address":"56 E Andrews Dr NW #8","lat":33.84312316227467,"lng":-84.38091737338668,"neighborhood":"Buckhead","city_fetched":"Atlanta,US","state":"GA","country":"United States","canonicalUrl":"https://foursquare.com/v/cellar-56/4a9c7977f964a520503720e3","categoryId":"4bf58dd8d48988d123941735","category":"Wine Bar","checkinsCount":2462,"usersCount":1746,"tipCount":24,"visitsCount":2481,"url":"http://www.cellar56.com","tier":"","message":"","currency":"","rating":6.5},{"name":"Sear @ Atlanta Marriott Marquis","phone":"4045866134","address":"265 Peachtree Center Ave NE","lat":33.76131144374854,"lng":-84.38489997338783,"neighborhood":"Downtown Atlanta","city_fetched":"Atlanta,US","state":"GA","country":"United States","canonicalUrl":"https://foursquare.com/v/sear--atlanta-marriott-marquis/4a47fe9ef964a52066aa1fe3","categoryId":"4bf58dd8d48988d116941735","category":"Bar","checkinsCount":1320,"usersCount":995,"tipCount":16,"visitsCount":1327,"url":"http://searatlanta.com","tier":3,"message":"Expensive","currency":"$","rating":6.5},{"name":"Moondogs","phone":"4042314223","address":"3179 Peachtree Rd NE","lat":33.84083644668317,"lng":-84.37535873281482,"neighborhood":"Buckhead Village","city_fetched":"Atlanta,US","state":"GA","country":"United States","canonicalUrl":"https://foursquare.com/v/moondogs/40e0b100f964a520fd061fe3","categoryId":"4bf58dd8d48988d116941735","category":"Bar","checkinsCount":7756,"usersCount":2650,"tipCount":35,"visitsCount":8078,"url":"http://moondogsatlanta.com","tier":1,"message":"Cheap","currency":"$","rating":6.5},{"name":"Central City Tavern","phone":"4043511957","twitter":"centralcitytav","address":"1801 Howell Mill Rd Suit 400","lat":33.8034261670278,"lng":-84.4128871244233,"neighborhood":"Berkeley Park","city_fetched":"Atlanta,US","state":"GA","country":"United States","canonicalUrl":"https://foursquare.com/v/central-city-tavern/4a63a961f964a52088c51fe3","categoryId":"4bf58dd8d48988d11d941735","category":"Sports Bar","checkinsCount":5300,"usersCount":1581,"tipCount":32,"visitsCount":5407,"url":"http://www.centralcitytavern.com","tier":2,"message":"Moderate","currency":"$","rating":6.5},{"name":"Epic Bar and Bistro","lat":33.73208399194808,"lng":-84.56770531047806,"city_fetched":"Atlanta,US","state":"GA","country":"United States","canonicalUrl":"https://foursquare.com/v/epic-bar-and-bistro/533772ca498e8f96b2539815","categoryId":"4bf58dd8d48988d11e941735","category":"Cocktail Bar","checkinsCount":281,"usersCount":137,"tipCount":2,"visitsCount":335,"tier":"","message":"","currency":"","rating":6.5},{"name":"Goosebumps","twitter":"clubgoosebumps","address":"134 Baker St NE","lat":33.76212438468763,"lng":-84.38294976476558,"neighborhood":"Downtown Atlanta","city_fetched":"Atlanta,US","state":"GA","country":"United States","canonicalUrl":"https://foursquare.com/v/goosebumps/40e0b100f964a52072061fe3","categoryId":"4bf58dd8d48988d1d6941735","category":"Strip Club","checkinsCount":417,"usersCount":226,"tipCount":2,"visitsCount":423,"tier":"","message":"","currency":"","rating":6.4},{"name":"Remix Lounge","address":"Buford Hwy","lat":33.84234751416394,"lng":-84.32726977798751,"city_fetched":"Atlanta,US","state":"GA","country":"United States","canonicalUrl":"https://foursquare.com/v/remix-lounge/522ad5ab11d2b2f9aa0034d9","categoryId":"4bf58dd8d48988d121941735","category":"Lounge","checkinsCount":365,"usersCount":90,"tipCount":9,"visitsCount":501,"tier":"","message":"","currency":"","rating":6.4},{"name":"Hookah Cru","address":"610 Glen Iris Drive NE","lat":33.77188323526464,"lng":-84.36807473432766,"neighborhood":"Old Fourth Ward","city_fetched":"Atlanta,US","state":"GA","country":"United States","canonicalUrl":"https://foursquare.com/v/hookah-cru/5258978011d2435ca2bfc8fa","categoryId":"4bf58dd8d48988d119941735","category":"Hookah Bar","checkinsCount":212,"usersCount":90,"tipCount":3,"visitsCount":289,"tier":"","message":"","currency":"","rating":6.4},{"name":"Taboo 2 Bistro and Bar","address":"6075 Roswell Rd","lat":33.92068480876558,"lng":-84.37845890728232,"neighborhood":"Downtown Sandy Springs","city_fetched":"Atlanta,US","state":"GA","country":"United States","canonicalUrl":"https://foursquare.com/v/taboo-2-bistro-and-bar/4b2446bbf964a520256524e3","categoryId":"4bf58dd8d48988d11f941735","category":"Nightclub","checkinsCount":1905,"usersCount":1283,"tipCount":38,"visitsCount":2072,"tier":"","message":"","currency":"","rating":6.4},{"name":"Lost Dog Tavern","phone":"4042543341","twitter":"lostdogtavern","address":"3182 Roswell Rd NW","lat":33.84198106186833,"lng":-84.37940843140264,"neighborhood":"Buckhead","city_fetched":"Atlanta,US","state":"GA","country":"United States","canonicalUrl":"https://foursquare.com/v/lost-dog-tavern/4fad97abe4b08885ff014e2e","categoryId":"4bf58dd8d48988d11f941735","category":"Nightclub","checkinsCount":4561,"usersCount":1977,"tipCount":8,"visitsCount":4845,"tier":1,"message":"Cheap","currency":"$","rating":6.4},{"name":"Living Room at W Atlanta - Midtown","phone":"4048926000","address":"188 14th St NE","lat":33.78624550065889,"lng":-84.38165187835693,"neighborhood":"Midtown","city_fetched":"Atlanta,US","state":"GA","country":"United States","canonicalUrl":"https://foursquare.com/v/living-room-at-w-atlanta--midtown/4bc7c06615a7ef3b6d1a7ada","categoryId":"4bf58dd8d48988d1d5941735","category":"Hotel Bar","checkinsCount":1813,"usersCount":867,"tipCount":12,"visitsCount":1816,"url":"http://watlantamidtown.com","tier":"","message":"","currency":"","rating":6.4},{"name":"Park Bench","phone":"4042623624","twitter":"parkbenchatl","address":"34 Irby Ave NW","lat":33.84101522278632,"lng":-84.3806299588456,"neighborhood":"Buckhead","city_fetched":"Atlanta,US","state":"GA","country":"United States","canonicalUrl":"https://foursquare.com/v/park-bench/4bb83932cf2fc9b664689f02","categoryId":"4bf58dd8d48988d116941735","category":"Bar","checkinsCount":5550,"usersCount":2644,"tipCount":17,"visitsCount":5681,"url":"http://www.parkbenchatl.com","tier":2,"message":"Moderate","currency":"$","rating":6.4},{"name":"Quad","phone":"4048700040","address":"714 Spring St NW #T","lat":33.77433399,"lng":-84.389239,"neighborhood":"Midtown","city_fetched":"Atlanta,US","state":"GA","country":"United States","canonicalUrl":"https://foursquare.com/v/quad/4d3101d82e56236ad8590eb4","categoryId":"4bf58dd8d48988d11f941735","category":"Nightclub","checkinsCount":2709,"usersCount":1367,"tipCount":5,"visitsCount":2765,"url":"http://quadatlanta.com","tier":"","message":"","currency":"","rating":6.3},{"name":"Tilted Kilt Pub & Eatery","phone":"6787415292","twitter":"tiltedkiltpub","address":"2960 Cobb Pkwy SE","lat":33.88048117178114,"lng":-84.46300864219666,"neighborhood":"Cumberland","city_fetched":"Atlanta,US","state":"GA","country":"United States","canonicalUrl":"https://foursquare.com/v/tilted-kilt-pub--eatery/4ae747fef964a52000aa21e3","categoryId":"4bf58dd8d48988d11b941735","category":"Pub","checkinsCount":6104,"usersCount":3151,"tipCount":57,"visitsCount":6370,"url":"http://www.tiltedkilt.com","tier":2,"message":"Moderate","currency":"$","rating":6.3},{"name":"Fannie's Show Bar","address":"4401 Fulton Industrial Blvd SW","lat":33.76610813779699,"lng":-84.53172343769317,"city_fetched":"Atlanta,US","state":"GA","country":"United States","canonicalUrl":"https://foursquare.com/v/fannies-show-bar/40e0b100f964a52049061fe3","categoryId":"4bf58dd8d48988d1d6941735","category":"Strip Club","checkinsCount":511,"usersCount":250,"tipCount":4,"visitsCount":528,"tier":"","message":"","currency":"","rating":6.3},{"name":"Aroma Lounge","address":"3082 Briarcliff Rd NE","lat":33.8378984440471,"lng":-84.31131707014686,"city_fetched":"Atlanta,US","state":"GA","country":"United States","canonicalUrl":"https://foursquare.com/v/aroma-lounge/52b64717498ee1f538dbf328","categoryId":"4bf58dd8d48988d119941735","category":"Hookah Bar","checkinsCount":939,"usersCount":446,"tipCount":12,"visitsCount":1198,"tier":2,"message":"Moderate","currency":"$","rating":6.3},{"name":"Andrews Upstairs","phone":"4048691132","twitter":"andrewsupstairs","address":"56 E Andrews Dr NW #13","lat":33.84307805771354,"lng":-84.38086091706964,"neighborhood":"Buckhead","city_fetched":"Atlanta,US","state":"GA","country":"United States","canonicalUrl":"https://foursquare.com/v/andrews-upstairs/40e0b100f964a52095051fe3","categoryId":"4bf58dd8d48988d116941735","category":"Bar","checkinsCount":1270,"usersCount":768,"tipCount":14,"visitsCount":1286,"url":"http://andrewsdistrict.com","tier":"","message":"","currency":"","rating":6.3},{"name":"iLounge","phone":"4046279339","address":"1287 Glenwood Ave SE Ste D","lat":33.73995669696476,"lng":-84.34547783763146,"neighborhood":"East Atlanta Village","city_fetched":"Atlanta,US","state":"GA","country":"United States","canonicalUrl":"https://foursquare.com/v/ilounge/4bb7ff7e98c7ef3b34b43002","categoryId":"4bf58dd8d48988d119941735","category":"Hookah Bar","checkinsCount":657,"usersCount":414,"tipCount":11,"visitsCount":662,"url":"http://iloungeatl.com","tier":"","message":"","currency":"","rating":6.3},{"name":"OrganiX Cocktails And Tapas Lounge","twitter":"organixlounge","address":"239 Ponce de Leon Ave NE","lat":33.77247258948097,"lng":-84.37958806937971,"neighborhood":"Midtown","city_fetched":"Atlanta,US","state":"GA","country":"United States","canonicalUrl":"https://foursquare.com/v/organix-cocktails-and-tapas-lounge/4fef78f8e4b0f9f20ffe9828","categoryId":"4bf58dd8d48988d121941735","category":"Lounge","checkinsCount":252,"usersCount":199,"tipCount":7,"visitsCount":252,"tier":"","message":"","currency":"","rating":6.2},{"name":"XION","lat":33.811409569168184,"lng":-84.35624594506393,"neighborhood":"Lindridge - Martin Manor","city_fetched":"Atlanta,US","state":"Georgia","country":"United States","canonicalUrl":"https://foursquare.com/v/xion/4d60d88fb6b9a1cd4abb8051","categoryId":"4bf58dd8d48988d1d8941735","category":"Gay Bar","checkinsCount":279,"usersCount":106,"tipCount":5,"visitsCount":285,"tier":"","message":"","currency":"","rating":6.2},{"name":"My Sister's Room","address":"66 12th St NE","lat":33.784737,"lng":-84.385495,"neighborhood":"Midtown","city_fetched":"Atlanta,US","state":"GA","country":"United States","canonicalUrl":"https://foursquare.com/v/my-sisters-room/55c6caa1498ec482a1cc3993","categoryId":"4bf58dd8d48988d1d8941735","category":"Gay Bar","checkinsCount":224,"usersCount":126,"tipCount":1,"visitsCount":324,"tier":"","message":"","currency":"","rating":6.2},{"name":"BJ Roosters","phone":"4846345895","address":"2043 Cheshire Bridge Rd NE","lat":33.81132756902289,"lng":-84.35595841025109,"neighborhood":"Lindridge - Martin Manor","city_fetched":"Atlanta,US","state":"GA","country":"United States","canonicalUrl":"https://foursquare.com/v/bj-roosters/514117a3e4b02bbf72812a7f","categoryId":"4bf58dd8d48988d1d8941735","category":"Gay Bar","checkinsCount":1935,"usersCount":679,"tipCount":8,"visitsCount":2370,"tier":2,"message":"Moderate","currency":"$","rating":6.1},{"name":"Mojito Restaurant and Lounge","twitter":"mojitoatlanta","address":"125 10th St NE","lat":33.78132292246259,"lng":-84.38334494383484,"neighborhood":"Midtown","city_fetched":"Atlanta,US","state":"GA","country":"United States","canonicalUrl":"https://foursquare.com/v/mojito-restaurant-and-lounge/4b7f2c06f964a520621c30e3","categoryId":"4bf58dd8d48988d1d5941735","category":"Hotel Bar","checkinsCount":212,"usersCount":194,"tipCount":7,"visitsCount":212,"tier":"","message":"","currency":"","rating":6.1},{"name":"ZINOs (formerly Red)","address":"182 Courtland Street","lat":33.759316034555425,"lng":-84.38441242728639,"neighborhood":"Downtown Atlanta","city_fetched":"Atlanta,US","state":"GA","country":"United States","canonicalUrl":"https://foursquare.com/v/zinos-formerly-red/506f674ae4b0983fb1d1f522","categoryId":"4bf58dd8d48988d121941735","category":"Lounge","checkinsCount":249,"usersCount":193,"tipCount":4,"visitsCount":249,"tier":"","message":"","currency":"","rating":6.1},{"name":"The Dive Bar","phone":"6785107765","twitter":"thrillistatl","address":"3184 Roswell Rd NW","lat":33.84208292028123,"lng":-84.37917351722717,"neighborhood":"Buckhead","city_fetched":"Atlanta,US","state":"GA","country":"United States","canonicalUrl":"https://foursquare.com/v/the-dive-bar/4d0bce9e0e7260fc6d333a43","categoryId":"4bf58dd8d48988d118941735","category":"Dive Bar","checkinsCount":7458,"usersCount":2833,"tipCount":28,"visitsCount":7519,"tier":2,"message":"Moderate","currency":"$","rating":6.1},{"name":"Kapture Lounge","address":"75 Peachtree Place","lat":33.78071401340172,"lng":-84.39009337185401,"neighborhood":"Midtown","city_fetched":"Atlanta,US","state":"GA","country":"United States","canonicalUrl":"https://foursquare.com/v/kapture-lounge/54e826af498e0dbe7c9f164f","categoryId":"4bf58dd8d48988d119941735","category":"Hookah Bar","checkinsCount":113,"usersCount":145,"tipCount":1,"visitsCount":173,"tier":"","message":"","currency":"","rating":6.1},{"name":"SweetWater Draft House & Grill","phone":"4047629276","address":"Gate B11, Concourse B","lat":33.639204244728134,"lng":-84.43591833114624,"city_fetched":"Atlanta,US","state":"GA","country":"United States","canonicalUrl":"https://foursquare.com/v/sweetwater-draft-house--grill/4b4a24b0f964a520347c26e3","categoryId":"4bf58dd8d48988d116941735","category":"Bar","checkinsCount":6186,"usersCount":5144,"tipCount":114,"visitsCount":6199,"url":"http://www.atlanta-airport.com/Passenger/Shop/view_stores.aspx?comp_id=129","tier":2,"message":"Moderate","currency":"$","rating":6.1},{"name":"The Reserve at Cafe Circa","phone":"4044170008","address":"464 Edgewood Ave SE","lat":33.754455,"lng":-84.37244462,"neighborhood":"Sweet Auburn","city_fetched":"Atlanta,US","state":"GA","country":"United States","canonicalUrl":"https://foursquare.com/v/the-reserve-at-cafe-circa/4c804e6147cc224b573b729f","categoryId":"4bf58dd8d48988d121941735","category":"Lounge","checkinsCount":788,"usersCount":472,"tipCount":7,"visitsCount":788,"tier":"","message":"","currency":"","rating":6.1},{"name":"KRAVE","address":"1100 Crescent Ave NE","lat":33.78486941855624,"lng":-84.3844791443597,"neighborhood":"Midtown","city_fetched":"Atlanta,US","state":"GA","country":"United States","canonicalUrl":"https://foursquare.com/v/krave/51f937f1498e240e6eb6166e","categoryId":"4bf58dd8d48988d11f941735","category":"Nightclub","checkinsCount":573,"usersCount":413,"tipCount":8,"visitsCount":579,"tier":2,"message":"Moderate","currency":"$","rating":6},{"name":"Jocks & Jills Sports Grill","phone":"7709528401","twitter":"jocksandjills","address":"1 Galleria Pkwy SE","lat":33.884640687846606,"lng":-84.46663498878479,"neighborhood":"Cobb Galleria","city_fetched":"Atlanta,US","state":"GA","country":"United States","canonicalUrl":"https://foursquare.com/v/jocks--jills-sports-grill/40e0b100f964a520a2061fe3","categoryId":"4bf58dd8d48988d11d941735","category":"Sports Bar","checkinsCount":2984,"usersCount":1735,"tipCount":34,"visitsCount":3197,"url":"http://www.jocksandjills.com","tier":2,"message":"Moderate","currency":"$","rating":6},{"name":"Sutra Lounge","phone":"4046071160","twitter":"sutraloungeatl","address":"1136 Crescent Ave NE","lat":33.78560347938829,"lng":-84.38448429107666,"neighborhood":"Midtown","city_fetched":"Atlanta,US","state":"GA","country":"United States","canonicalUrl":"https://foursquare.com/v/sutra-lounge/423f6000f964a5205e201fe3","categoryId":"4bf58dd8d48988d11f941735","category":"Nightclub","checkinsCount":3137,"usersCount":1912,"tipCount":13,"visitsCount":3155,"url":"http://sutraloungeatl.com","tier":"","message":"","currency":"","rating":6},{"name":"DRINKSHOP","twitter":"spg","address":"45 Ivan Allen Jr Blvd NW","lat":33.76477084469265,"lng":-84.3894624710083,"neighborhood":"Downtown Atlanta","city_fetched":"Atlanta,US","state":"GA","country":"United States","canonicalUrl":"https://foursquare.com/v/drinkshop/4b232ea7f964a520325424e3","categoryId":"4bf58dd8d48988d1d5941735","category":"Hotel Bar","checkinsCount":789,"usersCount":562,"tipCount":19,"visitsCount":791,"url":"http://www.spg.com/foursquare/","tier":"","message":"","currency":"","rating":5.9},{"name":"Sanctuary","address":"128 E Andrews Dr NW","lat":33.84224831978319,"lng":-84.38139468372293,"neighborhood":"Buckhead","city_fetched":"Atlanta,US","state":"GA","country":"United States","canonicalUrl":"https://foursquare.com/v/sanctuary/40e0b100f964a52059071fe3","categoryId":"4bf58dd8d48988d11f941735","category":"Nightclub","checkinsCount":288,"usersCount":195,"tipCount":2,"visitsCount":292,"tier":"","message":"","currency":"","rating":5.9},{"name":"Taco Mac","phone":"4048351192","twitter":"tmacrestaurants","address":"100 Techwood Drive","lat":33.75796326989114,"lng":-84.3957686371359,"neighborhood":"Downtown Atlanta","city_fetched":"Atlanta,US","state":"GA","country":"United States","canonicalUrl":"https://foursquare.com/v/taco-mac/4a68c7e6f964a52001cb1fe3","categoryId":"4bf58dd8d48988d11d941735","category":"Sports Bar","checkinsCount":10254,"usersCount":7062,"tipCount":77,"visitsCount":10571,"url":"http://www.tacomac.com","tier":2,"message":"Moderate","currency":"$","rating":5.9},{"name":"The Connect Lounge","lat":33.75538089441054,"lng":-84.37936223869143,"neighborhood":"Georgia State University","city_fetched":"Atlanta,US","state":"GA","country":"United States","canonicalUrl":"https://foursquare.com/v/the-connect-lounge/4e59acde8877c8a76de9dd84","categoryId":"4bf58dd8d48988d121941735","category":"Lounge","checkinsCount":1055,"usersCount":533,"tipCount":6,"visitsCount":1097,"tier":"","message":"","currency":"","rating":5.9},{"name":"Southern Elements","phone":"4046592000","twitter":"hiltonhotels","address":"255 Courtland St NE","lat":33.761545523335826,"lng":-84.38406857655622,"neighborhood":"Downtown Atlanta","city_fetched":"Atlanta,US","state":"GA","country":"United States","canonicalUrl":"https://foursquare.com/v/southern-elements/50ca02c0245f2d4aa8c2b31d","categoryId":"4bf58dd8d48988d1d5941735","category":"Hotel Bar","checkinsCount":994,"usersCount":719,"tipCount":11,"visitsCount":998,"url":"http://www.hiltonatlantadowntown.com","tier":2,"message":"Moderate","currency":"$","rating":5.8},{"name":"Kouture","address":"84 12th St NE","lat":33.78479392525017,"lng":-84.38478706833399,"neighborhood":"Midtown","city_fetched":"Atlanta,US","state":"GA","country":"United States","canonicalUrl":"https://foursquare.com/v/kouture/519705dc498e11b5ba91878a","categoryId":"4bf58dd8d48988d11f941735","category":"Nightclub","checkinsCount":315,"usersCount":239,"tipCount":5,"visitsCount":315,"tier":"","message":"","currency":"","rating":5.8},{"name":"Whiskey Park","phone":"4045372815","twitter":"whiskeyparkatl","address":"188 14th St NE","lat":33.78671407699487,"lng":-84.381549,"neighborhood":"Midtown","city_fetched":"Atlanta,US","state":"GA","country":"United States","canonicalUrl":"https://foursquare.com/v/whiskey-park/4c2ea4ed16adc928ed56bc9c","categoryId":"4bf58dd8d48988d1d5941735","category":"Hotel Bar","checkinsCount":2751,"usersCount":1872,"tipCount":13,"visitsCount":2788,"url":"http://gerberbars.com/whiskey-park-atlanta","tier":"","message":"","currency":"","rating":5.8},{"name":"Shooter Alley","phone":"7704570776","address":"5803 Buford Hwy NE","lat":33.90939362424656,"lng":-84.26608155258599,"city_fetched":"Atlanta,US","state":"GA","country":"United States","canonicalUrl":"https://foursquare.com/v/shooter-alley/40e0b100f964a52066071fe3","categoryId":"4bf58dd8d48988d1d6941735","category":"Strip Club","checkinsCount":570,"usersCount":520,"tipCount":10,"visitsCount":912,"url":"http://www.shooter-alley.com","tier":"","message":"","currency":"","rating":5.8},{"name":"The 40/40 Club","phone":"2128324040","address":"Concourse D","lat":33.640878157622026,"lng":-84.42950616933348,"city_fetched":"Atlanta,US","state":"GA","country":"United States","canonicalUrl":"https://foursquare.com/v/the-4040-club/53756c11498eb0ccd2eec92f","categoryId":"4bf58dd8d48988d11d941735","category":"Sports Bar","checkinsCount":418,"usersCount":357,"tipCount":8,"visitsCount":418,"tier":"","message":"","currency":"","rating":5.8},{"name":"Riley's Show Bar","phone":"4046991589","address":"4425 Fulton Industrial Blvd SW","lat":33.764583213573,"lng":-84.5331465545082,"city_fetched":"Atlanta,US","state":"GA","country":"United States","canonicalUrl":"https://foursquare.com/v/rileys-show-bar/40e0b100f964a52048071fe3","categoryId":"4bf58dd8d48988d11f941735","category":"Nightclub","checkinsCount":199,"usersCount":84,"tipCount":3,"visitsCount":199,"url":"http://rileysshowbar.com","tier":"","message":"","currency":"","rating":5.8},{"name":"Diamond Club","phone":"4043558273","address":"1715 Northside Dr NW","lat":33.80122463038264,"lng":-84.40727233886719,"neighborhood":"Loring Heights","city_fetched":"Atlanta,US","state":"GA","country":"United States","canonicalUrl":"https://foursquare.com/v/diamond-club/4bd1326db221c9b6ab47d5d0","categoryId":"4bf58dd8d48988d1d6941735","category":"Strip Club","checkinsCount":587,"usersCount":324,"tipCount":6,"visitsCount":589,"tier":"","message":"","currency":"","rating":5.7},{"name":"Onyx Bar & Lounge - Grand Hyatt Buckhead","phone":"4042371234","twitter":"hyatttweets","address":"3300 Peachtree Rd NE","lat":33.84539739649183,"lng":-84.37057983322241,"neighborhood":"North Buckhead","city_fetched":"Atlanta,US","state":"GA","country":"United States","canonicalUrl":"https://foursquare.com/v/onyx-bar--lounge--grand-hyatt-buckhead/4e0fe8bc8877ac23b653d0d0","categoryId":"4bf58dd8d48988d116941735","category":"Bar","checkinsCount":425,"usersCount":271,"tipCount":12,"visitsCount":425,"url":"http://www.hyatt.com","tier":"","message":"","currency":"","rating":5.7},{"name":"Blue Sky","address":"5709 Clark Howell Hwy","lat":33.61697775492732,"lng":-84.40552717130636,"city_fetched":"Atlanta,US","state":"GA","country":"United States","canonicalUrl":"https://foursquare.com/v/blue-sky/4cc7497eee718cfafba8b03d","categoryId":"4bf58dd8d48988d1d5941735","category":"Hotel Bar","checkinsCount":323,"usersCount":141,"tipCount":7,"visitsCount":325,"tier":"","message":"","currency":"","rating":5.6},{"name":"Privé Nightclub","phone":"4042209599","twitter":"none","address":"960 Spring St NW","lat":33.780714102743914,"lng":-84.38925691668739,"neighborhood":"Midtown","city_fetched":"Atlanta,US","state":"GA","country":"United States","canonicalUrl":"https://foursquare.com/v/priv%C3%A9-nightclub/4a6bc5e2f964a520ebcf1fe3","categoryId":"4bf58dd8d48988d11f941735","category":"Nightclub","checkinsCount":3634,"usersCount":1653,"tipCount":28,"visitsCount":3691,"url":"http://www.privenightclub.com","tier":"","message":"","currency":"","rating":5.6},{"name":"Suede Tapas Lounge","address":"257 Trinity Ave SW","lat":33.75070993432889,"lng":-84.39634844807159,"neighborhood":"South Downtown","city_fetched":"Atlanta,US","state":"GA","country":"United States","canonicalUrl":"https://foursquare.com/v/suede-tapas-lounge/50e8fa7ee4b05b31e7fb33fb","categoryId":"4bf58dd8d48988d121941735","category":"Lounge","checkinsCount":124,"usersCount":94,"tipCount":3,"visitsCount":127,"tier":"","message":"","currency":"","rating":5.6},{"name":"The Sports Scene","address":"Concourse B","lat":33.64230323761766,"lng":-84.43594677249338,"city_fetched":"Atlanta,US","state":"GA","country":"United States","canonicalUrl":"https://foursquare.com/v/the-sports-scene/4b523339f964a520626f27e3","categoryId":"4bf58dd8d48988d11d941735","category":"Sports Bar","checkinsCount":1632,"usersCount":1494,"tipCount":54,"visitsCount":1632,"tier":"","message":"","currency":"","rating":5.6},{"name":"Aqua Bistro","phone":"4048167332","twitter":"aquabistroatl","address":"264 Pharr Rd NE","lat":33.83720311063933,"lng":-84.37804316487795,"neighborhood":"Buckhead Village","city_fetched":"Atlanta,US","state":"GA","country":"United States","canonicalUrl":"https://foursquare.com/v/aqua-bistro/4a931497f964a520ba1e20e3","categoryId":"4bf58dd8d48988d121941735","category":"Lounge","checkinsCount":1271,"usersCount":639,"tipCount":21,"visitsCount":1271,"url":"http://www.aquabistroatl.com","tier":"","message":"","currency":"","rating":5.5},{"name":"Stout Irish Sports Pub","phone":"4048691151","twitter":"stoutirishpub","address":"56 E Andrews Dr NW Ste 16","lat":33.843080958775914,"lng":-84.38106179237366,"neighborhood":"Buckhead","city_fetched":"Atlanta,US","state":"GA","country":"United States","canonicalUrl":"https://foursquare.com/v/stout-irish-sports-pub/4a454836f964a520fea71fe3","categoryId":"4bf58dd8d48988d11b941735","category":"Pub","checkinsCount":6847,"usersCount":2343,"tipCount":29,"visitsCount":6900,"url":"http://stoutirishpub.businesscatalyst.com/index.html","tier":2,"message":"Moderate","currency":"$","rating":5.5},{"name":"Stagecoach","phone":"4045504169","twitter":"stagecoachatl","address":"34 Irby Ave NW","lat":33.84107225319982,"lng":-84.38052731045538,"neighborhood":"Buckhead","city_fetched":"Atlanta,US","state":"GA","country":"United States","canonicalUrl":"https://foursquare.com/v/stagecoach/4fa2dd8de4b0bd954f39cde2","categoryId":"4bf58dd8d48988d11b941735","category":"Pub","checkinsCount":2745,"usersCount":1242,"tipCount":10,"visitsCount":2806,"tier":"","message":"","currency":"","rating":5.5},{"name":"Icon","lat":33.831308473184016,"lng":-84.34193939005768,"neighborhood":"Buckhead","city_fetched":"Atlanta,US","state":"GA","country":"United States","canonicalUrl":"https://foursquare.com/v/icon/525a068b11d2ea8f33b70074","categoryId":"4bf58dd8d48988d11f941735","category":"Nightclub","checkinsCount":186,"usersCount":124,"tipCount":2,"visitsCount":196,"tier":"","message":"","currency":"","rating":5.5},{"name":"Mint Ultra Lounge","phone":"4042873131","address":"3092 Briarcliff Rd NE","lat":33.83794060620202,"lng":-84.31020715667223,"city_fetched":"Atlanta,US","state":"GA","country":"United States","canonicalUrl":"https://foursquare.com/v/mint-ultra-lounge/4e59e29f2271886714fa531f","categoryId":"4bf58dd8d48988d119941735","category":"Hookah Bar","checkinsCount":1445,"usersCount":843,"tipCount":16,"visitsCount":1477,"url":"http://mintultralounge.com","tier":"","message":"","currency":"","rating":5.4},{"name":"Flashers","address":"6420 Roswell Rd","lat":33.93044320670747,"lng":-84.3799370787408,"neighborhood":"Downtown Sandy Springs","city_fetched":"Atlanta,US","state":"GA","country":"United States","canonicalUrl":"https://foursquare.com/v/flashers/40e0b100f964a52054061fe3","categoryId":"4bf58dd8d48988d1d6941735","category":"Strip Club","checkinsCount":280,"usersCount":133,"tipCount":6,"visitsCount":283,"tier":"","message":"","currency":"","rating":5.3},{"name":"Finish Line Sports Bar","phone":"4047679000","twitter":"hiltonhotels","address":"1031 Virginia Ave","lat":33.6600919610407,"lng":-84.42509066587256,"city_fetched":"Atlanta,US","state":"GA","country":"United States","canonicalUrl":"https://foursquare.com/v/finish-line-sports-bar/50ca02c4245f2d4aa8c2c1ca","categoryId":"4bf58dd8d48988d1d5941735","category":"Hotel Bar","checkinsCount":809,"usersCount":552,"tipCount":11,"visitsCount":816,"url":"http://www3.hilton.com/en/hotels/georgia/hilton-atlanta-airport-atlaahh/index.html","tier":"","message":"","currency":"","rating":5.1},{"name":"Shark Bar","address":"2841 Greenbriar Pkwy SW","lat":33.686714870976786,"lng":-84.49580638353832,"neighborhood":"Greenbriar","city_fetched":"Atlanta,US","state":"GA","country":"United States","canonicalUrl":"https://foursquare.com/v/shark-bar/51dcb2da498e60a88287b6ad","categoryId":"4bf58dd8d48988d116941735","category":"Bar","checkinsCount":319,"usersCount":258,"tipCount":16,"visitsCount":404,"tier":2,"message":"Moderate","currency":"$","rating":5},{"name":"Coach's Corner","address":"Concourse B","lat":33.642269558374544,"lng":-84.43595702766697,"city_fetched":"Atlanta,US","state":"GA","country":"United States","canonicalUrl":"https://foursquare.com/v/coachs-corner/4fa32939e4b01acec23f9022","categoryId":"4bf58dd8d48988d11d941735","category":"Sports Bar","checkinsCount":1071,"usersCount":1013,"tipCount":36,"visitsCount":1071,"tier":"","message":"","currency":"","rating":4.5}]