[{"name":"Grumpy's Sports Pub","phone":"8032269868","address":"216 Eastgate Dr","lat":33.5125947022752,"lng":-81.71528369083315,"city_fetched":"Augusta,US","state":"SC","country":"United States","canonicalUrl":"https://foursquare.com/v/grumpys-sports-pub/4f5f5ac2e4b0df99540f1ad9","categoryId":"4bf58dd8d48988d11b941735","category":"Pub","checkinsCount":629,"usersCount":207,"tipCount":3,"visitsCount":701,"url":"http://grumpyssportspub.com","tier":2,"message":"Moderate","currency":"$","rating":8.6},{"name":"The Willcox Hotel","phone":"8036481898","address":"100 Colleton Ave SW","lat":33.557068,"lng":-81.72185384,"city_fetched":"Augusta,US","state":"SC","country":"United States","canonicalUrl":"https://foursquare.com/v/the-willcox-hotel/4bcf07100ffdce726d38b2c0","categoryId":"4bf58dd8d48988d1d5941735","category":"Hotel Bar","checkinsCount":712,"usersCount":423,"tipCount":12,"visitsCount":980,"url":"http://thewillcox.com","tier":"","message":"","currency":"","rating":8.1},{"name":"Aiken Brewing Company","phone":"8035020707","address":"140 Laurens St SW","lat":33.56035316483159,"lng":-81.72272864857527,"city_fetched":"Augusta,US","state":"SC","country":"United States","canonicalUrl":"https://foursquare.com/v/aiken-brewing-company/4b109042f964a520e67223e3","categoryId":"50327c8591d4c4b30a586d5d","category":"Brewery","checkinsCount":1749,"usersCount":1058,"tipCount":19,"visitsCount":2065,"url":"http://aikenbrewingcompany.com","tier":2,"message":"Moderate","currency":"$","rating":7.7},{"name":"The Hideout","phone":"7064328113","address":"3014 Washington Rd","lat":33.511827,"lng":-82.045443,"city_fetched":"Augusta,US","state":"GA","country":"United States","canonicalUrl":"https://foursquare.com/v/the-hideout/52883284498ed35d44ffa55e","categoryId":"4bf58dd8d48988d116941735","category":"Bar","checkinsCount":78,"usersCount":35,"tipCount":3,"visitsCount":83,"tier":2,"message":"Moderate","currency":"$","rating":7.7},{"name":"Helga's Lounge","phone":"7067362880","address":"2015 Central Ave","lat":33.469273228852394,"lng":-82.00871401557865,"city_fetched":"Augusta,US","state":"GA","country":"United States","canonicalUrl":"https://foursquare.com/v/helgas-lounge/4b1c88c4f964a5203c0824e3","categoryId":"4bf58dd8d48988d118941735","category":"Dive Bar","checkinsCount":452,"usersCount":198,"tipCount":9,"visitsCount":586,"tier":"","message":"","currency":"","rating":7.6},{"name":"Limelite Cafe","phone":"7067310220","address":"1137 Agerton Ln","lat":33.48705332828197,"lng":-82.07842167115557,"neighborhood":"West Augusta","city_fetched":"Augusta,US","state":"GA","country":"United States","canonicalUrl":"https://foursquare.com/v/limelite-cafe/4b8dc6a2f964a5202a0d33e3","categoryId":"4bf58dd8d48988d11d941735","category":"Sports Bar","checkinsCount":1267,"usersCount":402,"tipCount":17,"visitsCount":1287,"tier":1,"message":"Cheap","currency":"$","rating":7.5},{"name":"Joe's Underground","phone":"7067249457","twitter":"joesbarncafe","address":"144 8th St","lat":33.475395,"lng":-81.96536524999999,"neighborhood":"Central Business District","city_fetched":"Augusta,US","state":"GA","country":"United States","canonicalUrl":"https://foursquare.com/v/joes-underground/4b883ba2f964a5204de931e3","categoryId":"4bf58dd8d48988d116941735","category":"Bar","checkinsCount":816,"usersCount":389,"tipCount":13,"visitsCount":993,"url":"http://www.joesundergroundcafe.com","tier":"","message":"","currency":"","rating":7.5},{"name":"The Indian Queen","phone":"7063038723","twitter":"the_indianqueen","address":"2502 Wrightsboro Rd","lat":33.46845252678664,"lng":-82.02856212526045,"city_fetched":"Augusta,US","state":"GA","country":"United States","canonicalUrl":"https://foursquare.com/v/the-indian-queen/5030632ee4b0c65b4b4d996f","categoryId":"4bf58dd8d48988d116941735","category":"Bar","checkinsCount":399,"usersCount":280,"tipCount":10,"visitsCount":645,"url":"http://www.theindianqueen.com","tier":2,"message":"Moderate","currency":"$","rating":7.5},{"name":"The Country Club Dance Hall & Saloon","phone":"7063641862","twitter":"augustacountry","address":"2834 Washington Rd","lat":33.50944671564098,"lng":-82.03293800354004,"neighborhood":"West Augusta","city_fetched":"Augusta,US","state":"GA","country":"United States","canonicalUrl":"https://foursquare.com/v/the-country-club-dance-hall--saloon/4ba16394f964a520c3b237e3","categoryId":"4bf58dd8d48988d11f941735","category":"Nightclub","checkinsCount":1824,"usersCount":693,"tipCount":10,"visitsCount":1921,"url":"http://augustacountry.com","tier":2,"message":"Moderate","currency":"$","rating":7.4},{"name":"The Soul Bar","phone":"7067248880","address":"984 Broad St","lat":33.476437,"lng":-81.96971,"neighborhood":"Central Business District","city_fetched":"Augusta,US","state":"GA","country":"United States","canonicalUrl":"https://foursquare.com/v/the-soul-bar/4b9ae88ef964a520f4e135e3","categoryId":"4bf58dd8d48988d116941735","category":"Bar","checkinsCount":1885,"usersCount":603,"tipCount":11,"visitsCount":1944,"url":"http://www.soulbar.com","tier":1,"message":"Cheap","currency":"$","rating":7.4},{"name":"8th Street Tobacco","address":"201-299 8th St","lat":33.474253781186505,"lng":-81.96596533419525,"neighborhood":"Central Business District","city_fetched":"Augusta,US","state":"GA","country":"United States","canonicalUrl":"https://foursquare.com/v/8th-street-tobacco/4c7292d213228cfac65b2b65","categoryId":"4bf58dd8d48988d119941735","category":"Hookah Bar","checkinsCount":233,"usersCount":100,"tipCount":4,"visitsCount":233,"tier":"","message":"","currency":"","rating":7.3},{"name":"Capri Lounge","address":"1239 Gordon Highway","lat":33.45549,"lng":-81.968265,"city_fetched":"Augusta,US","state":"GA","country":"United States","canonicalUrl":"https://foursquare.com/v/capri-lounge/54b1d839498e143afeaee26a","categoryId":"4bf58dd8d48988d121941735","category":"Lounge","checkinsCount":29,"usersCount":97,"tipCount":3,"visitsCount":203,"tier":"","message":"","currency":"","rating":7.2},{"name":"Metro Coffee House Inc","phone":"7067226468","address":"1054 Broad St","lat":33.47695437458891,"lng":-81.97114785668458,"neighborhood":"Central Business District","city_fetched":"Augusta,US","state":"GA","country":"United States","canonicalUrl":"https://foursquare.com/v/metro-coffee-house-inc/4b7f1e1af964a520c71730e3","categoryId":"4bf58dd8d48988d116941735","category":"Bar","checkinsCount":2751,"usersCount":786,"tipCount":24,"visitsCount":2781,"tier":1,"message":"Cheap","currency":"$","rating":7.1},{"name":"Shannon's","lat":33.51583,"lng":-82.054719,"city_fetched":"Augusta,US","state":"Georgia","country":"United States","canonicalUrl":"https://foursquare.com/v/shannons/4d9d12b75c33a35d2be8f9a0","categoryId":"4bf58dd8d48988d116941735","category":"Bar","checkinsCount":180,"usersCount":122,"tipCount":2,"visitsCount":273,"tier":"","message":"","currency":"","rating":7.1},{"name":"The Playground","phone":"7067245399","address":"873 Broad St","lat":33.476538453670564,"lng":-81.96947542857629,"neighborhood":"Central Business District","city_fetched":"Augusta,US","state":"GA","country":"United States","canonicalUrl":"https://foursquare.com/v/the-playground/4c0ee995d64c0f47330b295d","categoryId":"4bf58dd8d48988d116941735","category":"Bar","checkinsCount":1382,"usersCount":409,"tipCount":5,"visitsCount":1455,"tier":1,"message":"Cheap","currency":"$","rating":7},{"name":"Somewhere In Augusta","phone":"7067390002","twitter":"somewhereinaug","address":"2820 Washington Rd","lat":33.51019449260594,"lng":-82.03189888026286,"neighborhood":"West Augusta","city_fetched":"Augusta,US","state":"GA","country":"United States","canonicalUrl":"https://foursquare.com/v/somewhere-in-augusta/50cd15f6e4b026936cb69f93","categoryId":"4bf58dd8d48988d11d941735","category":"Sports Bar","checkinsCount":888,"usersCount":540,"tipCount":13,"visitsCount":1201,"url":"http://www.somewhereinaugusta.com","tier":"","message":"","currency":"","rating":7},{"name":"Bar West Augusta","lat":33.49131998650971,"lng":-82.0745765062043,"neighborhood":"West Augusta","city_fetched":"Augusta,US","state":"Georgia","country":"United States","canonicalUrl":"https://foursquare.com/v/bar-west-augusta/4e34cb7c483bf3839a28a88e","categoryId":"4bf58dd8d48988d116941735","category":"Bar","checkinsCount":522,"usersCount":227,"tipCount":6,"visitsCount":595,"tier":"","message":"","currency":"","rating":7},{"name":"Sheehanâ€™s Irish Pub","address":"2571 Central Ave","lat":33.471221923828125,"lng":-82.02764061666667,"neighborhood":"Summerville","city_fetched":"Augusta,US","state":"GA","country":"United States","canonicalUrl":"https://foursquare.com/v/sheehans-irish-pub/4b736322f964a520f7ab2de3","categoryId":"4bf58dd8d48988d11b941735","category":"Pub","checkinsCount":439,"usersCount":224,"tipCount":10,"visitsCount":481,"url":"http://sheehansirishpub.com","tier":"","message":"","currency":"","rating":6.9},{"name":"Roadrunner Cafe","address":"2821 Washington Rd","lat":33.51084342784207,"lng":-82.0314997550448,"neighborhood":"National Hills","city_fetched":"Augusta,US","state":"GA","country":"United States","canonicalUrl":"https://foursquare.com/v/roadrunner-cafe/503d9754e4b0957094ba143f","categoryId":"4bf58dd8d48988d11d941735","category":"Sports Bar","checkinsCount":335,"usersCount":140,"tipCount":11,"visitsCount":350,"url":"http://roadrunnercafe.com","tier":"","message":"","currency":"","rating":6.9},{"name":"Alley Katz","address":"3112 Washington Rd","lat":33.51228674957142,"lng":-82.053134465275,"city_fetched":"Augusta,US","state":"GA","country":"United States","canonicalUrl":"https://foursquare.com/v/alley-katz/4d1d753ee56f6ea895025c1d","categoryId":"4bf58dd8d48988d116941735","category":"Bar","checkinsCount":1065,"usersCount":313,"tipCount":7,"visitsCount":1274,"tier":"","message":"","currency":"","rating":6.9},{"name":"Partridge Inn - P.I. Bar and Grill","address":"2110 Walton Way","lat":33.47541091517273,"lng":-82.00998628974813,"neighborhood":"Summerville","city_fetched":"Augusta,US","state":"GA","country":"United States","canonicalUrl":"https://foursquare.com/v/partridge-inn--pi-bar-and-grill/4d9b992f913a236a7119a308","categoryId":"4bf58dd8d48988d1d5941735","category":"Hotel Bar","checkinsCount":493,"usersCount":246,"tipCount":10,"visitsCount":528,"url":"http://partridgeinn.com","tier":"","message":"","currency":"","rating":6.8},{"name":"Downtown Augusta","lat":33.476009629157225,"lng":-81.96776567703523,"neighborhood":"Central Business District","city_fetched":"Augusta,US","state":"GA","country":"United States","canonicalUrl":"https://foursquare.com/v/downtown-augusta/52466621498eac3238f16fee","categoryId":"4bf58dd8d48988d116941735","category":"Bar","checkinsCount":266,"usersCount":112,"tipCount":0,"visitsCount":271,"tier":"","message":"","currency":"","rating":6.7},{"name":"The Highlander","phone":"8032782796","address":"133 Georgia Ave","lat":33.489198088645935,"lng":-81.97198153333333,"city_fetched":"Augusta,US","state":"SC","country":"United States","canonicalUrl":"https://foursquare.com/v/the-highlander/4ba82c3af964a52061cf39e3","categoryId":"4bf58dd8d48988d118941735","category":"Dive Bar","checkinsCount":324,"usersCount":123,"tipCount":4,"visitsCount":364,"tier":"","message":"","currency":"","rating":6.7},{"name":"The Loft","phone":"7068286600","address":"927 Broad St","lat":33.476306164661274,"lng":-81.96817048167719,"neighborhood":"Central Business District","city_fetched":"Augusta,US","state":"GA","country":"United States","canonicalUrl":"https://foursquare.com/v/the-loft/4b8c7ec7f964a520b1d332e3","categoryId":"4bf58dd8d48988d116941735","category":"Bar","checkinsCount":1504,"usersCount":566,"tipCount":10,"visitsCount":1689,"tier":"","message":"","currency":"","rating":6.6},{"name":"Stillwater Taproom","phone":"7068269857","address":"974 Broad St","lat":33.47646818357495,"lng":-81.96927303019277,"neighborhood":"Central Business District","city_fetched":"Augusta,US","state":"GA","country":"United States","canonicalUrl":"https://foursquare.com/v/stillwater-taproom/4baeb89ff964a52019d23be3","categoryId":"4bf58dd8d48988d116941735","category":"Bar","checkinsCount":1985,"usersCount":718,"tipCount":20,"visitsCount":2022,"tier":"","message":"","currency":"","rating":6.6},{"name":"Tribeca Buddha Lounge","address":"969 Broad Street","lat":33.476195,"lng":-81.9691550731659,"neighborhood":"Central Business District","city_fetched":"Augusta,US","state":"GA","country":"United States","canonicalUrl":"https://foursquare.com/v/tribeca-buddha-lounge/4c37fdaf2c8020a1642c8a00","categoryId":"4bf58dd8d48988d116941735","category":"Bar","checkinsCount":444,"usersCount":119,"tipCount":4,"visitsCount":454,"tier":"","message":"","currency":"","rating":6.6},{"name":"World of Beer","phone":"7069220146","address":"2819 Washington Rd.","lat":33.51077691927315,"lng":-82.03128156565533,"neighborhood":"National Hills","city_fetched":"Augusta,US","state":"GA","country":"United States","canonicalUrl":"https://foursquare.com/v/world-of-beer/57431987cd10ca9fa17720cc","categoryId":"4bf58dd8d48988d116941735","category":"Bar","checkinsCount":78,"usersCount":57,"tipCount":2,"visitsCount":86,"tier":"","message":"","currency":"","rating":6.6},{"name":"Firehouse Bar","phone":"7068269955","address":"1145 Broad St","lat":33.477742,"lng":-81.97220216666666,"neighborhood":"Central Business District","city_fetched":"Augusta,US","state":"GA","country":"United States","canonicalUrl":"https://foursquare.com/v/firehouse-bar/4b8c6fe4f964a520ced032e3","categoryId":"4bf58dd8d48988d116941735","category":"Bar","checkinsCount":685,"usersCount":256,"tipCount":4,"visitsCount":691,"tier":"","message":"","currency":"","rating":6.4},{"name":"Tipsey McStumbles","phone":"7065504390","address":"214 7th St","lat":33.47393742342055,"lng":-81.96354705166407,"neighborhood":"Central Business District","city_fetched":"Augusta,US","state":"GA","country":"United States","canonicalUrl":"https://foursquare.com/v/tipsey-mcstumbles/4ba1374df964a520f9a237e3","categoryId":"4bf58dd8d48988d116941735","category":"Bar","checkinsCount":572,"usersCount":307,"tipCount":5,"visitsCount":666,"tier":"","message":"","currency":"","rating":6.3},{"name":"Surreal at Surrey","phone":"7064962036","address":"469 Highland Ave","lat":33.48652,"lng":-82.030995,"neighborhood":"West Augusta","city_fetched":"Augusta,US","state":"GA","country":"United States","canonicalUrl":"https://foursquare.com/v/surreal-at-surrey/50c9380ce4b066a03eaee50c","categoryId":"4bf58dd8d48988d11f941735","category":"Nightclub","checkinsCount":140,"usersCount":64,"tipCount":3,"visitsCount":145,"tier":"","message":"","currency":"","rating":6.3},{"name":"Bar On Broad","phone":"7069557954","address":"927 Broad St","lat":33.476419666666665,"lng":-81.967925,"neighborhood":"Central Business District","city_fetched":"Augusta,US","state":"GA","country":"United States","canonicalUrl":"https://foursquare.com/v/bar-on-broad/4c6df2aee6b7b1f79c7bab8e","categoryId":"4bf58dd8d48988d116941735","category":"Bar","checkinsCount":756,"usersCount":356,"tipCount":6,"visitsCount":778,"tier":2,"message":"Moderate","currency":"$","rating":6.1},{"name":"Rendevous at the 3","phone":"7063642744","twitter":"rendezvousat3","address":"1540 Gordon Hwy","lat":33.437366709058075,"lng":-82.00727669136354,"city_fetched":"Augusta,US","state":"GA","country":"United States","canonicalUrl":"https://foursquare.com/v/rendevous-at-the-3/4dba1d006e815ab0de4b4f07","categoryId":"4bf58dd8d48988d116941735","category":"Bar","checkinsCount":458,"usersCount":128,"tipCount":2,"visitsCount":549,"tier":"","message":"","currency":"","rating":5.8},{"name":"Club Argos","phone":"7064818829","address":"1923 Walton Way","lat":33.475947729700906,"lng":-82.0016098022461,"neighborhood":"Harrisburg","city_fetched":"Augusta,US","state":"GA","country":"United States","canonicalUrl":"https://foursquare.com/v/club-argos/4b777399f964a520459b2ee3","categoryId":"4bf58dd8d48988d1d8941735","category":"Gay Bar","checkinsCount":1296,"usersCount":243,"tipCount":7,"visitsCount":1382,"tier":"","message":"","currency":"","rating":5.7},{"name":"EconoLodge","phone":"8036493968","address":"3560 Richland Ave W","lat":33.564099764684904,"lng":-81.76569484232945,"city_fetched":"Augusta,US","state":"SC","country":"United States","canonicalUrl":"https://foursquare.com/v/econolodge/4c898d341eafb1f76fd97235","categoryId":"4bf58dd8d48988d1d5941735","category":"Hotel Bar","checkinsCount":40,"usersCount":23,"tipCount":1,"visitsCount":40,"tier":"","message":"","currency":"","rating":5.7},{"name":"Robbie's Sports Bar","phone":"7067380866","address":"2834 Washington Rd","lat":33.50956676548045,"lng":-82.03318670918634,"neighborhood":"West Augusta","city_fetched":"Augusta,US","state":"GA","country":"United States","canonicalUrl":"https://foursquare.com/v/robbies-sports-bar/4c3023eaed37a593218e6803","categoryId":"4bf58dd8d48988d11d941735","category":"Sports Bar","checkinsCount":430,"usersCount":193,"tipCount":3,"visitsCount":445,"tier":"","message":"","currency":"","rating":4.9}]