[{"name":"Hopdoddy Burger Bar","phone":"5122437505","twitter":"hopdoddy","address":"1400 S Congress Ave","lat":30.249540168503078,"lng":-97.74991035461426,"neighborhood":"Bouldin Creek","city_fetched":"Austin","state":"TX","country":"United States","canonicalUrl":"https://foursquare.com/v/hopdoddy-burger-bar/4cb5e045e262b60c46cb6ae0","category":"Burger Joint","checkinsCount":24530,"usersCount":15391,"tipCount":387,"visitsCount":25985,"url":"http://hopdoddy.com","tier":2,"message":"Moderate","currency":"$","rating":9.5},{"name":"Easy Tiger","phone":"5126144972","twitter":"easytigeratx","address":"709 E 6th St","lat":30.265845189049426,"lng":-97.73576367017958,"neighborhood":"Downtown Austin","city_fetched":"Austin","state":"TX","country":"United States","canonicalUrl":"https://foursquare.com/v/easy-tiger/4d6e81901c1041bd009d5d28","category":"Bar","checkinsCount":25076,"usersCount":15392,"tipCount":245,"visitsCount":29448,"url":"http://www.easytigeraustin.com","tier":2,"message":"Moderate","currency":"$","rating":9.4},{"name":"Topgolf","phone":"5122225950","twitter":"topgolfaustin","address":"2700 Esperanza Xing","lat":30.398268963336236,"lng":-97.71748512983316,"neighborhood":"North Burnet","city_fetched":"Austin","state":"TX","country":"United States","canonicalUrl":"https://foursquare.com/topgolfaustin","category":"Golf Course","checkinsCount":13410,"usersCount":8921,"tipCount":92,"visitsCount":17286,"url":"http://topgolf.com/us/austin/","tier":"","message":"","currency":"","rating":9.4},{"name":"Draught House Pub & Brewery","phone":"5124526258","twitter":"draughthouse","address":"4112 Medical Pkwy","lat":30.311027942775503,"lng":-97.74289637804031,"neighborhood":"Rosedale","city_fetched":"Austin","state":"TX","country":"United States","canonicalUrl":"https://foursquare.com/v/draught-house-pub--brewery/40b13b00f964a5209af31ee3","category":"Brewery","checkinsCount":14080,"usersCount":5849,"tipCount":97,"visitsCount":15965,"url":"http://draughthouse.com","tier":2,"message":"Moderate","currency":"$","rating":9.4},{"name":"Total Wine & More","phone":"5122573252","twitter":"totalwine","address":"11066 Pecan Park Blvd, Ste 117","lat":30.469914354508216,"lng":-97.79893845319748,"city_fetched":"Austin","state":"TX","country":"United States","canonicalUrl":"https://foursquare.com/v/total-wine--more/55fb52a3498edd6515d5c74c","category":"Wine Shop","checkinsCount":528,"usersCount":707,"tipCount":6,"visitsCount":1512,"url":"http://www.totalwine.com","tier":"","message":"","currency":"","rating":9.4},{"name":"Whip In Convenience Store & Pub","phone":"5124425337","twitter":"whipin","address":"1950 S Interstate 35","lat":30.237956715929556,"lng":-97.73943964800429,"city_fetched":"Austin","state":"TX","country":"United States","canonicalUrl":"https://foursquare.com/v/whip-in-convenience-store--pub/49bc22ebf964a5201a541fe3","category":"Grocery Store","checkinsCount":12430,"usersCount":6077,"tipCount":133,"visitsCount":14571,"url":"http://whipin.com","tier":"","message":"","currency":"","rating":9.3},{"name":"Freedmen's","phone":"5122200953","twitter":"freedmensbar","address":"2402 San Gabriel St","lat":30.28840380633734,"lng":-97.74783729816895,"neighborhood":"West University","city_fetched":"Austin","state":"TX","country":"United States","canonicalUrl":"https://foursquare.com/v/freedmens/5047bf37e4b0aa9a70c47ae7","category":"BBQ Joint","checkinsCount":3186,"usersCount":3306,"tipCount":91,"visitsCount":4984,"url":"http://www.freedmensbar.com","tier":2,"message":"Moderate","currency":"$","rating":9.3},{"name":"Banger's Sausage House & Beer Garden","phone":"5123861656","twitter":"bangersaustin","address":"81 Rainey St","lat":30.259051588610593,"lng":-97.73838404454699,"neighborhood":"Downtown Austin","city_fetched":"Austin","state":"TX","country":"United States","canonicalUrl":"https://foursquare.com/v/bangers-sausage-house--beer-garden/4feb8f93e4b0a19839c43cd2","category":"Beer Garden","checkinsCount":20122,"usersCount":12962,"tipCount":217,"visitsCount":21905,"url":"http://www.bangersaustin.com","tier":2,"message":"Moderate","currency":"$","rating":9.3},{"name":"Hopfields","phone":"5125370467","twitter":"hopfieldsaustin","address":"3110 Guadalupe St","lat":30.29854953289032,"lng":-97.74098103333333,"neighborhood":"West University","city_fetched":"Austin","state":"TX","country":"United States","canonicalUrl":"https://foursquare.com/v/hopfields/4e1a2449aeb7eb0120dbf401","category":"Gastropub","checkinsCount":4220,"usersCount":2495,"tipCount":48,"visitsCount":4969,"url":"http://www.hopfieldsaustin.com","tier":2,"message":"Moderate","currency":"$","rating":9.3},{"name":"Pinthouse Pizza","phone":"5124369605","twitter":"pinthousepizza","address":"4729 Burnet Rd","lat":30.318644365168996,"lng":-97.73914789672304,"neighborhood":"Brentwood","city_fetched":"Austin","state":"TX","country":"United States","canonicalUrl":"https://foursquare.com/v/pinthouse-pizza/5047be93e4b0a21d2fa2e79b","category":"Pizza Place","checkinsCount":10248,"usersCount":5037,"tipCount":113,"visitsCount":12485,"url":"http://pinthousepizza.com","tier":2,"message":"Moderate","currency":"$","rating":9.3},{"name":"Jeffrey's","phone":"5124775584","address":"1204 W Lynn St","lat":30.28042859263038,"lng":-97.75914361124003,"neighborhood":"Old West Austin","city_fetched":"Austin","state":"TX","country":"United States","canonicalUrl":"https://foursquare.com/v/jeffreys/518056c3e4b04bf50f1f5c24","category":"American Restaurant","checkinsCount":864,"usersCount":707,"tipCount":13,"visitsCount":1053,"url":"http://www.jeffreysofaustin.com","tier":4,"message":"Very Expensive","currency":"$","rating":9.3},{"name":"Total Wine & More","phone":"5128928763","twitter":"totalwine","address":"5601 Brodie Ln, Ste 800","lat":30.22521099307593,"lng":-97.82081454992294,"city_fetched":"Austin","state":"TX","country":"United States","canonicalUrl":"https://foursquare.com/v/total-wine--more/555e33e5498e23396b1c37fc","category":"Wine Shop","checkinsCount":696,"usersCount":430,"tipCount":4,"visitsCount":1086,"url":"http://www.totalwine.com","tier":"","message":"","currency":"","rating":9.2},{"name":"The ABGB","phone":"5122982242","twitter":"theabgb","address":"1305 W Oltorf St","lat":30.245332409630752,"lng":-97.76896476745605,"neighborhood":"Galindo","city_fetched":"Austin","state":"TX","country":"United States","canonicalUrl":"https://foursquare.com/theabgb","category":"Beer Garden","checkinsCount":7674,"usersCount":5082,"tipCount":71,"visitsCount":10904,"url":"http://www.theabgb.com","tier":2,"message":"Moderate","currency":"$","rating":9.2},{"name":"Eddie V's Prime Seafood","phone":"5124721860","twitter":"eddievs","address":"301 E 5th St","lat":30.26620261,"lng":-97.74059772,"neighborhood":"Downtown Austin","city_fetched":"Austin","state":"TX","country":"United States","canonicalUrl":"https://foursquare.com/v/eddie-vs-prime-seafood/45730176f964a520833e1fe3","category":"Seafood Restaurant","checkinsCount":7148,"usersCount":5468,"tipCount":89,"visitsCount":7748,"url":"http://eddiev.com","tier":3,"message":"Expensive","currency":"$","rating":9.2},{"name":"Eddie V's Prime Seafood","phone":"5123422642","twitter":"eddievs","address":"9400B Arboretum Blvd","lat":30.38960921,"lng":-97.75304317,"city_fetched":"Austin","state":"TX","country":"United States","canonicalUrl":"https://foursquare.com/v/eddie-vs-prime-seafood/49da5508f964a520765e1fe3","category":"Seafood Restaurant","checkinsCount":2149,"usersCount":1675,"tipCount":30,"visitsCount":2675,"url":"http://eddiev.com","tier":3,"message":"Expensive","currency":"$","rating":9.2},{"name":"The Wheel","address":"1902 E MLK","lat":30.280304336904674,"lng":-97.72104576863798,"neighborhood":"Upper Boggy Creek","city_fetched":"Austin","state":"TX","country":"United States","canonicalUrl":"https://foursquare.com/v/the-wheel/54e3c36b498ed72399391b73","category":"Bar","checkinsCount":541,"usersCount":349,"tipCount":4,"visitsCount":687,"url":"http://thewheelaustin.com","tier":"","message":"","currency":"","rating":9.2},{"name":"Moontower Saloon","phone":"5124439824","address":"10212 Manchaca Rd","lat":30.16931665332467,"lng":-97.82652556273929,"city_fetched":"Austin","state":"TX","country":"United States","canonicalUrl":"https://foursquare.com/v/moontower-saloon/4fa4950fe4b00f7194823604","category":"Bar","checkinsCount":7347,"usersCount":3885,"tipCount":58,"visitsCount":10177,"url":"http://moontowersaloon.com","tier":2,"message":"Moderate","currency":"$","rating":9.2},{"name":"Hops & Grain","phone":"5129142467","twitter":"hopsandgrain","address":"507 Calles St","lat":30.25806635195475,"lng":-97.71218776702881,"city_fetched":"Austin","state":"TX","country":"United States","canonicalUrl":"https://foursquare.com/v/hops--grain/4dcf0609d4c065592f8eaa73","category":"Brewery","checkinsCount":3388,"usersCount":2415,"tipCount":36,"visitsCount":3783,"url":"http://hopsandgrain.com","tier":1,"message":"Cheap","currency":"$","rating":9.2},{"name":"The Ginger Man","phone":"5124738801","address":"301 Lavaca St","lat":30.266109942151243,"lng":-97.74593532085419,"neighborhood":"Downtown Austin","city_fetched":"Austin","state":"TX","country":"United States","canonicalUrl":"https://foursquare.com/v/the-ginger-man/40b13b00f964a520aaf31ee3","category":"Pub","checkinsCount":26153,"usersCount":13749,"tipCount":197,"visitsCount":26597,"url":"http://thegingerman.com","tier":2,"message":"Moderate","currency":"$","rating":9.2},{"name":"The Mohawk","phone":"5126660877","twitter":"mohawkaustin","address":"912 Red River St","lat":30.269913737750787,"lng":-97.73610770702362,"neighborhood":"Downtown Austin","city_fetched":"Austin","state":"TX","country":"United States","canonicalUrl":"https://foursquare.com/v/the-mohawk/45f4fde8f964a52001441fe3","category":"Rock Club","checkinsCount":28465,"usersCount":14976,"tipCount":122,"visitsCount":30370,"url":"http://mohawkaustin.com","tier":"","message":"","currency":"","rating":9.2},{"name":"Pinthouse Pizza","phone":"5125025808","twitter":"pinthouselamar","address":"4236 S Lamar Blvd","lat":30.235996,"lng":-97.795822,"neighborhood":"Barton Hills","city_fetched":"Austin","state":"TX","country":"United States","canonicalUrl":"https://foursquare.com/v/pinthouse-pizza/562e6fc3498e291ae03ab4be","category":"Pizza Place","checkinsCount":1697,"usersCount":1301,"tipCount":27,"visitsCount":2670,"url":"http://pinthousepizza.com","tier":"","message":"","currency":"","rating":9.2},{"name":"Wright Bros. Brew & Brew","phone":"5124930963","twitter":"thebrewandbrew","address":"500 San Marcos St #105","lat":30.264367837960606,"lng":-97.73304462432861,"city_fetched":"Austin","state":"TX","country":"United States","canonicalUrl":"https://foursquare.com/v/wright-bros-brew--brew/52055f018bbd654312c850f9","category":"Coffee Shop","checkinsCount":6165,"usersCount":3223,"tipCount":42,"visitsCount":8806,"url":"http://thebrewandbrew.com","tier":1,"message":"Cheap","currency":"$","rating":9.2},{"name":"Adelbert's Brewery","phone":"5126621462","twitter":"adelbertsbeer","address":"2314 Rutland Dr #100","lat":30.38236982849948,"lng":-97.71990028815432,"neighborhood":"North Burnet","city_fetched":"Austin","state":"TX","country":"United States","canonicalUrl":"https://foursquare.com/v/adelberts-brewery/4f064ba877c84c82651e2505","category":"Brewery","checkinsCount":1661,"usersCount":1361,"tipCount":25,"visitsCount":2427,"url":"http://www.adelbertsbeer.com","tier":1,"message":"Cheap","currency":"$","rating":9.1},{"name":"Midnight Cowboy","phone":"5128432715","address":"313 E 6th St","lat":30.267163406464256,"lng":-97.74004437268992,"neighborhood":"Downtown Austin","city_fetched":"Austin","state":"TX","country":"United States","canonicalUrl":"https://foursquare.com/v/midnight-cowboy/4f5abbc9e4b036906f7718da","category":"Speakeasy","checkinsCount":3413,"usersCount":2607,"tipCount":54,"visitsCount":3454,"url":"http://midnightcowboymodeling.com","tier":3,"message":"Expensive","currency":"$","rating":9.1},{"name":"Frank Restaurant","phone":"5124946894","twitter":"hotdogscoldbeer","address":"407 Colorado St","lat":30.266934650908162,"lng":-97.74432599544525,"neighborhood":"Downtown Austin","city_fetched":"Austin","state":"TX","country":"United States","canonicalUrl":"https://foursquare.com/v/frank-restaurant/4a5689b8f964a52059b51fe3","category":"Hot Dog Joint","checkinsCount":29463,"usersCount":15713,"tipCount":380,"visitsCount":30319,"url":"http://hotdogscoldbeer.com","tier":1,"message":"Cheap","currency":"$","rating":9.1},{"name":"Péché","phone":"5124959669","twitter":"peche_austin","address":"208 W 4th St","lat":30.266888319139184,"lng":-97.74523258209229,"neighborhood":"Downtown Austin","city_fetched":"Austin","state":"TX","country":"United States","canonicalUrl":"https://foursquare.com/v/p%C3%A9ch%C3%A9/4a3c3dc9f964a5204ea11fe3","category":"Cocktail Bar","checkinsCount":11021,"usersCount":6454,"tipCount":173,"visitsCount":11144,"url":"http://www.pecheaustin.com","tier":3,"message":"Expensive","currency":"$","rating":9.1},{"name":"Black Star Co-op Pub & Brewery","phone":"5124522337","address":"7020 Easy Wind Dr","lat":30.338250359914642,"lng":-97.71896839141846,"neighborhood":"Crestview","city_fetched":"Austin","state":"TX","country":"United States","canonicalUrl":"https://foursquare.com/v/black-star-coop-pub--brewery/4b888dbbf964a520480032e3","category":"Brewery","checkinsCount":14574,"usersCount":6085,"tipCount":149,"visitsCount":16832,"url":"http://www.blackstar.coop","tier":2,"message":"Moderate","currency":"$","rating":9.1},{"name":"Craft Pride","phone":"5128261238","twitter":"craftpride","address":"61 Rainey St","lat":30.25791347452643,"lng":-97.73890919202815,"neighborhood":"Downtown Austin","city_fetched":"Austin","state":"TX","country":"United States","canonicalUrl":"https://foursquare.com/v/craft-pride/5125600de4b0b833e8efa5fa","category":"Beer Garden","checkinsCount":9133,"usersCount":5646,"tipCount":79,"visitsCount":9875,"url":"http://craftprideaustin.com","tier":1,"message":"Cheap","currency":"$","rating":9.1},{"name":"Contigo Austin","phone":"5126142260","twitter":"contigoaustin","address":"2027 Anchor Ln","lat":30.28792632332774,"lng":-97.70335654095673,"neighborhood":"MLK","city_fetched":"Austin","state":"TX","country":"United States","canonicalUrl":"https://foursquare.com/v/contigo-austin/4d0d2d0295c1a1cd10bf00ff","category":"American Restaurant","checkinsCount":6859,"usersCount":4451,"tipCount":90,"visitsCount":8296,"url":"http://www.contigotexas.com/austin","tier":2,"message":"Moderate","currency":"$","rating":9},{"name":"Firehouse Hostel and Lounge","phone":"5122012522","twitter":"firehousehostel","address":"605 Brazos St Ste 100","lat":30.268074405540332,"lng":-97.74124145507812,"neighborhood":"Downtown Austin","city_fetched":"Austin","state":"TX","country":"United States","canonicalUrl":"https://foursquare.com/v/firehouse-hostel-and-lounge/427d5680f964a520a7211fe3","category":"Lounge","checkinsCount":5314,"usersCount":3637,"tipCount":69,"visitsCount":5995,"url":"http://www.austinfirehouse.com","tier":2,"message":"Moderate","currency":"$","rating":9},{"name":"Spider House Patio Bar & Cafe","phone":"5124809562","twitter":"spiderhouse","address":"2908 Fruth St","lat":30.295510079512912,"lng":-97.74173656847715,"neighborhood":"North University","city_fetched":"Austin","state":"TX","country":"United States","canonicalUrl":"https://foursquare.com/v/spider-house-patio-bar--cafe/40b3de00f964a5200f001fe3","category":"Bar","checkinsCount":18015,"usersCount":8743,"tipCount":183,"visitsCount":19326,"url":"http://spiderhousecafe.com","tier":2,"message":"Moderate","currency":"$","rating":9},{"name":"The Continental Club","phone":"5124412444","address":"1315 S Congress Ave","lat":30.25052531817116,"lng":-97.74911586584508,"city_fetched":"Austin","state":"TX","country":"United States","canonicalUrl":"https://foursquare.com/v/the-continental-club/40b52f80f964a52051001fe3","category":"Rock Club","checkinsCount":8697,"usersCount":6179,"tipCount":62,"visitsCount":8883,"url":"http://www.continentalclub.com","tier":"","message":"","currency":"","rating":9},{"name":"The White Horse","phone":"5125536756","address":"500 Comal St","lat":30.262535642147196,"lng":-97.7270598472646,"city_fetched":"Austin","state":"TX","country":"United States","canonicalUrl":"https://foursquare.com/v/the-white-horse/4ed54d9329c2bbe661cf0501","category":"Dive Bar","checkinsCount":12066,"usersCount":7277,"tipCount":60,"visitsCount":14445,"url":"http://thewhitehorseaustin.com","tier":1,"message":"Cheap","currency":"$","rating":9},{"name":"Stay Gold","twitter":"staygoldaustin","address":"1910 E Cesar Chavez St","lat":30.257131554431098,"lng":-97.72370802220262,"city_fetched":"Austin","state":"TX","country":"United States","canonicalUrl":"https://foursquare.com/v/stay-gold/54c31018498e78ed16522991","category":"Bar","checkinsCount":1611,"usersCount":1310,"tipCount":9,"visitsCount":2303,"url":"http://staygoldaustin.com","tier":"","message":"","currency":"","rating":9},{"name":"Esther's Follies","phone":"5123200198","address":"525 E 6th St","lat":30.2663138033874,"lng":-97.7374917268753,"neighborhood":"Downtown Austin","city_fetched":"Austin","state":"TX","country":"United States","canonicalUrl":"https://foursquare.com/v/esthers-follies/4a34399cf964a520eb9b1fe3","category":"Comedy Club","checkinsCount":5130,"usersCount":4172,"tipCount":39,"visitsCount":5347,"tier":"","message":"","currency":"","rating":9},{"name":"Violet Crown Cinema","phone":"5124959600","twitter":"vccinema","address":"434 W 2nd St","lat":30.26556322129181,"lng":-97.74814009666443,"neighborhood":"Downtown Austin","city_fetched":"Austin","state":"TX","country":"United States","canonicalUrl":"https://foursquare.com/v/violet-crown-cinema/4db8a87c6a2334682d9809a9","category":"Indie Movie Theater","checkinsCount":9958,"usersCount":4471,"tipCount":71,"visitsCount":10173,"url":"http://violetcrowncinema.com","tier":"","message":"","currency":"","rating":9},{"name":"La Condesa","phone":"5124990300","twitter":"lacondesaaustin","address":"400 W 2nd St","lat":30.26538404031054,"lng":-97.74770997319702,"neighborhood":"Downtown Austin","city_fetched":"Austin","state":"TX","country":"United States","canonicalUrl":"https://foursquare.com/v/la-condesa/49e32bbaf964a52068621fe3","category":"Mexican Restaurant","checkinsCount":16574,"usersCount":11089,"tipCount":247,"visitsCount":16824,"url":"http://www.lacondesaaustin.com","tier":3,"message":"Expensive","currency":"$","rating":9},{"name":"Gourmands Neighborhood Pub","phone":"5126102031","twitter":"gourmandsatx","address":"2316 Webberville Rd","lat":30.262570102295374,"lng":-97.71527767181396,"neighborhood":"Central East Austin","city_fetched":"Austin","state":"TX","country":"United States","canonicalUrl":"https://foursquare.com/v/gourmands-neighborhood-pub/4e35f819814d2eb94733af41","category":"Pub","checkinsCount":5726,"usersCount":2831,"tipCount":77,"visitsCount":7192,"url":"http://www.lovethysandwich.com","tier":2,"message":"Moderate","currency":"$","rating":9},{"name":"Chuy's","phone":"5124744452","twitter":"chuysrestaurant","address":"1728 Barton Springs Rd","lat":30.26389362903769,"lng":-97.76326123589521,"neighborhood":"Zilker","city_fetched":"Austin","state":"TX","country":"United States","canonicalUrl":"https://foursquare.com/v/chuys/42e03700f964a52061261fe3","category":"Mexican Restaurant","checkinsCount":16106,"usersCount":10724,"tipCount":164,"visitsCount":18039,"url":"http://www.chuys.com","tier":2,"message":"Moderate","currency":"$","rating":9},{"name":"Gourdough's Public House","phone":"5129129070","twitter":"gourdoughspub","address":"2700 S Lamar Blvd","lat":30.245353574370505,"lng":-97.78042943638393,"neighborhood":"Zilker","city_fetched":"Austin","state":"TX","country":"United States","canonicalUrl":"https://foursquare.com/v/gourdoughs-public-house/508db2d4e4b040090b5c94f5","category":"Bar","checkinsCount":7803,"usersCount":5220,"tipCount":114,"visitsCount":9202,"url":"http://gourdoughspub.com","tier":2,"message":"Moderate","currency":"$","rating":9},{"name":"Gourdough's Public House","phone":"5125885222","twitter":"gourdough","address":"209 W 5th St Ste B","lat":30.267536195544583,"lng":-97.74526431733362,"neighborhood":"Downtown Austin","city_fetched":"Austin","state":"TX","country":"United States","canonicalUrl":"https://foursquare.com/v/gourdoughs-public-house/54a4bb57498e83d714013151","category":"Bar","checkinsCount":1210,"usersCount":1219,"tipCount":17,"visitsCount":1516,"url":"http://www.gourdoughspub.com","tier":"","message":"","currency":"","rating":8.9},{"name":"Emerald Tavern Games and Cafe","phone":"5129944649","twitter":"emeraldtavern","address":"9012 Research Blvd","lat":30.371291910510546,"lng":-97.72480052991689,"neighborhood":"Crestview - Wooten","city_fetched":"Austin","state":"TX","country":"United States","canonicalUrl":"https://foursquare.com/v/emerald-tavern-games-and-cafe/514cc167e4b074491cf627a8","category":"Gaming Cafe","checkinsCount":1229,"usersCount":420,"tipCount":16,"visitsCount":1370,"url":"http://www.emeraldtaverngames.com","tier":"","message":"","currency":"","rating":8.9},{"name":"24 Diner","phone":"5124725400","twitter":"24dineratx","address":"600 N Lamar Blvd #G","lat":30.271984914728012,"lng":-97.7540319440717,"neighborhood":"Old West Austin","city_fetched":"Austin","state":"TX","country":"United States","canonicalUrl":"https://foursquare.com/v/24-diner/4b16ad7ef964a520e4bb23e3","category":"Diner","checkinsCount":24581,"usersCount":11697,"tipCount":306,"visitsCount":26287,"url":"http://www.24diner.com","tier":2,"message":"Moderate","currency":"$","rating":8.9},{"name":"Whisler's","phone":"5124800781","address":"1816 E 6th St","lat":30.261988888173686,"lng":-97.72262083476869,"city_fetched":"Austin","state":"TX","country":"United States","canonicalUrl":"https://foursquare.com/v/whislers/517cc426e4b0eef579599328","category":"Cocktail Bar","checkinsCount":5756,"usersCount":4265,"tipCount":57,"visitsCount":8184,"url":"http://whislersatx.com","tier":2,"message":"Moderate","currency":"$","rating":8.9},{"name":"MAX's Wine Dive Austin","phone":"5129040111","twitter":"mwdaustin","address":"207 San Jacinto Blvd","lat":30.26452792605826,"lng":-97.7414341982222,"neighborhood":"Downtown Austin","city_fetched":"Austin","state":"TX","country":"United States","canonicalUrl":"https://foursquare.com/v/maxs-wine-dive-austin/4a1058eff964a520a7761fe3","category":"Wine Bar","checkinsCount":10616,"usersCount":7487,"tipCount":138,"visitsCount":10875,"url":"http://www.maxswinedive.com/austin/index.php","tier":2,"message":"Moderate","currency":"$","rating":8.9},{"name":"The Driskill Bar","phone":"5124745911","twitter":"thedriskill","address":"604 Brazos St","lat":30.268352392467825,"lng":-97.74145603179932,"neighborhood":"Downtown Austin","city_fetched":"Austin","state":"TX","country":"United States","canonicalUrl":"https://foursquare.com/v/the-driskill-bar/4ba2fdc6f964a520b02638e3","category":"Hotel Bar","checkinsCount":13541,"usersCount":9381,"tipCount":104,"visitsCount":13832,"url":"http://www.driskillhotel.com/the-driskill-bar.php","tier":3,"message":"Expensive","currency":"$","rating":8.9},{"name":"Indian Roller","address":"10006 Manchaca Rd","lat":30.17206377602085,"lng":-97.82544210314033,"city_fetched":"Austin","state":"TX","country":"United States","canonicalUrl":"https://foursquare.com/v/indian-roller/537fe31d498eaced54bf37ba","category":"Beer Garden","checkinsCount":764,"usersCount":405,"tipCount":6,"visitsCount":1118,"url":"http://www.indianrolleraustin.com","tier":"","message":"","currency":"","rating":8.9},{"name":"Austin Beerworks","phone":"5122167661","twitter":"austinbeerworks","address":"3009 Industrial Ter","lat":30.379530960724928,"lng":-97.73024210742246,"neighborhood":"North Burnet","city_fetched":"Austin","state":"TX","country":"United States","canonicalUrl":"https://foursquare.com/v/austin-beerworks/4d7826e0b706224bc0b1248d","category":"Brewery","checkinsCount":3697,"usersCount":2523,"tipCount":34,"visitsCount":4976,"url":"http://austinbeerworks.com","tier":1,"message":"Cheap","currency":"$","rating":8.9},{"name":"The Liberty","phone":"5126004791","address":"1618 1/2 E 6th St","lat":30.262811037851165,"lng":-97.7250623703003,"city_fetched":"Austin","state":"TX","country":"United States","canonicalUrl":"https://foursquare.com/v/the-liberty/4a50231cf964a520ffaf1fe3","category":"Dive Bar","checkinsCount":14676,"usersCount":6984,"tipCount":66,"visitsCount":15702,"url":"http://www.thelibertyaustin.com","tier":1,"message":"Cheap","currency":"$","rating":8.9},{"name":"Vino Vino","phone":"5124659282","address":"4119 Guadalupe St","lat":30.306960940361023,"lng":-97.735198,"neighborhood":"Hyde Park","city_fetched":"Austin","state":"TX","country":"United States","canonicalUrl":"https://foursquare.com/v/vino-vino/49bed457f964a520e5541fe3","category":"Wine Bar","checkinsCount":3064,"usersCount":1948,"tipCount":54,"visitsCount":3463,"url":"http://www.vinovinotx.com","tier":2,"message":"Moderate","currency":"$","rating":8.9},{"name":"The Brass Tap","phone":"5123412337","twitter":"thebrasstaprr","address":"204 E Main St","lat":30.509142206602988,"lng":-97.67750943919256,"city_fetched":"Austin","state":"TX","country":"United States","canonicalUrl":"https://foursquare.com/v/the-brass-tap/51bb8512498e3e2a6418576e","category":"Bar","checkinsCount":2605,"usersCount":1055,"tipCount":35,"visitsCount":3163,"url":"http://thebrasstap-hub.com","tier":2,"message":"Moderate","currency":"$","rating":8.9},{"name":"Second Bar + Kitchen","phone":"5128272750","twitter":"congressaustin","address":"200 Congress Ave","lat":30.264325153669926,"lng":-97.74434655514571,"neighborhood":"Downtown Austin","city_fetched":"Austin","state":"TX","country":"United States","canonicalUrl":"https://foursquare.com/v/second-bar--kitchen/4cc056f9b6c4224b5c6ff894","category":"New American Restaurant","checkinsCount":12585,"usersCount":8738,"tipCount":190,"visitsCount":13404,"url":"http://www.congressaustin.com","tier":3,"message":"Expensive","currency":"$","rating":8.9},{"name":"Matt's el Rancho","phone":"5124629333","address":"2613 S Lamar Blvd","lat":30.245234673585443,"lng":-97.77926176039797,"neighborhood":"South Lamar","city_fetched":"Austin","state":"TX","country":"United States","canonicalUrl":"https://foursquare.com/v/matts-el-rancho/49c5891ef964a5200c571fe3","category":"Mexican Restaurant","checkinsCount":12968,"usersCount":7403,"tipCount":115,"visitsCount":16006,"url":"http://www.mattselrancho.com","tier":2,"message":"Moderate","currency":"$","rating":8.8},{"name":"Henri's","phone":"5124423373","twitter":"henrischeese","address":"2024 S Lamar Blvd","lat":30.249101381554457,"lng":-97.76847228564817,"neighborhood":"Zilker","city_fetched":"Austin","state":"TX","country":"United States","canonicalUrl":"https://foursquare.com/v/henris/4f6cbc0ae4b01489b8f66a75","category":"Sandwich Place","checkinsCount":1384,"usersCount":842,"tipCount":15,"visitsCount":1416,"url":"http://henrischeese.com","tier":2,"message":"Moderate","currency":"$","rating":8.8},{"name":"Waller Creek Pub House","phone":"5123581903","twitter":"wallercreekpub","address":"603 Sabine St","lat":30.266481353443304,"lng":-97.73584853907657,"neighborhood":"Downtown Austin","city_fetched":"Austin","state":"TX","country":"United States","canonicalUrl":"https://foursquare.com/v/waller-creek-pub-house/55107543498edeebbbb2eeb4","category":"Pub","checkinsCount":790,"usersCount":710,"tipCount":14,"visitsCount":1071,"url":"http://wallercreekpubhouse.com","tier":"","message":"","currency":"","rating":8.8},{"name":"Black Sheep Lodge","phone":"5127072744","twitter":"blacksheeplodge","address":"2108 S Lamar Blvd","lat":30.248265811215493,"lng":-97.77109980583191,"neighborhood":"Zilker","city_fetched":"Austin","state":"TX","country":"United States","canonicalUrl":"https://foursquare.com/v/black-sheep-lodge/4a20634df964a5207c7c1fe3","category":"Sports Bar","checkinsCount":20265,"usersCount":7306,"tipCount":141,"visitsCount":23271,"url":"http://blacksheeplodge.com","tier":1,"message":"Cheap","currency":"$","rating":8.8},{"name":"North By Northwest (NXNW)","phone":"5124676969","twitter":"nxnwbrew","address":"10010 N Capital of Texas Hwy","lat":30.391062198099544,"lng":-97.73859813809395,"neighborhood":"North Burnet - Gateway","city_fetched":"Austin","state":"TX","country":"United States","canonicalUrl":"https://foursquare.com/v/north-by-northwest-nxnw/40b13b00f964a520cff31ee3","category":"Brewery","checkinsCount":12965,"usersCount":7744,"tipCount":117,"visitsCount":15383,"url":"http://www.nxnwbrew.com","tier":2,"message":"Moderate","currency":"$","rating":8.8},{"name":"Flying Saucer Draught Emporium","phone":"5124548200","address":"815 W 47th St","lat":30.315432231607847,"lng":-97.73397096295244,"city_fetched":"Austin","state":"TX","country":"United States","canonicalUrl":"https://foursquare.com/v/flying-saucer-draught-emporium/48287126f964a520c04f1fe3","category":"Beer Garden","checkinsCount":31337,"usersCount":7880,"tipCount":134,"visitsCount":33394,"url":"http://www.beerknurd.com","tier":2,"message":"Moderate","currency":"$","rating":8.8},{"name":"East Side Showroom","phone":"5124674280","twitter":"east_showroom","address":"1100 E 6th St","lat":30.2648115234055,"lng":-97.73136123644446,"city_fetched":"Austin","state":"TX","country":"United States","canonicalUrl":"https://foursquare.com/v/east-side-showroom/4a5684e3f964a52051b51fe3","category":"Cocktail Bar","checkinsCount":9089,"usersCount":5576,"tipCount":130,"visitsCount":9420,"url":"http://eastsideshowroom.com","tier":2,"message":"Moderate","currency":"$","rating":8.8},{"name":"The Grove Wine Bar & Kitchen - West Lake","phone":"5123278822","twitter":"grovewinebar","address":"6317 FM 2244 Rd","lat":30.296184163834493,"lng":-97.83217906951904,"city_fetched":"Austin","state":"TX","country":"United States","canonicalUrl":"https://foursquare.com/v/the-grove-wine-bar--kitchen--west-lake/4a987184f964a520072c20e3","category":"Wine Bar","checkinsCount":5098,"usersCount":2725,"tipCount":53,"visitsCount":5659,"url":"http://grovewinebar.com","tier":2,"message":"Moderate","currency":"$","rating":8.8},{"name":"The Elephant Room","phone":"5124732279","address":"315 Congress Ave","lat":30.265535421844756,"lng":-97.74358034133911,"neighborhood":"Downtown Austin","city_fetched":"Austin","state":"TX","country":"United States","canonicalUrl":"https://foursquare.com/v/the-elephant-room/4101a680f964a520640b1fe3","category":"Jazz Club","checkinsCount":5765,"usersCount":3900,"tipCount":58,"visitsCount":5814,"tier":"","message":"","currency":"","rating":8.8},{"name":"Buzz Mill Coffee","phone":"5129129221","twitter":"buzzmillcoffee","address":"1505 Town Creek Dr","lat":30.241629596533603,"lng":-97.72691134530518,"neighborhood":"Riverside","city_fetched":"Austin","state":"TX","country":"United States","canonicalUrl":"https://foursquare.com/buzzmillcoffee","category":"Coffee Shop","checkinsCount":5062,"usersCount":2635,"tipCount":61,"visitsCount":6344,"url":"http://buzzmillcoffee.com","tier":1,"message":"Cheap","currency":"$","rating":8.8},{"name":"Growler Room","phone":"5124584438","address":"6800 Burnet Rd #2","lat":30.34442351614695,"lng":-97.73849013463162,"neighborhood":"Allandale","city_fetched":"Austin","state":"TX","country":"United States","canonicalUrl":"https://foursquare.com/v/growler-room/5133a94fe4b08f94a50a346c","category":"Brewery","checkinsCount":633,"usersCount":312,"tipCount":3,"visitsCount":762,"url":"http://www.growlerroom.com","tier":"","message":"","currency":"","rating":8.8},{"name":"Cedar Street Courtyard","phone":"5124959669","twitter":"cedarst","address":"208 W 4th St","lat":30.266888319139184,"lng":-97.74531841278076,"neighborhood":"Downtown Austin","city_fetched":"Austin","state":"TX","country":"United States","canonicalUrl":"https://foursquare.com/v/cedar-street-courtyard/40b13b00f964a5207af31ee3","category":"Lounge","checkinsCount":18384,"usersCount":11717,"tipCount":72,"visitsCount":18461,"url":"http://cedarstreetaustin.com","tier":2,"message":"Moderate","currency":"$","rating":8.8},{"name":"Halcyon Coffee, Bar & Lounge","phone":"5124729637","twitter":"halcyon78701","address":"218 W 4th St","lat":30.26695347864825,"lng":-97.74569402512506,"neighborhood":"Downtown Austin","city_fetched":"Austin","state":"TX","country":"United States","canonicalUrl":"https://foursquare.com/v/halcyon-coffee-bar--lounge/423a1a00f964a5202f201fe3","category":"Coffee Shop","checkinsCount":24625,"usersCount":10971,"tipCount":178,"visitsCount":25185,"url":"http://www.halcyonaustin.com","tier":1,"message":"Cheap","currency":"$","rating":8.8},{"name":"Hoover's Cooking","phone":"5124795006","twitter":"hooversez","address":"2002 Manor Rd","lat":30.284357,"lng":-97.72039532661438,"neighborhood":"Upper Boggy Creek","city_fetched":"Austin","state":"TX","country":"United States","canonicalUrl":"https://foursquare.com/v/hoovers-cooking/4a4ba8c7f964a5208eac1fe3","category":"Fried Chicken Joint","checkinsCount":5241,"usersCount":3548,"tipCount":76,"visitsCount":6239,"url":"http://hooverscooking-hub.com","tier":2,"message":"Moderate","currency":"$","rating":8.8},{"name":"Cheer Up Charlie's","phone":"5124312133","twitter":"cheerupcharlies","address":"900 Red River St","lat":30.269637228603305,"lng":-97.73627288509584,"neighborhood":"Downtown Austin","city_fetched":"Austin","state":"TX","country":"United States","canonicalUrl":"https://foursquare.com/v/cheer-up-charlies/53016e04498e2a3d3f703437","category":"Bar","checkinsCount":4782,"usersCount":3067,"tipCount":36,"visitsCount":5874,"url":"http://cheerupcharlies.com","tier":1,"message":"Cheap","currency":"$","rating":8.8},{"name":"drink.well.","phone":"5126146683","twitter":"drinkwellaustin","address":"207 E 53rd St","lat":30.317207549764777,"lng":-97.72057378599331,"neighborhood":"North Loop","city_fetched":"Austin","state":"TX","country":"United States","canonicalUrl":"https://foursquare.com/v/drinkwell/4f43bd78e4b059a7f245a2db","category":"Cocktail Bar","checkinsCount":4046,"usersCount":2422,"tipCount":47,"visitsCount":4834,"url":"http://drinkwellaustin.com","tier":2,"message":"Moderate","currency":"$","rating":8.8},{"name":"Mean Eyed Cat","phone":"5129206645","address":"1620 W 5th Street","lat":30.274777530301048,"lng":-97.76495929540059,"neighborhood":"Old West Austin","city_fetched":"Austin","state":"TX","country":"United States","canonicalUrl":"https://foursquare.com/v/mean-eyed-cat/5246353911d24f8a9d3d6ff4","category":"Bar","checkinsCount":2279,"usersCount":1740,"tipCount":20,"visitsCount":3057,"url":"http://themeaneyedcat.com","tier":1,"message":"Cheap","currency":"$","rating":8.8},{"name":"Workhorse Bar","phone":"5123235700","address":"100 N Loop Blvd, Austin, TX 78751","lat":30.31787217087491,"lng":-97.72202686629363,"neighborhood":"North Loop","city_fetched":"Austin","state":"TX","country":"United States","canonicalUrl":"https://foursquare.com/v/workhorse-bar/4ee7c46bd3e3348f5371cecf","category":"Bar","checkinsCount":4081,"usersCount":1688,"tipCount":34,"visitsCount":4740,"url":"http://workhorsebar.com","tier":1,"message":"Cheap","currency":"$","rating":8.8},{"name":"Hi Hat Public House","phone":"5128482628","twitter":"hihatph","address":"2121 E 6th St","lat":30.260253,"lng":-97.718848,"city_fetched":"Austin","state":"TX","country":"United States","canonicalUrl":"https://foursquare.com/v/hi-hat-public-house/50cd14d1e4b0d4bd190931ef","category":"Pub","checkinsCount":2080,"usersCount":1115,"tipCount":27,"visitsCount":2756,"url":"http://www.hihatpublichouse.com","tier":2,"message":"Moderate","currency":"$","rating":8.8},{"name":"Crú Wine Bar","phone":"5123399463","address":"238 W 2nd St","lat":30.264905298933446,"lng":-97.74611234664917,"neighborhood":"Downtown Austin","city_fetched":"Austin","state":"TX","country":"United States","canonicalUrl":"https://foursquare.com/v/cr%C3%BA-wine-bar/49c58404f964a5200b571fe3","category":"Wine Bar","checkinsCount":3176,"usersCount":2163,"tipCount":28,"visitsCount":3203,"url":"http://www.cruawinebar.com","tier":2,"message":"Moderate","currency":"$","rating":8.8},{"name":"CU29 Cocktail Bar","phone":"5124740029","twitter":"cu29cocktailbar","address":"720 Brazos St Ste B-710","lat":30.269010789887705,"lng":-97.74085598503255,"neighborhood":"Downtown Austin","city_fetched":"Austin","state":"TX","country":"United States","canonicalUrl":"https://foursquare.com/v/cu29-cocktail-bar/51afdf5a498e237391d3259f","category":"Cocktail Bar","checkinsCount":1916,"usersCount":1086,"tipCount":45,"visitsCount":2090,"url":"http://cu29cocktailbar.com","tier":2,"message":"Moderate","currency":"$","rating":8.8},{"name":"The Dig Pub","phone":"5129969900","twitter":"thedigpub","address":"401 Cypress Creek Rd","lat":30.497820522645096,"lng":-97.82062947750092,"neighborhood":"Buttercup Creek","city_fetched":"Austin","state":"TX","country":"United States","canonicalUrl":"https://foursquare.com/v/the-dig-pub/4af63c36f964a520810222e3","category":"Pub","checkinsCount":4908,"usersCount":1229,"tipCount":47,"visitsCount":5587,"url":"http://www.thedigpub.com","tier":2,"message":"Moderate","currency":"$","rating":8.7},{"name":"Yellow Jacket Social Club","phone":"5124809572","address":"1700 E 5th St.","lat":30.261555,"lng":-97.724761,"city_fetched":"Austin","state":"TX","country":"United States","canonicalUrl":"https://foursquare.com/v/yellow-jacket-social-club/4d5f3bc3ef378cfa3d206da6","category":"Bar","checkinsCount":9232,"usersCount":4940,"tipCount":58,"visitsCount":10838,"url":"http://yellowjacketsocialclub.com","tier":1,"message":"Cheap","currency":"$","rating":8.7},{"name":"Draft Shack @ Whole Foods Market Domain","phone":"5128313981","address":"11920 Domain Dr","lat":30.406334860083295,"lng":-97.72026620350279,"neighborhood":"North Burnet","city_fetched":"Austin","state":"TX","country":"United States","canonicalUrl":"https://foursquare.com/v/draft-shack--whole-foods-market-domain/52d41a3511d299169324d093","category":"Bar","checkinsCount":967,"usersCount":392,"tipCount":9,"visitsCount":1120,"tier":1,"message":"Cheap","currency":"$","rating":8.7},{"name":"Capitol City Comedy Club","phone":"5124672333","twitter":"capcitycomedy","address":"8120 Research Blvd Ste 100","lat":30.352649057053615,"lng":-97.7151064426868,"neighborhood":"Crestview - Wooten","city_fetched":"Austin","state":"TX","country":"United States","canonicalUrl":"https://foursquare.com/v/capitol-city-comedy-club/40b13b00f964a52076f31ee3","category":"Comedy Club","checkinsCount":5393,"usersCount":3210,"tipCount":27,"visitsCount":6277,"url":"http://www.capcitycomedy.com","tier":"","message":"","currency":"","rating":8.7},{"name":"Saxon Pub","address":"1320 S Lamar Blvd","lat":30.253472001826793,"lng":-97.76336736341759,"neighborhood":"Zilker","city_fetched":"Austin","state":"TX","country":"United States","canonicalUrl":"https://foursquare.com/v/saxon-pub/40b13b00f964a520e2f31ee3","category":"Rock Club","checkinsCount":4480,"usersCount":2571,"tipCount":36,"visitsCount":4899,"url":"http://thesaxonpub.com","tier":"","message":"","currency":"","rating":8.7},{"name":"Weather Up","phone":"5125240464","address":"1808 E Cesar Chavez St","lat":30.257455028468076,"lng":-97.72491720650082,"city_fetched":"Austin","state":"TX","country":"United States","canonicalUrl":"https://foursquare.com/v/weather-up/4f5f7143e4b0912b841f3e19","category":"Cocktail Bar","checkinsCount":3368,"usersCount":2446,"tipCount":58,"visitsCount":4307,"url":"http://weatherupnyc.com","tier":2,"message":"Moderate","currency":"$","rating":8.7},{"name":"4th Tap Brewing Cooperative","twitter":"4thtap","address":"10615 Metric Blvd","lat":30.385205014543082,"lng":-97.71211575780478,"neighborhood":"North Austin","city_fetched":"Austin","state":"TX","country":"United States","canonicalUrl":"https://foursquare.com/v/4th-tap-brewing-cooperative/560ff267498e5d594389eed6","category":"Brewery","checkinsCount":521,"usersCount":542,"tipCount":5,"visitsCount":877,"tier":2,"message":"Moderate","currency":"$","rating":8.7},{"name":"Taverna","phone":"5124771001","twitter":"tavernaaustin","address":"258 W 2nd St","lat":30.265016497388103,"lng":-97.74649858474731,"neighborhood":"Downtown Austin","city_fetched":"Austin","state":"TX","country":"United States","canonicalUrl":"https://foursquare.com/v/taverna/43a49c90f964a520512c1fe3","category":"Italian Restaurant","checkinsCount":10197,"usersCount":6026,"tipCount":107,"visitsCount":10369,"url":"http://www.tavernaaustin.com","tier":2,"message":"Moderate","currency":"$","rating":8.7},{"name":"HandleBar","phone":"5123449571","twitter":"handlebaraustin","address":"121 E 5th St","lat":30.266625750968917,"lng":-97.74201772093116,"neighborhood":"Downtown Austin","city_fetched":"Austin","state":"TX","country":"United States","canonicalUrl":"https://foursquare.com/v/handlebar/4f45c9c5e4b00441a2db379c","category":"Bar","checkinsCount":12472,"usersCount":7621,"tipCount":63,"visitsCount":15183,"url":"http://www.handlebaraustin.com","tier":2,"message":"Moderate","currency":"$","rating":8.7},{"name":"Rio Rita","phone":"5124783934","address":"1308 E 6th St","lat":30.264013533945214,"lng":-97.7286721744263,"city_fetched":"Austin","state":"TX","country":"United States","canonicalUrl":"https://foursquare.com/v/rio-rita/47d130fdf964a520114e1fe3","category":"Bar","checkinsCount":9071,"usersCount":4662,"tipCount":103,"visitsCount":9734,"url":"http://www.riorita.net","tier":1,"message":"Cheap","currency":"$","rating":8.7},{"name":"LaVaca Street Bar Rock Rose","twitter":"lavacastreet","address":"11420 Rock Rose Avenue, Suite 100","lat":30.400503762291223,"lng":-97.72314727306365,"neighborhood":"North Burnet","city_fetched":"Austin","state":"TX","country":"United States","canonicalUrl":"https://foursquare.com/v/lavaca-street-bar-rock-rose/56d0d503cd100741b35b6a31","category":"Bar","checkinsCount":465,"usersCount":291,"tipCount":4,"visitsCount":531,"url":"http://www.lavacastreet.com","tier":"","message":"","currency":"","rating":8.7},{"name":"The Townsend","phone":"5128878778","twitter":"thetownsendatx","address":"718 Congress Ave Ste 100","lat":30.269547810249215,"lng":-97.7422139978377,"neighborhood":"Downtown Austin","city_fetched":"Austin","state":"TX","country":"United States","canonicalUrl":"https://foursquare.com/v/the-townsend/54f12e4e498e53d73df2472b","category":"Lounge","checkinsCount":487,"usersCount":381,"tipCount":7,"visitsCount":558,"url":"http://thetownsendaustin.com","tier":2,"message":"Moderate","currency":"$","rating":8.7},{"name":"Texas Chili Parlor","phone":"5124722828","address":"1409 Lavaca St","lat":30.276995301246643,"lng":-97.742055,"neighborhood":"Downtown Austin","city_fetched":"Austin","state":"TX","country":"United States","canonicalUrl":"https://foursquare.com/v/texas-chili-parlor/4ab42d69f964a520447020e3","category":"American Restaurant","checkinsCount":6572,"usersCount":4283,"tipCount":86,"visitsCount":7715,"url":"http://txchiliparlor.com","tier":1,"message":"Cheap","currency":"$","rating":8.7},{"name":"Kona Grill","phone":"5128355900","twitter":"konagrill","address":"11410 Century Oaks Ter","lat":30.401517039376575,"lng":-97.72729933261871,"neighborhood":"North Burnet","city_fetched":"Austin","state":"TX","country":"United States","canonicalUrl":"https://foursquare.com/v/kona-grill/460d90ecf964a5200d451fe3","category":"Sushi Restaurant","checkinsCount":11480,"usersCount":5929,"tipCount":104,"visitsCount":12704,"url":"http://www.konagrill.com","tier":2,"message":"Moderate","currency":"$","rating":8.6},{"name":"Icenhauer's","phone":"5124730005","twitter":"icenhauers","address":"83 Rainey St","lat":30.259289345994766,"lng":-97.73837343554732,"neighborhood":"Downtown Austin","city_fetched":"Austin","state":"TX","country":"United States","canonicalUrl":"https://foursquare.com/v/icenhauers/4c9bfa2946978cfab62b8a7f","category":"Bar","checkinsCount":14004,"usersCount":8101,"tipCount":101,"visitsCount":14389,"url":"http://icenhauers.com","tier":2,"message":"Moderate","currency":"$","rating":8.6},{"name":"Z'Tejas Mexican Restaurant and Grill","phone":"5124785355","twitter":"ztejas","address":"1110 W 6th St","lat":30.2724566,"lng":-97.7557666,"neighborhood":"Old West Austin","city_fetched":"Austin","state":"TX","country":"United States","canonicalUrl":"https://foursquare.com/v/ztejas-mexican-restaurant-and-grill/44c38d67f964a520c7351fe3","category":"Mexican Restaurant","checkinsCount":10110,"usersCount":7076,"tipCount":75,"visitsCount":11288,"url":"http://www.ztejas.com","tier":2,"message":"Moderate","currency":"$","rating":8.6},{"name":"The Rusty Mule","phone":"5127046416","twitter":"therustymule","address":"9201 Highway 290 W","lat":30.231032058124732,"lng":-97.92749773490374,"city_fetched":"Austin","state":"TX","country":"United States","canonicalUrl":"https://foursquare.com/v/the-rusty-mule/551c4bb9498e9239ce6d5995","category":"Bar","checkinsCount":163,"usersCount":245,"tipCount":3,"visitsCount":414,"url":"http://therustymule-hub.com","tier":"","message":"","currency":"","rating":8.6},{"name":"Hole In The Wall","phone":"5124774747","twitter":"hitwatx","address":"2538 Guadalupe St","lat":30.28988472046451,"lng":-97.74162769317627,"neighborhood":"West University","city_fetched":"Austin","state":"TX","country":"United States","canonicalUrl":"https://foursquare.com/v/hole-in-the-wall/40b13b00f964a520adf31ee3","category":"Rock Club","checkinsCount":6744,"usersCount":3296,"tipCount":47,"visitsCount":6893,"url":"http://www.holeinthewallaustin.com","tier":"","message":"","currency":"","rating":8.6},{"name":"Fadó Irish Pub & Restaurant","phone":"5124570172","twitter":"fadoaustin","address":"214 W 4th St","lat":30.266904,"lng":-97.745466,"neighborhood":"Downtown Austin","city_fetched":"Austin","state":"TX","country":"United States","canonicalUrl":"https://foursquare.com/v/fad%C3%B3-irish-pub--restaurant/40b13b00f964a520a2f31ee3","category":"Irish Pub","checkinsCount":17517,"usersCount":9167,"tipCount":103,"visitsCount":17737,"url":"http://fadoirishpub.com","tier":2,"message":"Moderate","currency":"$","rating":8.6},{"name":"Wink","phone":"5124828868","twitter":"winkrestaurant","address":"1014 N Lamar Blvd","lat":30.275894803989615,"lng":-97.7525281906128,"neighborhood":"Old West Austin","city_fetched":"Austin","state":"TX","country":"United States","canonicalUrl":"https://foursquare.com/v/wink/49dad3eef964a520ba5e1fe3","category":"Wine Bar","checkinsCount":2887,"usersCount":1578,"tipCount":34,"visitsCount":2957,"url":"http://winkrestaurant.com","tier":2,"message":"Moderate","currency":"$","rating":8.6},{"name":"Spiderhouse Ballroom","twitter":"spiderhouse","address":"2906 Fruth St","lat":30.295262001409995,"lng":-97.74211851170676,"neighborhood":"North University","city_fetched":"Austin","state":"TX","country":"United States","canonicalUrl":"https://foursquare.com/v/spiderhouse-ballroom/49f76669f964a520976c1fe3","category":"Music Venue","checkinsCount":3413,"usersCount":2062,"tipCount":18,"visitsCount":3663,"url":"http://spiderhouseaustin.com","tier":"","message":"","currency":"","rating":8.6},{"name":"(512) Brewing Company","phone":"5127072337","twitter":"512brewing","address":"407 Radam Ln Ste F200","lat":30.22289217,"lng":-97.76997864246368,"neighborhood":"South Congress","city_fetched":"Austin","state":"TX","country":"United States","canonicalUrl":"https://foursquare.com/v/512-brewing-company/49c534ecf964a520e8561fe3","category":"Brewery","checkinsCount":833,"usersCount":789,"tipCount":15,"visitsCount":1032,"url":"http://www.512brewing.com","tier":"","message":"","currency":"","rating":8.6},{"name":"Habana Restaurant & Bar","phone":"5124434253","twitter":"habanasoco","address":"2728 S Congress Ave","lat":30.234853274639796,"lng":-97.75727059602622,"city_fetched":"Austin","state":"TX","country":"United States","canonicalUrl":"https://foursquare.com/v/habana-restaurant--bar/49efd0aaf964a52009691fe3","category":"Cuban Restaurant","checkinsCount":2999,"usersCount":2075,"tipCount":49,"visitsCount":3475,"url":"http://www.habanaaustin.com","tier":2,"message":"Moderate","currency":"$","rating":8.6},{"name":"Takoba","phone":"5126284466","address":"1411 E 7th St","lat":30.264166167525467,"lng":-97.72738867414728,"neighborhood":"Central East Austin","city_fetched":"Austin","state":"TX","country":"United States","canonicalUrl":"https://foursquare.com/v/takoba/4beb2cfd9ab3b71385dab549","category":"Mexican Restaurant","checkinsCount":12713,"usersCount":6748,"tipCount":149,"visitsCount":13887,"url":"http://takobarestaurant.com","tier":1,"message":"Cheap","currency":"$","rating":8.6},{"name":"Barfly's","phone":"5124526455","twitter":"barflysaustin","address":"5420 Airport Blvd","lat":30.31673972343371,"lng":-97.71425270583143,"neighborhood":"North Loop","city_fetched":"Austin","state":"TX","country":"United States","canonicalUrl":"https://foursquare.com/v/barflys/48261dbef964a5209f4f1fe3","category":"Dive Bar","checkinsCount":4927,"usersCount":1942,"tipCount":46,"visitsCount":5437,"url":"http://www.barflysaustin.com","tier":1,"message":"Cheap","currency":"$","rating":8.6},{"name":"Whole Foods Bar Lamar","phone":"5125422200","address":"525 N Lamar Blvd","lat":30.270635775372615,"lng":-97.75336024013667,"neighborhood":"Downtown Austin","city_fetched":"Austin","state":"TX","country":"United States","canonicalUrl":"https://foursquare.com/v/whole-foods-bar-lamar/4f5002abe4b09e18d52ab901","category":"Bar","checkinsCount":1186,"usersCount":501,"tipCount":11,"visitsCount":1203,"url":"http://www.wholefoodsmarket.com/service/bar-lamar","tier":2,"message":"Moderate","currency":"$","rating":8.5},{"name":"Flix Brewhouse","phone":"5122442739","twitter":"flixbrewhouse","address":"2200 S Interstate 35 #B1","lat":30.488479060955335,"lng":-97.67973013467068,"neighborhood":"Hesters Crossing Shopping Center","city_fetched":"Austin","state":"TX","country":"United States","canonicalUrl":"https://foursquare.com/v/flix-brewhouse/4dee6350fa76b21ed99a4205","category":"Movie Theater","checkinsCount":9481,"usersCount":4055,"tipCount":64,"visitsCount":11528,"url":"http://www.flixbrewhouse.com","tier":"","message":"","currency":"","rating":8.5},{"name":"Red's Porch","phone":"5124407337","twitter":"redsporch","address":"3508 S Lamar Blvd","lat":30.240278690149992,"lng":-97.78870046138763,"neighborhood":"Barton Hills","city_fetched":"Austin","state":"TX","country":"United States","canonicalUrl":"https://foursquare.com/v/reds-porch/4b09f52cf964a5205f2023e3","category":"American Restaurant","checkinsCount":21195,"usersCount":9044,"tipCount":175,"visitsCount":24308,"url":"http://redsporch.com","tier":1,"message":"Cheap","currency":"$","rating":8.5},{"name":"Kasbah Moroccan Lounge","phone":"5122894752","address":"2714 Guadalupe St","lat":30.29266393653315,"lng":-97.74160891771317,"neighborhood":"West University","city_fetched":"Austin","state":"TX","country":"United States","canonicalUrl":"https://foursquare.com/v/kasbah-moroccan-lounge/4638d082f964a52014461fe3","category":"Hookah Bar","checkinsCount":3577,"usersCount":1246,"tipCount":22,"visitsCount":3718,"url":"http://www.kasbahhookahbar.com","tier":2,"message":"Moderate","currency":"$","rating":8.5},{"name":"Shangri-La","phone":"5125244291","twitter":"shangrilaaustin","address":"1016 E 6th St","lat":30.265059,"lng":-97.73156045,"city_fetched":"Austin","state":"TX","country":"United States","canonicalUrl":"https://foursquare.com/v/shangrila/49e03d51f964a52048611fe3","category":"Bar","checkinsCount":16167,"usersCount":7214,"tipCount":64,"visitsCount":16614,"url":"http://www.shangrilaaustin.com","tier":1,"message":"Cheap","currency":"$","rating":8.5},{"name":"The Butterfly Bar","phone":"5124785282","address":"2307 Manor Rd","lat":30.283765535549254,"lng":-97.71720886230469,"neighborhood":"Upper Boggy Creek","city_fetched":"Austin","state":"TX","country":"United States","canonicalUrl":"https://foursquare.com/v/the-butterfly-bar/4d55ca9dfb65236ab48efdb3","category":"Bar","checkinsCount":1858,"usersCount":1043,"tipCount":17,"visitsCount":1987,"url":"http://butterflybaraustin.com","tier":"","message":"","currency":"","rating":8.5},{"name":"The League Kitchen & Tavern","phone":"5123665627","address":"10526 W Parmer Ln Ste 401 Bldg 4","lat":30.497677426983714,"lng":-97.77378455598712,"neighborhood":"Avery Ranch","city_fetched":"Austin","state":"TX","country":"United States","canonicalUrl":"https://foursquare.com/v/the-league-kitchen--tavern/5299285b11d21080af1afd0f","category":"American Restaurant","checkinsCount":1289,"usersCount":705,"tipCount":26,"visitsCount":2083,"url":"http://leaguelakeway.com/page/home","tier":2,"message":"Moderate","currency":"$","rating":8.5},{"name":"Crown & Anchor Pub","phone":"5123229168","address":"2911 San Jacinto Blvd","lat":30.29251,"lng":-97.73565709590912,"neighborhood":"University of Texas-Austin","city_fetched":"Austin","state":"TX","country":"United States","canonicalUrl":"https://foursquare.com/v/crown--anchor-pub/40b13b00f964a5208bf31ee3","category":"Pub","checkinsCount":7416,"usersCount":3374,"tipCount":29,"visitsCount":8755,"url":"http://crownandanchorpub.com","tier":1,"message":"Cheap","currency":"$","rating":8.5},{"name":"Violet Crown Social Club","phone":"5126144461","twitter":"violetcrownsc","address":"1111 E 6th St","lat":30.264305849074923,"lng":-97.73078840988786,"city_fetched":"Austin","state":"TX","country":"United States","canonicalUrl":"https://foursquare.com/v/violet-crown-social-club/4d72e5355838a0937a6112db","category":"Dive Bar","checkinsCount":9912,"usersCount":4373,"tipCount":56,"visitsCount":11194,"url":"http://violetcrownsocialclub.com","tier":1,"message":"Cheap","currency":"$","rating":8.5},{"name":"Cru Wine Bar","phone":"5123399463","address":"11410 Century Oaks Ter #104","lat":30.402120836476087,"lng":-97.7263069152832,"neighborhood":"North Burnet","city_fetched":"Austin","state":"TX","country":"United States","canonicalUrl":"https://foursquare.com/v/cru-wine-bar/49e71bedf964a52079641fe3","category":"Wine Bar","checkinsCount":3291,"usersCount":1890,"tipCount":42,"visitsCount":3323,"url":"http://www.cruawinebar.com","tier":3,"message":"Expensive","currency":"$","rating":8.5},{"name":"Bar Chi Sushi","phone":"5123825557","address":"206 Colorado St","lat":30.2652595623228,"lng":-97.74519535212961,"neighborhood":"Downtown Austin","city_fetched":"Austin","state":"TX","country":"United States","canonicalUrl":"https://foursquare.com/v/bar-chi-sushi/4c9fe6cb03133704089876d5","category":"Sushi Restaurant","checkinsCount":8986,"usersCount":4506,"tipCount":94,"visitsCount":9469,"url":"http://www.barchiaustin.com","tier":2,"message":"Moderate","currency":"$","rating":8.5},{"name":"Living Room","phone":"5125423600","twitter":"whotelatx","address":"200 Lavaca St","lat":30.26536678149478,"lng":-97.74645795655672,"neighborhood":"Downtown Austin","city_fetched":"Austin","state":"TX","country":"United States","canonicalUrl":"https://foursquare.com/v/living-room/4d02bc43347da1cdf313218f","category":"Hotel Bar","checkinsCount":2893,"usersCount":1368,"tipCount":12,"visitsCount":2898,"url":"http://www.whotelaustin.com/living-room","tier":"","message":"","currency":"","rating":8.5},{"name":"Russian House","phone":"5122485442","twitter":"russianhouseatx","address":"307 E 5th St","lat":30.266258204910404,"lng":-97.74029731750488,"neighborhood":"Downtown Austin","city_fetched":"Austin","state":"TX","country":"United States","canonicalUrl":"https://foursquare.com/russianhouseatx","category":"Russian Restaurant","checkinsCount":2925,"usersCount":2098,"tipCount":40,"visitsCount":3179,"url":"http://russianhouseofaustin.com","tier":2,"message":"Moderate","currency":"$","rating":8.5},{"name":"Casino El Camino","phone":"5124699330","address":"517 E 6th St","lat":30.266514189303567,"lng":-97.73772776126862,"neighborhood":"Downtown Austin","city_fetched":"Austin","state":"TX","country":"United States","canonicalUrl":"https://foursquare.com/v/casino-el-camino/40b68100f964a5206b001fe3","category":"Dive Bar","checkinsCount":13551,"usersCount":8635,"tipCount":213,"visitsCount":14179,"url":"http://casinoelcamino.net","tier":1,"message":"Cheap","currency":"$","rating":8.5},{"name":"Pour House Pints & Pies","phone":"5122704740","address":"11835 Jollyville Road","lat":30.422754109769762,"lng":-97.75527477264403,"neighborhood":"Northwest Austin","city_fetched":"Austin","state":"TX","country":"United States","canonicalUrl":"https://foursquare.com/v/pour-house-pints--pies/523b35acbce69c7c875b38cc","category":"Pub","checkinsCount":2419,"usersCount":1523,"tipCount":34,"visitsCount":3749,"url":"http://pourhousepintsandpies.com","tier":2,"message":"Moderate","currency":"$","rating":8.5},{"name":"Pluckers Wing Bar","phone":"5125339464","twitter":"pluckers","address":"9070 Research Blvd","lat":30.372801137394188,"lng":-97.72768020629883,"neighborhood":"North Shoal Creek","city_fetched":"Austin","state":"TX","country":"United States","canonicalUrl":"https://foursquare.com/v/pluckers-wing-bar/43601880f964a5202b291fe3","category":"Wings Joint","checkinsCount":15663,"usersCount":6286,"tipCount":87,"visitsCount":18403,"url":"http://pluckers.com","tier":2,"message":"Moderate","currency":"$","rating":8.5},{"name":"Half Step","phone":"5123911877","twitter":"halfstepbar","address":"75 1/2 Rainey St","lat":30.258611958291574,"lng":-97.73856439778594,"neighborhood":"Downtown Austin","city_fetched":"Austin","state":"TX","country":"United States","canonicalUrl":"https://foursquare.com/v/half-step/52b9e56111d2edfe8e095920","category":"Cocktail Bar","checkinsCount":2368,"usersCount":1765,"tipCount":34,"visitsCount":2445,"url":"http://halfstepbar.com","tier":2,"message":"Moderate","currency":"$","rating":8.4},{"name":"The Jackalope","phone":"5124695801","address":"404 E 6th St","lat":30.267240440035035,"lng":-97.7389669418335,"neighborhood":"Downtown Austin","city_fetched":"Austin","state":"TX","country":"United States","canonicalUrl":"https://foursquare.com/v/the-jackalope/414f6f00f964a520fc1c1fe3","category":"Dive Bar","checkinsCount":26264,"usersCount":13651,"tipCount":215,"visitsCount":26918,"url":"http://www.jackalopebar.com","tier":2,"message":"Moderate","currency":"$","rating":8.4},{"name":"The Iron Bear","phone":"5124828993","twitter":"the_iron_bear","address":"121 W 8th St","lat":30.2701314901643,"lng":-97.7432370185852,"neighborhood":"Downtown Austin","city_fetched":"Austin","state":"TX","country":"United States","canonicalUrl":"https://foursquare.com/v/the-iron-bear/4ce444f1637c6ea85e6e5742","category":"Gay Bar","checkinsCount":9608,"usersCount":2400,"tipCount":33,"visitsCount":11289,"url":"http://www.theironbear.com","tier":1,"message":"Cheap","currency":"$","rating":8.4},{"name":"Hotel Vegas","phone":"5125241584","twitter":"hotelvegasatx","address":"1500 E 6th St","lat":30.263490407113675,"lng":-97.72724547515465,"city_fetched":"Austin","state":"TX","country":"United States","canonicalUrl":"https://foursquare.com/v/hotel-vegas/4ca6c35f931bb60c71fd96e2","category":"Music Venue","checkinsCount":5818,"usersCount":3382,"tipCount":19,"visitsCount":6103,"url":"http://texashotelvegas.com","tier":"","message":"","currency":"","rating":8.4},{"name":"Bungalow","twitter":"i","address":"92 Rainey St","lat":30.260435964775453,"lng":-97.73842648056166,"neighborhood":"Downtown Austin","city_fetched":"Austin","state":"TX","country":"United States","canonicalUrl":"https://foursquare.com/v/bungalow/50354c34e4b082672ffbb241","category":"Bar","checkinsCount":8233,"usersCount":5037,"tipCount":63,"visitsCount":8459,"tier":1,"message":"Cheap","currency":"$","rating":8.4},{"name":"St Roch's Bar","phone":"5127774441","address":"515 Pedernales St","lat":30.258534933333333,"lng":-97.71468871666667,"city_fetched":"Austin","state":"TX","country":"United States","canonicalUrl":"https://foursquare.com/v/st-rochs-bar/4c0c5dbc7189c9287e7dd5b6","category":"Dive Bar","checkinsCount":2509,"usersCount":696,"tipCount":17,"visitsCount":2597,"url":"http://www.strochsbar.com","tier":1,"message":"Cheap","currency":"$","rating":8.4},{"name":"House Wine","phone":"5223225210","address":"408 Josephine St","lat":30.261869,"lng":-97.758802,"neighborhood":"Zilker","city_fetched":"Austin","state":"TX","country":"United States","canonicalUrl":"https://foursquare.com/v/house-wine/49e9369cf964a520de651fe3","category":"Wine Bar","checkinsCount":3548,"usersCount":1959,"tipCount":34,"visitsCount":3624,"url":"http://www.housewineaustin.com","tier":2,"message":"Moderate","currency":"$","rating":8.4},{"name":"Lala's Little Nugget","address":"2207 Justin Ln","lat":30.344619173828463,"lng":-97.7362622764142,"neighborhood":"Brentwood","city_fetched":"Austin","state":"TX","country":"United States","canonicalUrl":"https://foursquare.com/v/lalas-little-nugget/40b13b00f964a520bdf31ee3","category":"Dive Bar","checkinsCount":2287,"usersCount":1558,"tipCount":25,"visitsCount":2575,"tier":1,"message":"Cheap","currency":"$","rating":8.4},{"name":"Casino Southside Lounge","phone":"5124459122","address":"1502 W Ben White Blvd","lat":30.228725363518915,"lng":-97.78248353140093,"neighborhood":"South Lamar","city_fetched":"Austin","state":"TX","country":"United States","canonicalUrl":"https://foursquare.com/v/casino-southside-lounge/50e457efe4b0a36665ce3da2","category":"Bar","checkinsCount":2367,"usersCount":987,"tipCount":10,"visitsCount":2993,"url":"http://casinosouthside.com","tier":2,"message":"Moderate","currency":"$","rating":8.4},{"name":"Pete's Dueling Piano Bar","phone":"5124727383","address":"421 E 6th St","lat":30.266669350413085,"lng":-97.73859092036004,"neighborhood":"Downtown Austin","city_fetched":"Austin","state":"TX","country":"United States","canonicalUrl":"https://foursquare.com/v/petes-dueling-piano-bar/43012c80f964a520f9261fe3","category":"Piano Bar","checkinsCount":7632,"usersCount":5988,"tipCount":58,"visitsCount":7803,"url":"http://www.petesduelingpianobar.com","tier":"","message":"","currency":"","rating":8.4},{"name":"The Blackheart","address":"86 Rainey St","lat":30.25964916395769,"lng":-97.7387447514867,"neighborhood":"Downtown Austin","city_fetched":"Austin","state":"TX","country":"United States","canonicalUrl":"https://foursquare.com/v/the-blackheart/4f5d7583e4b0a3bd247a11d3","category":"Bar","checkinsCount":9426,"usersCount":5999,"tipCount":51,"visitsCount":9662,"url":"http://www.blackheartbar.com","tier":2,"message":"Moderate","currency":"$","rating":8.4},{"name":"Café Mueller by H-E-B","phone":"5122361020","address":"1801 E 51st St","lat":30.301155245490463,"lng":-97.6986274422304,"city_fetched":"Austin","state":"TX","country":"United States","canonicalUrl":"https://foursquare.com/v/caf%C3%A9-mueller-by-heb/51eacea1498eefd376baaeb7","category":"Restaurant","checkinsCount":1577,"usersCount":848,"tipCount":24,"visitsCount":2112,"tier":1,"message":"Cheap","currency":"$","rating":8.4},{"name":"Haymaker","phone":"5122436702","twitter":"haymakeraustin","address":"2310 Manor Rd","lat":30.284598341428932,"lng":-97.71745559823815,"neighborhood":"Upper Boggy Creek","city_fetched":"Austin","state":"TX","country":"United States","canonicalUrl":"https://foursquare.com/v/haymaker/51a8eab9498e76e3138c460f","category":"Gastropub","checkinsCount":5727,"usersCount":3776,"tipCount":69,"visitsCount":8474,"url":"http://www.haymakeraustin.com","tier":2,"message":"Moderate","currency":"$","rating":8.4},{"name":"Garage","phone":"5123693490","address":"503 Colorado St","lat":30.267858738002325,"lng":-97.74426698095262,"neighborhood":"Downtown Austin","city_fetched":"Austin","state":"TX","country":"United States","canonicalUrl":"https://foursquare.com/v/garage/5316acb3498e50d55233c023","category":"Cocktail Bar","checkinsCount":1975,"usersCount":1609,"tipCount":22,"visitsCount":2447,"url":"http://www.garagetx.com","tier":2,"message":"Moderate","currency":"$","rating":8.4},{"name":"Independence Brewing Co.","phone":"5127070099","twitter":"indybrewing","address":"3913 Todd Ln #607","lat":30.211449211253143,"lng":-97.73610314638127,"city_fetched":"Austin","state":"TX","country":"United States","canonicalUrl":"https://foursquare.com/v/independence-brewing-co/4a282179f964a520f7941fe3","category":"Brewery","checkinsCount":2343,"usersCount":1428,"tipCount":11,"visitsCount":3159,"url":"http://www.independencebrewing.com","tier":"","message":"","currency":"","rating":8.4},{"name":"Cedar Door","phone":"5124733712","twitter":"cedardoor","address":"201 Brazos St","lat":30.264258357706108,"lng":-97.74262777256713,"neighborhood":"Downtown Austin","city_fetched":"Austin","state":"TX","country":"United States","canonicalUrl":"https://foursquare.com/v/cedar-door/45f4267df964a520f8431fe3","category":"Bar","checkinsCount":14569,"usersCount":9099,"tipCount":71,"visitsCount":15814,"url":"http://facebook.com/BlackBerry","tier":2,"message":"Moderate","currency":"$","rating":8.4},{"name":"Piranha Killer Sushi","phone":"5124738775","twitter":"piranha_killer","address":"207 San Jacinto Blvd","lat":30.264071306509358,"lng":-97.74149894714355,"neighborhood":"Downtown Austin","city_fetched":"Austin","state":"TX","country":"United States","canonicalUrl":"https://foursquare.com/v/piranha-killer-sushi/4a92d257f964a520cb1d20e3","category":"Sushi Restaurant","checkinsCount":8635,"usersCount":5702,"tipCount":117,"visitsCount":8756,"url":"http://piranhakillersushi.com","tier":2,"message":"Moderate","currency":"$","rating":8.4},{"name":"iPic Theaters","phone":"5125683400","twitter":"ipictheaters","address":"3225 Amy Donovan Plz","lat":30.396323167215563,"lng":-97.72757430290481,"neighborhood":"North Burnet","city_fetched":"Austin","state":"TX","country":"United States","canonicalUrl":"https://foursquare.com/v/ipic-theaters/4bad5f00f964a520214b3be3","category":"Multiplex","checkinsCount":8305,"usersCount":4569,"tipCount":80,"visitsCount":9810,"url":"http://www.ipic.com","tier":"","message":"","currency":"","rating":8.4},{"name":"Empire Control Room","address":"606 E 7th St","lat":30.267310009536853,"lng":-97.73618271135278,"neighborhood":"Downtown Austin","city_fetched":"Austin","state":"TX","country":"United States","canonicalUrl":"https://foursquare.com/v/empire-control-room/512ba6e51648d4cde4dd39b7","category":"Music Venue","checkinsCount":3972,"usersCount":2645,"tipCount":14,"visitsCount":4280,"url":"http://empireatx.com","tier":"","message":"","currency":"","rating":8.4},{"name":"Dolce Vita Gelato & Espresso","phone":"5123232686","address":"4222 Duval St","lat":30.304443,"lng":-97.7265053987503,"neighborhood":"Hancock","city_fetched":"Austin","state":"TX","country":"United States","canonicalUrl":"https://foursquare.com/v/dolce-vita-gelato--espresso/4a08678cf964a520c3731fe3","category":"Coffee Shop","checkinsCount":5715,"usersCount":2203,"tipCount":66,"visitsCount":5866,"url":"http://dolcevitaaustin.com","tier":1,"message":"Cheap","currency":"$","rating":8.4},{"name":"Snack Bar","phone":"5124452626","twitter":"snackbaraustin","address":"1224 S Congress Ave","lat":30.251448223513748,"lng":-97.74918483488514,"neighborhood":"Bouldin Creek","city_fetched":"Austin","state":"TX","country":"United States","canonicalUrl":"https://foursquare.com/snackbaraustin","category":"Diner","checkinsCount":7504,"usersCount":5321,"tipCount":109,"visitsCount":7800,"url":"http://www.snackbaraustin.com","tier":2,"message":"Moderate","currency":"$","rating":8.4},{"name":"Live Oak Brewery","address":"1615 Crozier Lane","lat":30.221347337810293,"lng":-97.66131480172758,"city_fetched":"Austin","state":"TX","country":"United States","canonicalUrl":"https://foursquare.com/v/live-oak-brewery/56ae8937498e9db1d7f4b7eb","category":"Brewery","checkinsCount":329,"usersCount":329,"tipCount":6,"visitsCount":428,"tier":"","message":"","currency":"","rating":8.4},{"name":"The Belmont","phone":"5124570300","twitter":"belmontaustin","address":"305 W 6th St","lat":30.268775,"lng":-97.74558663368225,"neighborhood":"Downtown Austin","city_fetched":"Austin","state":"TX","country":"United States","canonicalUrl":"https://foursquare.com/v/the-belmont/44fefd89f964a5209e381fe3","category":"Music Venue","checkinsCount":15708,"usersCount":10020,"tipCount":69,"visitsCount":15823,"tier":"","message":"","currency":"","rating":8.3},{"name":"El Coliseo Austin","phone":"5123826848","twitter":"elcoliseoaustin","address":"9111 FM 812","lat":30.15943207521123,"lng":-97.68824256914803,"city_fetched":"Austin","state":"TX","country":"United States","canonicalUrl":"https://foursquare.com/v/el-coliseo-austin/533e0d7a498e88871432e69f","category":"Nightclub","checkinsCount":68,"usersCount":141,"tipCount":0,"visitsCount":188,"tier":"","message":"","currency":"","rating":8.3},{"name":"Searsucker","phone":"5123948000","address":"415 Colorado St","lat":30.267193099348827,"lng":-97.74443143438403,"neighborhood":"Downtown Austin","city_fetched":"Austin","state":"TX","country":"United States","canonicalUrl":"https://foursquare.com/v/searsucker/51252563183fbfaafcfa518c","category":"American Restaurant","checkinsCount":4346,"usersCount":3186,"tipCount":57,"visitsCount":4456,"url":"http://searsucker.com","tier":3,"message":"Expensive","currency":"$","rating":8.3},{"name":"EMPIREatx","phone":"3107953722","twitter":"empireatx","address":"606 E 7th St","lat":30.267425766315082,"lng":-97.7360486984253,"neighborhood":"Downtown Austin","city_fetched":"Austin","state":"TX","country":"United States","canonicalUrl":"https://foursquare.com/empireatx","category":"Nightclub","checkinsCount":147,"usersCount":86,"tipCount":4,"visitsCount":147,"url":"http://www.empireatx.com","tier":"","message":"","currency":"","rating":8.3},{"name":"Barbarella","twitter":"barbarellaatx","address":"615 Red River St","lat":30.267111,"lng":-97.73668169975281,"neighborhood":"Downtown Austin","city_fetched":"Austin","state":"TX","country":"United States","canonicalUrl":"https://foursquare.com/v/barbarella/4b52a8e5f964a5204c8527e3","category":"Nightclub","checkinsCount":19046,"usersCount":8046,"tipCount":96,"visitsCount":21203,"tier":2,"message":"Moderate","currency":"$","rating":8.3},{"name":"Cover 3","address":"1717 W 6th St Ste 210","lat":30.27627073208641,"lng":-97.76560138479341,"neighborhood":"Old West Austin","city_fetched":"Austin","state":"TX","country":"United States","canonicalUrl":"https://foursquare.com/v/cover-3/5453f984498ea36c77ccac1c","category":"Sports Bar","checkinsCount":680,"usersCount":690,"tipCount":3,"visitsCount":1246,"url":"http://cover-3.com","tier":"","message":"","currency":"","rating":8.3},{"name":"Backbeat","twitter":"backbeatatx","address":"1300 South Lamar","lat":30.25391028513972,"lng":-97.76329307413516,"neighborhood":"Zilker","city_fetched":"Austin","state":"TX","country":"United States","canonicalUrl":"https://foursquare.com/v/backbeat/56e2128b498e40af942b4a32","category":"Cocktail Bar","checkinsCount":325,"usersCount":219,"tipCount":6,"visitsCount":330,"tier":"","message":"","currency":"","rating":8.3},{"name":"The Rotten Bunch","address":"14900 Avery Ranch Blvd Ste B100","lat":30.49844351018372,"lng":-97.77727675549077,"city_fetched":"Austin","state":"TX","country":"United States","canonicalUrl":"https://foursquare.com/v/the-rotten-bunch/56280116498e8ce441d4ae44","category":"Lounge","checkinsCount":131,"usersCount":122,"tipCount":3,"visitsCount":196,"tier":"","message":"","currency":"","rating":8.3},{"name":"Pluckers Wing Bar","phone":"5122589464","twitter":"pluckers","address":"11066 Pecan Park Blvd Ste G","lat":30.4684038,"lng":-97.803631,"city_fetched":"Austin","state":"TX","country":"United States","canonicalUrl":"https://foursquare.com/v/pluckers-wing-bar/49c6589ff964a52036571fe3","category":"Wings Joint","checkinsCount":10897,"usersCount":4437,"tipCount":93,"visitsCount":13259,"url":"http://www.pluckers.com","tier":2,"message":"Moderate","currency":"$","rating":8.3},{"name":"Strange Brew Lounge Side","address":"5326 Manchaca Rd","lat":30.217934725012167,"lng":-97.79643915671078,"neighborhood":"Westgate","city_fetched":"Austin","state":"TX","country":"United States","canonicalUrl":"https://foursquare.com/v/strange-brew-lounge-side/5121b494e4b016d27bca0c0c","category":"Lounge","checkinsCount":852,"usersCount":363,"tipCount":9,"visitsCount":888,"url":"http://strangebrewloungeside.com","tier":2,"message":"Moderate","currency":"$","rating":8.3},{"name":"Opa! Coffee & Wine Bar","phone":"5123268742","twitter":"austinopa","address":"2050 S Lamar Blvd","lat":30.24883,"lng":-97.7694506046402,"neighborhood":"Zilker","city_fetched":"Austin","state":"TX","country":"United States","canonicalUrl":"https://foursquare.com/v/opa-coffee--wine-bar/4b9053e7f964a520648433e3","category":"Coffee Shop","checkinsCount":4500,"usersCount":2579,"tipCount":57,"visitsCount":4963,"url":"http://www.opacoffeewine.com","tier":2,"message":"Moderate","currency":"$","rating":8.3},{"name":"the Little Darlin'","address":"6507 Circle S Rd","lat":30.194462,"lng":-97.776862,"neighborhood":"South Congress","city_fetched":"Austin","state":"TX","country":"United States","canonicalUrl":"https://foursquare.com/v/the-little-darlin/571acccc498e65ecaa2bee42","category":"Bar","checkinsCount":134,"usersCount":102,"tipCount":2,"visitsCount":196,"tier":"","message":"","currency":"","rating":8.3},{"name":"Sawyer & Co.","phone":"5125319033","twitter":"sawyeratx","address":"4827 E Cesar Chavez St","lat":30.251520191886446,"lng":-97.70179251004461,"city_fetched":"Austin","state":"TX","country":"United States","canonicalUrl":"https://foursquare.com/v/sawyer--co/53075b12498e717329657cd5","category":"Cajun / Creole Restaurant","checkinsCount":1365,"usersCount":1380,"tipCount":19,"visitsCount":2405,"url":"http://www.sawyerand.co","tier":"","message":"","currency":"","rating":8.3},{"name":"Kitty Cohen's","address":"2211 Webberville Rd","lat":30.261812,"lng":-97.716428,"neighborhood":"Central East Austin","city_fetched":"Austin","state":"TX","country":"United States","canonicalUrl":"https://foursquare.com/v/kitty-cohens/5760a4a4498e28b690a32654","category":"Cocktail Bar","checkinsCount":132,"usersCount":117,"tipCount":3,"visitsCount":157,"tier":"","message":"","currency":"","rating":8.3},{"name":"Lucille","twitter":"lucillebar","address":"77 Rainey St","lat":30.258846579331635,"lng":-97.73849013463162,"neighborhood":"Downtown Austin","city_fetched":"Austin","state":"TX","country":"United States","canonicalUrl":"https://foursquare.com/v/lucille/51228fa9e4b07ee5ab467901","category":"Bar","checkinsCount":6435,"usersCount":4551,"tipCount":41,"visitsCount":6809,"url":"http://lucilleaustin.com","tier":2,"message":"Moderate","currency":"$","rating":8.3},{"name":"Shiner's Saloon","phone":"5124484600","twitter":"shinerssaloon","address":"422 Congress Ave Ste D","lat":30.267177734844854,"lng":-97.7434075853931,"neighborhood":"Downtown Austin","city_fetched":"Austin","state":"TX","country":"United States","canonicalUrl":"https://foursquare.com/v/shiners-saloon/49b6d215f964a52013531fe3","category":"Bar","checkinsCount":6109,"usersCount":3007,"tipCount":35,"visitsCount":6413,"url":"http://www.shinerssaloon.com","tier":1,"message":"Cheap","currency":"$","rating":8.2},{"name":"The Red Room Lounge","phone":"5126441737","address":"306A E 3rd St","lat":30.264534636508394,"lng":-97.74091958999634,"neighborhood":"Downtown Austin","city_fetched":"Austin","state":"TX","country":"United States","canonicalUrl":"https://foursquare.com/v/the-red-room-lounge/5011fa49e4b0eba4bb24bfe9","category":"Wine Bar","checkinsCount":806,"usersCount":645,"tipCount":4,"visitsCount":846,"url":"http://redroomaustin.com","tier":"","message":"","currency":"","rating":8.2},{"name":"The Roosevelt Room","twitter":"therooseveltatx","address":"307 W 5th St","lat":30.267818697399886,"lng":-97.7460547694915,"neighborhood":"Downtown Austin","city_fetched":"Austin","state":"TX","country":"United States","canonicalUrl":"https://foursquare.com/therooseveltatx","category":"Bar","checkinsCount":555,"usersCount":482,"tipCount":5,"visitsCount":687,"url":"http://therooseveltroomatx.com","tier":"","message":"","currency":"","rating":8.2},{"name":"TRIO","phone":"5126858300","twitter":"fourseasons","address":"98 San Jacinto Blvd","lat":30.261652688422096,"lng":-97.74255037307739,"neighborhood":"Downtown Austin","city_fetched":"Austin","state":"TX","country":"United States","canonicalUrl":"https://foursquare.com/v/trio/4b9843f0f964a5203d3835e3","category":"Wine Bar","checkinsCount":4435,"usersCount":2990,"tipCount":54,"visitsCount":4452,"url":"http://www.triorestaurantaustin.com","tier":3,"message":"Expensive","currency":"$","rating":8.2},{"name":"Wagner's Backyard","phone":"5129877783","address":"15505 interstate 35","lat":30.44944383665221,"lng":-97.66545319266613,"neighborhood":"Three Point Acres","city_fetched":"Austin","state":"TX","country":"United States","canonicalUrl":"https://foursquare.com/v/wagners-backyard/5595f283498e0f5bf702b35a","category":"Beer Garden","checkinsCount":221,"usersCount":243,"tipCount":5,"visitsCount":477,"url":"http://wagnerbrosbackyard.com","tier":"","message":"","currency":"","rating":8.2},{"name":"Warehouse District","lat":30.266566521164236,"lng":-97.7452802323903,"neighborhood":"Downtown Austin","city_fetched":"Austin","state":"TX","country":"United States","canonicalUrl":"https://foursquare.com/v/warehouse-district/4e599cbf1495a89112823bf7","category":"Nightclub","checkinsCount":588,"usersCount":168,"tipCount":1,"visitsCount":590,"tier":"","message":"","currency":"","rating":8.2},{"name":"The North Door","phone":"5124853001","twitter":"ndaustin","address":"501 N Interstate 35","lat":30.264804904500767,"lng":-97.73390188448832,"city_fetched":"Austin","state":"TX","country":"United States","canonicalUrl":"https://foursquare.com/v/the-north-door/4e5ecaad7d8b67dc8ff98739","category":"Lounge","checkinsCount":7578,"usersCount":5144,"tipCount":35,"visitsCount":8124,"url":"http://www.ndvenue.com","tier":1,"message":"Cheap","currency":"$","rating":8.2},{"name":"The Dog And Duck Pub","phone":"5124790598","twitter":"dogandduckpub","address":"2400 Webberville Rd","lat":30.262944344836356,"lng":-97.71484660863304,"neighborhood":"Central East Austin","city_fetched":"Austin","state":"TX","country":"United States","canonicalUrl":"https://foursquare.com/v/the-dog-and-duck-pub/5648fd2f498e488e6383d5ba","category":"Pub","checkinsCount":243,"usersCount":178,"tipCount":2,"visitsCount":267,"url":"http://dogandduckpub.com","tier":"","message":"","currency":"","rating":8.2},{"name":"Apothecary Cafe & Wine Bar","phone":"5123711600","twitter":"apothecaryatx","address":"4800 Burnet Rd","lat":30.31895142366329,"lng":-97.73943901062012,"neighborhood":"Brentwood","city_fetched":"Austin","state":"TX","country":"United States","canonicalUrl":"https://foursquare.com/v/apothecary-cafe--wine-bar/4af23eaff964a520dee621e3","category":"Wine Bar","checkinsCount":3147,"usersCount":1726,"tipCount":40,"visitsCount":3200,"url":"http://www. apothecaryaustin.com","tier":2,"message":"Moderate","currency":"$","rating":8.2},{"name":"Cover 3","phone":"5123741121","twitter":"cover3austin","address":"2700 W Anderson Ln","lat":30.358584,"lng":-97.73502612,"neighborhood":"North Shoal Creek","city_fetched":"Austin","state":"TX","country":"United States","canonicalUrl":"https://foursquare.com/v/cover-3/4a47949df964a520d8a91fe3","category":"Sports Bar","checkinsCount":8724,"usersCount":4791,"tipCount":93,"visitsCount":9651,"url":"http://cover-3.com","tier":2,"message":"Moderate","currency":"$","rating":8.2},{"name":"Skylark Lounge","phone":"5127300759","twitter":"skylarkaustin","address":"2039 Airport Blvd","lat":30.287235127825305,"lng":-97.70660877227782,"neighborhood":"MLK","city_fetched":"Austin","state":"TX","country":"United States","canonicalUrl":"https://foursquare.com/v/skylark-lounge/51c65a99498e8699219352bb","category":"Bar","checkinsCount":449,"usersCount":387,"tipCount":6,"visitsCount":649,"url":"http://skylarkaustin.com","tier":"","message":"","currency":"","rating":8.2},{"name":"Bluebonnet Brewery","address":"1700 Bryant Dr Ste 107","lat":30.49185738697879,"lng":-97.64714756845046,"city_fetched":"Austin","state":"TX","country":"United States","canonicalUrl":"https://foursquare.com/v/bluebonnet-brewery/54a73992498ee74ea18bd63b","category":"Brewery","checkinsCount":130,"usersCount":117,"tipCount":2,"visitsCount":292,"tier":"","message":"","currency":"","rating":8.2},{"name":"Jack & Ginger's Irish Pub","phone":"5127954230","twitter":"jackgingersatx","address":"11500 Rock Rose","lat":30.401146395077372,"lng":-97.72287009089078,"neighborhood":"North Burnet","city_fetched":"Austin","state":"TX","country":"United States","canonicalUrl":"https://foursquare.com/v/jack--gingers-irish-pub/56aaaa65498e3b4bcf0344e7","category":"Bar","checkinsCount":849,"usersCount":600,"tipCount":6,"visitsCount":1009,"tier":"","message":"","currency":"","rating":8.2},{"name":"Sidelines Sports Grille","address":"200 Buttercup Creek Blvd","lat":30.50324556846582,"lng":-97.82008347021882,"neighborhood":"Buttercup Creek","city_fetched":"Austin","state":"TX","country":"United States","canonicalUrl":"https://foursquare.com/v/sidelines-sports-grille/540379e6498ed2702bc7b179","category":"Sports Bar","checkinsCount":162,"usersCount":74,"tipCount":3,"visitsCount":198,"tier":"","message":"","currency":"","rating":8.2},{"name":"Zilker Brewing Co.","address":"1701 E 6th St","lat":30.262316418367096,"lng":-97.72448762548812,"city_fetched":"Austin","state":"TX","country":"United States","canonicalUrl":"https://foursquare.com/v/zilker-brewing-co/52fd69af11d29b02b6a6d98d","category":"Brewery","checkinsCount":1049,"usersCount":997,"tipCount":10,"visitsCount":1350,"tier":"","message":"","currency":"","rating":8.2},{"name":"Lucky Lounge","phone":"5124797700","twitter":"luckylounge","address":"209 W 5th St","lat":30.26748136413088,"lng":-97.74533987045288,"neighborhood":"Downtown Austin","city_fetched":"Austin","state":"TX","country":"United States","canonicalUrl":"https://foursquare.com/v/lucky-lounge/40b13b00f964a520c3f31ee3","category":"Rock Club","checkinsCount":5528,"usersCount":3462,"tipCount":24,"visitsCount":5536,"url":"http://www.theluckylounge.com","tier":"","message":"","currency":"","rating":8.2},{"name":"The Parish","twitter":"theparishatx","address":"214-C E 6th St","lat":30.267605586764116,"lng":-97.7407976335064,"neighborhood":"Downtown Austin","city_fetched":"Austin","state":"TX","country":"United States","canonicalUrl":"https://foursquare.com/v/the-parish/440fee99f964a520b2301fe3","category":"Rock Club","checkinsCount":11301,"usersCount":7405,"tipCount":53,"visitsCount":11416,"url":"http://www.theparishroom.com","tier":"","message":"","currency":"","rating":8.2},{"name":"Crow Bar","phone":"5124652982","twitter":"crowbaraustin","address":"3116 S Congress Ave","lat":30.231317281723022,"lng":-97.759543,"city_fetched":"Austin","state":"TX","country":"United States","canonicalUrl":"https://foursquare.com/v/crow-bar/4c0357a1f423a593d42ed016","category":"Bar","checkinsCount":5973,"usersCount":2973,"tipCount":43,"visitsCount":6899,"url":"http://crowbaraustin.com","tier":2,"message":"Moderate","currency":"$","rating":8.1},{"name":"King Bee Lounge","phone":"5126006956","address":"1906 E 12th St","lat":30.273897648580736,"lng":-97.71960331477855,"city_fetched":"Austin","state":"TX","country":"United States","canonicalUrl":"https://foursquare.com/v/king-bee-lounge/53ed9636498e013a319b011b","category":"Cocktail Bar","checkinsCount":306,"usersCount":238,"tipCount":7,"visitsCount":405,"tier":"","message":"","currency":"","rating":8.1},{"name":"Austin Terrier","phone":"5123693751","twitter":"austinterrier","address":"3435 Greystone Dr","lat":30.357385122207404,"lng":-97.74846862121865,"city_fetched":"Austin","state":"TX","country":"United States","canonicalUrl":"https://foursquare.com/v/austin-terrier/4e8b4eff8b810d8892a8f95a","category":"Sandwich Place","checkinsCount":1818,"usersCount":989,"tipCount":27,"visitsCount":2278,"url":"http://www.austinterrier.com","tier":1,"message":"Cheap","currency":"$","rating":8.1},{"name":"BJ's Restaurant and Brewhouse","phone":"5128923800","twitter":"bjsrestaurants","address":"5207 Brodie Ln","lat":30.23163277,"lng":-97.81694412,"neighborhood":"Meadowview at Sunset Valley","city_fetched":"Austin","state":"TX","country":"United States","canonicalUrl":"https://foursquare.com/v/bjs-restaurant-and-brewhouse/4b098f74f964a5206d1923e3","category":"American Restaurant","checkinsCount":7324,"usersCount":4032,"tipCount":66,"visitsCount":8723,"url":"http://t.co/bl46gcjDLN","tier":2,"message":"Moderate","currency":"$","rating":8.1},{"name":"Broken Spoke","phone":"5124426189","address":"3201 S Lamar Blvd","lat":30.241038842471472,"lng":-97.7852701897974,"neighborhood":"South Lamar","city_fetched":"Austin","state":"TX","country":"United States","canonicalUrl":"https://foursquare.com/v/broken-spoke/40b13b00f964a52071f31ee3","category":"Dive Bar","checkinsCount":4418,"usersCount":3550,"tipCount":63,"visitsCount":4900,"url":"http://www.brokenspokeaustintx.com","tier":2,"message":"Moderate","currency":"$","rating":8.1},{"name":"Aviary Shop & Lounge","phone":"5129164445","twitter":"yellowpagecity","address":"2110 S Lamar Blvd","lat":30.24815922785697,"lng":-97.77138948440552,"neighborhood":"Zilker","city_fetched":"Austin","state":"TX","country":"United States","canonicalUrl":"https://foursquare.com/v/aviary-shop--lounge/4b0a1264f964a520812123e3","category":"Wine Bar","checkinsCount":1297,"usersCount":551,"tipCount":21,"visitsCount":1319,"url":"http://www.aviarylounge.com","tier":"","message":"","currency":"","rating":8.1},{"name":"Foxhole Culinary Tavern","phone":"5123861354","twitter":"foxhole_tavern","address":"13995 N Hwy 183  Austin, TX 78717","lat":30.474451870960625,"lng":-97.798302592242,"city_fetched":"Austin","state":"TX","country":"United States","canonicalUrl":"https://foursquare.com/v/foxhole-culinary-tavern/53cda732498ef4d74b7be39e","category":"American Restaurant","checkinsCount":755,"usersCount":686,"tipCount":20,"visitsCount":1272,"url":"http://foxholeaustin.com","tier":"","message":"","currency":"","rating":8.1},{"name":"Elysium","phone":"5124782979","twitter":"elysiumaustin","address":"705 Red River St","lat":30.267594085058374,"lng":-97.73666010306975,"neighborhood":"Downtown Austin","city_fetched":"Austin","state":"TX","country":"United States","canonicalUrl":"https://foursquare.com/v/elysium/422f8e00f964a520fc1f1fe3","category":"Dive Bar","checkinsCount":8286,"usersCount":4124,"tipCount":38,"visitsCount":8397,"url":"http://www.elysiumonline.net","tier":1,"message":"Cheap","currency":"$","rating":8.1},{"name":"Bender Bar & Grill","phone":"5124471800","twitter":"benderbargrill","address":"321 W Ben White Blvd #300","lat":30.22416576265295,"lng":-97.76737689971924,"neighborhood":"South Congress","city_fetched":"Austin","state":"TX","country":"United States","canonicalUrl":"https://foursquare.com/v/bender-bar--grill/49d7dd1af964a5206e5d1fe3","category":"Bar","checkinsCount":7381,"usersCount":2428,"tipCount":43,"visitsCount":8800,"url":"http://www.benderbar.com","tier":1,"message":"Cheap","currency":"$","rating":8.1},{"name":"Brass Tap - Domain","address":"10910 Domain Dr Bldg W #120","lat":30.39596,"lng":-97.727134,"neighborhood":"North Burnet","city_fetched":"Austin","state":"TX","country":"United States","canonicalUrl":"https://foursquare.com/v/brass-tap--domain/57a2b298498e18542093a7c1","category":"Beer Bar","checkinsCount":76,"usersCount":67,"tipCount":3,"visitsCount":85,"tier":"","message":"","currency":"","rating":8.1},{"name":"Mugshots","phone":"5122360008","address":"407 E 7th St","lat":30.267716714237714,"lng":-97.73837874004694,"neighborhood":"Downtown Austin","city_fetched":"Austin","state":"TX","country":"United States","canonicalUrl":"https://foursquare.com/v/mugshots/411d5600f964a5201e0c1fe3","category":"Bar","checkinsCount":5773,"usersCount":2737,"tipCount":33,"visitsCount":6215,"url":"http://www.mugshotsaustin.com","tier":1,"message":"Cheap","currency":"$","rating":8.1},{"name":"School House Pub","phone":"5124697630","twitter":"schoolhousepub","address":"2207 Manor Rd","lat":30.284111134307548,"lng":-97.71887149288494,"neighborhood":"Upper Boggy Creek","city_fetched":"Austin","state":"TX","country":"United States","canonicalUrl":"https://foursquare.com/v/school-house-pub/5209127811d2522d902974b0","category":"Pub","checkinsCount":1313,"usersCount":803,"tipCount":19,"visitsCount":1413,"url":"http://schoolhousepub.com","tier":2,"message":"Moderate","currency":"$","rating":8.1},{"name":"The Grackle","phone":"5125240133","address":"1700 E 6th St","lat":30.262647049345134,"lng":-97.7241906327415,"city_fetched":"Austin","state":"TX","country":"United States","canonicalUrl":"https://foursquare.com/v/the-grackle/4d3678dfedbd3704d5d46ae3","category":"Dive Bar","checkinsCount":7225,"usersCount":3216,"tipCount":30,"visitsCount":7639,"url":"http://thegrackleaustin.com","tier":1,"message":"Cheap","currency":"$","rating":8},{"name":"Palazio Men's Club","phone":"5124456655","twitter":"palazioaustin","address":"501 E Ben White Blvd","lat":30.219469087655824,"lng":-97.75837954237198,"neighborhood":"South Congress","city_fetched":"Austin","state":"TX","country":"United States","canonicalUrl":"https://foursquare.com/v/palazio-mens-club/49bec7d7f964a520dc541fe3","category":"Strip Club","checkinsCount":2454,"usersCount":1614,"tipCount":16,"visitsCount":3396,"url":"http://www.palaziomensclub.com","tier":"","message":"","currency":"","rating":8},{"name":"Hanover's Draught Haus","phone":"5129695027","twitter":"hanoversaustin","address":"108 E Main St","lat":30.44070461797222,"lng":-97.61973254479035,"city_fetched":"Austin","state":"TX","country":"United States","canonicalUrl":"https://foursquare.com/v/hanovers-draught-haus/4b64e2edf964a52085d72ae3","category":"Bar","checkinsCount":1992,"usersCount":1113,"tipCount":13,"visitsCount":2387,"url":"http://hanoversaustin-hub.com","tier":"","message":"","currency":"","rating":8},{"name":"Dirty Bill's","phone":"5124773789","address":"511 Rio Grande St","lat":30.269689404281902,"lng":-97.74952968109747,"neighborhood":"Downtown Austin","city_fetched":"Austin","state":"TX","country":"United States","canonicalUrl":"https://foursquare.com/v/dirty-bills/49c3b11af964a5206d561fe3","category":"Bar","checkinsCount":9536,"usersCount":2506,"tipCount":40,"visitsCount":9602,"tier":1,"message":"Cheap","currency":"$","rating":8},{"name":"The Highball","phone":"5123838309","twitter":"highballaustin","address":"1120 S Lamar Blvd","lat":30.256055351462997,"lng":-97.76312828063965,"neighborhood":"Zilker","city_fetched":"Austin","state":"TX","country":"United States","canonicalUrl":"https://foursquare.com/v/the-highball/4abaa233f964a520318220e3","category":"Cocktail Bar","checkinsCount":18678,"usersCount":8300,"tipCount":121,"visitsCount":19095,"url":"http://www.thehighball.com","tier":"","message":"","currency":"","rating":8},{"name":"Parlor Room","address":"88 Rainey Street Austin, TX 78701","lat":30.259808,"lng":-97.738622,"neighborhood":"Downtown Austin","city_fetched":"Austin","state":"TX","country":"United States","canonicalUrl":"https://foursquare.com/v/parlor-room/56e387a1498e0ee2cf1fea96","category":"Cocktail Bar","checkinsCount":412,"usersCount":371,"tipCount":1,"visitsCount":425,"tier":"","message":"","currency":"","rating":8},{"name":"Dave & Buster's","phone":"5123468015","twitter":"daveandbusters","address":"9333 Research Blvd Ste A600","lat":30.38320870910451,"lng":-97.73745576312315,"neighborhood":"North Burnet - Gateway","city_fetched":"Austin","state":"TX","country":"United States","canonicalUrl":"https://foursquare.com/v/dave--busters/40b13b00f964a52090f31ee3","category":"Sports Bar","checkinsCount":9541,"usersCount":6266,"tipCount":50,"visitsCount":11376,"url":"http://daveandbusters.com/default.aspx","tier":2,"message":"Moderate","currency":"$","rating":8},{"name":"North By Northwest (South)","phone":"5123016969","address":"5710 W. Slaughter Ln., Bld. D.","lat":30.20018456335739,"lng":-97.86800155388049,"neighborhood":"Circle C Ranch","city_fetched":"Austin","state":"TX","country":"United States","canonicalUrl":"https://foursquare.com/v/north-by-northwest-south/542367d9498eaea7f72aa512","category":"Brewery","checkinsCount":997,"usersCount":977,"tipCount":15,"visitsCount":1864,"url":"http://nxnwbrew.com","tier":"","message":"","currency":"","rating":8},{"name":"Dive Bar & Lounge","phone":"5124823483","twitter":"diveaustin","address":"1703 Guadalupe St","lat":30.279876,"lng":-97.74213,"neighborhood":"Downtown Austin","city_fetched":"Austin","state":"TX","country":"United States","canonicalUrl":"https://foursquare.com/diveaustin","category":"Cocktail Bar","checkinsCount":3746,"usersCount":1499,"tipCount":30,"visitsCount":4186,"url":"http://diveaustin.com","tier":1,"message":"Cheap","currency":"$","rating":8},{"name":"Infamous Brewing Company","phone":"5124878786","address":"4602 Weletka Dr # 200-300","lat":30.406693708059287,"lng":-97.92595534476233,"city_fetched":"Austin","state":"TX","country":"United States","canonicalUrl":"https://foursquare.com/v/infamous-brewing-company/51a51d9c8bbd7e0f5470f7d4","category":"Brewery","checkinsCount":255,"usersCount":272,"tipCount":2,"visitsCount":401,"tier":"","message":"","currency":"","rating":8},{"name":"Terrace59 at Speakeasy","phone":"5124768017","twitter":"speakeasyaustin","address":"412 Congress Ave Ste D","lat":30.26687210301488,"lng":-97.743920981884,"neighborhood":"Downtown Austin","city_fetched":"Austin","state":"TX","country":"United States","canonicalUrl":"https://foursquare.com/v/terrace59-at-speakeasy/4b9abb39f964a520bcd035e3","category":"Nightclub","checkinsCount":496,"usersCount":319,"tipCount":5,"visitsCount":499,"tier":"","message":"","currency":"","rating":8},{"name":"Circle Brewing Company","address":"2340 W Braker Ln","lat":30.38530190365952,"lng":-97.71585943659431,"neighborhood":"North Burnet","city_fetched":"Austin","state":"TX","country":"United States","canonicalUrl":"https://foursquare.com/v/circle-brewing-company/4d7bd2e87498a1cdc1e271fc","category":"Brewery","checkinsCount":717,"usersCount":651,"tipCount":8,"visitsCount":1031,"url":"http://circlebrewing.com","tier":"","message":"","currency":"","rating":8},{"name":"The Volstead Lounge","phone":"5125241584","twitter":"volsteadlounge","address":"1500 E 6th St","lat":30.263491813719618,"lng":-97.72731442278138,"city_fetched":"Austin","state":"TX","country":"United States","canonicalUrl":"https://foursquare.com/v/the-volstead-lounge/4d6e81691c1041bd7a9c5d28","category":"Lounge","checkinsCount":5511,"usersCount":3024,"tipCount":26,"visitsCount":5822,"url":"http://hotelvegas.dostuff.info","tier":2,"message":"Moderate","currency":"$","rating":8},{"name":"Small Victory","address":"108 E 7th St","lat":30.268828344161737,"lng":-97.74171534946956,"neighborhood":"Downtown Austin","city_fetched":"Austin","state":"TX","country":"United States","canonicalUrl":"https://foursquare.com/v/small-victory/56749ddd498eae8c7d55a3ac","category":"Cocktail Bar","checkinsCount":280,"usersCount":217,"tipCount":5,"visitsCount":322,"tier":"","message":"","currency":"","rating":8},{"name":"Baker St. Pub And Grill","phone":"5126919140","address":"3003 S Lamar Blvd","lat":30.242481,"lng":-97.78292037,"neighborhood":"South Lamar","city_fetched":"Austin","state":"TX","country":"United States","canonicalUrl":"https://foursquare.com/v/baker-st-pub-and-grill/4cffeb41f1605481377c9bea","category":"Pub","checkinsCount":10798,"usersCount":3035,"tipCount":75,"visitsCount":11325,"url":"http://sherlockspub.com","tier":2,"message":"Moderate","currency":"$","rating":8},{"name":"Iron Cactus Mexican Restaurant, Grill and Margarita Bar","phone":"5124729240","twitter":"iron_cactus","address":"606 Trinity St","lat":30.26746619999999,"lng":-97.7393932,"neighborhood":"Downtown Austin","city_fetched":"Austin","state":"TX","country":"United States","canonicalUrl":"https://foursquare.com/v/iron-cactus-mexican-restaurant-grill-and-margarita-bar/40b13b00f964a520b1f31ee3","category":"Mexican Restaurant","checkinsCount":26532,"usersCount":19210,"tipCount":280,"visitsCount":26658,"url":"http://ironcactus.com/Austin-Downtown","tier":2,"message":"Moderate","currency":"$","rating":8},{"name":"Ginny's Little Longhorn Saloon","phone":"5124581813","address":"5434 Burnet Rd","lat":30.3293225279654,"lng":-97.74003177881241,"neighborhood":"Allandale","city_fetched":"Austin","state":"TX","country":"United States","canonicalUrl":"https://foursquare.com/v/ginnys-little-longhorn-saloon/40b13b00f964a520abf31ee3","category":"Dive Bar","checkinsCount":2546,"usersCount":1833,"tipCount":35,"visitsCount":2839,"url":"http://ginnyslittlelonghorn.com","tier":1,"message":"Cheap","currency":"$","rating":8},{"name":"Ranch 616","phone":"5124797616","twitter":"ranch616austin","address":"616 Nueces St","lat":30.270533,"lng":-97.74838248,"neighborhood":"Downtown Austin","city_fetched":"Austin","state":"TX","country":"United States","canonicalUrl":"https://foursquare.com/v/ranch-616/45d9dac5f964a520f2421fe3","category":"American Restaurant","checkinsCount":5421,"usersCount":3239,"tipCount":40,"visitsCount":5648,"url":"http://www.theranch616.com","tier":3,"message":"Expensive","currency":"$","rating":8},{"name":"Kung Fu Saloon","phone":"5124690901","twitter":"kungfusaloon","address":"510 Rio Grande St","lat":30.26936660663496,"lng":-97.74980555928184,"neighborhood":"Downtown Austin","city_fetched":"Austin","state":"TX","country":"United States","canonicalUrl":"https://foursquare.com/v/kung-fu-saloon/4b3ada28f964a5202d6f25e3","category":"Bar","checkinsCount":25723,"usersCount":11397,"tipCount":139,"visitsCount":27214,"url":"http://www.kungfusaloon.com","tier":2,"message":"Moderate","currency":"$","rating":8},{"name":"Arab Cowboy","phone":"5124779456","twitter":"arabcowboy","address":"901 W 24th St","lat":30.287976279828978,"lng":-97.74703502655028,"neighborhood":"West University","city_fetched":"Austin","state":"TX","country":"United States","canonicalUrl":"https://foursquare.com/v/arab-cowboy/4ad5600df964a520ec0221e3","category":"Hookah Bar","checkinsCount":3985,"usersCount":1234,"tipCount":36,"visitsCount":4312,"url":"http://www.arabcowboy.com","tier":2,"message":"Moderate","currency":"$","rating":8},{"name":"Irie Bean Coffee","phone":"5123264636","address":"2310 S Lamar Blvd","lat":30.24756610393524,"lng":-97.7749514579773,"neighborhood":"Zilker","city_fetched":"Austin","state":"TX","country":"United States","canonicalUrl":"https://foursquare.com/v/irie-bean-coffee/49ce2fc0f964a5201d5a1fe3","category":"Coffee Shop","checkinsCount":2537,"usersCount":990,"tipCount":26,"visitsCount":2677,"url":"http://iriebean.com","tier":1,"message":"Cheap","currency":"$","rating":8},{"name":"Flamingo Cantina","phone":"5124949336","twitter":"flamingocantina","address":"515 E 6th St","lat":30.266473847609895,"lng":-97.73779524748193,"neighborhood":"Downtown Austin","city_fetched":"Austin","state":"TX","country":"United States","canonicalUrl":"https://foursquare.com/v/flamingo-cantina/40b13b00f964a520a3f31ee3","category":"Jazz Club","checkinsCount":3820,"usersCount":2748,"tipCount":17,"visitsCount":3835,"url":"http://www.flamingocantina.com","tier":"","message":"","currency":"","rating":8},{"name":"Osteria Pronto (Austin)","phone":"5126084490","twitter":"osteriapronto","address":"110 E 2nd St","lat":30.264131579202303,"lng":-97.74324313435115,"neighborhood":"Downtown Austin","city_fetched":"Austin","state":"TX","country":"United States","canonicalUrl":"https://foursquare.com/v/osteria-pronto-austin/54d084ce498e16cab5c4f099","category":"Italian Restaurant","checkinsCount":270,"usersCount":237,"tipCount":4,"visitsCount":270,"url":"http://www.osteriaprontoaustin.com","tier":3,"message":"Expensive","currency":"$","rating":8},{"name":"Speakeasy","phone":"5124768017","twitter":"speakeasyaustin","address":"412 Congress Ave","lat":30.26675434275691,"lng":-97.74387441624852,"neighborhood":"Downtown Austin","city_fetched":"Austin","state":"TX","country":"United States","canonicalUrl":"https://foursquare.com/v/speakeasy/40b13b00f964a520e8f31ee3","category":"Music Venue","checkinsCount":13238,"usersCount":9272,"tipCount":66,"visitsCount":13410,"url":"http://speakeasyaustin.com","tier":"","message":"","currency":"","rating":8},{"name":"Barcelona","phone":"5122360900","address":"209 E 6th St","lat":30.267496601049967,"lng":-97.7411159151453,"neighborhood":"Downtown Austin","city_fetched":"Austin","state":"TX","country":"United States","canonicalUrl":"https://foursquare.com/v/barcelona/42e2da00f964a5206b261fe3","category":"Nightclub","checkinsCount":9675,"usersCount":3912,"tipCount":37,"visitsCount":9742,"url":"http://www.barcelonaaustin.com","tier":2,"message":"Moderate","currency":"$","rating":8},{"name":"C-Boy's Heart & Soul","phone":"5122150023","address":"2008 S Congress Ave","lat":30.24370615642447,"lng":-97.75217178958233,"neighborhood":"Bouldin Creek","city_fetched":"Austin","state":"TX","country":"United States","canonicalUrl":"https://foursquare.com/v/cboys-heart--soul/52c8cde7498e1f5cfa9b44c5","category":"Bar","checkinsCount":1037,"usersCount":869,"tipCount":11,"visitsCount":1523,"url":"http://cboysheartnsoul.com","tier":2,"message":"Moderate","currency":"$","rating":8},{"name":"DK Sushi","phone":"5123265807","address":"6400 S 1st St","lat":30.200288046106742,"lng":-97.78585938306418,"city_fetched":"Austin","state":"TX","country":"United States","canonicalUrl":"https://foursquare.com/v/dk-sushi/45e6c6bcf964a52053431fe3","category":"Sushi Restaurant","checkinsCount":1060,"usersCount":839,"tipCount":18,"visitsCount":1518,"url":"http://www.dksushi.com","tier":"","message":"","currency":"","rating":7.9},{"name":"Punch Bowl Social","phone":"5123689070","twitter":"punchbowlatx","address":"11310 Domain Dr","lat":30.400273206082097,"lng":-97.72550059232317,"neighborhood":"North Burnet","city_fetched":"Austin","state":"TX","country":"United States","canonicalUrl":"https://foursquare.com/v/punch-bowl-social/53f07b3c498eb1873209a200","category":"Bowling Alley","checkinsCount":2991,"usersCount":3152,"tipCount":30,"visitsCount":5091,"url":"http://punchbowlsocial.com","tier":"","message":"","currency":"","rating":7.9},{"name":"Copper Restaurant & Dessert Lounge","phone":"5122153633","twitter":"copperaustin","address":"3401 Esperanza Xing #104","lat":30.4005481097572,"lng":-97.72702272174537,"neighborhood":"North Burnet","city_fetched":"Austin","state":"TX","country":"United States","canonicalUrl":"https://foursquare.com/copperaustin","category":"New American Restaurant","checkinsCount":696,"usersCount":538,"tipCount":13,"visitsCount":701,"url":"http://www.copperaustin.com","tier":2,"message":"Moderate","currency":"$","rating":7.9},{"name":"The Blind Pig Pub","phone":"5123693358","twitter":"theblindpigpub","address":"317 E 6th St","lat":30.267027314380503,"lng":-97.73984670639038,"neighborhood":"Downtown Austin","city_fetched":"Austin","state":"TX","country":"United States","canonicalUrl":"https://foursquare.com/v/the-blind-pig-pub/40b13b00f964a52069f31ee3","category":"Bar","checkinsCount":19509,"usersCount":12133,"tipCount":68,"visitsCount":19637,"url":"http://blindpigpubaustin.com","tier":2,"message":"Moderate","currency":"$","rating":7.9},{"name":"Clive Bar","phone":"5124944120","twitter":"clivebaratx","address":"609 Davis St","lat":30.260035609767865,"lng":-97.73859679698944,"neighborhood":"Downtown Austin","city_fetched":"Austin","state":"TX","country":"United States","canonicalUrl":"https://foursquare.com/clivebaratx","category":"Bar","checkinsCount":15019,"usersCount":9036,"tipCount":78,"visitsCount":15137,"url":"http://clivebar.com","tier":2,"message":"Moderate","currency":"$","rating":7.9},{"name":"Javelina","phone":"5123826917","address":"69 Rainey St","lat":30.258091529402357,"lng":-97.73887206025944,"neighborhood":"Downtown Austin","city_fetched":"Austin","state":"TX","country":"United States","canonicalUrl":"https://foursquare.com/v/javelina/4f3e5fc1e4b08346ef2f8461","category":"Bar","checkinsCount":6808,"usersCount":4300,"tipCount":66,"visitsCount":6914,"url":"http://javelinabar.com","tier":2,"message":"Moderate","currency":"$","rating":7.9},{"name":"Porter Ale House & Gastropub","phone":"5122916299","twitter":"porteralehouse","address":"3715 S 1st St Ste A","lat":30.22900941984877,"lng":-97.76707649230957,"city_fetched":"Austin","state":"TX","country":"United States","canonicalUrl":"https://foursquare.com/v/porter-ale-house--gastropub/52dab5bc11d2131141f19217","category":"Gastropub","checkinsCount":1585,"usersCount":1191,"tipCount":29,"visitsCount":2219,"url":"http://www.porteraustin.com","tier":2,"message":"Moderate","currency":"$","rating":7.9},{"name":"Donn's Depot","phone":"5124783142","address":"1600 W 5th St","lat":30.273986091229947,"lng":-97.76334285736084,"neighborhood":"Old West Austin","city_fetched":"Austin","state":"TX","country":"United States","canonicalUrl":"https://foursquare.com/v/donns-depot/40b13b00f964a52097f31ee3","category":"Dive Bar","checkinsCount":4329,"usersCount":1952,"tipCount":38,"visitsCount":4787,"url":"http://donnsdepot.com","tier":1,"message":"Cheap","currency":"$","rating":7.9},{"name":"Oil Can Harry's","phone":"5123208823","twitter":"oilcanharrys","address":"211 W 4th St","lat":30.266573262530297,"lng":-97.74536669254303,"neighborhood":"Downtown Austin","city_fetched":"Austin","state":"TX","country":"United States","canonicalUrl":"https://foursquare.com/v/oil-can-harrys/40b13b00f964a520d1f31ee3","category":"Gay Bar","checkinsCount":19637,"usersCount":5597,"tipCount":83,"visitsCount":20340,"url":"http://www.oilcanharrys.com","tier":1,"message":"Cheap","currency":"$","rating":7.9},{"name":"Rain","phone":"5124941150","twitter":"rainon4thatx","address":"217 W 4th St","lat":30.26656150817871,"lng":-97.745657,"neighborhood":"Downtown Austin","city_fetched":"Austin","state":"TX","country":"United States","canonicalUrl":"https://foursquare.com/v/rain/4283ee00f964a520f5221fe3","category":"Gay Bar","checkinsCount":25969,"usersCount":6384,"tipCount":60,"visitsCount":26545,"url":"http://rainon4th.com","tier":2,"message":"Moderate","currency":"$","rating":7.9},{"name":"The Common Interest Karaoke Bar & Grill","phone":"5124536796","twitter":"ciaustin","address":"8440 Burnet Rd","lat":30.366149,"lng":-97.7290803194046,"neighborhood":"North Shoal Creek","city_fetched":"Austin","state":"TX","country":"United States","canonicalUrl":"https://foursquare.com/ciaustin","category":"Karaoke Bar","checkinsCount":5101,"usersCount":2365,"tipCount":31,"visitsCount":5706,"url":"http://www.ciaustin.com","tier":2,"message":"Moderate","currency":"$","rating":7.9},{"name":"Rainey Hookah Lounge & Bar","phone":"5129403065","address":"84 N Interstate 35","lat":30.259739543861727,"lng":-97.73767324510212,"neighborhood":"Downtown Austin","city_fetched":"Austin","state":"TX","country":"United States","canonicalUrl":"https://foursquare.com/v/rainey-hookah-lounge--bar/5515eda7498ed8db3d8eccdd","category":"Hookah Bar","checkinsCount":235,"usersCount":163,"tipCount":1,"visitsCount":297,"tier":"","message":"","currency":"","rating":7.9},{"name":"Rumi's Tavern","phone":"5122674327","twitter":"rumistavern","address":"18626 FM 1431","lat":30.494335289319235,"lng":-97.92487621307373,"city_fetched":"Austin","state":"TX","country":"United States","canonicalUrl":"https://foursquare.com/rumistavern","category":"Bar","checkinsCount":165,"usersCount":76,"tipCount":3,"visitsCount":180,"tier":"","message":"","currency":"","rating":7.9},{"name":"Stouthaus Coffee Pub","phone":"5127210030","twitter":"stouthauscoffee","address":"4715 S Lamar Blvd","lat":30.232805633435905,"lng":-97.8113639438211,"neighborhood":"Meadowview at Sunset Valley","city_fetched":"Austin","state":"TX","country":"United States","canonicalUrl":"https://foursquare.com/v/stouthaus-coffee-pub/53fe0ead498e4f7c4a78e8c4","category":"Coffee Shop","checkinsCount":1371,"usersCount":611,"tipCount":20,"visitsCount":2044,"url":"http://www.stouthauscoffee.com","tier":"","message":"","currency":"","rating":7.9},{"name":"Stephen F's Bar and Terrace","phone":"5124578800","twitter":"interconhotels","address":"701 Congress Ave","lat":30.268810549561067,"lng":-97.74239966568497,"neighborhood":"Downtown Austin","city_fetched":"Austin","state":"TX","country":"United States","canonicalUrl":"https://foursquare.com/v/stephen-fs-bar-and-terrace/4dd9d124d22d38ef43228269","category":"Hotel Bar","checkinsCount":1364,"usersCount":926,"tipCount":9,"visitsCount":1368,"url":"http://austin.intercontinental.com/austin-dining-entertainment/index.php","tier":"","message":"","currency":"","rating":7.9},{"name":"Valhalla","phone":"5124760997","twitter":"valhallatavern","address":"710 Red River St","lat":30.268063681135363,"lng":-97.73688288697855,"neighborhood":"Downtown Austin","city_fetched":"Austin","state":"TX","country":"United States","canonicalUrl":"https://foursquare.com/v/valhalla/4b11ed18f964a520138723e3","category":"Rock Club","checkinsCount":3618,"usersCount":1750,"tipCount":22,"visitsCount":3653,"tier":"","message":"","currency":"","rating":7.9},{"name":"Cedar Park Pub","phone":"5123349144","address":"2403 S Bell Blvd Ste B","lat":30.481671119336617,"lng":-97.80536391826674,"city_fetched":"Austin","state":"TX","country":"United States","canonicalUrl":"https://foursquare.com/v/cedar-park-pub/4ff0975ce4b0b61f2a8fbd09","category":"Dive Bar","checkinsCount":219,"usersCount":66,"tipCount":1,"visitsCount":228,"tier":"","message":"","currency":"","rating":7.9},{"name":"Drafting Room","lat":30.260076025231985,"lng":-97.73866518362063,"neighborhood":"Downtown Austin","city_fetched":"Austin","state":"TX","country":"United States","canonicalUrl":"https://foursquare.com/v/drafting-room/55176f60498ee05dc78277ab","category":"Bar","checkinsCount":105,"usersCount":89,"tipCount":2,"visitsCount":105,"tier":"","message":"","currency":"","rating":7.9},{"name":"Malaga Tapas & Bar","phone":"5122368020","twitter":"malagatapasbar","address":"440 W 2nd St","lat":30.265540593572002,"lng":-97.74832537935855,"neighborhood":"Downtown Austin","city_fetched":"Austin","state":"TX","country":"United States","canonicalUrl":"https://foursquare.com/v/malaga-tapas--bar/4b359eecf964a520422e25e3","category":"Tapas Restaurant","checkinsCount":4529,"usersCount":3386,"tipCount":31,"visitsCount":4566,"url":"http://www.malagatapasbar.com","tier":2,"message":"Moderate","currency":"$","rating":7.9},{"name":"Vince Young Steakhouse","phone":"5124578325","twitter":"vysteakhouse","address":"301 San Jacinto Blvd","lat":30.264682,"lng":-97.741209,"neighborhood":"Downtown Austin","city_fetched":"Austin","state":"TX","country":"United States","canonicalUrl":"https://foursquare.com/v/vince-young-steakhouse/4cd0a4811ac7a1cdaad81a92","category":"Steakhouse","checkinsCount":2589,"usersCount":2149,"tipCount":37,"visitsCount":2650,"url":"http://www.vinceyoungsteakhouse.com","tier":3,"message":"Expensive","currency":"$","rating":7.9},{"name":"Kingdom","phone":"5125220116","twitter":"kingdomaustin","address":"103 E 5th St Ste B","lat":30.2667927104434,"lng":-97.74239966568497,"neighborhood":"Downtown Austin","city_fetched":"Austin","state":"TX","country":"United States","canonicalUrl":"https://foursquare.com/v/kingdom/4db9f96f4df0cac21ae4f5e9","category":"Nightclub","checkinsCount":6476,"usersCount":2974,"tipCount":27,"visitsCount":6671,"url":"http://kingdomaustin.com","tier":"","message":"","currency":"","rating":7.9},{"name":"Hideout Pub","phone":"5128219093","twitter":"hideoutpubatx","address":"12164 N MO Pac Expy","lat":30.412493485534046,"lng":-97.70974557136837,"city_fetched":"Austin","state":"TX","country":"United States","canonicalUrl":"https://foursquare.com/v/hideout-pub/446ef248f964a52079331fe3","category":"Bar","checkinsCount":13413,"usersCount":2771,"tipCount":56,"visitsCount":15202,"url":"http://thehideoutpub.com","tier":1,"message":"Cheap","currency":"$","rating":7.9},{"name":"Bar 96","phone":"5124336604","twitter":"96inaustin","address":"96 Rainey St","lat":30.260862606800465,"lng":-97.73826734563846,"neighborhood":"Downtown Austin","city_fetched":"Austin","state":"TX","country":"United States","canonicalUrl":"https://foursquare.com/v/bar-96/4bb0f056f964a520156c3ce3","category":"Sports Bar","checkinsCount":15481,"usersCount":9049,"tipCount":67,"visitsCount":17080,"url":"http://www.96austin.com","tier":2,"message":"Moderate","currency":"$","rating":7.9},{"name":"Plush","phone":"5124780099","address":"617 Red River St","lat":30.267327,"lng":-97.7366977930069,"neighborhood":"Downtown Austin","city_fetched":"Austin","state":"TX","country":"United States","canonicalUrl":"https://foursquare.com/v/plush/40c7a480f964a520fb001fe3","category":"Bar","checkinsCount":4972,"usersCount":1541,"tipCount":22,"visitsCount":5020,"url":"http://www.plushbar.com","tier":1,"message":"Cheap","currency":"$","rating":7.9},{"name":"Nomad Bar","phone":"5126284288","twitter":"nomadbar","address":"1213 Corona Dr","lat":30.31243115410374,"lng":-97.70484924316406,"neighborhood":"Windsor Park","city_fetched":"Austin","state":"TX","country":"United States","canonicalUrl":"https://foursquare.com/v/nomad-bar/49bdbd93f964a52093541fe3","category":"Bar","checkinsCount":5418,"usersCount":2340,"tipCount":36,"visitsCount":6393,"url":"http://nomadbar.com","tier":1,"message":"Cheap","currency":"$","rating":7.9},{"name":"TNT - Tacos and Tequila","phone":"5124368226","twitter":"tntacostequila","address":"507 Pressler St","lat":30.27275189859186,"lng":-97.76060279352444,"neighborhood":"Old West Austin","city_fetched":"Austin","state":"TX","country":"United States","canonicalUrl":"https://foursquare.com/tntacostequila","category":"Taco Place","checkinsCount":7238,"usersCount":4673,"tipCount":65,"visitsCount":8080,"url":"http://www.tacos-and-tequila.com","tier":2,"message":"Moderate","currency":"$","rating":7.8},{"name":"Live Oak Brewery","phone":"5123852299","twitter":"liveoakbrewing","address":"3301 E 5th St","lat":30.25446,"lng":-97.705632,"city_fetched":"Austin","state":"TX","country":"United States","canonicalUrl":"https://foursquare.com/v/live-oak-brewery/4b366dadf964a5202a3525e3","category":"Brewery","checkinsCount":565,"usersCount":498,"tipCount":9,"visitsCount":583,"url":"http://liveoakbrewing.com","tier":"","message":"","currency":"","rating":7.8},{"name":"Twin Liquors","phone":"5129979979","address":"500 Canyon Ridge Dr","lat":30.40589621873771,"lng":-97.67446517944336,"city_fetched":"Austin","state":"TX","country":"United States","canonicalUrl":"https://foursquare.com/v/twin-liquors/4bf5cf9a5e800f47264ce6d4","category":"Liquor Store","checkinsCount":719,"usersCount":305,"tipCount":3,"visitsCount":737,"url":"http://www.twinliquors.com","tier":"","message":"","currency":"","rating":7.8},{"name":"The Park at The Domain","phone":"5124787275","twitter":"eatdrinkthepark","address":"11601 Domain Dr Ste 200","lat":30.403112109004333,"lng":-97.72376105616583,"neighborhood":"North Burnet","city_fetched":"Austin","state":"TX","country":"United States","canonicalUrl":"https://foursquare.com/v/the-park-at-the-domain/4dd6fc01ae60680f14fbf5fd","category":"Bar","checkinsCount":14995,"usersCount":7001,"tipCount":102,"visitsCount":17392,"url":"http://eatdrinkthepark.com","tier":2,"message":"Moderate","currency":"$","rating":7.8},{"name":"Highland Lounge","phone":"5126491212","twitter":"highlandaustin","address":"404 Colorado St","lat":30.26684472460728,"lng":-97.74483991714841,"neighborhood":"Downtown Austin","city_fetched":"Austin","state":"TX","country":"United States","canonicalUrl":"https://foursquare.com/v/highland-lounge/539ce899498ea14ee55753a4","category":"Gay Bar","checkinsCount":1125,"usersCount":557,"tipCount":6,"visitsCount":1230,"url":"http://www.highlandlounge.com","tier":"","message":"","currency":"","rating":7.8},{"name":"The Growler Bar","twitter":"thegrowlerbar","address":"1300 FM 685","lat":30.449175312292486,"lng":-97.60680207267544,"city_fetched":"Austin","state":"TX","country":"United States","canonicalUrl":"https://foursquare.com/v/the-growler-bar/56672a34498e31604743d22e","category":"Beer Garden","checkinsCount":205,"usersCount":146,"tipCount":3,"visitsCount":349,"url":"http://www.txgrowlerbar.com","tier":"","message":"","currency":"","rating":7.8},{"name":"Quinn's Neighborhood Bar","phone":"5123109965","address":"101 E Main St","lat":30.50852769,"lng":-97.6786399,"city_fetched":"Austin","state":"TX","country":"United States","canonicalUrl":"https://foursquare.com/v/quinns-neighborhood-bar/4a8f4f9af964a520d81420e3","category":"Bar","checkinsCount":1884,"usersCount":570,"tipCount":16,"visitsCount":1918,"url":"http://www.quinnsrr.com","tier":"","message":"","currency":"","rating":7.8},{"name":"Gibson Bar","phone":"5123861345","twitter":"gibsonbaraustin","address":"1109 S Lamar Blvd","lat":30.2549710622238,"lng":-97.76192665100098,"neighborhood":"Zilker","city_fetched":"Austin","state":"TX","country":"United States","canonicalUrl":"https://foursquare.com/v/gibson-bar/4b6b52c7f964a520e9002ce3","category":"Bar","checkinsCount":10698,"usersCount":4932,"tipCount":58,"visitsCount":11259,"url":"http://www.gibsonaustin.com","tier":2,"message":"Moderate","currency":"$","rating":7.8},{"name":"Dirty Dog Bar","phone":"5122369800","twitter":"dirtydogbar","address":"505 E 6th St","lat":30.266526,"lng":-97.73804153,"neighborhood":"Downtown Austin","city_fetched":"Austin","state":"TX","country":"United States","canonicalUrl":"https://foursquare.com/v/dirty-dog-bar/49fc6aa9f964a5209e6e1fe3","category":"Bar","checkinsCount":7537,"usersCount":3696,"tipCount":43,"visitsCount":7719,"url":"http://www.dirtydogbar.com","tier":1,"message":"Cheap","currency":"$","rating":7.8}]