[{"name":"Sandrini's","phone":"6613228900","twitter":"sandrinisbar","address":"1918 Eye St","lat":35.37686946240812,"lng":-119.01983857154846,"neighborhood":"Downtown Bakersfield","city_fetched":"Bakersfield,US","state":"CA","country":"United States","canonicalUrl":"https://foursquare.com/v/sandrinis/4aa5f6aef964a520a44920e3","categoryId":"4bf58dd8d48988d116941735","category":"Bar","checkinsCount":2219,"usersCount":557,"tipCount":9,"visitsCount":2345,"url":"http://www.sandrinis.com","tier":2,"message":"Moderate","currency":"$","rating":8.5},{"name":"Lengthwise Brewing Company","phone":"6618362537","address":"6720 Schirra Ct","lat":35.31356686212967,"lng":-119.08924341201781,"city_fetched":"Bakersfield,US","state":"CA","country":"United States","canonicalUrl":"https://foursquare.com/v/lengthwise-brewing-company/4c538a4e728920a10e233e81","categoryId":"50327c8591d4c4b30a586d5d","category":"Brewery","checkinsCount":1265,"usersCount":765,"tipCount":23,"visitsCount":1531,"url":"http://www.lengthwise.com","tier":2,"message":"Moderate","currency":"$","rating":8.3},{"name":"Goose Loonies","phone":"6616311242","address":"820 18th St","lat":35.375412,"lng":-119.01129742,"neighborhood":"Downtown Bakersfield","city_fetched":"Bakersfield,US","state":"CA","country":"United States","canonicalUrl":"https://foursquare.com/v/goose-loonies/4b8b23acf964a520a79432e3","categoryId":"4bf58dd8d48988d11b941735","category":"Pub","checkinsCount":1395,"usersCount":627,"tipCount":15,"visitsCount":1622,"url":"http://gooselooniestavern.com","tier":"","message":"","currency":"","rating":7.8},{"name":"Pour House","phone":"6615899300","address":"4041 Fruitvale Ave","lat":35.396736060657716,"lng":-119.07472858244276,"city_fetched":"Bakersfield,US","state":"CA","country":"United States","canonicalUrl":"https://foursquare.com/v/pour-house/4c268800a852c9280bd9e66c","categoryId":"4bf58dd8d48988d120941735","category":"Karaoke Bar","checkinsCount":1017,"usersCount":193,"tipCount":4,"visitsCount":1138,"tier":"","message":"","currency":"","rating":7.7},{"name":"Temblor Brewery","phone":"6614894855","twitter":"temblorbrewing","address":"3200 Buck Owens Blvd #200","lat":35.38870256921848,"lng":-119.04177348504486,"city_fetched":"Bakersfield,US","state":"CA","country":"United States","canonicalUrl":"https://foursquare.com/v/temblor-brewery/55edf30a498ef330db53c189","categoryId":"50327c8591d4c4b30a586d5d","category":"Brewery","checkinsCount":158,"usersCount":216,"tipCount":11,"visitsCount":336,"url":"http://temblorbrewing.com","tier":"","message":"","currency":"","rating":7.6},{"name":"B Ryders Sports Bar and Grill","phone":"6613977304","address":"7401 White Ln #8","lat":35.31761652245186,"lng":-119.08483527957944,"city_fetched":"Bakersfield,US","state":"CA","country":"United States","canonicalUrl":"https://foursquare.com/v/b-ryders-sports-bar-and-grill/4dc63a9d52b1e8f9f7e905d7","categoryId":"4bf58dd8d48988d11d941735","category":"Sports Bar","checkinsCount":1756,"usersCount":449,"tipCount":5,"visitsCount":2027,"url":"http://brydersbakersfield.com","tier":"","message":"","currency":"","rating":7.4},{"name":"Guthrie's Alley Cat","phone":"6613246328","address":"1525 Wall St","lat":35.37577843235482,"lng":-119.01979758091667,"neighborhood":"Downtown Bakersfield","city_fetched":"Bakersfield,US","state":"CA","country":"United States","canonicalUrl":"https://foursquare.com/v/guthries-alley-cat/4be4e486910020a19871d214","categoryId":"4bf58dd8d48988d118941735","category":"Dive Bar","checkinsCount":1127,"usersCount":413,"tipCount":8,"visitsCount":1135,"tier":"","message":"","currency":"","rating":7.4},{"name":"Rj's BAR & GRILL","phone":"6615874723","address":"9440 Hageman Rd","lat":35.39839468558749,"lng":-119.10719374746245,"city_fetched":"Bakersfield,US","state":"CA","country":"United States","canonicalUrl":"https://foursquare.com/v/rjs-bar--grill/4b8c1d33f964a520c4be32e3","categoryId":"4bf58dd8d48988d116941735","category":"Bar","checkinsCount":1306,"usersCount":454,"tipCount":11,"visitsCount":1429,"tier":"","message":"","currency":"","rating":7.3},{"name":"The Mint","phone":"6613254048","address":"1207 19th St","lat":35.3760597598155,"lng":-119.01558048414388,"neighborhood":"Downtown Bakersfield","city_fetched":"Bakersfield,US","state":"CA","country":"United States","canonicalUrl":"https://foursquare.com/v/the-mint/4be5e45e2468c9286cb90043","categoryId":"4bf58dd8d48988d118941735","category":"Dive Bar","checkinsCount":2404,"usersCount":602,"tipCount":16,"visitsCount":2728,"tier":"","message":"","currency":"","rating":7.3},{"name":"Syndicate Lounge","phone":"6613270070","address":"1818 Eye St","lat":35.376094,"lng":-119.019972,"neighborhood":"Downtown Bakersfield","city_fetched":"Bakersfield,US","state":"CA","country":"United States","canonicalUrl":"https://foursquare.com/v/syndicate-lounge/4baadea1f964a5204d8b3ae3","categoryId":"4bf58dd8d48988d11f941735","category":"Nightclub","checkinsCount":1620,"usersCount":283,"tipCount":5,"visitsCount":1642,"tier":"","message":"","currency":"","rating":7.2},{"name":"The Petroleum Club","phone":"6613246561","address":"5060 California Ave Fl 12","lat":35.362533291412674,"lng":-119.06055308033959,"city_fetched":"Bakersfield,US","state":"CA","country":"United States","canonicalUrl":"https://foursquare.com/v/the-petroleum-club/4b904676f964a520b58033e3","categoryId":"4bf58dd8d48988d1d4941735","category":"Speakeasy","checkinsCount":660,"usersCount":315,"tipCount":1,"visitsCount":925,"url":"http://thepetroleumclub.com","tier":"","message":"","currency":"","rating":7.2},{"name":"Firehouse","phone":"6618314688","address":"7701 White Ln #A3","lat":35.317773,"lng":-119.08906618333333,"city_fetched":"Bakersfield,US","state":"CA","country":"United States","canonicalUrl":"https://foursquare.com/v/firehouse/4b0b7532f964a520ab3123e3","categoryId":"4bf58dd8d48988d11d941735","category":"Sports Bar","checkinsCount":1447,"usersCount":766,"tipCount":19,"visitsCount":1850,"url":"http://firehouseeats.com/firehouseeats/Firehouse.html","tier":"","message":"","currency":"","rating":7},{"name":"Lengthwise Pub","phone":"6615897394","address":"2900 Calloway Dr #100","lat":35.386430787579805,"lng":-119.10948848522388,"city_fetched":"Bakersfield,US","state":"CA","country":"United States","canonicalUrl":"https://foursquare.com/v/lengthwise-pub/4e21ec91c65b2b5e354c2730","categoryId":"50327c8591d4c4b30a586d5d","category":"Brewery","checkinsCount":1160,"usersCount":617,"tipCount":17,"visitsCount":1419,"url":"http://lengthwise.com","tier":"","message":"","currency":"","rating":7},{"name":"Brimstone Bar","phone":"6614274900","address":"1702 18th St","lat":35.37538034157334,"lng":-119.02144574089407,"neighborhood":"Downtown Bakersfield","city_fetched":"Bakersfield,US","state":"CA","country":"United States","canonicalUrl":"https://foursquare.com/v/brimstone-bar/4bb3f4b987aa95214dbcacd1","categoryId":"4bf58dd8d48988d1d5941735","category":"Hotel Bar","checkinsCount":2243,"usersCount":558,"tipCount":8,"visitsCount":2247,"url":"http://www.thepadrehotel.com","tier":"","message":"","currency":"","rating":6.9},{"name":"Lengthwise at The Marketplace","twitter":"lengthwise","address":"9000 Ming Ave Ste T1","lat":35.34238527767655,"lng":-119.10178052807797,"city_fetched":"Bakersfield,US","state":"CA","country":"United States","canonicalUrl":"https://foursquare.com/v/lengthwise-at-the-marketplace/50a2e32ce4b0ab96033a9747","categoryId":"50327c8591d4c4b30a586d5d","category":"Brewery","checkinsCount":580,"usersCount":405,"tipCount":4,"visitsCount":992,"tier":2,"message":"Moderate","currency":"$","rating":6.9},{"name":"Valentien","phone":"6618640397","address":"3310 Truxtun Ave","lat":35.373689545082996,"lng":-119.03910756111145,"neighborhood":"Riviera-Westchester","city_fetched":"Bakersfield,US","state":"CA","country":"United States","canonicalUrl":"https://foursquare.com/v/valentien/4b78595cf964a5207dc72ee3","categoryId":"4bf58dd8d48988d123941735","category":"Wine Bar","checkinsCount":196,"usersCount":105,"tipCount":7,"visitsCount":196,"url":"http://myspace.com/valentienrestaurant","tier":"","message":"","currency":"","rating":6.9},{"name":"Casablanca Nightclub","phone":"6613240661","twitter":"casablancaclub","address":"1825 N St","lat":35.37589538523584,"lng":-119.01438126162303,"neighborhood":"Downtown Bakersfield","city_fetched":"Bakersfield,US","state":"CA","country":"United States","canonicalUrl":"https://foursquare.com/v/casablanca-nightclub/4b77999ff964a52060a32ee3","categoryId":"4bf58dd8d48988d1d8941735","category":"Gay Bar","checkinsCount":675,"usersCount":253,"tipCount":9,"visitsCount":768,"tier":"","message":"","currency":"","rating":6.7},{"name":"Elevation Lounge","phone":"6613256864","address":"818 Real Rd","lat":35.36529855,"lng":-119.04172345,"city_fetched":"Bakersfield,US","state":"CA","country":"United States","canonicalUrl":"https://foursquare.com/v/elevation-lounge/4b90a918f964a5208c9333e3","categoryId":"4bf58dd8d48988d116941735","category":"Bar","checkinsCount":264,"usersCount":108,"tipCount":4,"visitsCount":264,"url":"http://www.elevationbakersfield.com","tier":"","message":"","currency":"","rating":6.5},{"name":"Riley's Tavern","twitter":"rileystavern","address":"1523 19th St","lat":35.3761083,"lng":-119.01966425,"neighborhood":"Downtown Bakersfield","city_fetched":"Bakersfield,US","state":"CA","country":"United States","canonicalUrl":"https://foursquare.com/v/rileys-tavern/4b99f2fff964a520349835e3","categoryId":"4bf58dd8d48988d116941735","category":"Bar","checkinsCount":867,"usersCount":282,"tipCount":4,"visitsCount":871,"tier":"","message":"","currency":"","rating":6.3},{"name":"Trout's","address":"715 N Chester Ave","lat":35.41402161320129,"lng":-119.02141732449266,"city_fetched":"Bakersfield,US","state":"CA","country":"United States","canonicalUrl":"https://foursquare.com/v/trouts/4c2e942366e40f47938dc08b","categoryId":"4bf58dd8d48988d11f941735","category":"Nightclub","checkinsCount":435,"usersCount":163,"tipCount":4,"visitsCount":461,"tier":"","message":"","currency":"","rating":6.2},{"name":"VIP Lounge","phone":"6613228431","address":"5460 California Ave","lat":35.35790284013106,"lng":-119.06190534939478,"city_fetched":"Bakersfield,US","state":"CA","country":"United States","canonicalUrl":"https://foursquare.com/v/vip-lounge/4b57dfddf964a520ab4428e3","categoryId":"4bf58dd8d48988d116941735","category":"Bar","checkinsCount":1175,"usersCount":360,"tipCount":17,"visitsCount":1266,"tier":"","message":"","currency":"","rating":6.2},{"name":"On The Rocks","phone":"6613277685","lat":35.375102,"lng":-119.019552,"neighborhood":"Downtown Bakersfield","city_fetched":"Bakersfield,US","state":"CA","country":"United States","canonicalUrl":"https://foursquare.com/v/on-the-rocks/4fbef3fbe4b09069022d2080","categoryId":"4bf58dd8d48988d116941735","category":"Bar","checkinsCount":322,"usersCount":167,"tipCount":3,"visitsCount":327,"tier":"","message":"","currency":"","rating":6.2},{"name":"Skybar Lounge","lat":35.38422264217348,"lng":-119.05477455201604,"city_fetched":"Bakersfield,US","state":"California","country":"United States","canonicalUrl":"https://foursquare.com/v/skybar-lounge/4edfb42877c8c05f36bbfea9","categoryId":"4bf58dd8d48988d116941735","category":"Bar","checkinsCount":180,"usersCount":104,"tipCount":3,"visitsCount":180,"tier":"","message":"","currency":"","rating":5.8},{"name":"Bull Shed Bar & Grill","phone":"6613270681","address":"2300 Camino Del Rio","lat":35.37966289123686,"lng":-119.04546139998243,"city_fetched":"Bakersfield,US","state":"CA","country":"United States","canonicalUrl":"https://foursquare.com/v/bull-shed-bar--grill/4c8c51adf87e224b9c343405","categoryId":"4bf58dd8d48988d116941735","category":"Bar","checkinsCount":995,"usersCount":458,"tipCount":9,"visitsCount":1131,"tier":"","message":"","currency":"","rating":5.5}]