[{"name":"Nocturnem Draft Haus","phone":"2079074380","address":"56 Main St","lat":44.800576973911824,"lng":-68.77180695533752,"city_fetched":"Bangor","state":"ME","country":"United States","canonicalUrl":"https://foursquare.com/v/nocturnem-draft-haus/4daa1cd91e72c1ab9bed74d8","category":"Beer Garden","checkinsCount":4497,"usersCount":829,"tipCount":30,"visitsCount":4921,"url":"http://nocturnemdrafthaus.com","tier":2,"message":"Moderate","currency":"$","rating":9},{"name":"Bangor Wine & Cheese Company","phone":"2079423338","twitter":"bangorwine","address":"86 Hammond St","lat":44.80157593591146,"lng":-68.7727430491368,"city_fetched":"Bangor","state":"ME","country":"United States","canonicalUrl":"https://foursquare.com/v/bangor-wine--cheese-company/4b898459f964a520163e32e3","category":"Wine Shop","checkinsCount":704,"usersCount":181,"tipCount":6,"visitsCount":725,"url":"http://www.bangorwine.com","tier":"","message":"","currency":"","rating":8.8},{"name":"Hero's Sports Grill & Entertainment Center","phone":"2079743033","address":"41 Washington St","lat":44.799301817164924,"lng":-68.76741886138916,"city_fetched":"Bangor","state":"ME","country":"United States","canonicalUrl":"https://foursquare.com/v/heros-sports-grill--entertainment-center/4abeae18f964a5204b8f20e3","category":"American Restaurant","checkinsCount":4072,"usersCount":1001,"tipCount":24,"visitsCount":4785,"url":"http://herossportsgrill.com","tier":2,"message":"Moderate","currency":"$","rating":8.6},{"name":"Moe's Original Bar B Que","phone":"2079929000","twitter":"moesobbq","address":"650 Broadway","lat":44.822517062224705,"lng":-68.77908616524206,"city_fetched":"Bangor","state":"ME","country":"United States","canonicalUrl":"https://foursquare.com/v/moes-original-bar-b-que/4f7e16fbe4b0a254a0b3535c","category":"BBQ Joint","checkinsCount":907,"usersCount":371,"tipCount":32,"visitsCount":942,"url":"https://www.facebook.com/moesobbq","tier":"","message":"","currency":"","rating":8.5},{"name":"Geaghan's Brothers Brewing","phone":"2079453730","address":"Dutton St.","lat":44.78673156666667,"lng":-68.7775631,"city_fetched":"Bangor","state":"ME","country":"United States","canonicalUrl":"https://foursquare.com/v/geaghans-brothers-brewing/4ec46116991123243696e3b7","category":"Brewery","checkinsCount":390,"usersCount":121,"tipCount":7,"visitsCount":390,"tier":"","message":"","currency":"","rating":7.8},{"name":"Courtyard by Marriott Bangor","phone":"2072620070","twitter":"bangorcourtyard","address":"236 Sylvan Rd","lat":44.82456559069669,"lng":-68.75051756922711,"city_fetched":"Bangor","state":"ME","country":"United States","canonicalUrl":"https://foursquare.com/bangorcourtyard","category":"Hotel","checkinsCount":1387,"usersCount":438,"tipCount":9,"visitsCount":1609,"url":"http://www.marriott.com/bgrcy","tier":"","message":"","currency":"","rating":7.7},{"name":"Central Street Farmhouse","phone":"2079924454","twitter":"farmhousebangor","address":"30 Central St","lat":44.802255,"lng":-68.771417,"city_fetched":"Bangor","state":"ME","country":"United States","canonicalUrl":"https://foursquare.com/v/central-street-farmhouse/4cc6f80101fb236ad533baba","category":"Brewery","checkinsCount":484,"usersCount":134,"tipCount":5,"visitsCount":489,"url":"http://www.centralstreetfarmhouse.com","tier":4,"message":"Very Expensive","currency":"$","rating":7.7},{"name":"Ipanema Bar & Grill","phone":"2079425180","address":"10 Broad St","lat":44.80122458216653,"lng":-68.77126068685654,"city_fetched":"Bangor","state":"ME","country":"United States","canonicalUrl":"https://foursquare.com/v/ipanema-bar--grill/4ad915aef964a520f71721e3","category":"Bar","checkinsCount":3309,"usersCount":595,"tipCount":15,"visitsCount":3340,"tier":"","message":"","currency":"","rating":7.6},{"name":"Sea Dog Brewing Company","phone":"2079478004","address":"26 Front St","lat":44.79677315697129,"lng":-68.76986596553492,"city_fetched":"Bangor","state":"ME","country":"United States","canonicalUrl":"https://foursquare.com/v/sea-dog-brewing-company/4ac7fd1af964a52012bb20e3","category":"Brewery","checkinsCount":5792,"usersCount":2431,"tipCount":48,"visitsCount":6671,"url":"http://www.seadogbrewing.com","tier":2,"message":"Moderate","currency":"$","rating":7.5},{"name":"Big Easy Lounge & Caf√©","phone":"2079922820","address":"24 Broad St.","lat":44.80113969965403,"lng":-68.77121546429424,"city_fetched":"Bangor","state":"ME","country":"United States","canonicalUrl":"https://foursquare.com/v/big-easy-lounge--caf%C3%A9/4c9e88e8d3c2b60c9667ccbc","category":"Lounge","checkinsCount":1064,"usersCount":134,"tipCount":6,"visitsCount":1069,"url":"http://www.thecharlesinn.com/news.cfm/mode/details/id/5819/big-easy-lounge-now-open","tier":1,"message":"Cheap","currency":"$","rating":7.5},{"name":"Dysarts Flat Bed Pub","address":"Broadway","lat":44.83554153424981,"lng":-68.79185898243196,"city_fetched":"Bangor","state":"ME","country":"United States","canonicalUrl":"https://foursquare.com/v/dysarts-flat-bed-pub/53665a88498ef5c47a04d0dc","category":"Pub","checkinsCount":177,"usersCount":134,"tipCount":2,"visitsCount":315,"tier":"","message":"","currency":"","rating":7.3},{"name":"The Sports Arena","phone":"2078485850","address":"1640 Hammond St","lat":44.79395727157991,"lng":-68.84191989898682,"city_fetched":"Bangor","state":"ME","country":"United States","canonicalUrl":"https://foursquare.com/v/the-sports-arena/4ae382f9f964a520059621e3","category":"Sports Bar","checkinsCount":1217,"usersCount":684,"tipCount":10,"visitsCount":1392,"url":"http://www.thesportsarena.biz","tier":2,"message":"Moderate","currency":"$","rating":6.8},{"name":"Reverend Noble Pub","phone":"2079429339","address":"10 Broad St","lat":44.801154,"lng":-68.771245,"city_fetched":"Bangor","state":"ME","country":"United States","canonicalUrl":"https://foursquare.com/v/reverend-noble-pub/4abc118bf964a5203c8620e3","category":"Pub","checkinsCount":1129,"usersCount":307,"tipCount":6,"visitsCount":1145,"tier":"","message":"","currency":"","rating":6.1},{"name":"Carolina Sports & Spirits","phone":"2079927273","address":"16 Union St","lat":44.79762392916067,"lng":-68.77038193096433,"city_fetched":"Bangor","state":"ME","country":"United States","canonicalUrl":"https://foursquare.com/v/carolina-sports--spirits/4c426c5fff711b8d79981305","category":"Bar","checkinsCount":1776,"usersCount":385,"tipCount":7,"visitsCount":1980,"url":"http://carolinasportsandspirits.com","tier":"","message":"","currency":"","rating":6.1},{"name":"The Main Tavern","phone":"2079477012","address":"152 Main St","lat":44.79873845535791,"lng":-68.77252578735352,"city_fetched":"Bangor","state":"ME","country":"United States","canonicalUrl":"https://foursquare.com/v/the-main-tavern/4d86c7870a0d14561b0417cc","category":"Pub","checkinsCount":521,"usersCount":127,"tipCount":10,"visitsCount":526,"tier":1,"message":"Cheap","currency":"$","rating":6},{"name":"Half Acre Nightclub","phone":"2079229580","address":"190 Harlow St","lat":44.80407822812881,"lng":-68.77320335256394,"city_fetched":"Bangor","state":"ME","country":"United States","canonicalUrl":"https://foursquare.com/v/half-acre-nightclub/5035b983e4b00cb54c5cc891","category":"Nightclub","checkinsCount":803,"usersCount":251,"tipCount":1,"visitsCount":1043,"tier":2,"message":"Moderate","currency":"$","rating":5.7},{"name":"Pete & Larry's Bar & Grill","phone":"2079470101","address":"404 Odlin Rd","lat":44.786307,"lng":-68.81311568,"city_fetched":"Bangor","state":"ME","country":"United States","canonicalUrl":"https://foursquare.com/v/pete--larrys-bar--grill/4ae388d4f964a5205a9621e3","category":"Karaoke Bar","checkinsCount":456,"usersCount":200,"tipCount":4,"visitsCount":457,"tier":"","message":"","currency":"","rating":5.6},{"name":"Godfrey's Grille","phone":"2079476721","address":"308 Godfrey Blvd","lat":44.80834884439813,"lng":-68.81600904237348,"city_fetched":"Bangor","state":"ME","country":"United States","canonicalUrl":"https://foursquare.com/v/godfreys-grille/4d8242a6c8bdb1f73822dac2","category":"American Restaurant","checkinsCount":298,"usersCount":135,"tipCount":3,"visitsCount":298,"tier":3,"message":"Expensive","currency":"$","rating":5.6},{"name":"Waverly","phone":"2079424897","address":"36 Merchants Plz","lat":44.7997328913384,"lng":-68.77127632963712,"city_fetched":"Bangor","state":"ME","country":"United States","canonicalUrl":"https://foursquare.com/v/waverly/4e34d4f3d22d86185a66649f","category":"Pub","checkinsCount":449,"usersCount":112,"tipCount":8,"visitsCount":456,"tier":"","message":"","currency":"","rating":5.4},{"name":"DYSARTS TRAVEL STOP","phone":"2079426725","twitter":"citgo","address":"1110 Broadway","lat":44.8354285070958,"lng":-68.79155002568174,"city_fetched":"Bangor","state":"ME","country":"United States","canonicalUrl":"https://foursquare.com/v/dysarts-travel-stop/50d716cce4b0421e5fe0ecf6","category":"Comfort Food Restaurant","checkinsCount":231,"usersCount":144,"tipCount":3,"visitsCount":234,"url":"http://gas-stations.citgo.com/me/bangor/4401/1110-BROADWAY","tier":"","message":"","currency":"","rating":5.3}]