[{"name":"Bronco Billy's Saloon","phone":"6083551055","address":"S2545 US highway 12","lat":43.552779883333336,"lng":-89.77873909,"city_fetched":"Baraboo,US","state":"WI","country":"United States","canonicalUrl":"https://foursquare.com/v/bronco-billys-saloon/4c1fcd1f63750f471bb0bb67","categoryId":"4bf58dd8d48988d116941735","category":"Bar","checkinsCount":307,"usersCount":180,"tipCount":4,"visitsCount":368,"url":"http://www.broncobillyssaloon.com","tier":"","message":"","currency":"","rating":7.5},{"name":"Pumphouse Sports Bar & Grille","phone":"6083567707","address":"E11614 Tranquility Ln","lat":43.43844607213338,"lng":-89.7426097863775,"city_fetched":"Baraboo,US","state":"WI","country":"United States","canonicalUrl":"https://foursquare.com/v/pumphouse-sports-bar--grille/4f0105dd29c201c6fe7321d0","categoryId":"4bf58dd8d48988d11d941735","category":"Sports Bar","checkinsCount":191,"usersCount":149,"tipCount":3,"visitsCount":246,"url":"http://www.pumphousesportsbar.com","tier":"","message":"","currency":"","rating":6.9},{"name":"Devil's Den","address":"6330 Bluff Rd.","lat":43.41814320528178,"lng":-89.62713924142977,"city_fetched":"Baraboo,US","state":"WI","country":"United States","canonicalUrl":"https://foursquare.com/v/devils-den/4c0aa0baed259521ff2b1356","categoryId":"4bf58dd8d48988d116941735","category":"Bar","checkinsCount":259,"usersCount":180,"tipCount":2,"visitsCount":259,"tier":"","message":"","currency":"","rating":6.5},{"name":"Chaser's","address":"620 W Pine St","lat":43.47603,"lng":-89.76838313333333,"city_fetched":"Baraboo,US","state":"WI","country":"United States","canonicalUrl":"https://foursquare.com/v/chasers/4c4e522df53d0f47d9c15ca6","categoryId":"4bf58dd8d48988d116941735","category":"Bar","checkinsCount":100,"usersCount":80,"tipCount":1,"visitsCount":100,"tier":"","message":"","currency":"","rating":5.9},{"name":"Zach's Bar & Grill","phone":"6083569224","address":"126 4th St","lat":43.47079362703343,"lng":-89.74148670298473,"city_fetched":"Baraboo,US","state":"WI","country":"United States","canonicalUrl":"https://foursquare.com/v/zachs-bar--grill/4daa4d6743a1128196f5c899","categoryId":"4bf58dd8d48988d116941735","category":"Bar","checkinsCount":381,"usersCount":82,"tipCount":3,"visitsCount":386,"tier":"","message":"","currency":"","rating":5.9}]