[{"name":"Cape Cod Beer","phone":"5087904200","twitter":"capecodbeer","address":"1336 Phinneys Ln","lat":41.67825160792546,"lng":-70.31036365219391,"city_fetched":"Barnstable,US","state":"MA","country":"United States","canonicalUrl":"https://foursquare.com/v/cape-cod-beer/4b856f3bf964a520ad5d31e3","categoryId":"50327c8591d4c4b30a586d5d","category":"Brewery","checkinsCount":2432,"usersCount":2042,"tipCount":33,"visitsCount":3040,"url":"http://www.capecodbeer.com","tier":"","message":"","currency":"","rating":9.2},{"name":"Boat Slip Tea Dance","phone":"5084871669","address":"161 Commercial St","lat":42.04697552559463,"lng":-70.19003116602721,"city_fetched":"Barnstable,US","state":"MA","country":"United States","canonicalUrl":"https://foursquare.com/v/boat-slip-tea-dance/4e0ced52ae603a50b5341281","categoryId":"4bf58dd8d48988d1d8941735","category":"Gay Bar","checkinsCount":7140,"usersCount":3163,"tipCount":22,"visitsCount":8941,"url":"http://www.boatslipresort.com/teadance.htm","tier":3,"message":"Expensive","currency":"$","rating":8.9},{"name":"The British Beer Company","phone":"5087711776","address":"412 Main St","lat":41.65254454858474,"lng":-70.2848401160156,"city_fetched":"Barnstable,US","state":"MA","country":"United States","canonicalUrl":"https://foursquare.com/v/the-british-beer-company/4a8499cff964a5200ffd1fe3","categoryId":"4bf58dd8d48988d11b941735","category":"Pub","checkinsCount":6404,"usersCount":2837,"tipCount":36,"visitsCount":6934,"url":"http://www.britishbeer.com","tier":2,"message":"Moderate","currency":"$","rating":8.6},{"name":"Tap City Grille","phone":"7744704588","twitter":"tapcitygrille","address":"586 Main Street","lat":41.6497843055569,"lng":-70.2898274958098,"city_fetched":"Barnstable,US","state":"MA","country":"United States","canonicalUrl":"https://foursquare.com/tapcitygrille","categoryId":"4bf58dd8d48988d11b941735","category":"Pub","checkinsCount":201,"usersCount":249,"tipCount":5,"visitsCount":395,"url":"http://www.tapcitygrille.com","tier":"","message":"","currency":"","rating":8.5},{"name":"Ocean Terrace","lat":41.77324560049871,"lng":-70.05282904295882,"city_fetched":"Barnstable,US","state":"MA","country":"United States","canonicalUrl":"https://foursquare.com/v/ocean-terrace/4c0ee2b41281c9b660cb1d1d","categoryId":"4bf58dd8d48988d1d5941735","category":"Hotel Bar","checkinsCount":227,"usersCount":164,"tipCount":6,"visitsCount":230,"tier":"","message":"","currency":"","rating":8.5},{"name":"The British Beer Company","phone":"5088339590","address":"46 Route 6A","lat":41.76508154178348,"lng":-70.51204599849088,"city_fetched":"Barnstable,US","state":"MA","country":"United States","canonicalUrl":"https://foursquare.com/v/the-british-beer-company/4aaac224f964a5203e5720e3","categoryId":"4bf58dd8d48988d11b941735","category":"Pub","checkinsCount":1933,"usersCount":1215,"tipCount":22,"visitsCount":2348,"url":"http://www.britishbeer.com","tier":2,"message":"Moderate","currency":"$","rating":8.4},{"name":"The Yardarm","phone":"5082554840","twitter":"yardarmpub","address":"48 S Orleans Rd","lat":41.787012101152555,"lng":-69.98795946098852,"city_fetched":"Barnstable,US","state":"MA","country":"United States","canonicalUrl":"https://foursquare.com/v/the-yardarm/4bb7da9d53649c74a96346fb","categoryId":"4bf58dd8d48988d11b941735","category":"Pub","checkinsCount":607,"usersCount":493,"tipCount":13,"visitsCount":786,"url":"http://yardarmrestaurant.com","tier":"","message":"","currency":"","rating":8.4},{"name":"Offshore Ale Company","phone":"5086932626","address":"30 Kennebec Ave","lat":41.45614127561765,"lng":-70.5573302810946,"city_fetched":"Barnstable,US","state":"MA","country":"United States","canonicalUrl":"https://foursquare.com/v/offshore-ale-company/4beb33ab61aca5937dc48400","categoryId":"50327c8591d4c4b30a586d5d","category":"Brewery","checkinsCount":3040,"usersCount":2219,"tipCount":57,"visitsCount":3269,"url":"http://www.offshoreale.com","tier":2,"message":"Moderate","currency":"$","rating":8.4},{"name":"The Monkey Bar","phone":"5084872879","address":"149 Commercial St","lat":42.046472164639916,"lng":-70.19104857150995,"city_fetched":"Barnstable,US","state":"MA","country":"United States","canonicalUrl":"https://foursquare.com/v/the-monkey-bar/4c01858c716bc9b60506bc55","categoryId":"4bf58dd8d48988d121941735","category":"Lounge","checkinsCount":1744,"usersCount":1078,"tipCount":17,"visitsCount":1974,"tier":"","message":"","currency":"","rating":8.2},{"name":"The British Beer Company","phone":"5085409600","address":"263 Grand Ave","lat":41.54532139221905,"lng":-70.5968998723975,"city_fetched":"Barnstable,US","state":"MA","country":"United States","canonicalUrl":"https://foursquare.com/v/the-british-beer-company/4a83559af964a520d1fa1fe3","categoryId":"4bf58dd8d48988d11b941735","category":"Pub","checkinsCount":2124,"usersCount":1624,"tipCount":30,"visitsCount":2598,"url":"http://www.britishbeer.com","tier":2,"message":"Moderate","currency":"$","rating":8.2},{"name":"Devil's Purse Brewing","phone":"5086947171","address":"120 Great Western Rd","lat":41.688176849455694,"lng":-70.14203678253918,"city_fetched":"Barnstable,US","state":"MA","country":"United States","canonicalUrl":"https://foursquare.com/v/devils-purse-brewing/555f86b5498ed73c74ca124c","categoryId":"50327c8591d4c4b30a586d5d","category":"Brewery","checkinsCount":197,"usersCount":251,"tipCount":3,"visitsCount":361,"url":"http://www.devilspurse.com","tier":"","message":"","currency":"","rating":8.2},{"name":"Lost Dog Pub","phone":"5083856177","address":"1374 Route 134","lat":41.741503,"lng":-70.16043486666666,"city_fetched":"Barnstable,US","state":"MA","country":"United States","canonicalUrl":"https://foursquare.com/v/lost-dog-pub/4c0085d1ad46c9b606b58f66","categoryId":"4bf58dd8d48988d116941735","category":"Bar","checkinsCount":1376,"usersCount":812,"tipCount":12,"visitsCount":1770,"url":"http://lostdogpubs.com","tier":2,"message":"Moderate","currency":"$","rating":8.1},{"name":"Meeting house package store","phone":"5084770753","address":"231 Cotuit roaad","lat":41.701394,"lng":-70.484618,"city_fetched":"Barnstable,US","state":"MA","country":"United States","canonicalUrl":"https://foursquare.com/v/meeting-house-package-store/4b8ac817f964a5209b8032e3","categoryId":"50327c8591d4c4b30a586d5d","category":"Brewery","checkinsCount":211,"usersCount":82,"tipCount":1,"visitsCount":217,"tier":"","message":"","currency":"","rating":8},{"name":"Orleans Public House","address":"15 Cove Rd","lat":41.78799439626924,"lng":-69.98948313876294,"city_fetched":"Barnstable,US","state":"MA","country":"United States","canonicalUrl":"https://foursquare.com/v/orleans-public-house/51d61cee011cfe1a0e60c9f0","categoryId":"4bf58dd8d48988d11b941735","category":"Pub","checkinsCount":132,"usersCount":79,"tipCount":3,"visitsCount":134,"tier":"","message":"","currency":"","rating":7.9},{"name":"Hog Island Beer Co.","lat":41.78306,"lng":-70.000646,"city_fetched":"Barnstable,US","state":"MA","country":"United States","canonicalUrl":"https://foursquare.com/v/hog-island-beer-co/576310ec498ec123b88fddcc","categoryId":"50327c8591d4c4b30a586d5d","category":"Brewery","checkinsCount":87,"usersCount":80,"tipCount":1,"visitsCount":94,"tier":"","message":"","currency":"","rating":7.7},{"name":"Old Jailhouse Tavern","phone":"5082255245","address":"28 West Rd","lat":41.78308466666667,"lng":-70.00103,"city_fetched":"Barnstable,US","state":"MA","country":"United States","canonicalUrl":"https://foursquare.com/v/old-jailhouse-tavern/4b773e87f964a520348b2ee3","categoryId":"4bf58dd8d48988d11b941735","category":"Pub","checkinsCount":635,"usersCount":518,"tipCount":9,"visitsCount":795,"url":"http://jailhousetavern.com","tier":"","message":"","currency":"","rating":7.7},{"name":"Trader Ed's","phone":"5087908686","address":"50 Ocean St","lat":41.650511026382446,"lng":-70.27429431666667,"city_fetched":"Barnstable,US","state":"MA","country":"United States","canonicalUrl":"https://foursquare.com/v/trader-eds/4b580833f964a520304928e3","categoryId":"4bf58dd8d48988d116941735","category":"Bar","checkinsCount":287,"usersCount":245,"tipCount":3,"visitsCount":290,"tier":"","message":"","currency":"","rating":7.7},{"name":"The British Beer Company","phone":"5087471776","address":"6 Middle St","lat":41.81871220409601,"lng":-70.55182247704253,"city_fetched":"Barnstable,US","state":"MA","country":"United States","canonicalUrl":"https://foursquare.com/v/the-british-beer-company/4b58dae1f964a520fc6e28e3","categoryId":"4bf58dd8d48988d11b941735","category":"Pub","checkinsCount":3027,"usersCount":1071,"tipCount":20,"visitsCount":3214,"url":"http://www.britishbeer.com","tier":"","message":"","currency":"","rating":7.6},{"name":"O'Shea's Olde Inn","phone":"5083988887","address":"348 Main St","lat":41.66453984622035,"lng":-70.16814781788395,"city_fetched":"Barnstable,US","state":"MA","country":"United States","canonicalUrl":"https://foursquare.com/v/osheas-olde-inn/4b90459cf964a520648033e3","categoryId":"4bf58dd8d48988d116941735","category":"Bar","checkinsCount":657,"usersCount":432,"tipCount":13,"visitsCount":879,"url":"http://osheasoldeinne.com","tier":"","message":"","currency":"","rating":7.6},{"name":"Liam Maguire's Irish Pub","phone":"5085480285","address":"273 Main St","lat":41.552136,"lng":-70.614554,"city_fetched":"Barnstable,US","state":"MA","country":"United States","canonicalUrl":"https://foursquare.com/v/liam-maguires-irish-pub/4b0da7aaf964a5203e4d23e3","categoryId":"4bf58dd8d48988d11b941735","category":"Pub","checkinsCount":2106,"usersCount":1390,"tipCount":29,"visitsCount":2279,"url":"http://liammaguiresirishpub.com","tier":2,"message":"Moderate","currency":"$","rating":7.3},{"name":"Bobby Byrne's","phone":"5084770600","address":"Mashpee Commons","lat":41.616975548215294,"lng":-70.49001248154907,"city_fetched":"Barnstable,US","state":"MA","country":"United States","canonicalUrl":"https://foursquare.com/v/bobby-byrnes/4a79bbc8f964a5207be71fe3","categoryId":"4bf58dd8d48988d11b941735","category":"Pub","checkinsCount":1918,"usersCount":1080,"tipCount":26,"visitsCount":1967,"tier":2,"message":"Moderate","currency":"$","rating":7.3},{"name":"Bayzo's Pub at Ocean Edge Resort","address":"2907 Main St","lat":41.77301583396948,"lng":-70.05276507784829,"city_fetched":"Barnstable,US","state":"MA","country":"United States","canonicalUrl":"https://foursquare.com/v/bayzos-pub-at-ocean-edge-resort/4cb8e412c7228cfa610c0cce","categoryId":"4bf58dd8d48988d1d5941735","category":"Hotel Bar","checkinsCount":179,"usersCount":147,"tipCount":2,"visitsCount":180,"tier":"","message":"","currency":"","rating":7.3},{"name":"Lost Dog Pub","phone":"5082403647","address":"63 Orleans-Chatham Rd","lat":41.791520516127115,"lng":-69.98718017410178,"city_fetched":"Barnstable,US","state":"MA","country":"United States","canonicalUrl":"https://foursquare.com/v/lost-dog-pub/4c5cca9685a1e21effdc5711","categoryId":"4bf58dd8d48988d11b941735","category":"Pub","checkinsCount":1286,"usersCount":801,"tipCount":19,"visitsCount":1548,"url":"http://lostdogpubs.com","tier":2,"message":"Moderate","currency":"$","rating":7.3},{"name":"Dj's Famous Wings","address":"874 Main St","lat":41.555398486598214,"lng":-70.60065274965123,"city_fetched":"Barnstable,US","state":"MA","country":"United States","canonicalUrl":"https://foursquare.com/v/djs-famous-wings/512ba49ee4b066f6b5f4eb13","categoryId":"4bf58dd8d48988d11b941735","category":"Pub","checkinsCount":374,"usersCount":228,"tipCount":7,"visitsCount":462,"url":"http://djsfamilysportspub.com","tier":"","message":"","currency":"","rating":7.2},{"name":"Beetlebung","phone":"5086960053","address":"53 Circuit Ave","lat":41.45490159412237,"lng":-70.55874208197345,"city_fetched":"Barnstable,US","state":"MA","country":"United States","canonicalUrl":"https://foursquare.com/v/beetlebung/5387aa31498e8da3bcc1118c","categoryId":"4bf58dd8d48988d121941735","category":"Lounge","checkinsCount":246,"usersCount":184,"tipCount":2,"visitsCount":266,"url":"http://www.beetlebung.com","tier":"","message":"","currency":"","rating":7.2},{"name":"Hot Stove Saloon","phone":"5084329911","address":"551 Route 28","lat":41.66779521663848,"lng":-70.07443726380023,"city_fetched":"Barnstable,US","state":"MA","country":"United States","canonicalUrl":"https://foursquare.com/v/hot-stove-saloon/4af5ac83f964a5201dfb21e3","categoryId":"4bf58dd8d48988d11d941735","category":"Sports Bar","checkinsCount":1595,"usersCount":972,"tipCount":23,"visitsCount":1847,"url":"http://hotstovesaloon.com","tier":1,"message":"Cheap","currency":"$","rating":7.2},{"name":"19th Hole","phone":"5087711032","address":"11 Barnstable Rd","lat":41.653755528605224,"lng":-70.28274749630245,"city_fetched":"Barnstable,US","state":"MA","country":"United States","canonicalUrl":"https://foursquare.com/v/19th-hole/4bb914391261d13a8b4ce998","categoryId":"4bf58dd8d48988d116941735","category":"Bar","checkinsCount":568,"usersCount":406,"tipCount":4,"visitsCount":661,"tier":"","message":"","currency":"","rating":7.1},{"name":"The Fox Hole (Osterville Veteran's Assn)","address":"753 Main St","lat":41.627701,"lng":-70.38317,"city_fetched":"Barnstable,US","state":"MA","country":"United States","canonicalUrl":"https://foursquare.com/v/the-fox-hole-osterville-veterans-assn/4b580e96f964a520dd4928e3","categoryId":"4bf58dd8d48988d118941735","category":"Dive Bar","checkinsCount":699,"usersCount":241,"tipCount":7,"visitsCount":712,"tier":"","message":"","currency":"","rating":7},{"name":"Buoy Bar","address":"161 Commercial St","lat":42.047214,"lng":-70.190168,"city_fetched":"Barnstable,US","state":"MA","country":"United States","canonicalUrl":"https://foursquare.com/v/buoy-bar/4c40f1fdda3dc928232fc8b9","categoryId":"4bf58dd8d48988d1d8941735","category":"Gay Bar","checkinsCount":539,"usersCount":159,"tipCount":3,"visitsCount":540,"tier":"","message":"","currency":"","rating":6.9},{"name":"The Duck Inn Pub","phone":"5088277343","twitter":"duckinnpub","address":"447 Main St","lat":41.65177046220616,"lng":-70.28589804865818,"city_fetched":"Barnstable,US","state":"MA","country":"United States","canonicalUrl":"https://foursquare.com/duckinnpub","categoryId":"4bf58dd8d48988d118941735","category":"Dive Bar","checkinsCount":474,"usersCount":256,"tipCount":10,"visitsCount":477,"url":"http://www.duckinnpub.com","tier":"","message":"","currency":"","rating":6.7},{"name":"The Quarterdeck Lounge","phone":"5087711550","address":"247 Iyannough Rd","lat":41.66115095542767,"lng":-70.27887612991407,"city_fetched":"Barnstable,US","state":"MA","country":"United States","canonicalUrl":"https://foursquare.com/v/the-quarterdeck-lounge/4b511dc8f964a5204a4327e3","categoryId":"4bf58dd8d48988d118941735","category":"Dive Bar","checkinsCount":2763,"usersCount":267,"tipCount":19,"visitsCount":2791,"tier":"","message":"","currency":"","rating":6.6},{"name":"The Ritz Cafe","phone":"5086939851","address":"4 Circuit Ave","lat":41.457163621288785,"lng":-70.55758591611395,"city_fetched":"Barnstable,US","state":"MA","country":"United States","canonicalUrl":"https://foursquare.com/v/the-ritz-cafe/506e1ccde4b035622ad01856","categoryId":"4bf58dd8d48988d116941735","category":"Bar","checkinsCount":127,"usersCount":80,"tipCount":2,"visitsCount":127,"tier":"","message":"","currency":"","rating":6.5},{"name":"Red Faced Jacks","phone":"5087715225","twitter":"redfacejacks","address":"585 Route 28","lat":41.649577617645264,"lng":-70.23101033,"city_fetched":"Barnstable,US","state":"MA","country":"United States","canonicalUrl":"https://foursquare.com/redfacejacks","categoryId":"4bf58dd8d48988d11d941735","category":"Sports Bar","checkinsCount":1614,"usersCount":1157,"tipCount":12,"visitsCount":2233,"url":"http://www.redfacejacks.com","tier":1,"message":"Cheap","currency":"$","rating":6.4},{"name":"Dinos Sports Bar","phone":"5085392627","address":"401 Nathan Ellis Hwy","lat":41.61648598262533,"lng":-70.51696738647142,"city_fetched":"Barnstable,US","state":"MA","country":"United States","canonicalUrl":"https://foursquare.com/v/dinos-sports-bar/4c44be9cf799e21e6e42aea2","categoryId":"4bf58dd8d48988d11d941735","category":"Sports Bar","checkinsCount":1198,"usersCount":511,"tipCount":12,"visitsCount":1450,"tier":"","message":"","currency":"","rating":6.1},{"name":"Rum Runners Bar & Grill","address":"243 Lower County Rd","lat":41.65766271210162,"lng":-70.1372574900097,"city_fetched":"Barnstable,US","state":"MA","country":"United States","canonicalUrl":"https://foursquare.com/v/rum-runners-bar--grill/4c73353a9e706dcbdd174d62","categoryId":"4bf58dd8d48988d116941735","category":"Bar","checkinsCount":306,"usersCount":228,"tipCount":4,"visitsCount":329,"tier":"","message":"","currency":"","rating":6.1},{"name":"The Steak House and Sports Bar","phone":"5087757100","address":"72 North St","lat":41.65360860507678,"lng":-70.2855144029784,"city_fetched":"Barnstable,US","state":"MA","country":"United States","canonicalUrl":"https://foursquare.com/v/the-steak-house-and-sports-bar/4b6b6d67f964a5200f082ce3","categoryId":"4bf58dd8d48988d11d941735","category":"Sports Bar","checkinsCount":383,"usersCount":233,"tipCount":6,"visitsCount":383,"tier":"","message":"","currency":"","rating":6},{"name":"Zachary's Pub","phone":"5084771900","address":"100 Great Neck Rd N","lat":41.64323134973612,"lng":-70.4826212828753,"city_fetched":"Barnstable,US","state":"MA","country":"United States","canonicalUrl":"https://foursquare.com/v/zacharys-pub/4ca57d82f47ea1439dd35721","categoryId":"4bf58dd8d48988d11a941735","category":"Other Nightlife","checkinsCount":325,"usersCount":255,"tipCount":9,"visitsCount":434,"tier":"","message":"","currency":"","rating":5.9},{"name":"Bud's Country Lounge","phone":"5087712505","address":"3 Bearse Rd","lat":41.673724113548694,"lng":-70.30882332067058,"city_fetched":"Barnstable,US","state":"MA","country":"United States","canonicalUrl":"https://foursquare.com/v/buds-country-lounge/4c2ff553a0ced13ae488116e","categoryId":"4bf58dd8d48988d116941735","category":"Bar","checkinsCount":569,"usersCount":152,"tipCount":4,"visitsCount":574,"tier":"","message":"","currency":"","rating":5.7},{"name":"Pufferbellies","phone":"5087904300","address":"183 Iyannough Rd","lat":41.65889024734497,"lng":-70.2787846326828,"city_fetched":"Barnstable,US","state":"MA","country":"United States","canonicalUrl":"https://foursquare.com/v/pufferbellies/4c83fcd677be76b036ddab76","categoryId":"4bf58dd8d48988d11f941735","category":"Nightclub","checkinsCount":155,"usersCount":122,"tipCount":4,"visitsCount":158,"url":"http://www.pufferbellies.com","tier":"","message":"","currency":"","rating":5.6}]