[{"name":"South Side Tavern","phone":"8024763637","address":"107 S Main St","lat":44.191035,"lng":-72.499096,"city_fetched":"Barre,US","state":"VT","country":"United States","canonicalUrl":"https://foursquare.com/v/south-side-tavern/4c79d44cbd346dcbb6f8f6ef","categoryId":"4bf58dd8d48988d116941735","category":"Bar","checkinsCount":569,"usersCount":92,"tipCount":1,"visitsCount":613,"tier":"","message":"","currency":"","rating":7.2},{"name":"The Quarry Grill and Tavern","phone":"8024797002","address":"210 N Main St","lat":44.1989187,"lng":-72.50345170497894,"city_fetched":"Barre,US","state":"VT","country":"United States","canonicalUrl":"https://foursquare.com/v/the-quarry-grill-and-tavern/4e34b16f1f6e9e21ad47090f","categoryId":"4bf58dd8d48988d116941735","category":"Bar","checkinsCount":317,"usersCount":125,"tipCount":12,"visitsCount":335,"tier":"","message":"","currency":"","rating":6.4},{"name":"Gusto's","phone":"8024767919","address":"28 Prospect St","lat":44.19635910613896,"lng":-72.5028133392334,"city_fetched":"Barre,US","state":"VT","country":"United States","canonicalUrl":"https://foursquare.com/v/gustos/4c4a18db5609c9b6e24f2e8f","categoryId":"4bf58dd8d48988d116941735","category":"Bar","checkinsCount":373,"usersCount":145,"tipCount":2,"visitsCount":406,"tier":"","message":"","currency":"","rating":6.4}]