[{"name":"Batavia Downs Gaming","phone":"5853433750","twitter":"bataviadowns","address":"8315 Park Rd","lat":43.00958739291592,"lng":-78.20519664717104,"city_fetched":"Batavia","state":"NY","country":"United States","canonicalUrl":"https://foursquare.com/v/batavia-downs-gaming/4b398b3df964a5209b5d25e3","category":"Racetrack","checkinsCount":8060,"usersCount":1663,"tipCount":34,"visitsCount":9887,"url":"http://www.bataviadownsgaming.com","tier":"","message":"","currency":"","rating":8.5},{"name":"Center Street Smokehouse","phone":"5853437470","address":"20 Center St","lat":42.996389865875244,"lng":-78.18236,"city_fetched":"Batavia","state":"NY","country":"United States","canonicalUrl":"https://foursquare.com/v/center-street-smokehouse/4ba57286f964a5200d0839e3","category":"BBQ Joint","checkinsCount":972,"usersCount":528,"tipCount":14,"visitsCount":1185,"url":"http://www.centerstreetsmokehouse.com","tier":2,"message":"Moderate","currency":"$","rating":8.2},{"name":"Tully's Good Times","phone":"5853439030","twitter":"tullysgoodtimes","address":"522 E Main St","lat":42.99541956184529,"lng":-78.17012786865234,"city_fetched":"Batavia","state":"NY","country":"United States","canonicalUrl":"https://foursquare.com/v/tullys-good-times/4b2c171ef964a52064c124e3","category":"American Restaurant","checkinsCount":1438,"usersCount":846,"tipCount":18,"visitsCount":2094,"url":"http://www.tullysgoodtimes.com","tier":2,"message":"Moderate","currency":"$","rating":8.1},{"name":"Bourbon & Burger Co.","phone":"5852194242","twitter":"bourbonburger","address":"9 Jackson St","lat":42.99686648576847,"lng":-78.18345391577593,"city_fetched":"Batavia","state":"NY","country":"United States","canonicalUrl":"https://foursquare.com/v/bourbon--burger-co/4de1d294e4cd056f7436652f","category":"Burger Joint","checkinsCount":882,"usersCount":416,"tipCount":16,"visitsCount":1043,"url":"http://www.bourbonandburger.com","tier":"","message":"","currency":"","rating":7.9},{"name":"34 Rush","phone":"5853433750","twitter":"34rush","address":"8315 Park Rd","lat":43.00950360769458,"lng":-78.20520777616235,"city_fetched":"Batavia","state":"NY","country":"United States","canonicalUrl":"https://foursquare.com/v/34-rush/524f27cb11d28b42d29c057b","category":"Sports Bar","checkinsCount":1301,"usersCount":40,"tipCount":2,"visitsCount":1325,"url":"http://www.34rush.com","tier":"","message":"","currency":"","rating":7.1},{"name":"TF Brown's Restaurant","phone":"5853431547","address":"214 E Main St","lat":42.99633218859671,"lng":-78.18058200376778,"city_fetched":"Batavia","state":"NY","country":"United States","canonicalUrl":"https://foursquare.com/v/tf-browns-restaurant/4baea4a4f964a5202dca3be3","category":"Bar","checkinsCount":717,"usersCount":360,"tipCount":8,"visitsCount":1066,"tier":"","message":"","currency":"","rating":6.5}]