[{"name":"Olive Or Twist","phone":"2254562188","twitter":"oliveortwistbr","address":"7248 Perkins Road Suite A","lat":30.396778753417426,"lng":-91.11373076912199,"city_fetched":"Baton Rouge,US","state":"LA","country":"United States","canonicalUrl":"https://foursquare.com/v/olive-or-twist/50b54343e4b01cb8386822c8","categoryId":"4bf58dd8d48988d116941735","category":"Bar","checkinsCount":1192,"usersCount":511,"tipCount":17,"visitsCount":1651,"url":"http://www.oliveortwistbr.com","tier":3,"message":"Expensive","currency":"$","rating":9},{"name":"The Bulldog","phone":"2253039400","address":"4385 Perkins Rd","lat":30.41780437238462,"lng":-91.14492774009705,"city_fetched":"Baton Rouge,US","state":"LA","country":"United States","canonicalUrl":"https://foursquare.com/v/the-bulldog/4b47cdbff964a520643f26e3","categoryId":"4bf58dd8d48988d116941735","category":"Bar","checkinsCount":7907,"usersCount":2182,"tipCount":49,"visitsCount":8753,"url":"http://bulldog-batonrouge.draftfreak.com","tier":1,"message":"Cheap","currency":"$","rating":8.9},{"name":"Churchill's","phone":"2259274211","address":"7949 Jefferson Hwy #C","lat":30.426541648679283,"lng":-91.10584135099619,"neighborhood":"Mid City South","city_fetched":"Baton Rouge,US","state":"LA","country":"United States","canonicalUrl":"https://foursquare.com/v/churchills/4b637c76f964a520a27d2ae3","categoryId":"4bf58dd8d48988d122941735","category":"Whisky Bar","checkinsCount":1839,"usersCount":490,"tipCount":13,"visitsCount":2236,"url":"http://churchillswine-cigars.com","tier":"","message":"","currency":"","rating":8.5},{"name":"Bald Eagle Pub","address":"140 Main St","lat":30.451257389927164,"lng":-91.18973770789144,"neighborhood":"Downtown Baton Rouge","city_fetched":"Baton Rouge,US","state":"LA","country":"United States","canonicalUrl":"https://foursquare.com/v/bald-eagle-pub/4fb45919e4b0292fd3189cc8","categoryId":"4bf58dd8d48988d11b941735","category":"Pub","checkinsCount":768,"usersCount":121,"tipCount":7,"visitsCount":801,"url":"http://thebaldeaglepub.com","tier":"","message":"","currency":"","rating":8.4},{"name":"Daiquiri Cafe","phone":"2259264100","address":"Greenwell Springs Rd","lat":30.481224,"lng":-91.09986662864685,"neighborhood":"Greenwell Springs-Central","city_fetched":"Baton Rouge,US","state":"LA","country":"United States","canonicalUrl":"https://foursquare.com/v/daiquiri-cafe/4ce87b01d99f721e0bedb073","categoryId":"4bf58dd8d48988d116941735","category":"Bar","checkinsCount":142,"usersCount":126,"tipCount":1,"visitsCount":223,"tier":"","message":"","currency":"","rating":8.3},{"name":"Radio Bar","address":"3079 Government St","lat":30.44458,"lng":-91.156793,"neighborhood":"Mid City South","city_fetched":"Baton Rouge,US","state":"LA","country":"United States","canonicalUrl":"https://foursquare.com/v/radio-bar/4e8bbed9e5fa774802ae3b0b","categoryId":"4bf58dd8d48988d116941735","category":"Bar","checkinsCount":2726,"usersCount":1152,"tipCount":15,"visitsCount":3598,"url":"http://theradiobar.com","tier":2,"message":"Moderate","currency":"$","rating":8.3},{"name":"Corporate Brew and Draft","phone":"2257718508","address":"2561 Citiplace Ct Ste 300","lat":30.424114270370115,"lng":-91.12933609440411,"neighborhood":"Mid City South","city_fetched":"Baton Rouge,US","state":"LA","country":"United States","canonicalUrl":"https://foursquare.com/v/corporate-brew-and-draft/5491103a498e4e2727d0b56a","categoryId":"4bf58dd8d48988d117941735","category":"Beer Garden","checkinsCount":260,"usersCount":75,"tipCount":5,"visitsCount":293,"tier":"","message":"","currency":"","rating":8.2},{"name":"Londoner Pub & Grill","phone":"2252929291","twitter":"londonbr","address":"4215 S Sherwood Forest Blvd","lat":30.41486283625244,"lng":-91.05138210938456,"city_fetched":"Baton Rouge,US","state":"LA","country":"United States","canonicalUrl":"https://foursquare.com/v/londoner-pub--grill/4ccc7047c9b8468890e1bcc3","categoryId":"4bf58dd8d48988d116941735","category":"Bar","checkinsCount":4215,"usersCount":1410,"tipCount":40,"visitsCount":5020,"url":"http://www.londonerbr.com","tier":2,"message":"Moderate","currency":"$","rating":8.2},{"name":"Bin 77","phone":"2257632288","address":"10111 Perkins Rowe","lat":30.379249734976234,"lng":-91.09405917780572,"neighborhood":"South Baton Rouge","city_fetched":"Baton Rouge,US","state":"LA","country":"United States","canonicalUrl":"https://foursquare.com/v/bin-77/50108e7ce4b0bff6020ed7dc","categoryId":"4bf58dd8d48988d123941735","category":"Wine Bar","checkinsCount":671,"usersCount":374,"tipCount":10,"visitsCount":734,"url":"http://bin77.com","tier":"","message":"","currency":"","rating":8.2},{"name":"Lock and Key Whiskey Bar","phone":"2259261828","twitter":"lockandkeybar","address":"5110 Corporate Blvd","lat":30.42488989036268,"lng":-91.13730025145723,"neighborhood":"Mid City South","city_fetched":"Baton Rouge,US","state":"LA","country":"United States","canonicalUrl":"https://foursquare.com/v/lock-and-key-whiskey-bar/52ae140211d2780cfe55ea85","categoryId":"4bf58dd8d48988d122941735","category":"Whisky Bar","checkinsCount":268,"usersCount":129,"tipCount":3,"visitsCount":301,"url":"http://lockandkeywhiskeybar.com","tier":"","message":"","currency":"","rating":8},{"name":"Mango's Beach Volleyball Bar","phone":"2252929764","address":"11550 W Bricksome Ave","lat":30.42424323356596,"lng":-91.05403790927691,"city_fetched":"Baton Rouge,US","state":"LA","country":"United States","canonicalUrl":"https://foursquare.com/v/mangos-beach-volleyball-bar/4bf35218e5eba593bf7c1e90","categoryId":"4bf58dd8d48988d116941735","category":"Bar","checkinsCount":1151,"usersCount":300,"tipCount":5,"visitsCount":1579,"url":"http://mangosvolleyball.com","tier":"","message":"","currency":"","rating":7.9},{"name":"Duvic's","phone":"2253364821","address":"2854 Kalurah St","lat":30.425497959849995,"lng":-91.15965956399064,"neighborhood":"Mid City South","city_fetched":"Baton Rouge,US","state":"LA","country":"United States","canonicalUrl":"https://foursquare.com/v/duvics/4b48aeedf964a520b95226e3","categoryId":"4bf58dd8d48988d11e941735","category":"Cocktail Bar","checkinsCount":1420,"usersCount":461,"tipCount":8,"visitsCount":1547,"url":"http://duvicsbar.com","tier":"","message":"","currency":"","rating":7.9},{"name":"Big Heads Tavern","lat":30.451126307502044,"lng":-91.02348314770289,"neighborhood":"Broadmoor-Sherwood","city_fetched":"Baton Rouge,US","state":"LA","country":"United States","canonicalUrl":"https://foursquare.com/v/big-heads-tavern/4d76c6bb1a21224b50853caf","categoryId":"4bf58dd8d48988d118941735","category":"Dive Bar","checkinsCount":404,"usersCount":166,"tipCount":7,"visitsCount":576,"tier":"","message":"","currency":"","rating":7.9},{"name":"Fred's Bar & Grill","phone":"2257663909","twitter":"fredsbar","address":"1184 Bob Pettit Blvd","lat":30.396443608235433,"lng":-91.18002712726593,"city_fetched":"Baton Rouge,US","state":"LA","country":"United States","canonicalUrl":"https://foursquare.com/v/freds-bar--grill/4b48a48ef964a520595126e3","categoryId":"4bf58dd8d48988d116941735","category":"Bar","checkinsCount":3648,"usersCount":1109,"tipCount":7,"visitsCount":4267,"url":"http://www.fredsbar.com","tier":"","message":"","currency":"","rating":7.8},{"name":"Tin Roof Brewing Company","phone":"2253777022","address":"1624 Wyoming St","lat":30.432880688270103,"lng":-91.18894118824176,"city_fetched":"Baton Rouge,US","state":"LA","country":"United States","canonicalUrl":"https://foursquare.com/v/tin-roof-brewing-company/4ce32349c42f5481c6993cb7","categoryId":"50327c8591d4c4b30a586d5d","category":"Brewery","checkinsCount":717,"usersCount":445,"tipCount":11,"visitsCount":956,"url":"http://tinroofbeer.com","tier":"","message":"","currency":"","rating":7.8},{"name":"Lakeside Daiquiri & Grill","phone":"2257678705","address":"7490 Burbank Dr","lat":30.3753441,"lng":-91.14178699,"city_fetched":"Baton Rouge,US","state":"LA","country":"United States","canonicalUrl":"https://foursquare.com/v/lakeside-daiquiri--grill/4b984379f964a520253835e3","categoryId":"4bf58dd8d48988d116941735","category":"Bar","checkinsCount":775,"usersCount":368,"tipCount":3,"visitsCount":988,"tier":"","message":"","currency":"","rating":7.8},{"name":"George's Place","phone":"2253879798","address":"860 Saint Louis St","lat":30.439818,"lng":-91.187714,"city_fetched":"Baton Rouge,US","state":"LA","country":"United States","canonicalUrl":"https://foursquare.com/v/georges-place/4ba1a9f5f964a520afc637e3","categoryId":"4bf58dd8d48988d116941735","category":"Bar","checkinsCount":1026,"usersCount":380,"tipCount":9,"visitsCount":1119,"url":"http://georgesplacebr.com","tier":"","message":"","currency":"","rating":7.8},{"name":"Tallulah Wine Bar","lat":30.387182139285557,"lng":-91.09450849612189,"neighborhood":"South Baton Rouge","city_fetched":"Baton Rouge,US","state":"LA","country":"United States","canonicalUrl":"https://foursquare.com/v/tallulah-wine-bar/4ebb1a3f30f8ec57eecf3040","categoryId":"4bf58dd8d48988d11e941735","category":"Cocktail Bar","checkinsCount":372,"usersCount":187,"tipCount":4,"visitsCount":380,"tier":"","message":"","currency":"","rating":7.8},{"name":"Bogie's Bar","phone":"2257664241","twitter":"bogiesbr","address":"705 E Boyd Dr","lat":30.399197,"lng":-91.176387,"city_fetched":"Baton Rouge,US","state":"LA","country":"United States","canonicalUrl":"https://foursquare.com/v/bogies-bar/4b48a702f964a520b05126e3","categoryId":"4bf58dd8d48988d116941735","category":"Bar","checkinsCount":2145,"usersCount":644,"tipCount":4,"visitsCount":2277,"url":"http://www.bogiesbr.com","tier":"","message":"","currency":"","rating":7.8},{"name":"Hound Dogs","phone":"2253440807","address":"668 Main St","lat":30.451448203070093,"lng":-91.18357869350523,"neighborhood":"Downtown Baton Rouge","city_fetched":"Baton Rouge,US","state":"LA","country":"United States","canonicalUrl":"https://foursquare.com/v/hound-dogs/4da12fb9b1c937045b7dc9a1","categoryId":"4bf58dd8d48988d116941735","category":"Bar","checkinsCount":312,"usersCount":139,"tipCount":8,"visitsCount":322,"tier":1,"message":"Cheap","currency":"$","rating":7.6},{"name":"Mud And Water","twitter":"mudandwaterbrla","address":"174 South Blvd","lat":30.439469740468034,"lng":-91.18897305887673,"city_fetched":"Baton Rouge,US","state":"LA","country":"United States","canonicalUrl":"https://foursquare.com/v/mud-and-water/50776758e4b0753d5866a560","categoryId":"4bf58dd8d48988d116941735","category":"Bar","checkinsCount":294,"usersCount":176,"tipCount":2,"visitsCount":298,"url":"http://mudandaterbrla.squarespace.com","tier":"","message":"","currency":"","rating":7.6},{"name":"Lucy's Retired Surfers Bar & Restaurant","phone":"2253610372","twitter":"lucysbatonroug","address":"151 3rd St","lat":30.447811258290507,"lng":-91.1882224967651,"city_fetched":"Baton Rouge,US","state":"LA","country":"United States","canonicalUrl":"https://foursquare.com/v/lucys-retired-surfers-bar--restaurant/4b54e8fff964a520bed227e3","categoryId":"4bf58dd8d48988d116941735","category":"Bar","checkinsCount":3416,"usersCount":1541,"tipCount":50,"visitsCount":3530,"url":"http://www.lucysretiredsurfers.com/baton-rouge","tier":2,"message":"Moderate","currency":"$","rating":7.5},{"name":"The Cove","phone":"2252019900","address":"CitiPlace Court","lat":30.423943555800083,"lng":-91.1292705135569,"neighborhood":"Mid City South","city_fetched":"Baton Rouge,US","state":"LA","country":"United States","canonicalUrl":"https://foursquare.com/v/the-cove/4b68cb40f964a520448d2be3","categoryId":"4bf58dd8d48988d116941735","category":"Bar","checkinsCount":2264,"usersCount":777,"tipCount":33,"visitsCount":2378,"url":"http://portroyalcove.com/indexC.html","tier":"","message":"","currency":"","rating":7.5},{"name":"Boudreaux & Thibodeaux's","phone":"2256362442","twitter":"bandtlive","address":"214 3rd St","lat":30.44862072321231,"lng":-91.18826940650209,"city_fetched":"Baton Rouge,US","state":"LA","country":"United States","canonicalUrl":"https://foursquare.com/v/boudreaux--thibodeauxs/4b48b01cf964a520da5226e3","categoryId":"4bf58dd8d48988d116941735","category":"Bar","checkinsCount":1631,"usersCount":1043,"tipCount":13,"visitsCount":1809,"tier":2,"message":"Moderate","currency":"$","rating":7.5},{"name":"The Pelican House","phone":"2254565200","twitter":"pelicanhousebr","address":"2572 Citiplace Ct","lat":30.42276467843018,"lng":-91.12914403650072,"neighborhood":"Mid City South","city_fetched":"Baton Rouge,US","state":"LA","country":"United States","canonicalUrl":"https://foursquare.com/v/the-pelican-house/50fea03ce4b0382949aa8f2b","categoryId":"4bf58dd8d48988d116941735","category":"Bar","checkinsCount":1547,"usersCount":873,"tipCount":17,"visitsCount":2092,"url":"http://thepelicanbar.com","tier":2,"message":"Moderate","currency":"$","rating":7.5},{"name":"The House","address":"1003 Bob Pettit Blvd","lat":30.396091350523523,"lng":-91.1785883532386,"city_fetched":"Baton Rouge,US","state":"LA","country":"United States","canonicalUrl":"https://foursquare.com/v/the-house/4c990ba305a1b1f7b3bd9253","categoryId":"4bf58dd8d48988d116941735","category":"Bar","checkinsCount":925,"usersCount":320,"tipCount":2,"visitsCount":962,"tier":"","message":"","currency":"","rating":7.4},{"name":"Happy's Irish Pub","phone":"2253304533","twitter":"happysirishpub","address":"11445 Coursey Blvd","lat":30.411717295646667,"lng":-91.054287,"city_fetched":"Baton Rouge,US","state":"LA","country":"United States","canonicalUrl":"https://foursquare.com/v/happys-irish-pub/4b9bfe4af964a5206a3e36e3","categoryId":"4bf58dd8d48988d11b941735","category":"Pub","checkinsCount":1930,"usersCount":530,"tipCount":14,"visitsCount":1959,"url":"http://happysirishpub.com","tier":"","message":"","currency":"","rating":7.3},{"name":"Reggie's","phone":"2257579555","address":"1176 Bob Pettit Blvd","lat":30.39628166126838,"lng":-91.17995738983154,"city_fetched":"Baton Rouge,US","state":"LA","country":"United States","canonicalUrl":"https://foursquare.com/v/reggies/4b48a4d2f964a520615126e3","categoryId":"4bf58dd8d48988d116941735","category":"Bar","checkinsCount":1018,"usersCount":344,"tipCount":3,"visitsCount":1020,"url":"http://www.drinkatreggies.com","tier":"","message":"","currency":"","rating":7.3},{"name":"The EndZone","lat":30.507349872811695,"lng":-91.15000857941429,"neighborhood":"Mid City North","city_fetched":"Baton Rouge,US","state":"LA","country":"United States","canonicalUrl":"https://foursquare.com/v/the-endzone/4bc9022e937ca593e807a592","categoryId":"4bf58dd8d48988d11d941735","category":"Sports Bar","checkinsCount":116,"usersCount":164,"tipCount":2,"visitsCount":339,"tier":"","message":"","currency":"","rating":7.2},{"name":"Draft House Bar","twitter":"drafthousebar","address":"421 3rd St","lat":30.450638100550346,"lng":-91.1885414840152,"neighborhood":"Downtown Baton Rouge","city_fetched":"Baton Rouge,US","state":"LA","country":"United States","canonicalUrl":"https://foursquare.com/v/draft-house-bar/54975108498e887610989af8","categoryId":"4bf58dd8d48988d117941735","category":"Beer Garden","checkinsCount":203,"usersCount":111,"tipCount":4,"visitsCount":243,"tier":"","message":"","currency":"","rating":7.2},{"name":"Port Royal","phone":"2259062372","address":"2363 College Dr","lat":30.426411274216335,"lng":-91.13694885944703,"neighborhood":"Mid City South","city_fetched":"Baton Rouge,US","state":"LA","country":"United States","canonicalUrl":"https://foursquare.com/v/port-royal/4b72050bf964a520706a2de3","categoryId":"4bf58dd8d48988d116941735","category":"Bar","checkinsCount":596,"usersCount":218,"tipCount":10,"visitsCount":614,"tier":"","message":"","currency":"","rating":7.2},{"name":"Gameday Daiquiri","address":"4506 Jamestown Ave","lat":30.420482754707336,"lng":-91.138357,"city_fetched":"Baton Rouge,US","state":"LA","country":"United States","canonicalUrl":"https://foursquare.com/v/gameday-daiquiri/4be8c70788ed2d7f0d59cc1d","categoryId":"4bf58dd8d48988d11d941735","category":"Sports Bar","checkinsCount":487,"usersCount":208,"tipCount":0,"visitsCount":487,"tier":"","message":"","currency":"","rating":7.1},{"name":"Splash Nightclub","phone":"2252429491","address":"2183 Highland Rd","lat":30.42714679247848,"lng":-91.18040337980067,"city_fetched":"Baton Rouge,US","state":"LA","country":"United States","canonicalUrl":"https://foursquare.com/v/splash-nightclub/4bb8082c53649c740dab46fb","categoryId":"4bf58dd8d48988d1d8941735","category":"Gay Bar","checkinsCount":1279,"usersCount":531,"tipCount":9,"visitsCount":1570,"url":"http://www.splashbr.com","tier":"","message":"","currency":"","rating":7.1},{"name":"French Quarter Daiquiri","address":"5625 Essen Ln","lat":30.396665646763243,"lng":-91.10793412478205,"neighborhood":"South Baton Rouge","city_fetched":"Baton Rouge,US","state":"LA","country":"United States","canonicalUrl":"https://foursquare.com/v/french-quarter-daiquiri/4b91a51ef964a52078cc33e3","categoryId":"4bf58dd8d48988d116941735","category":"Bar","checkinsCount":904,"usersCount":396,"tipCount":9,"visitsCount":982,"tier":1,"message":"Cheap","currency":"$","rating":7.1},{"name":"Ivar's Sports Bar & Grill","phone":"2253880021","address":"2954 Perkins Rd","lat":30.42474844831873,"lng":-91.15860951853035,"city_fetched":"Baton Rouge,US","state":"LA","country":"United States","canonicalUrl":"https://foursquare.com/v/ivars-sports-bar--grill/4b48aeaef964a520ae5226e3","categoryId":"4bf58dd8d48988d116941735","category":"Bar","checkinsCount":1640,"usersCount":533,"tipCount":5,"visitsCount":1701,"tier":"","message":"","currency":"","rating":7.1},{"name":"Blend","address":"304 Laurel St","lat":30.450426429290147,"lng":-91.1879691850954,"neighborhood":"Downtown Baton Rouge","city_fetched":"Baton Rouge,US","state":"LA","country":"United States","canonicalUrl":"https://foursquare.com/v/blend/4fd17655e4b0f3584fdb0691","categoryId":"4bf58dd8d48988d123941735","category":"Wine Bar","checkinsCount":455,"usersCount":300,"tipCount":8,"visitsCount":532,"url":"http://www.blendbr.com","tier":"","message":"","currency":"","rating":7},{"name":"Daiquiri Cafe","phone":"2252915033","address":"2742 S Sherwood Forest Blvd","lat":30.42677022309052,"lng":-91.05488892348826,"city_fetched":"Baton Rouge,US","state":"LA","country":"United States","canonicalUrl":"https://foursquare.com/v/daiquiri-cafe/4b886663f964a52005f531e3","categoryId":"4bf58dd8d48988d116941735","category":"Bar","checkinsCount":536,"usersCount":220,"tipCount":7,"visitsCount":549,"tier":"","message":"","currency":"","rating":7},{"name":"JL's Place","phone":"2257657557","twitter":"jlsplacebr","address":"1115 Bob Pettit Blvd","lat":30.395963945047832,"lng":-91.17930122248005,"city_fetched":"Baton Rouge,US","state":"LA","country":"United States","canonicalUrl":"https://foursquare.com/v/jls-place/4b108f77f964a520d97223e3","categoryId":"4bf58dd8d48988d116941735","category":"Bar","checkinsCount":1362,"usersCount":410,"tipCount":3,"visitsCount":1380,"tier":"","message":"","currency":"","rating":7},{"name":"Who's Who Wine & Spirits","address":"10330 Airline Hwy","lat":30.41650607262769,"lng":-91.07159478977556,"city_fetched":"Baton Rouge,US","state":"LA","country":"United States","canonicalUrl":"https://foursquare.com/v/whos-who-wine--spirits/4b9ad294f964a52025d935e3","categoryId":"4bf58dd8d48988d123941735","category":"Wine Bar","checkinsCount":354,"usersCount":147,"tipCount":3,"visitsCount":365,"tier":"","message":"","currency":"","rating":6.9},{"name":"The Station Sports Bar and Grill","address":"4608 Bennington Ave","lat":30.41995628662704,"lng":-91.1391369086362,"city_fetched":"Baton Rouge,US","state":"LA","country":"United States","canonicalUrl":"https://foursquare.com/v/the-station-sports-bar-and-grill/4d193fcc81cea35d0cd5f3ec","categoryId":"4bf58dd8d48988d11d941735","category":"Sports Bar","checkinsCount":1432,"usersCount":371,"tipCount":8,"visitsCount":1482,"url":"http://stationsportsbar.com","tier":"","message":"","currency":"","rating":6.9},{"name":"Happy's Irish Pub","phone":"2253891282","twitter":"happysirishpub","address":"136 3rd St","lat":30.44777971932325,"lng":-91.1880817678701,"city_fetched":"Baton Rouge,US","state":"LA","country":"United States","canonicalUrl":"https://foursquare.com/v/happys-irish-pub/4b48e112f964a520635b26e3","categoryId":"4bf58dd8d48988d116941735","category":"Bar","checkinsCount":3951,"usersCount":1170,"tipCount":23,"visitsCount":4097,"tier":2,"message":"Moderate","currency":"$","rating":6.8},{"name":"Hooters Siegen Lane","phone":"2252931900","twitter":"hooterssiegenln","address":"6454 Siegen Ln","lat":30.3914608,"lng":-91.06132079999999,"city_fetched":"Baton Rouge,US","state":"LA","country":"United States","canonicalUrl":"https://foursquare.com/v/hooters-siegen-lane/4b50a572f964a520292b27e3","categoryId":"4bf58dd8d48988d116941735","category":"Bar","checkinsCount":1451,"usersCount":803,"tipCount":12,"visitsCount":1727,"url":"http://hootersoflouisiana.com","tier":"","message":"","currency":"","rating":6.7},{"name":"Phil Brady's","lat":30.444381,"lng":-91.13996028900146,"neighborhood":"Mid City South","city_fetched":"Baton Rouge,US","state":"LA","country":"United States","canonicalUrl":"https://foursquare.com/v/phil-bradys/4baecadcf964a5206cd83be3","categoryId":"4bf58dd8d48988d116941735","category":"Bar","checkinsCount":259,"usersCount":134,"tipCount":5,"visitsCount":274,"tier":"","message":"","currency":"","rating":6.7},{"name":"CJ's Daiquiris","phone":"2254482188","address":"9618 Jefferson Hwy","lat":30.410138016671038,"lng":-91.0779992450781,"city_fetched":"Baton Rouge,US","state":"LA","country":"United States","canonicalUrl":"https://foursquare.com/v/cjs-daiquiris/4b973b3df964a520defc34e3","categoryId":"4bf58dd8d48988d116941735","category":"Bar","checkinsCount":183,"usersCount":97,"tipCount":6,"visitsCount":187,"tier":"","message":"","currency":"","rating":6.7},{"name":"Red Star","phone":"2253304562","twitter":"redstarbr","address":"222 Laurel St","lat":30.450438,"lng":-91.189007,"neighborhood":"Downtown Baton Rouge","city_fetched":"Baton Rouge,US","state":"LA","country":"United States","canonicalUrl":"https://foursquare.com/v/red-star/4b48b054f964a520e15226e3","categoryId":"4bf58dd8d48988d116941735","category":"Bar","checkinsCount":1104,"usersCount":393,"tipCount":11,"visitsCount":1136,"tier":"","message":"","currency":"","rating":6.6},{"name":"Brightside Bar & Grill","phone":"2257677791","address":"1623 Brightside Dr","lat":30.387189065134628,"lng":-91.17626667022705,"city_fetched":"Baton Rouge,US","state":"LA","country":"United States","canonicalUrl":"https://foursquare.com/v/brightside-bar--grill/4b4813c4f964a520ba4726e3","categoryId":"4bf58dd8d48988d116941735","category":"Bar","checkinsCount":989,"usersCount":489,"tipCount":10,"visitsCount":1145,"tier":1,"message":"Cheap","currency":"$","rating":6.6},{"name":"Daiquiri Cafe","phone":"2257670050","address":"133 Lee Dr","lat":30.394902,"lng":-91.159383,"city_fetched":"Baton Rouge,US","state":"LA","country":"United States","canonicalUrl":"https://foursquare.com/v/daiquiri-cafe/4c53b2f84623be9ab1508af1","categoryId":"4bf58dd8d48988d116941735","category":"Bar","checkinsCount":314,"usersCount":196,"tipCount":2,"visitsCount":329,"tier":"","message":"","currency":"","rating":6.6},{"name":"Spanky's Daiquiris & Delites","address":"17316 Airline Hwy","lat":30.324726,"lng":-90.979469,"city_fetched":"Baton Rouge,US","state":"LA","country":"United States","canonicalUrl":"https://foursquare.com/v/spankys-daiquiris--delites/4be74fa7d4f7c9b621c12720","categoryId":"4bf58dd8d48988d11e941735","category":"Cocktail Bar","checkinsCount":321,"usersCount":140,"tipCount":8,"visitsCount":360,"tier":"","message":"","currency":"","rating":6.5},{"name":"The Roux House","phone":"2253442533","address":"143 3rd St","lat":30.447697401063728,"lng":-91.18826940650209,"city_fetched":"Baton Rouge,US","state":"LA","country":"United States","canonicalUrl":"https://foursquare.com/v/the-roux-house/4b47dea8f964a520384226e3","categoryId":"4bf58dd8d48988d116941735","category":"Bar","checkinsCount":2000,"usersCount":729,"tipCount":7,"visitsCount":2003,"url":"http://rouxhouse.com","tier":"","message":"","currency":"","rating":6.5},{"name":"Slinky's","phone":"2253444325","address":"144 W Chimes St","lat":30.417396288132498,"lng":-91.17739713837912,"city_fetched":"Baton Rouge,US","state":"LA","country":"United States","canonicalUrl":"https://foursquare.com/v/slinkys/4b5d3009f964a520f95529e3","categoryId":"4bf58dd8d48988d116941735","category":"Bar","checkinsCount":371,"usersCount":143,"tipCount":9,"visitsCount":373,"tier":"","message":"","currency":"","rating":6.5},{"name":"L'auberge Stadium","lat":30.344827659582258,"lng":-91.15179424146649,"city_fetched":"Baton Rouge,US","state":"LA","country":"United States","canonicalUrl":"https://foursquare.com/v/lauberge-stadium/5207d82111d23e81c7dc6b97","categoryId":"4bf58dd8d48988d116941735","category":"Bar","checkinsCount":162,"usersCount":88,"tipCount":5,"visitsCount":172,"tier":"","message":"","currency":"","rating":6.4},{"name":"French Quarter Daiquiris","phone":"2257697486","twitter":"fqdnich","address":"5201 Nicholson Dr","lat":30.389433372358898,"lng":-91.17216289043427,"city_fetched":"Baton Rouge,US","state":"LA","country":"United States","canonicalUrl":"https://foursquare.com/v/french-quarter-daiquiris/4bbd5819a0a0c9b69f991b0f","categoryId":"4bf58dd8d48988d116941735","category":"Bar","checkinsCount":619,"usersCount":248,"tipCount":6,"visitsCount":651,"url":"http://www.fqdbr.com","tier":"","message":"","currency":"","rating":6.4},{"name":"Texas Club","phone":"2259284655","twitter":"thetexasclub","address":"456 N Donmoor Ave","lat":30.454176,"lng":-91.117973,"neighborhood":"Lobdell-Woodale","city_fetched":"Baton Rouge,US","state":"LA","country":"United States","canonicalUrl":"https://foursquare.com/v/texas-club/4bca635468f976b0e6635f83","categoryId":"4bf58dd8d48988d11f941735","category":"Nightclub","checkinsCount":613,"usersCount":340,"tipCount":8,"visitsCount":734,"url":"http://www.thetexasclub.com","tier":"","message":"","currency":"","rating":6.4},{"name":"Willie's Restuarant & Bar","phone":"2253722526","address":"11260 Coursey Blvd","lat":30.38992435781171,"lng":-91.04831038456017,"city_fetched":"Baton Rouge,US","state":"LA","country":"United States","canonicalUrl":"https://foursquare.com/v/willies-restuarant--bar/4c47244a76d72d7f3a333c4d","categoryId":"4bf58dd8d48988d116941735","category":"Bar","checkinsCount":433,"usersCount":141,"tipCount":7,"visitsCount":477,"url":"http://www.williesbr.com","tier":"","message":"","currency":"","rating":6.4},{"name":"Zee Zee Gardens","phone":"2253461291","address":"2904 Perkins Rd","lat":30.425328115298246,"lng":-91.15906891016509,"neighborhood":"Mid City South","city_fetched":"Baton Rouge,US","state":"LA","country":"United States","canonicalUrl":"https://foursquare.com/v/zee-zee-gardens/4b5ba02cf964a520e40b29e3","categoryId":"4bf58dd8d48988d11e941735","category":"Cocktail Bar","checkinsCount":965,"usersCount":202,"tipCount":5,"visitsCount":990,"tier":"","message":"","currency":"","rating":6.4},{"name":"Cadillac Cafe","phone":"2252960288","twitter":"thecadillac5454","address":"5454 Bluebonnet Rd #P","lat":30.39832318681476,"lng":-91.08520485574215,"city_fetched":"Baton Rouge,US","state":"LA","country":"United States","canonicalUrl":"https://foursquare.com/v/cadillac-cafe/4b5a9bfff964a5209fcd28e3","categoryId":"4bf58dd8d48988d116941735","category":"Bar","checkinsCount":547,"usersCount":307,"tipCount":8,"visitsCount":654,"url":"http://www.cadillaccafe.net","tier":"","message":"","currency":"","rating":6.3},{"name":"Uncle Earl's","phone":"2253431899","address":"3753 Perkins Rd","lat":30.420551,"lng":-91.150592,"city_fetched":"Baton Rouge,US","state":"LA","country":"United States","canonicalUrl":"https://foursquare.com/v/uncle-earls/4c39699b1e06d13a46ab793e","categoryId":"4bf58dd8d48988d116941735","category":"Bar","checkinsCount":689,"usersCount":283,"tipCount":0,"visitsCount":734,"tier":"","message":"","currency":"","rating":6.3},{"name":"Huey's","phone":"2252462547","twitter":"hueysbar","address":"350 3rd St","lat":30.450218881641213,"lng":-91.18820842385426,"neighborhood":"Downtown Baton Rouge","city_fetched":"Baton Rouge,US","state":"LA","country":"United States","canonicalUrl":"https://foursquare.com/v/hueys/51e0a9fa498e2f9b9b49107c","categoryId":"4bf58dd8d48988d11e941735","category":"Cocktail Bar","checkinsCount":283,"usersCount":160,"tipCount":2,"visitsCount":303,"url":"http://www.hueysbar.com","tier":"","message":"","currency":"","rating":6.2},{"name":"The Loft","phone":"2256632891","address":"10111 Perkins Rowe #140","lat":30.379279746653967,"lng":-91.09401705446305,"neighborhood":"South Baton Rouge","city_fetched":"Baton Rouge,US","state":"LA","country":"United States","canonicalUrl":"https://foursquare.com/v/the-loft/4b4e51d8f964a52049e926e3","categoryId":"4bf58dd8d48988d123941735","category":"Wine Bar","checkinsCount":855,"usersCount":502,"tipCount":10,"visitsCount":855,"tier":"","message":"","currency":"","rating":6},{"name":"The Office","phone":"2254483036","address":"421 3rd St Ste B","lat":30.45076396528481,"lng":-91.18860483169556,"neighborhood":"Downtown Baton Rouge","city_fetched":"Baton Rouge,US","state":"LA","country":"United States","canonicalUrl":"https://foursquare.com/v/the-office/4ba45504f964a520a09638e3","categoryId":"4bf58dd8d48988d116941735","category":"Bar","checkinsCount":908,"usersCount":422,"tipCount":10,"visitsCount":908,"tier":"","message":"","currency":"","rating":5.8},{"name":"City Bar","address":"333 3rd St","lat":30.449782332354157,"lng":-91.18852741099693,"neighborhood":"Downtown Baton Rouge","city_fetched":"Baton Rouge,US","state":"LA","country":"United States","canonicalUrl":"https://foursquare.com/v/city-bar/501dde12e4b0125d275198f6","categoryId":"4bf58dd8d48988d116941735","category":"Bar","checkinsCount":738,"usersCount":509,"tipCount":14,"visitsCount":950,"tier":"","message":"","currency":"","rating":5.7},{"name":"3rd Street Pub","address":"421 3rd St","lat":30.450587180423263,"lng":-91.18854617502234,"neighborhood":"Downtown Baton Rouge","city_fetched":"Baton Rouge,US","state":"LA","country":"United States","canonicalUrl":"https://foursquare.com/v/3rd-street-pub/51c5459c498ee2e83ad39d6c","categoryId":"4bf58dd8d48988d116941735","category":"Bar","checkinsCount":161,"usersCount":95,"tipCount":2,"visitsCount":163,"tier":"","message":"","currency":"","rating":5.5}]