[{"name":"Hots","phone":"2699628677","twitter":"hotsbattlecreek","address":"948 Raymond Rd N","lat":42.3214,"lng":-85.14150706,"city_fetched":"Battle Creek","state":"MI","country":"United States","canonicalUrl":"https://foursquare.com/hotsbattlecreek","category":"Strip Club","checkinsCount":274,"usersCount":119,"tipCount":5,"visitsCount":284,"url":"http://www.hotsgentlemensclub.com","tier":"","message":"","currency":"","rating":8.5},{"name":"Arcadia Brewing Company","phone":"2699639690","twitter":"arcadiaales","address":"103 Michigan Ave W","lat":42.32197331647061,"lng":-85.18531680107117,"city_fetched":"Battle Creek","state":"MI","country":"United States","canonicalUrl":"https://foursquare.com/v/arcadia-brewing-company/4b117288f964a520c27c23e3","category":"Brewery","checkinsCount":3900,"usersCount":2307,"tipCount":62,"visitsCount":4528,"url":"http://www.arcadiaales.com","tier":2,"message":"Moderate","currency":"$","rating":8.3},{"name":"Lakeview Lounge","phone":"2699635147","address":"660 Capital Ave SW","lat":42.30429588847586,"lng":-85.19992095639772,"city_fetched":"Battle Creek","state":"MI","country":"United States","canonicalUrl":"https://foursquare.com/v/lakeview-lounge/4ca781ddb7106dcb99d068a5","category":"Lounge","checkinsCount":234,"usersCount":102,"tipCount":4,"visitsCount":271,"tier":"","message":"","currency":"","rating":8.1},{"name":"Territorial Brewing Company","phone":"2692821694","twitter":"territorialbc","address":"256 Helmer Rd N","lat":42.31500281272153,"lng":-85.23491921557002,"city_fetched":"Battle Creek","state":"MI","country":"United States","canonicalUrl":"https://foursquare.com/v/territorial-brewing-company/53a9521d498e5a03552990cb","category":"Brewery","checkinsCount":177,"usersCount":179,"tipCount":3,"visitsCount":267,"url":"http://territorialbrewing.com","tier":"","message":"","currency":"","rating":8.1},{"name":"Griffin Grill & Pub","phone":"2699657206","address":"38 Michigan Ave W","lat":42.320267781987205,"lng":-85.18330514431,"city_fetched":"Battle Creek","state":"MI","country":"United States","canonicalUrl":"https://foursquare.com/v/griffin-grill--pub/4b59a0ecf964a520b98f28e3","category":"Pub","checkinsCount":2715,"usersCount":995,"tipCount":29,"visitsCount":2891,"url":"http://www.griffinbc.com","tier":"","message":"","currency":"","rating":8},{"name":"McGonigle's Pub & Grill","phone":"2696601298","address":"915 Emmett St E","lat":42.33261823654175,"lng":-85.13989427,"city_fetched":"Battle Creek","state":"MI","country":"United States","canonicalUrl":"https://foursquare.com/v/mcgonigles-pub--grill/4bcb025068f976b0f73b6083","category":"Pub","checkinsCount":429,"usersCount":259,"tipCount":10,"visitsCount":600,"tier":"","message":"","currency":"","rating":7.9},{"name":"Ale House","phone":"2694413663","address":"1600 Avenue A","lat":42.32558949,"lng":-85.25839,"city_fetched":"Battle Creek","state":"MI","country":"United States","canonicalUrl":"https://foursquare.com/v/ale-house/4cb481111463a1431168bba9","category":"Pub","checkinsCount":367,"usersCount":193,"tipCount":2,"visitsCount":480,"tier":"","message":"","currency":"","rating":7.5},{"name":"Miller's Time Out","phone":"2699657790","address":"13261 Helmer Rd S","lat":42.26630144363114,"lng":-85.2387946844101,"city_fetched":"Battle Creek","state":"MI","country":"United States","canonicalUrl":"https://foursquare.com/v/millers-time-out/4ba798a2f964a520bba039e3","category":"Bar","checkinsCount":1357,"usersCount":503,"tipCount":11,"visitsCount":1783,"tier":"","message":"","currency":"","rating":7.5},{"name":"Battle Creek Country Club","phone":"2699628734","address":"318 Country Club Dr","lat":42.28293774925411,"lng":-85.20650252838914,"city_fetched":"Battle Creek","state":"MI","country":"United States","canonicalUrl":"https://foursquare.com/v/battle-creek-country-club/4bd09c98462cb71395b7d807","category":"Golf Course","checkinsCount":398,"usersCount":239,"tipCount":2,"visitsCount":656,"url":"http://www.battlecreekcc.com","tier":"","message":"","currency":"","rating":7.4},{"name":"Friends","phone":"2699632614","address":"1055 Columbia Ave W","lat":42.29718089103699,"lng":-85.21957033333334,"city_fetched":"Battle Creek","state":"MI","country":"United States","canonicalUrl":"https://foursquare.com/v/friends/4c2f67f5452620a12a6b1d0f","category":"Bar","checkinsCount":858,"usersCount":264,"tipCount":9,"visitsCount":1087,"tier":"","message":"","currency":"","rating":7.2},{"name":"The Music Factory","phone":"2699622121","address":"191 Angell St","lat":42.32240099198407,"lng":-85.20822769,"city_fetched":"Battle Creek","state":"MI","country":"United States","canonicalUrl":"https://foursquare.com/v/the-music-factory/4c6dc77210faa143d500ef68","category":"Rock Club","checkinsCount":550,"usersCount":371,"tipCount":5,"visitsCount":622,"tier":"","message":"","currency":"","rating":7.2},{"name":"Partners Bar","phone":"2699647276","address":"910 North Ave","lat":42.34961239233137,"lng":-85.1801723241806,"city_fetched":"Battle Creek","state":"MI","country":"United States","canonicalUrl":"https://foursquare.com/v/partners-bar/4cafe180ef1b3704bc6b3600","category":"Gay Bar","checkinsCount":437,"usersCount":143,"tipCount":4,"visitsCount":487,"url":"http://partnersbar.com","tier":"","message":"","currency":"","rating":7.2},{"name":"Cricket Club","phone":"2699632725","address":"36 Michigan Ave W","lat":42.320208285763776,"lng":-85.18324613571167,"city_fetched":"Battle Creek","state":"MI","country":"United States","canonicalUrl":"https://foursquare.com/v/cricket-club/4b4e4cd7f964a52095e826e3","category":"Bar","checkinsCount":1452,"usersCount":513,"tipCount":15,"visitsCount":1511,"tier":"","message":"","currency":"","rating":7},{"name":"Weezer's Grill","phone":"2699647308","address":"55 20th St N","lat":42.30100023911481,"lng":-85.2187074686763,"city_fetched":"Battle Creek","state":"MI","country":"United States","canonicalUrl":"https://foursquare.com/v/weezers-grill/4babd42ff964a52010cd3ae3","category":"Pub","checkinsCount":296,"usersCount":148,"tipCount":5,"visitsCount":344,"tier":"","message":"","currency":"","rating":6.5},{"name":"Moonraker West","phone":"2699620800","address":"544 Columbia Ave W","lat":42.29877011880177,"lng":-85.20796537399292,"city_fetched":"Battle Creek","state":"MI","country":"United States","canonicalUrl":"https://foursquare.com/v/moonraker-west/4b7c06aef964a52023792fe3","category":"Bar","checkinsCount":636,"usersCount":303,"tipCount":14,"visitsCount":694,"url":"http://moonrakerrestaurant.com","tier":"","message":"","currency":"","rating":6.1},{"name":"J.W. Barleycorns","phone":"2699637050","address":"50 Capital Ave SW","lat":42.319222111178064,"lng":-85.18490333192265,"city_fetched":"Battle Creek","state":"MI","country":"United States","canonicalUrl":"https://foursquare.com/v/jw-barleycorns/4c535a0c30f92d7f11e59fb8","category":"American Restaurant","checkinsCount":233,"usersCount":107,"tipCount":4,"visitsCount":233,"url":"http://www.mccamlyplaza.com","tier":1,"message":"Cheap","currency":"$","rating":4.9}]