[{"name":"Spec's Wines Spirits & Finer Foods","phone":"4098355931","address":"5876 Eastex Fwy","lat":30.126776294504868,"lng":-94.15459806266219,"city_fetched":"Beaumont","state":"TX","country":"United States","canonicalUrl":"https://foursquare.com/v/specs-wines-spirits--finer-foods/4b5a3223f964a52071b328e3","category":"Liquor Store","checkinsCount":732,"usersCount":457,"tipCount":1,"visitsCount":957,"url":"http://www.specsonline.com","tier":"","message":"","currency":"","rating":8.6},{"name":"J Wilson's","phone":"4098998686","address":"4190 Gladys Ave","lat":30.093479329207963,"lng":-94.14726035557717,"city_fetched":"Beaumont","state":"TX","country":"United States","canonicalUrl":"https://foursquare.com/v/j-wilsons/561ea64b498e8acb0bc14146","category":"Bistro","checkinsCount":92,"usersCount":202,"tipCount":7,"visitsCount":618,"url":"http://jwilsons.com","tier":"","message":"","currency":"","rating":8.5},{"name":"Luke's","address":"2325 Calder St","lat":30.085511744759973,"lng":-94.12123178449245,"neighborhood":"Old Town","city_fetched":"Beaumont","state":"TX","country":"United States","canonicalUrl":"https://foursquare.com/v/lukes/4ee030dd93ad1adedba86307","category":"Bar","checkinsCount":1913,"usersCount":719,"tipCount":23,"visitsCount":2826,"url":"http://beaumont.lukesicehouse.net","tier":2,"message":"Moderate","currency":"$","rating":8.4},{"name":"Logon Cafe","phone":"4098321529","address":"3805 Calder Ave","lat":30.084784317524058,"lng":-94.14248943328857,"city_fetched":"Beaumont","state":"TX","country":"United States","canonicalUrl":"https://foursquare.com/v/logon-cafe/4bf35e9c98ac0f47a9de62a8","category":"Music Venue","checkinsCount":531,"usersCount":252,"tipCount":15,"visitsCount":705,"url":"http://www.logoncafe.net","tier":"","message":"","currency":"","rating":8},{"name":"Madison's","phone":"4099249777","address":"4020 Dowlen Rd","lat":30.11769811569984,"lng":-94.16654348373413,"city_fetched":"Beaumont","state":"TX","country":"United States","canonicalUrl":"https://foursquare.com/v/madisons/4bea3eefa9900f47ba5c1640","category":"Sports Bar","checkinsCount":1994,"usersCount":814,"tipCount":28,"visitsCount":2555,"url":"http://madisonsoftexas.com","tier":2,"message":"Moderate","currency":"$","rating":7.9},{"name":"Jerusalem Hookah","phone":"4098320888","address":"3035 College St","lat":30.067936831999823,"lng":-94.1185991677211,"city_fetched":"Beaumont","state":"TX","country":"United States","canonicalUrl":"https://foursquare.com/v/jerusalem-hookah/4bdcaafbc79cc928789987e9","category":"Hookah Bar","checkinsCount":313,"usersCount":122,"tipCount":3,"visitsCount":321,"url":"http://jerusalemhookahcafe.com/home","tier":"","message":"","currency":"","rating":7.8},{"name":"The Grill","phone":"4098660039","address":"6680 Calder Ave","lat":30.075203690892568,"lng":-94.17155169214523,"city_fetched":"Beaumont","state":"TX","country":"United States","canonicalUrl":"https://foursquare.com/v/the-grill/4bd255ac462cb7137440dc07","category":"Restaurant","checkinsCount":763,"usersCount":228,"tipCount":13,"visitsCount":885,"url":"http://www.aspgrill.com","tier":3,"message":"Expensive","currency":"$","rating":7.7},{"name":"Orleans St Pub","phone":"4098354243","address":"650 Orleans St","lat":30.081321467966912,"lng":-94.09806231663964,"city_fetched":"Beaumont","state":"TX","country":"United States","canonicalUrl":"https://foursquare.com/v/orleans-st-pub/4bb82335cf2fc9b6bd539f02","category":"Gay Bar","checkinsCount":1209,"usersCount":117,"tipCount":10,"visitsCount":1233,"url":"http://www.orleansstreetpubandpatio.com","tier":"","message":"","currency":"","rating":7.3},{"name":"Dixie Dance Hall","phone":"4098333090","address":"234 Crockett St","lat":30.08451509576406,"lng":-94.09862995147705,"city_fetched":"Beaumont","state":"TX","country":"United States","canonicalUrl":"https://foursquare.com/v/dixie-dance-hall/4b63cdfdf964a52064922ae3","category":"Bar","checkinsCount":588,"usersCount":258,"tipCount":4,"visitsCount":603,"url":"http://dixiedancehall.com","tier":"","message":"","currency":"","rating":7},{"name":"Fast Eddie's","twitter":"fasteddies_","address":"6410 Phelan Blvd","lat":30.079214757706076,"lng":-94.16875654097372,"city_fetched":"Beaumont","state":"TX","country":"United States","canonicalUrl":"https://foursquare.com/v/fast-eddies/4c087fbf340720a109568393","category":"Sports Bar","checkinsCount":434,"usersCount":150,"tipCount":0,"visitsCount":453,"url":"http://fasteddiesbilliards.com","tier":1,"message":"Cheap","currency":"$","rating":6.9},{"name":"Thirsty's","phone":"4098866066","lat":30.076240246074953,"lng":-94.17305683519167,"city_fetched":"Beaumont","state":"Texas","country":"United States","canonicalUrl":"https://foursquare.com/v/thirstys/4d4cc083a7f86ea85c532fde","category":"Bar","checkinsCount":497,"usersCount":184,"tipCount":10,"visitsCount":602,"tier":"","message":"","currency":"","rating":6.9},{"name":"Winestyles","phone":"4092239495","twitter":"winestylesstore","address":"4008 Dowlen Rd","lat":30.117464415611668,"lng":-94.16803152607261,"city_fetched":"Beaumont","state":"TX","country":"United States","canonicalUrl":"https://foursquare.com/v/winestyles/4b5b8f45f964a5201c0729e3","category":"Wine Bar","checkinsCount":345,"usersCount":65,"tipCount":2,"visitsCount":382,"url":"http://t.co/bmiwSBe4ET","tier":"","message":"","currency":"","rating":6.8},{"name":"Monterey House","phone":"4098320310","address":"1090 S 11th St","lat":30.06617758,"lng":-94.129697,"city_fetched":"Beaumont","state":"TX","country":"United States","canonicalUrl":"https://foursquare.com/v/monterey-house/4c818797e602b1f741eb937a","category":"Gastropub","checkinsCount":95,"usersCount":78,"tipCount":2,"visitsCount":115,"tier":1,"message":"Cheap","currency":"$","rating":6.7},{"name":"Kampus Korner Restaurant","phone":"4098321905","twitter":"neebohq","address":"4655 Rolfe Christopher Dr","lat":30.041366139468224,"lng":-94.07281971,"neighborhood":"South Park","city_fetched":"Beaumont","state":"TX","country":"United States","canonicalUrl":"https://foursquare.com/v/kampus-korner-restaurant/4c7d25db8da18cfa9b6a9ece","category":"Greek Restaurant","checkinsCount":910,"usersCount":218,"tipCount":16,"visitsCount":950,"url":"http://www.neebo.com","tier":"","message":"","currency":"","rating":6.4},{"name":"The Gig","lat":30.08435414536455,"lng":-94.09871146118734,"city_fetched":"Beaumont","state":"Texas","country":"United States","canonicalUrl":"https://foursquare.com/v/the-gig/4d43a7ce7e2e5481be65588f","category":"Bar","checkinsCount":336,"usersCount":191,"tipCount":4,"visitsCount":342,"tier":"","message":"","currency":"","rating":6.2},{"name":"The West Bar & Grill","phone":"4098664733","address":"6445 Calder Ave","lat":30.07653,"lng":-94.16958,"city_fetched":"Beaumont","state":"TX","country":"United States","canonicalUrl":"https://foursquare.com/v/the-west-bar--grill/4bb98f68cf2fc9b6b2a0a002","category":"Bar","checkinsCount":1258,"usersCount":356,"tipCount":7,"visitsCount":1454,"url":"http://thewestbarandgrill.com","tier":"","message":"","currency":"","rating":6.2},{"name":"Pacesetter Lounge","phone":"4098662100","address":"6390 Phelan Blvd","lat":30.080311389473838,"lng":-94.16862653756489,"city_fetched":"Beaumont","state":"TX","country":"United States","canonicalUrl":"https://foursquare.com/v/pacesetter-lounge/4bd26f5841b9ef3b2c3afee5","category":"Bar","checkinsCount":438,"usersCount":167,"tipCount":8,"visitsCount":463,"tier":"","message":"","currency":"","rating":5.9}]