[{"name":"Moonlight","address":"436 Madison St","lat":43.45156955,"lng":-88.84542137,"city_fetched":"Beaver Dam,US","state":"WI","country":"United States","canonicalUrl":"https://foursquare.com/v/moonlight/4c2ec152452620a121841c0f","categoryId":"4bf58dd8d48988d116941735","category":"Bar","checkinsCount":1850,"usersCount":162,"tipCount":9,"visitsCount":2115,"tier":1,"message":"Cheap","currency":"$","rating":8.5},{"name":"Morry's Bar","phone":"9208859750","address":"430 Madison St","lat":43.451766186244,"lng":-88.84516954421997,"city_fetched":"Beaver Dam,US","state":"WI","country":"United States","canonicalUrl":"https://foursquare.com/v/morrys-bar/4b9b1c6af964a5207df335e3","categoryId":"4bf58dd8d48988d116941735","category":"Bar","checkinsCount":1842,"usersCount":193,"tipCount":3,"visitsCount":1954,"tier":"","message":"","currency":"","rating":7.9},{"name":"The Bell","address":"Hwy DE","lat":43.440755945633185,"lng":-88.8865077495575,"city_fetched":"Beaver Dam,US","state":"WI","country":"United States","canonicalUrl":"https://foursquare.com/v/the-bell/4e46b1e41850c7ee212d67bd","categoryId":"4bf58dd8d48988d118941735","category":"Dive Bar","checkinsCount":196,"usersCount":90,"tipCount":3,"visitsCount":241,"tier":"","message":"","currency":"","rating":7.4},{"name":"Park Avenue Sports Cafe","phone":"9208854510","address":"709 Park Ave","lat":43.45608723,"lng":-88.82061243,"city_fetched":"Beaver Dam,US","state":"WI","country":"United States","canonicalUrl":"https://foursquare.com/v/park-avenue-sports-cafe/4d7e62312ff9b60c9d5dab47","categoryId":"4bf58dd8d48988d11d941735","category":"Sports Bar","checkinsCount":946,"usersCount":429,"tipCount":14,"visitsCount":1207,"tier":"","message":"","currency":"","rating":7.4},{"name":"Cocktail Bar & Grill","phone":"9208873550","address":"1305 N Center St #3","lat":43.47184533472479,"lng":-88.83942631240265,"city_fetched":"Beaver Dam,US","state":"WI","country":"United States","canonicalUrl":"https://foursquare.com/v/cocktail-bar--grill/4c952b1a58d4b60cbdda2f29","categoryId":"4bf58dd8d48988d116941735","category":"Bar","checkinsCount":355,"usersCount":75,"tipCount":3,"visitsCount":376,"tier":"","message":"","currency":"","rating":7.3},{"name":"John's Bar","address":"1201 Madison St","lat":43.440767,"lng":-88.856565,"city_fetched":"Beaver Dam,US","state":"WI","country":"United States","canonicalUrl":"https://foursquare.com/v/johns-bar/4d17c697401db60ce964eea4","categoryId":"4bf58dd8d48988d116941735","category":"Bar","checkinsCount":245,"usersCount":79,"tipCount":6,"visitsCount":268,"tier":"","message":"","currency":"","rating":7.1},{"name":"Johnny's Lounge","phone":"9203560007","address":"519 Madison St","lat":43.45046691666667,"lng":-88.84612,"city_fetched":"Beaver Dam,US","state":"WI","country":"United States","canonicalUrl":"https://foursquare.com/v/johnnys-lounge/4b9b224af964a52037f535e3","categoryId":"4bf58dd8d48988d116941735","category":"Bar","checkinsCount":320,"usersCount":107,"tipCount":1,"visitsCount":355,"tier":"","message":"","currency":"","rating":6.9},{"name":"The Thirsty Beaver","lat":43.4511872191764,"lng":-88.84590443815112,"city_fetched":"Beaver Dam,US","state":"WI","country":"United States","canonicalUrl":"https://foursquare.com/v/the-thirsty-beaver/529956af11d297494fc013a8","categoryId":"4bf58dd8d48988d118941735","category":"Dive Bar","checkinsCount":143,"usersCount":44,"tipCount":1,"visitsCount":150,"tier":"","message":"","currency":"","rating":6.9},{"name":"Stooges Sports Bar","phone":"9208859878","address":"112 N Spring St","lat":43.45655649630588,"lng":-88.83696511077324,"city_fetched":"Beaver Dam,US","state":"WI","country":"United States","canonicalUrl":"https://foursquare.com/v/stooges-sports-bar/4bc92dcd0687ef3b65a1d9cc","categoryId":"4bf58dd8d48988d11d941735","category":"Sports Bar","checkinsCount":317,"usersCount":92,"tipCount":2,"visitsCount":333,"tier":"","message":"","currency":"","rating":6.6},{"name":"Hogz & Honeez","phone":"9203568741","address":"W7771 State Road 33","lat":43.44776327775034,"lng":-88.7885460521515,"city_fetched":"Beaver Dam,US","state":"WI","country":"United States","canonicalUrl":"https://foursquare.com/v/hogz--honeez/4fcacba4e4b0ee2f3a66af61","categoryId":"4bf58dd8d48988d116941735","category":"Bar","checkinsCount":113,"usersCount":87,"tipCount":3,"visitsCount":142,"url":"http://www.hogzandhoneez.com","tier":"","message":"","currency":"","rating":6.3}]