[{"name":"Beckley Moose Lodge","phone":"3042540410","address":"410 New River Dr","lat":37.79337196950332,"lng":-81.1930689850928,"city_fetched":"Beckley,US","state":"WV","country":"United States","canonicalUrl":"https://foursquare.com/v/beckley-moose-lodge/4cb1fbbecbab236a7120ad73","categoryId":"4bf58dd8d48988d116941735","category":"Bar","checkinsCount":65,"usersCount":31,"tipCount":2,"visitsCount":77,"tier":"","message":"","currency":"","rating":7.3},{"name":"Foster's Main Street Tavern","phone":"3042531439","address":"121 Main St","lat":37.77778739034552,"lng":-81.1885142326355,"city_fetched":"Beckley,US","state":"WV","country":"United States","canonicalUrl":"https://foursquare.com/v/fosters-main-street-tavern/4bdf8a446198c9b669ba17ff","categoryId":"4bf58dd8d48988d11d941735","category":"Sports Bar","checkinsCount":895,"usersCount":198,"tipCount":9,"visitsCount":1066,"url":"http://fostersbar.com","tier":"","message":"","currency":"","rating":7.3},{"name":"Sir Walter's Tavern","phone":"3047637059","address":"403 Neville St","lat":37.776284,"lng":-81.190733,"city_fetched":"Beckley,US","state":"WV","country":"United States","canonicalUrl":"https://foursquare.com/v/sir-walters-tavern/514d1db7e4b06ae7510f69a5","categoryId":"4bf58dd8d48988d121941735","category":"Lounge","checkinsCount":234,"usersCount":40,"tipCount":4,"visitsCount":255,"tier":"","message":"","currency":"","rating":7.2}]