[{"name":"Ron's Corner Tavern","address":"1833 Airport Fwy","lat":32.83752287781262,"lng":-97.13885861515304,"city_fetched":"Bedford","state":"TX","country":"United States","canonicalUrl":"https://foursquare.com/v/rons-corner-tavern/51845d8c498e0a3c4f581572","category":"Bar","checkinsCount":1682,"usersCount":520,"tipCount":19,"visitsCount":2077,"url":"http://ronstavern.com","tier":1,"message":"Cheap","currency":"$","rating":8.6},{"name":"Crazy Cowboy","phone":"8172832074","address":"2807 Central Dr","lat":32.850141636496254,"lng":-97.13245425289357,"city_fetched":"Bedford","state":"TX","country":"United States","canonicalUrl":"https://foursquare.com/v/crazy-cowboy/5259877911d227afc4b4f6c7","category":"American Restaurant","checkinsCount":180,"usersCount":140,"tipCount":1,"visitsCount":345,"url":"http://crazycowboy.net","tier":"","message":"","currency":"","rating":7.8},{"name":"BoomerJack's Grill and Bar","phone":"8172670267","twitter":"boomerjacksbf","address":"2300 Airport Fwy","lat":32.8357089211978,"lng":-97.13095578381817,"city_fetched":"Bedford","state":"TX","country":"United States","canonicalUrl":"https://foursquare.com/v/boomerjacks-grill-and-bar/4b73510ef964a52034a82de3","category":"Sports Bar","checkinsCount":9449,"usersCount":3007,"tipCount":50,"visitsCount":10246,"url":"http://www.boomerjack.com","tier":2,"message":"Moderate","currency":"$","rating":7.3},{"name":"Toadies Bar and Grill","phone":"8172839090","address":"1705B Airport Freeway","lat":32.837663979522546,"lng":-97.13988925949513,"city_fetched":"Bedford","state":"TX","country":"United States","canonicalUrl":"https://foursquare.com/v/toadies-bar-and-grill/4c3e5fad6faac9b64a330e76","category":"Bar","checkinsCount":2718,"usersCount":617,"tipCount":22,"visitsCount":2832,"url":"http://toadiesbar.com","tier":"","message":"","currency":"","rating":7.1},{"name":"Marina's Bar and Grill","phone":"8175715910","address":"1509 W Euless Blvd","lat":32.82574,"lng":-97.10709750652313,"city_fetched":"Bedford","state":"TX","country":"United States","canonicalUrl":"https://foursquare.com/v/marinas-bar-and-grill/4c22b9db9a67a593680add87","category":"Karaoke Bar","checkinsCount":383,"usersCount":225,"tipCount":6,"visitsCount":613,"tier":"","message":"","currency":"","rating":7},{"name":"Papa G's","phone":"8173544140","address":"2900 Highway 121","lat":32.85230508709781,"lng":-97.10836715091845,"city_fetched":"Bedford","state":"TX","country":"United States","canonicalUrl":"https://foursquare.com/v/papa-gs/4b2d924bf964a5200cd924e3","category":"Sports Bar","checkinsCount":3352,"usersCount":942,"tipCount":21,"visitsCount":3873,"url":"http://www.papagsportsbar.com","tier":1,"message":"Cheap","currency":"$","rating":6.6},{"name":"Danny's Celtic Pub","lat":32.85117310186324,"lng":-97.12984115493349,"city_fetched":"Bedford","state":"TX","country":"United States","canonicalUrl":"https://foursquare.com/v/dannys-celtic-pub/4fcbb8a6e4b067457ca5bf19","category":"Pub","checkinsCount":871,"usersCount":268,"tipCount":14,"visitsCount":943,"tier":1,"message":"Cheap","currency":"$","rating":6.5},{"name":"Pocket's Sports Bar & Restaurant","address":"210 S Industrial Blvd","lat":32.83447243913322,"lng":-97.10008954613146,"city_fetched":"Bedford","state":"TX","country":"United States","canonicalUrl":"https://foursquare.com/v/pockets-sports-bar--restaurant/40e0b100f964a5200d091fe3","category":"Sports Bar","checkinsCount":1177,"usersCount":422,"tipCount":6,"visitsCount":1315,"url":"http://pocketsrestaurant.net","tier":"","message":"","currency":"","rating":5.8},{"name":"Big Shots Sports Cafe","phone":"8175101310","address":"1833 Airport Fwy","lat":32.83754752191905,"lng":-97.13840114035742,"city_fetched":"Bedford","state":"TX","country":"United States","canonicalUrl":"https://foursquare.com/v/big-shots-sports-cafe/4b735737f964a52093a92de3","category":"Bar","checkinsCount":2311,"usersCount":674,"tipCount":10,"visitsCount":2314,"tier":"","message":"","currency":"","rating":5.6}]