[{"name":"Brewfontaine","twitter":"brewfontaine","address":"211 S Main St","lat":40.35941291061602,"lng":-83.75970637482195,"city_fetched":"Bellefontaine","state":"OH","country":"United States","canonicalUrl":"https://foursquare.com/v/brewfontaine/55ba3086498e76adccb9a7bb","category":"Pub","checkinsCount":293,"usersCount":91,"tipCount":0,"visitsCount":413,"url":"http://www.brewfontaine.com","tier":"","message":"","currency":"","rating":7.9},{"name":"Route 68 Grill","phone":"9375995200","address":"1141 S Main St","lat":40.34488502184108,"lng":-83.76095605152236,"city_fetched":"Bellefontaine","state":"OH","country":"United States","canonicalUrl":"https://foursquare.com/v/route-68-grill/4b4cc201f964a5208abd26e3","category":"American Restaurant","checkinsCount":480,"usersCount":161,"tipCount":8,"visitsCount":524,"url":"http://www.68grill.com","tier":2,"message":"Moderate","currency":"$","rating":7},{"name":"Tumbleweed Tex Mex Grill","phone":"9375936555","twitter":"twtexmex","address":"2241 S Main St.","lat":40.3288,"lng":-83.760803,"city_fetched":"Bellefontaine","state":"OH","country":"United States","canonicalUrl":"https://foursquare.com/v/tumbleweed-tex-mex-grill/4bae9654f964a520c6c33be3","category":"Bar","checkinsCount":854,"usersCount":313,"tipCount":6,"visitsCount":1003,"url":"http://tumbleweedrestaurants.com","tier":"","message":"","currency":"","rating":6.7}]