[{"name":"Elizabeth Station","phone":"3607338982","twitter":"elizabethstatio","address":"1400 W Holly St","lat":48.757391182526575,"lng":-122.49060630798338,"city_fetched":"Bellingham,US","state":"WA","country":"United States","canonicalUrl":"https://foursquare.com/v/elizabeth-station/4f583fc7e4b0bd4842dc519c","categoryId":"4bf58dd8d48988d117941735","category":"Beer Garden","checkinsCount":1513,"usersCount":600,"tipCount":18,"visitsCount":2074,"tier":2,"message":"Moderate","currency":"$","rating":8.9},{"name":"Kulshan Brewing Company","phone":"3603895348","twitter":"kulshanbrewery","address":"2238 James St","lat":48.7602133620574,"lng":-122.46485845235094,"neighborhood":"Sunnyland","city_fetched":"Bellingham,US","state":"WA","country":"United States","canonicalUrl":"https://foursquare.com/v/kulshan-brewing-company/4f7a52e1e4b07cdfac8b33d3","categoryId":"50327c8591d4c4b30a586d5d","category":"Brewery","checkinsCount":1999,"usersCount":903,"tipCount":25,"visitsCount":2553,"url":"http://www.kulshanbrewery.com","tier":1,"message":"Cheap","currency":"$","rating":8.8},{"name":"Scotty Browns","phone":"3603068823","twitter":"brownssocialize","address":"3101 Newmarket St","lat":48.771379574059026,"lng":-122.4437963962555,"city_fetched":"Bellingham,US","state":"WA","country":"United States","canonicalUrl":"https://foursquare.com/v/scotty-browns/4abd75ccf964a520748a20e3","categoryId":"4bf58dd8d48988d116941735","category":"Bar","checkinsCount":2095,"usersCount":718,"tipCount":26,"visitsCount":2400,"url":"http://brownsrestaurantgroup.com/scottybrowns/","tier":2,"message":"Moderate","currency":"$","rating":8.7},{"name":"Boundary Bay Brewery","phone":"3606475593","twitter":"boundarybay","address":"1107 Railroad Ave","lat":48.74756586297917,"lng":-122.48081088066101,"neighborhood":"Central Business District","city_fetched":"Bellingham,US","state":"WA","country":"United States","canonicalUrl":"https://foursquare.com/v/boundary-bay-brewery/485bbcbcf964a520c6501fe3","categoryId":"50327c8591d4c4b30a586d5d","category":"Brewery","checkinsCount":6345,"usersCount":3553,"tipCount":73,"visitsCount":6914,"url":"http://www.bbaybrewery.com","tier":2,"message":"Moderate","currency":"$","rating":8.7},{"name":"Wander Brewing","phone":"3606476152","address":"1807 Dean Ave","lat":48.754301907274396,"lng":-122.47405562364794,"neighborhood":"Sunnyland","city_fetched":"Bellingham,US","state":"WA","country":"United States","canonicalUrl":"https://foursquare.com/v/wander-brewing/53210f2f498e7993164f069b","categoryId":"50327c8591d4c4b30a586d5d","category":"Brewery","checkinsCount":515,"usersCount":310,"tipCount":10,"visitsCount":770,"url":"http://www.wanderbrewing.com","tier":"","message":"","currency":"","rating":8.6},{"name":"Redlight Bar","twitter":"redlightbham","address":"1017 N State St","lat":48.74569838898211,"lng":-122.48129012583641,"neighborhood":"Central Business District","city_fetched":"Bellingham,US","state":"WA","country":"United States","canonicalUrl":"https://foursquare.com/v/redlight-bar/4effe9174690f6ecea598404","categoryId":"4bf58dd8d48988d11e941735","category":"Cocktail Bar","checkinsCount":551,"usersCount":216,"tipCount":10,"visitsCount":612,"url":"http://www.redlightbellingham.com","tier":2,"message":"Moderate","currency":"$","rating":8.5},{"name":"Aslan Brewing Company","phone":"3607782088","twitter":"aslanbrewing","address":"1330 N Forest St","lat":48.74837940731519,"lng":-122.47451305389404,"city_fetched":"Bellingham,US","state":"WA","country":"United States","canonicalUrl":"https://foursquare.com/v/aslan-brewing-company/5219da0f11d21bc0816f09c9","categoryId":"50327c8591d4c4b30a586d5d","category":"Brewery","checkinsCount":766,"usersCount":730,"tipCount":20,"visitsCount":1332,"url":"http://aslanbrewing.com","tier":2,"message":"Moderate","currency":"$","rating":8.5},{"name":"The Temple Bar","phone":"3606768660","twitter":"thetemplebar","address":"306 W Champion St","lat":48.75173658096756,"lng":-122.47997275947132,"neighborhood":"Central Business District","city_fetched":"Bellingham,US","state":"WA","country":"United States","canonicalUrl":"https://foursquare.com/v/the-temple-bar/4af372eaf964a520c9ed21e3","categoryId":"4bf58dd8d48988d123941735","category":"Wine Bar","checkinsCount":812,"usersCount":400,"tipCount":9,"visitsCount":817,"url":"http://templebarbellingham.com","tier":"","message":"","currency":"","rating":8.2},{"name":"Casa Que Pasa","phone":"3607568226","twitter":"casaquepasabham","address":"1415 Railroad Ave","lat":48.75077044398873,"lng":-122.47627258300781,"neighborhood":"Central Business District","city_fetched":"Bellingham,US","state":"WA","country":"United States","canonicalUrl":"https://foursquare.com/v/casa-que-pasa/46783ce1f964a520ea471fe3","categoryId":"4bf58dd8d48988d116941735","category":"Bar","checkinsCount":2295,"usersCount":1020,"tipCount":42,"visitsCount":2564,"url":"http://www.casaquepasarocks.com","tier":1,"message":"Cheap","currency":"$","rating":8.2},{"name":"McKay's Taphouse","phone":"3606473600","twitter":"mckaystaphouse","address":"1118 E Maple St","lat":48.740324,"lng":-122.471215,"city_fetched":"Bellingham,US","state":"WA","country":"United States","canonicalUrl":"https://foursquare.com/v/mckays-taphouse/4b50f388f964a5203f3a27e3","categoryId":"4bf58dd8d48988d11b941735","category":"Pub","checkinsCount":1579,"usersCount":490,"tipCount":14,"visitsCount":1799,"tier":"","message":"","currency":"","rating":8.1},{"name":"Daphne's","phone":"3607783462","address":"1201 11th St","lat":48.72068049995156,"lng":-122.50460166409582,"neighborhood":"Fairhaven","city_fetched":"Bellingham,US","state":"WA","country":"United States","canonicalUrl":"https://foursquare.com/v/daphnes/4bb4035749bdc9b662730c10","categoryId":"4bf58dd8d48988d116941735","category":"Bar","checkinsCount":373,"usersCount":167,"tipCount":6,"visitsCount":394,"url":"http://www.daphnesbar.com","tier":"","message":"","currency":"","rating":8},{"name":"Honeymoon","phone":"3607340728","address":"1053 N State St","lat":48.74650927271317,"lng":-122.48105347553611,"neighborhood":"Central Business District","city_fetched":"Bellingham,US","state":"WA","country":"United States","canonicalUrl":"https://foursquare.com/v/honeymoon/4b592760f964a5203d7f28e3","categoryId":"4bf58dd8d48988d123941735","category":"Wine Bar","checkinsCount":561,"usersCount":211,"tipCount":12,"visitsCount":572,"url":"http://honeymoonmead.net","tier":"","message":"","currency":"","rating":8},{"name":"Archer Alehouse","address":"1212 10th St","lat":48.720255,"lng":-122.504691,"neighborhood":"Fairhaven","city_fetched":"Bellingham,US","state":"WA","country":"United States","canonicalUrl":"https://foursquare.com/v/archer-alehouse/4b49135ff964a520db6426e3","categoryId":"4bf58dd8d48988d11b941735","category":"Pub","checkinsCount":874,"usersCount":344,"tipCount":11,"visitsCount":903,"tier":"","message":"","currency":"","rating":7.9},{"name":"Vinostrology","phone":"3606566817","address":"120 W Holly St","lat":48.750143,"lng":-122.479664,"neighborhood":"Central Business District","city_fetched":"Bellingham,US","state":"WA","country":"United States","canonicalUrl":"https://foursquare.com/v/vinostrology/519c3028498ee2a5452ea882","categoryId":"4bf58dd8d48988d123941735","category":"Wine Bar","checkinsCount":51,"usersCount":31,"tipCount":5,"visitsCount":51,"url":"http://vinostrology.com","tier":"","message":"","currency":"","rating":7.9},{"name":"The Racket Bar & Pinball Lounge","lat":48.7476965854411,"lng":-122.478135037014,"city_fetched":"Bellingham,US","state":"WA","country":"United States","canonicalUrl":"https://foursquare.com/v/the-racket-bar--pinball-lounge/5599968b498ea6e88bd07fa1","categoryId":"4bf58dd8d48988d116941735","category":"Bar","checkinsCount":223,"usersCount":55,"tipCount":1,"visitsCount":238,"tier":"","message":"","currency":"","rating":7.8},{"name":"Kulshan K2","address":"1537 Kentucky street","lat":48.75763437421324,"lng":-122.45372985593824,"neighborhood":"Roosevelt","city_fetched":"Bellingham,US","state":"WA","country":"United States","canonicalUrl":"https://foursquare.com/v/kulshan-k2/5565151f498e3e0c2ce4a472","categoryId":"50327c8591d4c4b30a586d5d","category":"Brewery","checkinsCount":98,"usersCount":108,"tipCount":1,"visitsCount":257,"tier":"","message":"","currency":"","rating":7.7},{"name":"April Brews Day Beerfest","address":"1100 Railroad Ave","lat":48.74744995176785,"lng":-122.4802803972623,"neighborhood":"Central Business District","city_fetched":"Bellingham,US","state":"WA","country":"United States","canonicalUrl":"https://foursquare.com/v/april-brews-day-beerfest/4dbca7504b222080d3984218","categoryId":"4bf58dd8d48988d117941735","category":"Beer Garden","checkinsCount":117,"usersCount":94,"tipCount":0,"visitsCount":122,"tier":"","message":"","currency":"","rating":7.6},{"name":"NYP Bar and Grill","phone":"3607333171","address":"902 N State St","lat":48.74443,"lng":-122.48283,"city_fetched":"Bellingham,US","state":"WA","country":"United States","canonicalUrl":"https://foursquare.com/v/nyp-bar-and-grill/4afa34a8f964a520531722e3","categoryId":"4bf58dd8d48988d11d941735","category":"Sports Bar","checkinsCount":2386,"usersCount":914,"tipCount":28,"visitsCount":2725,"url":"http://www.newyorkpizzaandbar.com","tier":2,"message":"Moderate","currency":"$","rating":7.6},{"name":"Bellingham Bar & Grill","phone":"3607332579","address":"1408 Cornwall Ave","lat":48.751074,"lng":-122.477239,"neighborhood":"Central Business District","city_fetched":"Bellingham,US","state":"WA","country":"United States","canonicalUrl":"https://foursquare.com/v/bellingham-bar--grill/4b514945f964a520d14927e3","categoryId":"4bf58dd8d48988d116941735","category":"Bar","checkinsCount":1485,"usersCount":462,"tipCount":8,"visitsCount":1544,"url":"http://bellinghambarandgrill.com","tier":"","message":"","currency":"","rating":7.5},{"name":"Green Frog Cafe Acoustic Tavern","phone":"3607561213","twitter":"acoustictavern","address":"902 N State St #104","lat":48.74573479854388,"lng":-122.48140958181105,"neighborhood":"Central Business District","city_fetched":"Bellingham,US","state":"WA","country":"United States","canonicalUrl":"https://foursquare.com/v/green-frog-cafe-acoustic-tavern/4ba2c31cf964a520151738e3","categoryId":"4bf58dd8d48988d116941735","category":"Bar","checkinsCount":1061,"usersCount":418,"tipCount":5,"visitsCount":1167,"url":"http://www.acoustictavern.com","tier":"","message":"","currency":"","rating":7.5},{"name":"Chuckanut Brewery & Kitchen","phone":"3607523377","twitter":"chuckanutbeer","address":"601 W Holly St","lat":48.7533199,"lng":-122.4850924,"city_fetched":"Bellingham,US","state":"WA","country":"United States","canonicalUrl":"https://foursquare.com/v/chuckanut-brewery--kitchen/4b08d0c6f964a5208f1223e3","categoryId":"50327c8591d4c4b30a586d5d","category":"Brewery","checkinsCount":1348,"usersCount":1168,"tipCount":23,"visitsCount":1690,"url":"http://chuckanutbreweryandkitchen.com","tier":"","message":"","currency":"","rating":7.4},{"name":"Village Inn Pub & Eatery","phone":"3607342490","address":"3020 Northwest Ave","lat":48.771283,"lng":-122.49260654,"city_fetched":"Bellingham,US","state":"WA","country":"United States","canonicalUrl":"https://foursquare.com/v/village-inn-pub--eatery/4b8dffa0f964a520931533e3","categoryId":"4bf58dd8d48988d120941735","category":"Karaoke Bar","checkinsCount":352,"usersCount":129,"tipCount":6,"visitsCount":400,"tier":"","message":"","currency":"","rating":7.4},{"name":"Schweinhaus Biergarten","phone":"3606710206","twitter":"schweinhaus","address":"1330 N State St","lat":48.749161,"lng":-122.47564,"city_fetched":"Bellingham,US","state":"WA","country":"United States","canonicalUrl":"https://foursquare.com/schweinhaus","categoryId":"4bf58dd8d48988d117941735","category":"Beer Garden","checkinsCount":259,"usersCount":176,"tipCount":2,"visitsCount":361,"url":"http://www.schweinhausbiergarten.com","tier":"","message":"","currency":"","rating":7.3},{"name":"Extremes Sports Grill","address":"4156 Meridian St","lat":48.792367,"lng":-122.48540229,"neighborhood":"Meridian","city_fetched":"Bellingham,US","state":"WA","country":"United States","canonicalUrl":"https://foursquare.com/v/extremes-sports-grill/4b57c1c3f964a5207f3f28e3","categoryId":"4bf58dd8d48988d11d941735","category":"Sports Bar","checkinsCount":563,"usersCount":290,"tipCount":10,"visitsCount":592,"tier":"","message":"","currency":"","rating":7.2},{"name":"The Fireside Martini & Wine Bar","phone":"3607381000","twitter":"firesidemartini","address":"416 W Bakerview Rd","lat":48.79036778662228,"lng":-122.49562018817979,"city_fetched":"Bellingham,US","state":"WA","country":"United States","canonicalUrl":"https://foursquare.com/v/the-fireside-martini--wine-bar/4be20db1660ec928179ec83b","categoryId":"4bf58dd8d48988d11e941735","category":"Cocktail Bar","checkinsCount":243,"usersCount":166,"tipCount":10,"visitsCount":245,"tier":"","message":"","currency":"","rating":7.1},{"name":"Rumors Cabaret","phone":"3606711849","twitter":"rumorscabaret","address":"1119 Railroad Ave","lat":48.74787005935955,"lng":-122.48056411743164,"neighborhood":"Central Business District","city_fetched":"Bellingham,US","state":"WA","country":"United States","canonicalUrl":"https://foursquare.com/v/rumors-cabaret/437bc800f964a5209c2a1fe3","categoryId":"4bf58dd8d48988d11f941735","category":"Nightclub","checkinsCount":2985,"usersCount":657,"tipCount":22,"visitsCount":3079,"url":"http://www.rumorscabaret.com","tier":1,"message":"Cheap","currency":"$","rating":7.1},{"name":"Royal Inn Restaurant","phone":"3607383701","address":"208 E Holly St","lat":48.74869774716571,"lng":-122.47781753540039,"neighborhood":"Central Business District","city_fetched":"Bellingham,US","state":"WA","country":"United States","canonicalUrl":"https://foursquare.com/v/royal-inn-restaurant/40b13b00f964a520fbf61ee3","categoryId":"4bf58dd8d48988d116941735","category":"Bar","checkinsCount":1463,"usersCount":342,"tipCount":3,"visitsCount":1519,"url":"http://theroyal.biz","tier":"","message":"","currency":"","rating":7},{"name":"The Real McCoy","phone":"3603928051","address":"114 Prospect St","lat":48.752453,"lng":-122.480618,"city_fetched":"Bellingham,US","state":"WA","country":"United States","canonicalUrl":"https://foursquare.com/v/the-real-mccoy/50ac1d22e4b0651a4691bd3c","categoryId":"4bf58dd8d48988d11e941735","category":"Cocktail Bar","checkinsCount":119,"usersCount":72,"tipCount":4,"visitsCount":119,"tier":"","message":"","currency":"","rating":7},{"name":"The Grand Avenue Alehouse","phone":"3606713080","address":"113 Grand Ave","lat":48.75249372076864,"lng":-122.47987131732994,"city_fetched":"Bellingham,US","state":"WA","country":"United States","canonicalUrl":"https://foursquare.com/v/the-grand-avenue-alehouse/4b2acfc3f964a5201cb024e3","categoryId":"4bf58dd8d48988d116941735","category":"Bar","checkinsCount":1453,"usersCount":379,"tipCount":18,"visitsCount":1586,"url":"http://grandavenuealehouse.com","tier":1,"message":"Cheap","currency":"$","rating":7},{"name":"Cabin Tavern","phone":"3607339685","address":"307 W Holly St","lat":48.7512499768343,"lng":-122.48179739729305,"neighborhood":"Central Business District","city_fetched":"Bellingham,US","state":"WA","country":"United States","canonicalUrl":"https://foursquare.com/v/cabin-tavern/4b7b41bcf964a520f85a2fe3","categoryId":"4bf58dd8d48988d116941735","category":"Bar","checkinsCount":245,"usersCount":146,"tipCount":2,"visitsCount":245,"tier":"","message":"","currency":"","rating":6.7},{"name":"The Underground Nightclub","phone":"3603063178","address":"211 E Chestnut St","lat":48.747682692672925,"lng":-122.47869899795806,"neighborhood":"Central Business District","city_fetched":"Bellingham,US","state":"WA","country":"United States","canonicalUrl":"https://foursquare.com/v/the-underground-nightclub/4e78fd9ed22dc865f13a46c6","categoryId":"4bf58dd8d48988d11f941735","category":"Nightclub","checkinsCount":1285,"usersCount":328,"tipCount":11,"visitsCount":1300,"tier":"","message":"","currency":"","rating":6.5},{"name":"Nicki's Bella Marina","address":"2615 S Harbor Loop Dr","lat":48.756968335789864,"lng":-122.50424958346079,"city_fetched":"Bellingham,US","state":"WA","country":"United States","canonicalUrl":"https://foursquare.com/v/nickis-bella-marina/4b8e003bf964a520a01533e3","categoryId":"4bf58dd8d48988d120941735","category":"Karaoke Bar","checkinsCount":193,"usersCount":135,"tipCount":4,"visitsCount":196,"tier":"","message":"","currency":"","rating":6.2},{"name":"The Cocoanut Grove","phone":"3606716756","address":"710 Marine Dr","lat":48.767981,"lng":-122.51843273333333,"city_fetched":"Bellingham,US","state":"WA","country":"United States","canonicalUrl":"https://foursquare.com/v/the-cocoanut-grove/4ba67480f964a5204f5439e3","categoryId":"4bf58dd8d48988d118941735","category":"Dive Bar","checkinsCount":265,"usersCount":140,"tipCount":4,"visitsCount":395,"url":"http://cocoanutgrovesportsbar.com","tier":"","message":"","currency":"","rating":6.2},{"name":"Cap Hansen's","phone":"3607330878","address":"209 E Chestnut St","lat":48.747880670827946,"lng":-122.47904062271118,"neighborhood":"Central Business District","city_fetched":"Bellingham,US","state":"WA","country":"United States","canonicalUrl":"https://foursquare.com/v/cap-hansens/4b1306f6f964a520ec9223e3","categoryId":"4bf58dd8d48988d116941735","category":"Bar","checkinsCount":893,"usersCount":298,"tipCount":5,"visitsCount":915,"tier":"","message":"","currency":"","rating":6.2},{"name":"Swillery Whiskey Bar","address":"118 W Holly St","lat":48.750183,"lng":-122.479448,"neighborhood":"Central Business District","city_fetched":"Bellingham,US","state":"WA","country":"United States","canonicalUrl":"https://foursquare.com/v/swillery-whiskey-bar/4efc15049a521091894886a9","categoryId":"4bf58dd8d48988d118941735","category":"Dive Bar","checkinsCount":401,"usersCount":182,"tipCount":5,"visitsCount":469,"tier":"","message":"","currency":"","rating":6},{"name":"World Famous Up & Up","phone":"3607339739","address":"1234 N State St","lat":48.74787890225004,"lng":-122.47755467891693,"city_fetched":"Bellingham,US","state":"WA","country":"United States","canonicalUrl":"https://foursquare.com/v/world-famous-up--up/4b039f7af964a520ec4f22e3","categoryId":"4bf58dd8d48988d116941735","category":"Bar","checkinsCount":1856,"usersCount":591,"tipCount":12,"visitsCount":1873,"tier":2,"message":"Moderate","currency":"$","rating":5.9},{"name":"Beaver Inn","phone":"3607333460","address":"1315 N State St","lat":48.749333539530596,"lng":-122.47836343089949,"neighborhood":"Central Business District","city_fetched":"Bellingham,US","state":"WA","country":"United States","canonicalUrl":"https://foursquare.com/v/beaver-inn/4b687732f964a520527a2be3","categoryId":"4bf58dd8d48988d116941735","category":"Bar","checkinsCount":1417,"usersCount":514,"tipCount":10,"visitsCount":1425,"tier":"","message":"","currency":"","rating":5.9},{"name":"Waterfront Seafood & Bar","phone":"3606761755","address":"521 W Holly St","lat":48.752948290695116,"lng":-122.48440778967993,"city_fetched":"Bellingham,US","state":"WA","country":"United States","canonicalUrl":"https://foursquare.com/v/waterfront-seafood--bar/4b679977f964a52011572be3","categoryId":"4bf58dd8d48988d116941735","category":"Bar","checkinsCount":201,"usersCount":120,"tipCount":6,"visitsCount":205,"url":"http://www.waterfrontseafoodandbar.com","tier":"","message":"","currency":"","rating":5.7},{"name":"Glow","phone":"3607341135","address":"202 E Holly St","lat":48.748706,"lng":-122.478127,"neighborhood":"Central Business District","city_fetched":"Bellingham,US","state":"WA","country":"United States","canonicalUrl":"https://foursquare.com/v/glow/51ca8070498e6359b261d079","categoryId":"4bf58dd8d48988d11f941735","category":"Nightclub","checkinsCount":191,"usersCount":82,"tipCount":2,"visitsCount":199,"tier":"","message":"","currency":"","rating":5.7}]