[{"name":"Bar 209","address":"209 Minnesota Ave NW","lat":47.46981022069646,"lng":-94.88290312910227,"city_fetched":"Bemidji","state":"MN","country":"United States","canonicalUrl":"https://foursquare.com/v/bar-209/4c2c2d916e77b7136447775d","category":"Bar","checkinsCount":3032,"usersCount":506,"tipCount":27,"visitsCount":3317,"url":"http://bar209.com","tier":2,"message":"Moderate","currency":"$","rating":8.4},{"name":"Slim's Bar & Grill","phone":"2184447546","address":"142 Anne St NW","lat":47.50595382244579,"lng":-94.87617015838623,"city_fetched":"Bemidji","state":"MN","country":"United States","canonicalUrl":"https://foursquare.com/v/slims-bar--grill/4c2f8ee07cc0c9b6b2f2eb9a","category":"Bar","checkinsCount":643,"usersCount":272,"tipCount":10,"visitsCount":806,"tier":1,"message":"Cheap","currency":"$","rating":8.1},{"name":"Brigid's Cross Irish Pub","phone":"2184440567","address":"317 Beltrami Ave NW","lat":47.471296958703235,"lng":-94.88145202781048,"city_fetched":"Bemidji","state":"MN","country":"United States","canonicalUrl":"https://foursquare.com/v/brigids-cross-irish-pub/4cd1ebbfde0f6dcb1b177463","category":"Pub","checkinsCount":1307,"usersCount":344,"tipCount":10,"visitsCount":1338,"url":"http://www.brigidsirishpub.com","tier":"","message":"","currency":"","rating":7.9},{"name":"Bemidji Brewing","phone":"2184447011","twitter":"bemidjibrewing","address":"401 Beltrami Ave NW","lat":47.47167526329837,"lng":-94.88141730523841,"city_fetched":"Bemidji","state":"MN","country":"United States","canonicalUrl":"https://foursquare.com/v/bemidji-brewing/51e9a2b7498ea10f623ef5fd","category":"Brewery","checkinsCount":436,"usersCount":154,"tipCount":1,"visitsCount":482,"url":"http://bemidjibeer.com","tier":"","message":"","currency":"","rating":7.7},{"name":"Keg N' Cork Pub","phone":"2184447600","address":"310 Beltrami Ave NW","lat":47.47091509071451,"lng":-94.88102495670319,"city_fetched":"Bemidji","state":"MN","country":"United States","canonicalUrl":"https://foursquare.com/v/keg-n-cork-pub/4bb2cd07eb3e9521f38aca0a","category":"Bar","checkinsCount":1992,"usersCount":332,"tipCount":10,"visitsCount":2050,"tier":2,"message":"Moderate","currency":"$","rating":7.5},{"name":"Corner Bar","phone":"2187518872","twitter":"cornerbarbji","address":"602 2nd St SE","lat":47.4596437909472,"lng":-94.86030220985413,"city_fetched":"Bemidji","state":"MN","country":"United States","canonicalUrl":"https://foursquare.com/v/corner-bar/4b8763f9f964a5200cbe31e3","category":"Bar","checkinsCount":1056,"usersCount":307,"tipCount":12,"visitsCount":1212,"url":"http://www.cornerbarbemidji.com","tier":1,"message":"Cheap","currency":"$","rating":7.4},{"name":"Hot Toddy's Pub & Grub","phone":"2184971100","address":"119 3rd St NW","lat":47.47080620488605,"lng":-94.88077152770204,"city_fetched":"Bemidji","state":"MN","country":"United States","canonicalUrl":"https://foursquare.com/v/hot-toddys-pub--grub/4e9c9f94f7905e04cd8dc378","category":"Bar","checkinsCount":1493,"usersCount":177,"tipCount":19,"visitsCount":1531,"tier":"","message":"","currency":"","rating":7.1},{"name":"Discount Liquors","phone":"2187518868","address":"504 Paul Bunyan Dr NW","lat":47.490599693068056,"lng":-94.88636662794305,"city_fetched":"Bemidji","state":"MN","country":"United States","canonicalUrl":"https://foursquare.com/v/discount-liquors/4c9e9a157c096dcbae04d7d1","category":"Liquor Store","checkinsCount":772,"usersCount":169,"tipCount":3,"visitsCount":817,"tier":"","message":"","currency":"","rating":6.5},{"name":"Toasty Beavers Sports Bar & Grill","phone":"2184970497","twitter":"toastybeavers","address":"114 3rd St NW","lat":47.47066098590954,"lng":-94.88031679719047,"city_fetched":"Bemidji","state":"MN","country":"United States","canonicalUrl":"https://foursquare.com/v/toasty-beavers-sports-bar--grill/4c3017f9452620a1d8bd1e0f","category":"Sports Bar","checkinsCount":1546,"usersCount":307,"tipCount":22,"visitsCount":1574,"url":"http://www.toastybeavers.com","tier":"","message":"","currency":"","rating":5.4}]