[{"name":"Deschutes Brewery & Public House","phone":"5413829242","twitter":"deschutesbeer","address":"1044 NW Bond St","lat":44.059473559361564,"lng":-121.31156086921692,"city_fetched":"Bend,US","state":"OR","country":"United States","canonicalUrl":"https://foursquare.com/deschutesbeer","categoryId":"50327c8591d4c4b30a586d5d","category":"Brewery","checkinsCount":7930,"usersCount":5476,"tipCount":95,"visitsCount":9157,"url":"https://www.deschutesbrewery.com/pubs/bend","tier":2,"message":"Moderate","currency":"$","rating":9.6},{"name":"Crux Fermentation Project","phone":"5413853333","twitter":"cruxbrew","address":"50 SW Division St","lat":44.050621763189575,"lng":-121.30793232446787,"city_fetched":"Bend,US","state":"OR","country":"United States","canonicalUrl":"https://foursquare.com/v/crux-fermentation-project/4fcaf8cee4b0499e2bbdbff3","categoryId":"50327c8591d4c4b30a586d5d","category":"Brewery","checkinsCount":3407,"usersCount":2635,"tipCount":62,"visitsCount":4693,"url":"http://cruxfermentation.com","tier":2,"message":"Moderate","currency":"$","rating":9.5},{"name":"Boneyard Beer","phone":"5413232325","twitter":"boneyardbeer","address":"37 NW Lake Pl","lat":44.054201,"lng":-121.30817233,"neighborhood":"Old Bend","city_fetched":"Bend,US","state":"OR","country":"United States","canonicalUrl":"https://foursquare.com/v/boneyard-beer/4bf5bbca5e800f476f17e6d4","categoryId":"50327c8591d4c4b30a586d5d","category":"Brewery","checkinsCount":1649,"usersCount":1512,"tipCount":17,"visitsCount":2111,"url":"http://www.boneyardbeer.com","tier":"","message":"","currency":"","rating":9.2},{"name":"10 Barrel Brewing Company","phone":"5415851007","twitter":"10barrelbrewing","address":"1135 NW Galveston Ave","lat":44.05643882,"lng":-121.328576,"city_fetched":"Bend,US","state":"OR","country":"United States","canonicalUrl":"https://foursquare.com/v/10-barrel-brewing-company/4af1f75ef964a520d5e421e3","categoryId":"50327c8591d4c4b30a586d5d","category":"Brewery","checkinsCount":6394,"usersCount":3765,"tipCount":85,"visitsCount":7441,"url":"http://10barrel.com","tier":2,"message":"Moderate","currency":"$","rating":9.1},{"name":"Velvet","phone":"5417280303","address":"805 NW Wall St","lat":44.058301637115235,"lng":-121.3150691986084,"neighborhood":"Old Bend","city_fetched":"Bend,US","state":"OR","country":"United States","canonicalUrl":"https://foursquare.com/v/velvet/4bd3d425462cb713ef6adf07","categoryId":"4bf58dd8d48988d121941735","category":"Lounge","checkinsCount":731,"usersCount":361,"tipCount":9,"visitsCount":737,"url":"http://velvetbend.com","tier":"","message":"","currency":"","rating":8.5},{"name":"McMenamins Old St. Francis School","phone":"5413825174","address":"700 NW Bond St","lat":44.0566081,"lng":-121.31442,"neighborhood":"Old Bend","city_fetched":"Bend,US","state":"OR","country":"United States","canonicalUrl":"https://foursquare.com/v/mcmenamins-old-st-francis-school/4af1f7e6f964a520dbe421e3","categoryId":"50327c8591d4c4b30a586d5d","category":"Brewery","checkinsCount":5042,"usersCount":2789,"tipCount":55,"visitsCount":5867,"url":"http://www.mcmenamins.com/421-old-st-francis-school-home","tier":2,"message":"Moderate","currency":"$","rating":8.4},{"name":"GoodLife Brewing","phone":"5417280749","twitter":"goodlifebrewing","address":"70 SW Century Dr","lat":44.05078382111739,"lng":-121.3303792476654,"city_fetched":"Bend,US","state":"OR","country":"United States","canonicalUrl":"https://foursquare.com/goodlifebrewing","categoryId":"50327c8591d4c4b30a586d5d","category":"Brewery","checkinsCount":1919,"usersCount":1422,"tipCount":20,"visitsCount":2325,"url":"http://goodlifebrewing.com","tier":"","message":"","currency":"","rating":8.4},{"name":"Sunriver Brewing - Bend","phone":"5414089377","address":"1005 NW Galveston Ave","lat":44.056520579289575,"lng":-121.32718205451965,"city_fetched":"Bend,US","state":"OR","country":"United States","canonicalUrl":"https://foursquare.com/v/sunriver-brewing--bend/56c55b55cd106598ec3dda86","categoryId":"4bf58dd8d48988d11b941735","category":"Pub","checkinsCount":167,"usersCount":113,"tipCount":1,"visitsCount":180,"url":"http://www.sunriverbrewingcompany.com","tier":"","message":"","currency":"","rating":8.3},{"name":"Brother Jonâ€™s Alehouse","phone":"5417280102","twitter":"brotherjonsale","address":"1051 NW Bond St","lat":44.05992092840855,"lng":-121.3115882813653,"city_fetched":"Bend,US","state":"OR","country":"United States","canonicalUrl":"https://foursquare.com/v/brother-jons-alehouse/4f29990be4b0ea161e62ca99","categoryId":"4bf58dd8d48988d11b941735","category":"Pub","checkinsCount":1402,"usersCount":667,"tipCount":13,"visitsCount":1504,"url":"http://www.brotherjonsalehouse.com","tier":"","message":"","currency":"","rating":8.3},{"name":"Worthy Brewing Company","phone":"5416394776","twitter":"worthybrewing","address":"495 NE Bellevue Dr","lat":44.055506955889186,"lng":-121.26074828434973,"neighborhood":"Mountain View","city_fetched":"Bend,US","state":"OR","country":"United States","canonicalUrl":"https://foursquare.com/v/worthy-brewing-company/50d0d422e4b0707f73d3da90","categoryId":"50327c8591d4c4b30a586d5d","category":"Brewery","checkinsCount":1645,"usersCount":1263,"tipCount":26,"visitsCount":2355,"url":"http://www.worthybrewing.com","tier":2,"message":"Moderate","currency":"$","rating":8.3},{"name":"dogwood cocktail cabin","lat":44.05871256568833,"lng":-121.31418744953052,"city_fetched":"Bend,US","state":"OR","country":"United States","canonicalUrl":"https://foursquare.com/v/dogwood-cocktail-cabin/533f2130498e87e5ccc1ee8f","categoryId":"4bf58dd8d48988d11e941735","category":"Cocktail Bar","checkinsCount":166,"usersCount":114,"tipCount":6,"visitsCount":169,"tier":"","message":"","currency":"","rating":8.2},{"name":"JC's Bar And Grill","address":"812 NW Wall St","lat":44.05798807074549,"lng":-121.31460696867929,"city_fetched":"Bend,US","state":"OR","country":"United States","canonicalUrl":"https://foursquare.com/v/jcs-bar-and-grill/4bccaaeeb6c49c74d7299491","categoryId":"4bf58dd8d48988d116941735","category":"Bar","checkinsCount":741,"usersCount":331,"tipCount":5,"visitsCount":748,"tier":"","message":"","currency":"","rating":8.2},{"name":"The Growler Guys","phone":"5412138579","twitter":"thegrowlerguys","address":"2699 NE Highway 20","lat":44.05430990923612,"lng":-121.26414784442656,"city_fetched":"Bend,US","state":"OR","country":"United States","canonicalUrl":"https://foursquare.com/v/the-growler-guys/51187d3be4b02a68df535f31","categoryId":"4bf58dd8d48988d117941735","category":"Beer Garden","checkinsCount":193,"usersCount":90,"tipCount":7,"visitsCount":204,"url":"http://www.thegrowlerguys.com","tier":"","message":"","currency":"","rating":8.1},{"name":"Silver Moon Brewing & Tap Room","phone":"5413888331","twitter":"silvermoonbeer","address":"24 NW Greenwood Ave","lat":44.06009227869159,"lng":-121.30785137414932,"city_fetched":"Bend,US","state":"OR","country":"United States","canonicalUrl":"https://foursquare.com/v/silver-moon-brewing--tap-room/4af1f5e4f964a520c9e421e3","categoryId":"50327c8591d4c4b30a586d5d","category":"Brewery","checkinsCount":1626,"usersCount":1347,"tipCount":22,"visitsCount":2057,"url":"http://www.silvermoonbrewing.com","tier":1,"message":"Cheap","currency":"$","rating":8},{"name":"Zydeco Kitchen & Cocktails","phone":"5413122899","address":"919 NW Bond St","lat":44.05859050587439,"lng":-121.31286477006354,"city_fetched":"Bend,US","state":"OR","country":"United States","canonicalUrl":"https://foursquare.com/v/zydeco-kitchen--cocktails/4af0f938f964a5205ce021e3","categoryId":"4bf58dd8d48988d121941735","category":"Lounge","checkinsCount":1106,"usersCount":791,"tipCount":21,"visitsCount":1166,"url":"http://www.zydecokitchen.com","tier":"","message":"","currency":"","rating":8},{"name":"Twisted River Tavern","phone":"5415933730","address":"17600 Center Dr","lat":43.87386168919253,"lng":-121.4465269446373,"city_fetched":"Bend,US","state":"OR","country":"United States","canonicalUrl":"https://foursquare.com/v/twisted-river-tavern/4ba312d7f964a520aa2a38e3","categoryId":"4bf58dd8d48988d1d5941735","category":"Hotel Bar","checkinsCount":830,"usersCount":439,"tipCount":6,"visitsCount":834,"url":"http://www.sunriver-resort.com","tier":"","message":"","currency":"","rating":7.9},{"name":"Bend Brewing Company","phone":"5413831599","address":"1019 NW Brooks St","lat":44.06047241765023,"lng":-121.31370604673505,"city_fetched":"Bend,US","state":"OR","country":"United States","canonicalUrl":"https://foursquare.com/v/bend-brewing-company/4b3aaf26f964a520a36c25e3","categoryId":"50327c8591d4c4b30a586d5d","category":"Brewery","checkinsCount":2699,"usersCount":2014,"tipCount":47,"visitsCount":3039,"url":"http://bendbrewingco.com","tier":2,"message":"Moderate","currency":"$","rating":7.9},{"name":"Brother Jon's Public House","phone":"5413063321","address":"1227 NW Galveston Ave","lat":44.05641911666667,"lng":-121.329358,"city_fetched":"Bend,US","state":"OR","country":"United States","canonicalUrl":"https://foursquare.com/v/brother-jons-public-house/4b4eb5d8f964a52068f426e3","categoryId":"4bf58dd8d48988d11b941735","category":"Pub","checkinsCount":1582,"usersCount":618,"tipCount":29,"visitsCount":1711,"url":"http://brotherjonspublichouse.com","tier":"","message":"","currency":"","rating":7.9},{"name":"Sidelines Sports Bar & Grill","phone":"5413858898","address":"1020 NW Wall St","lat":44.059887,"lng":-121.312837,"city_fetched":"Bend,US","state":"OR","country":"United States","canonicalUrl":"https://foursquare.com/v/sidelines-sports-bar--grill/4b21c5e6f964a520424124e3","categoryId":"4bf58dd8d48988d11d941735","category":"Sports Bar","checkinsCount":1299,"usersCount":494,"tipCount":11,"visitsCount":1437,"url":"http://www.myspace.com/sidelinesbend","tier":"","message":"","currency":"","rating":7.8},{"name":"O'Kanes Whiskey & Cigar Bar","phone":"5413308563","address":"700 NW Bond St","lat":44.05618903447261,"lng":-121.31317019462585,"neighborhood":"Old Bend","city_fetched":"Bend,US","state":"OR","country":"United States","canonicalUrl":"https://foursquare.com/v/okanes-whiskey--cigar-bar/4b453a77f964a5208d0826e3","categoryId":"4bf58dd8d48988d122941735","category":"Whisky Bar","checkinsCount":1057,"usersCount":478,"tipCount":9,"visitsCount":1177,"url":"http://www.mcmenamins.com/546-o-kanes-home","tier":2,"message":"Moderate","currency":"$","rating":7.8},{"name":"Kelly D's Sports Bar","phone":"5413895625","address":"1012 SE Cleveland","lat":44.040547013282776,"lng":-121.3024628162384,"city_fetched":"Bend,US","state":"OR","country":"United States","canonicalUrl":"https://foursquare.com/v/kelly-ds-sports-bar/4becca116b88c9b6dc868762","categoryId":"4bf58dd8d48988d11d941735","category":"Sports Bar","checkinsCount":249,"usersCount":91,"tipCount":5,"visitsCount":342,"url":"http://kellyds.com","tier":"","message":"","currency":"","rating":7.8},{"name":"Astro Lounge","phone":"5413880116","address":"939 NW Bond St","lat":44.05867943037286,"lng":-121.31286978721619,"city_fetched":"Bend,US","state":"OR","country":"United States","canonicalUrl":"https://foursquare.com/v/astro-lounge/4e1fc262814d32181a6d2b3d","categoryId":"4bf58dd8d48988d11e941735","category":"Cocktail Bar","checkinsCount":1858,"usersCount":463,"tipCount":13,"visitsCount":1894,"url":"http://astroloungebend.com","tier":"","message":"","currency":"","rating":7.7},{"name":"Timbers","phone":"5413833502","address":"2570 NE Twin Knolls Dr","lat":44.05360600547248,"lng":-121.2660276889801,"city_fetched":"Bend,US","state":"OR","country":"United States","canonicalUrl":"https://foursquare.com/v/timbers/4c64ded43f69c9b6bfe989d9","categoryId":"4bf58dd8d48988d116941735","category":"Bar","checkinsCount":321,"usersCount":129,"tipCount":1,"visitsCount":399,"tier":"","message":"","currency":"","rating":7.5},{"name":"The Growler Guys","phone":"5417978381","twitter":"thegrowlerguys","address":"1400 NW College Way","lat":44.063104829023935,"lng":-121.33712768554688,"city_fetched":"Bend,US","state":"OR","country":"United States","canonicalUrl":"https://foursquare.com/v/the-growler-guys/51c249f8498e79ef54931930","categoryId":"4bf58dd8d48988d117941735","category":"Beer Garden","checkinsCount":47,"usersCount":50,"tipCount":1,"visitsCount":62,"url":"http://www.thegrowlerguys.com","tier":"","message":"","currency":"","rating":7.4},{"name":"The Stihl Whiskey Bar","lat":44.05730111674154,"lng":-121.31343269761977,"city_fetched":"Bend,US","state":"OR","country":"United States","canonicalUrl":"https://foursquare.com/v/the-stihl-whiskey-bar/54067970498e9778ef2843ab","categoryId":"4bf58dd8d48988d122941735","category":"Whisky Bar","checkinsCount":83,"usersCount":60,"tipCount":2,"visitsCount":85,"tier":"","message":"","currency":"","rating":7.3},{"name":"D & D Bar & Grill","phone":"5413824592","address":"927 NW Bond St","lat":44.058556069574195,"lng":-121.31303071975708,"city_fetched":"Bend,US","state":"OR","country":"United States","canonicalUrl":"https://foursquare.com/v/d--d-bar--grill/4af5d7bff964a520a6fd21e3","categoryId":"4bf58dd8d48988d11d941735","category":"Sports Bar","checkinsCount":711,"usersCount":341,"tipCount":5,"visitsCount":715,"tier":"","message":"","currency":"","rating":7.3},{"name":"Fireside Bar","phone":"5413825174","address":"700 NW Bond St","lat":44.05675732827213,"lng":-121.3144218743317,"neighborhood":"Old Bend","city_fetched":"Bend,US","state":"OR","country":"United States","canonicalUrl":"https://foursquare.com/v/fireside-bar/4e4c46b3bd413c4cc6682866","categoryId":"4bf58dd8d48988d116941735","category":"Bar","checkinsCount":492,"usersCount":284,"tipCount":4,"visitsCount":493,"tier":"","message":"","currency":"","rating":7.3},{"name":"RiverBend Brewing Company","phone":"5415507550","address":"2650 NE Division St","lat":44.075811,"lng":-121.30537,"city_fetched":"Bend,US","state":"OR","country":"United States","canonicalUrl":"https://foursquare.com/v/riverbend-brewing-company/527f1609498e9c229f40b030","categoryId":"4bf58dd8d48988d11d941735","category":"Sports Bar","checkinsCount":248,"usersCount":254,"tipCount":3,"visitsCount":369,"url":"http://riverbendbrewing.com","tier":"","message":"","currency":"","rating":7.2},{"name":"Cascade Lakes Brewing","phone":"5413884998","twitter":"cascadelakesale","address":"1441 SW Chandler Ave","lat":44.041576087974605,"lng":-121.3326644897461,"neighborhood":"Century West","city_fetched":"Bend,US","state":"OR","country":"United States","canonicalUrl":"https://foursquare.com/v/cascade-lakes-brewing/4af1f6baf964a520cfe421e3","categoryId":"50327c8591d4c4b30a586d5d","category":"Brewery","checkinsCount":1794,"usersCount":1328,"tipCount":18,"visitsCount":2205,"url":"http://www.cascadelakes.com","tier":2,"message":"Moderate","currency":"$","rating":7.2},{"name":"SEVEN Nightclub","phone":"5417609412","address":"1033 NW Bond St","lat":44.05951981897437,"lng":-121.31191492080688,"city_fetched":"Bend,US","state":"OR","country":"United States","canonicalUrl":"https://foursquare.com/v/seven-nightclub/4a90ed87f964a520b41920e3","categoryId":"4bf58dd8d48988d11f941735","category":"Nightclub","checkinsCount":717,"usersCount":231,"tipCount":6,"visitsCount":722,"url":"http://www.sevenbend.com","tier":"","message":"","currency":"","rating":7},{"name":"Mavericks, Country Bar & Grill","phone":"5413251886","twitter":"mavericks_bend","address":"20565 Brinson Blvd","lat":44.08506467,"lng":-121.29488289356232,"city_fetched":"Bend,US","state":"OR","country":"United States","canonicalUrl":"https://foursquare.com/v/mavericks-country-bar--grill/4dd739b7ae60680f15029ec3","categoryId":"4bf58dd8d48988d116941735","category":"Bar","checkinsCount":190,"usersCount":155,"tipCount":4,"visitsCount":270,"url":"http://www.maverickscountrybar.com","tier":"","message":"","currency":"","rating":7},{"name":"Portello Wine Cafe","phone":"5413851777","address":"2754 NW Crossing Dr","lat":44.05896642137488,"lng":-121.35573008232214,"city_fetched":"Bend,US","state":"OR","country":"United States","canonicalUrl":"https://foursquare.com/v/portello-wine-cafe/4b5229bbf964a520a26c27e3","categoryId":"4bf58dd8d48988d123941735","category":"Wine Bar","checkinsCount":415,"usersCount":128,"tipCount":14,"visitsCount":419,"url":"http://portellowinecafe.com","tier":"","message":"","currency":"","rating":7},{"name":"Corey's Bar & Grill","phone":"5413171468","address":"928 NW Bond St","lat":44.05847121666667,"lng":-121.312499,"city_fetched":"Bend,US","state":"OR","country":"United States","canonicalUrl":"https://foursquare.com/v/coreys-bar--grill/4c3205ae16adc9281e68c19c","categoryId":"4bf58dd8d48988d118941735","category":"Dive Bar","checkinsCount":383,"usersCount":187,"tipCount":6,"visitsCount":385,"tier":"","message":"","currency":"","rating":6.7},{"name":"Cascade West Grub & Alehouse","phone":"5413891853","address":"64 SW Century Dr","lat":44.05047655105591,"lng":-121.33152112,"city_fetched":"Bend,US","state":"OR","country":"United States","canonicalUrl":"https://foursquare.com/v/cascade-west-grub--alehouse/4b89d00ff964a5202b4e32e3","categoryId":"4bf58dd8d48988d116941735","category":"Bar","checkinsCount":409,"usersCount":144,"tipCount":6,"visitsCount":418,"tier":"","message":"","currency":"","rating":6.7},{"name":"Craft Kitchen & Brewery","lat":44.04991636229514,"lng":-121.31805324447646,"city_fetched":"Bend,US","state":"OR","country":"United States","canonicalUrl":"https://foursquare.com/v/craft-kitchen--brewery/5580f081498e758a747afdc5","categoryId":"50327c8591d4c4b30a586d5d","category":"Brewery","checkinsCount":195,"usersCount":347,"tipCount":4,"visitsCount":461,"tier":"","message":"","currency":"","rating":6.6},{"name":"Platypus Pub","phone":"5413233282","address":"1203 NE 3rd St","lat":44.062133842843906,"lng":-121.30275569521783,"city_fetched":"Bend,US","state":"OR","country":"United States","canonicalUrl":"https://foursquare.com/v/platypus-pub/4e6ff72bb61c212c602a5fa5","categoryId":"4bf58dd8d48988d11b941735","category":"Pub","checkinsCount":688,"usersCount":234,"tipCount":8,"visitsCount":756,"url":"http://platypuspubbend.com","tier":"","message":"","currency":"","rating":6.3},{"name":"Westside Tavern","phone":"5413824810","address":"930 NW Galveston Ave","lat":44.056801199913025,"lng":-121.32623456666667,"city_fetched":"Bend,US","state":"OR","country":"United States","canonicalUrl":"https://foursquare.com/v/westside-tavern/4bae7deef964a520f7b83be3","categoryId":"4bf58dd8d48988d118941735","category":"Dive Bar","checkinsCount":246,"usersCount":157,"tipCount":2,"visitsCount":311,"tier":"","message":"","currency":"","rating":6.2},{"name":"Mountains Edge","address":"61331 S Hwy 97","lat":44.02675350355913,"lng":-121.31453409187107,"neighborhood":"Southwest Bend","city_fetched":"Bend,US","state":"OR","country":"United States","canonicalUrl":"https://foursquare.com/v/mountains-edge/4c5120b39d642d7fe69e06dd","categoryId":"4bf58dd8d48988d11d941735","category":"Sports Bar","checkinsCount":224,"usersCount":104,"tipCount":6,"visitsCount":269,"tier":"","message":"","currency":"","rating":6.1},{"name":"The Summit Saloon","phone":"5417492440","address":"125 NW Oregon Ave","lat":44.05917287099746,"lng":-121.31284296512604,"city_fetched":"Bend,US","state":"OR","country":"United States","canonicalUrl":"https://foursquare.com/v/the-summit-saloon/4b412d70f964a520aec225e3","categoryId":"4bf58dd8d48988d116941735","category":"Bar","checkinsCount":1211,"usersCount":550,"tipCount":13,"visitsCount":1259,"url":"http://myspace.com/thesummitsaloon","tier":2,"message":"Moderate","currency":"$","rating":6.1},{"name":"Oblivion Brewing Co.","phone":"5417283509","twitter":"oblivionbrewing","address":"63027 Plateau Dr Ste 4","lat":44.05665098513334,"lng":-121.3270707053999,"city_fetched":"Bend,US","state":"OR","country":"United States","canonicalUrl":"https://foursquare.com/v/oblivion-brewing-co/555539d1498ea5420162db58","categoryId":"50327c8591d4c4b30a586d5d","category":"Brewery","checkinsCount":128,"usersCount":173,"tipCount":2,"visitsCount":244,"url":"http://www.oblivionbrewingco.com","tier":"","message":"","currency":"","rating":6},{"name":"Rat Hole Brewing","phone":"5413892739","address":"384 SW Upper Terrace Dr","lat":44.046532,"lng":-121.311021,"city_fetched":"Bend,US","state":"OR","country":"United States","canonicalUrl":"https://foursquare.com/v/rat-hole-brewing/51e216cd498e134a2d7b1b88","categoryId":"50327c8591d4c4b30a586d5d","category":"Brewery","checkinsCount":413,"usersCount":312,"tipCount":7,"visitsCount":560,"tier":"","message":"","currency":"","rating":5.9}]