[{"name":"Eureka Landings Bar & Grill","phone":"9206852662","address":"3105 W. County Trunk K","lat":44.00486125186304,"lng":-88.84305924930297,"city_fetched":"Berlin,US","state":"WI","country":"United States","canonicalUrl":"https://foursquare.com/v/eureka-landings-bar--grill/50e8a992e412486ef13df594","categoryId":"4bf58dd8d48988d116941735","category":"Bar","checkinsCount":431,"usersCount":127,"tipCount":9,"visitsCount":527,"tier":1,"message":"Cheap","currency":"$","rating":8.2},{"name":"City Inn","phone":"9203614750","address":"689 Broadway St","lat":43.96846366147237,"lng":-88.97123203256926,"city_fetched":"Berlin,US","state":"WI","country":"United States","canonicalUrl":"https://foursquare.com/v/city-inn/4c3df35851dee21e71ece96e","categoryId":"4bf58dd8d48988d116941735","category":"Bar","checkinsCount":354,"usersCount":69,"tipCount":2,"visitsCount":367,"tier":"","message":"","currency":"","rating":7.7},{"name":"Jorgie's","address":"N3084 County Road Xx","lat":44.0901714443583,"lng":-88.89582062015818,"city_fetched":"Berlin,US","state":"WI","country":"United States","canonicalUrl":"https://foursquare.com/v/jorgies/4c92cd70d84a6dcb60223887","categoryId":"4bf58dd8d48988d116941735","category":"Bar","checkinsCount":159,"usersCount":113,"tipCount":5,"visitsCount":181,"tier":"","message":"","currency":"","rating":7.3}]