[{"name":"Schuberg's Bar & Grill","phone":"2317965333","address":"109 N Michigan Ave","lat":43.698801,"lng":-85.482122,"city_fetched":"Big Rapids","state":"MI","country":"United States","canonicalUrl":"https://foursquare.com/v/schubergs-bar--grill/4b9c08e4f964a5202e4336e3","category":"American Restaurant","checkinsCount":1764,"usersCount":910,"tipCount":34,"visitsCount":1919,"url":"http://schubergsbar.com","tier":1,"message":"Cheap","currency":"$","rating":9.2},{"name":"Gypsy Nickel Lounge","phone":"2315270085","address":"228 Baldwin","lat":43.70826226658575,"lng":-85.480696449435,"city_fetched":"Big Rapids","state":"MI","country":"United States","canonicalUrl":"https://foursquare.com/v/gypsy-nickel-lounge/4ec94cd4b634b2fd76973b9b","category":"Bar","checkinsCount":2146,"usersCount":652,"tipCount":31,"visitsCount":2601,"url":"http://gypsynickel.com","tier":2,"message":"Moderate","currency":"$","rating":8.9},{"name":"Blue Cow Cafe","phone":"2317960100","address":"119 N Michigan Ave","lat":43.698974,"lng":-85.482095,"city_fetched":"Big Rapids","state":"MI","country":"United States","canonicalUrl":"https://foursquare.com/v/blue-cow-cafe/4bf5e5ba9abec9b634fc24e8","category":"American Restaurant","checkinsCount":780,"usersCount":431,"tipCount":16,"visitsCount":814,"url":"http://bluecowcafe.com","tier":2,"message":"Moderate","currency":"$","rating":8},{"name":"Szot's","address":"100-118 E Waterloo St","lat":43.70724,"lng":-85.483811,"city_fetched":"Big Rapids","state":"MI","country":"United States","canonicalUrl":"https://foursquare.com/v/szots/4beaeb47415e20a196a2e5bb","category":"Bar","checkinsCount":446,"usersCount":199,"tipCount":8,"visitsCount":540,"tier":"","message":"","currency":"","rating":7.5},{"name":"The Gate & 7-10 Bar and Grill","phone":"2317963808","address":"706 Perry Ave","lat":43.68904002054325,"lng":-85.49021839674685,"city_fetched":"Big Rapids","state":"MI","country":"United States","canonicalUrl":"https://foursquare.com/v/the-gate--710-bar-and-grill/4b6d0484f964a52035632ce3","category":"Bowling Alley","checkinsCount":4226,"usersCount":1132,"tipCount":25,"visitsCount":4462,"url":"http://www.thegatesiteonline.com","tier":"","message":"","currency":"","rating":6.7},{"name":"Cranker's Brewery","phone":"2317961919","address":"213 S State St","lat":43.69649409830704,"lng":-85.4835904537371,"city_fetched":"Big Rapids","state":"MI","country":"United States","canonicalUrl":"https://foursquare.com/v/crankers-brewery/51eed40a498e859b7cb09414","category":"Brewery","checkinsCount":470,"usersCount":332,"tipCount":8,"visitsCount":590,"url":"http://www.crankersbrewery.com","tier":2,"message":"Moderate","currency":"$","rating":6.2},{"name":"Star Shooters","phone":"2317964842","address":"120 S Michigan Ave","lat":43.697533629255894,"lng":-85.4822051525116,"city_fetched":"Big Rapids","state":"MI","country":"United States","canonicalUrl":"https://foursquare.com/v/star-shooters/4bca59b9937ca593eac6a792","category":"Bar","checkinsCount":3272,"usersCount":676,"tipCount":17,"visitsCount":3387,"tier":"","message":"","currency":"","rating":5.9},{"name":"The Pub @ Pizza King","phone":"2317962621","address":"102 Perry","lat":43.68736345128583,"lng":-85.48470497131348,"city_fetched":"Big Rapids","state":"MI","country":"United States","canonicalUrl":"https://foursquare.com/v/the-pub--pizza-king/4e49ab31483b16676e35d355","category":"Bar","checkinsCount":1438,"usersCount":381,"tipCount":6,"visitsCount":1474,"url":"http://www.pizzakingindiana.com","tier":"","message":"","currency":"","rating":5.5}]