[{"name":"Uberbrew","phone":"4065346360","twitter":"uberbrewing","address":"2305 Montana Ave","lat":45.78420893488562,"lng":-108.49928256729436,"city_fetched":"Billings,US","state":"MT","country":"United States","canonicalUrl":"https://foursquare.com/v/uberbrew/4e9385f6b8f772c30c23c576","categoryId":"50327c8591d4c4b30a586d5d","category":"Brewery","checkinsCount":1185,"usersCount":554,"tipCount":28,"visitsCount":1320,"url":"http://uberbrewmt.com","tier":2,"message":"Moderate","currency":"$","rating":8.9},{"name":"Montana Brewing Company","phone":"4062529200","address":"113 N 28th St","lat":45.78262621443173,"lng":-108.50616775071883,"city_fetched":"Billings,US","state":"MT","country":"United States","canonicalUrl":"https://foursquare.com/v/montana-brewing-company/4b4eac72f964a520d2f326e3","categoryId":"50327c8591d4c4b30a586d5d","category":"Brewery","checkinsCount":3219,"usersCount":1436,"tipCount":29,"visitsCount":3475,"url":"http://www.montanabrewingcompany.com","tier":2,"message":"Moderate","currency":"$","rating":8.9},{"name":"Pug Mahon's Irish Pub","phone":"4062594190","address":"3011 1st Ave N","lat":45.78079104423523,"lng":-108.5088087,"city_fetched":"Billings,US","state":"MT","country":"United States","canonicalUrl":"https://foursquare.com/v/pug-mahons-irish-pub/4ba169aff964a520b6b437e3","categoryId":"4bf58dd8d48988d11b941735","category":"Pub","checkinsCount":353,"usersCount":194,"tipCount":14,"visitsCount":386,"url":"http://pugmahons.com","tier":"","message":"","currency":"","rating":8.2},{"name":"Trailhead Spirits","phone":"4069691627","address":"2314 Montana Ave","lat":45.7836512865275,"lng":-108.4997957069733,"city_fetched":"Billings,US","state":"MT","country":"United States","canonicalUrl":"https://foursquare.com/v/trailhead-spirits/50c8ebdde4b09dbd753f621a","categoryId":"4bf58dd8d48988d11e941735","category":"Cocktail Bar","checkinsCount":180,"usersCount":94,"tipCount":2,"visitsCount":189,"url":"http://www.trailheadspirits.com","tier":"","message":"","currency":"","rating":8.2},{"name":"Stadium Club","phone":"4062549727","address":"1041 Main St","lat":45.81809078907803,"lng":-108.47032859357839,"neighborhood":"Heights","city_fetched":"Billings,US","state":"MT","country":"United States","canonicalUrl":"https://foursquare.com/v/stadium-club/4bf9f40e328d76b0dab214ec","categoryId":"4bf58dd8d48988d11d941735","category":"Sports Bar","checkinsCount":513,"usersCount":223,"tipCount":6,"visitsCount":776,"tier":"","message":"","currency":"","rating":8.1},{"name":"Angry Hanks Brewery","address":"20 N 30th St","lat":45.780495,"lng":-108.50818,"city_fetched":"Billings,US","state":"MT","country":"United States","canonicalUrl":"https://foursquare.com/v/angry-hanks-brewery/4ffb8502e4b073bb7b46b8ff","categoryId":"50327c8591d4c4b30a586d5d","category":"Brewery","checkinsCount":341,"usersCount":188,"tipCount":8,"visitsCount":382,"tier":"","message":"","currency":"","rating":8.1},{"name":"Yellowstone Valley Brewing Company","address":"2123 1st Ave N","lat":45.7861867708523,"lng":-108.49848047415584,"city_fetched":"Billings,US","state":"MT","country":"United States","canonicalUrl":"https://foursquare.com/v/yellowstone-valley-brewing-company/4b6de920f964a5201f9b2ce3","categoryId":"50327c8591d4c4b30a586d5d","category":"Brewery","checkinsCount":402,"usersCount":238,"tipCount":4,"visitsCount":471,"url":"http://yellowstonevalleybrew.com","tier":"","message":"","currency":"","rating":7.9},{"name":"Hudsons","phone":"4066563600","address":"2658 Grand Ave","lat":45.78382602806288,"lng":-108.58314864681762,"neighborhood":"West End","city_fetched":"Billings,US","state":"MT","country":"United States","canonicalUrl":"https://foursquare.com/v/hudsons/4ba4620ef964a520f09938e3","categoryId":"4bf58dd8d48988d116941735","category":"Bar","checkinsCount":837,"usersCount":221,"tipCount":4,"visitsCount":964,"tier":"","message":"","currency":"","rating":7.8},{"name":"Hooligan's Sports Bar","phone":"4062943495","address":"109 N 28th St","lat":45.7825317,"lng":-108.5059509,"city_fetched":"Billings,US","state":"MT","country":"United States","canonicalUrl":"https://foursquare.com/v/hooligans-sports-bar/4b7cf016f964a520bea92fe3","categoryId":"4bf58dd8d48988d11d941735","category":"Sports Bar","checkinsCount":2751,"usersCount":559,"tipCount":19,"visitsCount":2813,"url":"http://www.hooliganssportsbar.com","tier":2,"message":"Moderate","currency":"$","rating":7.7},{"name":"Carter's Brewing","phone":"4062520663","address":"2526 Montana Ave","lat":45.78234924543751,"lng":-108.50193527616442,"city_fetched":"Billings,US","state":"MT","country":"United States","canonicalUrl":"https://foursquare.com/v/carters-brewing/4b6de657f964a520279a2ce3","categoryId":"50327c8591d4c4b30a586d5d","category":"Brewery","checkinsCount":668,"usersCount":202,"tipCount":9,"visitsCount":689,"url":"http://cartersbrewing.com","tier":"","message":"","currency":"","rating":7.7},{"name":"Tiny's Catering","phone":"4062590828","address":"323 N 24th St","lat":45.7870457,"lng":-108.5030196,"city_fetched":"Billings,US","state":"MT","country":"United States","canonicalUrl":"https://foursquare.com/v/tinys-catering/4c3fb2e7da3dc928c555c6b9","categoryId":"4bf58dd8d48988d116941735","category":"Bar","checkinsCount":479,"usersCount":224,"tipCount":6,"visitsCount":601,"tier":"","message":"","currency":"","rating":7.7},{"name":"Angry Hank's Brewing","phone":"4062523370","address":"2405 1st Ave N","lat":45.784488408742426,"lng":-108.50145795583907,"city_fetched":"Billings,US","state":"MT","country":"United States","canonicalUrl":"https://foursquare.com/v/angry-hanks-brewing/4b5bacc0f964a520460f29e3","categoryId":"50327c8591d4c4b30a586d5d","category":"Brewery","checkinsCount":464,"usersCount":200,"tipCount":9,"visitsCount":466,"tier":"","message":"","currency":"","rating":7.5},{"name":"Fiddler's Green Sports Bar","phone":"4062592020","address":"5104 Southgate Dr","lat":45.75341368822314,"lng":-108.54240303559298,"city_fetched":"Billings,US","state":"MT","country":"United States","canonicalUrl":"https://foursquare.com/v/fiddlers-green-sports-bar/4c27f3e09fb5d13a04f29857","categoryId":"4bf58dd8d48988d11d941735","category":"Sports Bar","checkinsCount":268,"usersCount":200,"tipCount":5,"visitsCount":323,"tier":"","message":"","currency":"","rating":7.5},{"name":"Bucks Bar","phone":"4062566101","address":"1511 Central Ave","lat":45.769967,"lng":-108.554426,"city_fetched":"Billings,US","state":"MT","country":"United States","canonicalUrl":"https://foursquare.com/v/bucks-bar/4bce8489937ca5931fc4ae92","categoryId":"4bf58dd8d48988d116941735","category":"Bar","checkinsCount":750,"usersCount":154,"tipCount":3,"visitsCount":862,"tier":"","message":"","currency":"","rating":7.3},{"name":"Red Door","address":"3875 Grand Ave","lat":45.78447750221647,"lng":-108.613703601612,"city_fetched":"Billings,US","state":"MT","country":"United States","canonicalUrl":"https://foursquare.com/v/red-door/4bd3bf7041b9ef3b84fe00e6","categoryId":"4bf58dd8d48988d116941735","category":"Bar","checkinsCount":768,"usersCount":354,"tipCount":5,"visitsCount":899,"tier":"","message":"","currency":"","rating":7.3},{"name":"The Grandstand","lat":45.78451605,"lng":-108.53882291,"city_fetched":"Billings,US","state":"MT","country":"United States","canonicalUrl":"https://foursquare.com/v/the-grandstand/4bd9f1142a3a0f4775ffa8b6","categoryId":"4bf58dd8d48988d11d941735","category":"Sports Bar","checkinsCount":490,"usersCount":138,"tipCount":5,"visitsCount":529,"tier":"","message":"","currency":"","rating":7.1},{"name":"Canyon Creek Brewing","address":"3060 Gabel Rd","lat":45.744197542101965,"lng":-108.59249889850615,"city_fetched":"Billings,US","state":"MT","country":"United States","canonicalUrl":"https://foursquare.com/v/canyon-creek-brewing/5271956111d2cf5427749bfa","categoryId":"50327c8591d4c4b30a586d5d","category":"Brewery","checkinsCount":168,"usersCount":150,"tipCount":3,"visitsCount":376,"tier":"","message":"","currency":"","rating":6.9},{"name":"The Rock Pile","phone":"4062455985","address":"1233 N 27th St","lat":45.795354476186574,"lng":-108.5163954870225,"city_fetched":"Billings,US","state":"MT","country":"United States","canonicalUrl":"https://foursquare.com/v/the-rock-pile/4bcfbdcf41b9ef3b6a1df9e5","categoryId":"4bf58dd8d48988d116941735","category":"Bar","checkinsCount":756,"usersCount":319,"tipCount":8,"visitsCount":889,"url":"http://www.billingsrockpile.com","tier":2,"message":"Moderate","currency":"$","rating":6.7},{"name":"Cadillac Jax's","phone":"4068392352","address":"1744 Grand Ave","lat":45.78388395,"lng":-108.56102154,"city_fetched":"Billings,US","state":"MT","country":"United States","canonicalUrl":"https://foursquare.com/v/cadillac-jaxs/4b9b312ef964a520fef835e3","categoryId":"4bf58dd8d48988d11d941735","category":"Sports Bar","checkinsCount":771,"usersCount":127,"tipCount":2,"visitsCount":830,"tier":"","message":"","currency":"","rating":6.7},{"name":"The Loft","phone":"4062599074","address":"1123 1st Ave N","lat":45.79203083255883,"lng":-108.48619422197876,"city_fetched":"Billings,US","state":"MT","country":"United States","canonicalUrl":"https://foursquare.com/v/the-loft/4bc7a88b14d79521f9dc67e9","categoryId":"4bf58dd8d48988d11f941735","category":"Nightclub","checkinsCount":242,"usersCount":177,"tipCount":5,"visitsCount":396,"url":"http://theloftbillings.com","tier":"","message":"","currency":"","rating":6.5},{"name":"Railyard Ale House","phone":"4068672337","address":"2526 Montana Ave","lat":45.78239942583334,"lng":-108.50183486938477,"city_fetched":"Billings,US","state":"MT","country":"United States","canonicalUrl":"https://foursquare.com/v/railyard-ale-house/4b806f0ef964a520ed7130e3","categoryId":"4bf58dd8d48988d116941735","category":"Bar","checkinsCount":1171,"usersCount":229,"tipCount":7,"visitsCount":1210,"url":"http://www.therailyardalehouse.com","tier":"","message":"","currency":"","rating":6.5},{"name":"The Rainbow Bar","phone":"4062590047","address":"2403 Montana Ave","lat":45.78367848571139,"lng":-108.50025841603613,"city_fetched":"Billings,US","state":"MT","country":"United States","canonicalUrl":"https://foursquare.com/v/the-rainbow-bar/4b6de8d3f964a520059b2ce3","categoryId":"4bf58dd8d48988d118941735","category":"Dive Bar","checkinsCount":406,"usersCount":164,"tipCount":4,"visitsCount":406,"tier":"","message":"","currency":"","rating":6.4},{"name":"Peppers Bar And Grill","phone":"4066526773","address":"75 27th St W","lat":45.77133357475645,"lng":-108.58443218167112,"neighborhood":"West End","city_fetched":"Billings,US","state":"MT","country":"United States","canonicalUrl":"https://foursquare.com/v/peppers-bar-and-grill/4b9db757f964a5209cbb36e3","categoryId":"4bf58dd8d48988d116941735","category":"Bar","checkinsCount":1313,"usersCount":235,"tipCount":5,"visitsCount":1410,"tier":"","message":"","currency":"","rating":6.3},{"name":"Play Inn","phone":"4062529034","address":"1432 Main St","lat":45.824867,"lng":-108.471831,"neighborhood":"Heights","city_fetched":"Billings,US","state":"MT","country":"United States","canonicalUrl":"https://foursquare.com/v/play-inn/4c20d90014bfef3b870942bc","categoryId":"4bf58dd8d48988d116941735","category":"Bar","checkinsCount":278,"usersCount":78,"tipCount":1,"visitsCount":289,"tier":"","message":"","currency":"","rating":6.2},{"name":"Manny's","address":"4240 King Ave W","lat":45.75470562,"lng":-108.62413822,"city_fetched":"Billings,US","state":"MT","country":"United States","canonicalUrl":"https://foursquare.com/v/mannys/4e053c3d7d8b2a01804cac70","categoryId":"4bf58dd8d48988d116941735","category":"Bar","checkinsCount":314,"usersCount":180,"tipCount":1,"visitsCount":371,"tier":"","message":"","currency":"","rating":6.1},{"name":"The Crystal Lounge","phone":"4062590010","twitter":"crystalcasinomt","address":"101 N 28th St","lat":45.78232157,"lng":-108.50567199,"city_fetched":"Billings,US","state":"MT","country":"United States","canonicalUrl":"https://foursquare.com/v/the-crystal-lounge/4bdd2b35645e0f47b5086b19","categoryId":"4bf58dd8d48988d120941735","category":"Karaoke Bar","checkinsCount":684,"usersCount":241,"tipCount":7,"visitsCount":688,"url":"http://crystalloungebillings-hub.com","tier":"","message":"","currency":"","rating":6}]