[{"name":"Parkside Caf√©","phone":"2055950920","address":"4036 5th Ave S","lat":33.52182780483324,"lng":-86.77320781743448,"neighborhood":"Forest Park","city_fetched":"Birmingham,US","state":"AL","country":"United States","canonicalUrl":"https://foursquare.com/v/parkside-caf%C3%A9/4b493a0af964a520b06a26e3","categoryId":"4bf58dd8d48988d116941735","category":"Bar","checkinsCount":4044,"usersCount":1325,"tipCount":18,"visitsCount":4656,"tier":2,"message":"Moderate","currency":"$","rating":9.5},{"name":"Good People Brewing Company","phone":"2052862337","twitter":"gpbrewing","address":"114 14th St S","lat":33.50704924881552,"lng":-86.81199073791504,"neighborhood":"Five Points South","city_fetched":"Birmingham,US","state":"AL","country":"United States","canonicalUrl":"https://foursquare.com/gpbrewing","categoryId":"50327c8591d4c4b30a586d5d","category":"Brewery","checkinsCount":4419,"usersCount":2302,"tipCount":37,"visitsCount":5329,"url":"http://www.goodpeoplebrewing.com","tier":2,"message":"Moderate","currency":"$","rating":9.4},{"name":"Cahaba Brewing Company","twitter":"cahababrewing","address":"4500 5th Ave S Ste C","lat":33.527382,"lng":-86.765382,"city_fetched":"Birmingham,US","state":"AL","country":"United States","canonicalUrl":"https://foursquare.com/v/cahaba-brewing-company/56a054a7498e4578acaccc83","categoryId":"50327c8591d4c4b30a586d5d","category":"Brewery","checkinsCount":275,"usersCount":347,"tipCount":6,"visitsCount":630,"tier":"","message":"","currency":"","rating":9.3},{"name":"Avondale Brewing Company","phone":"2057775456","twitter":"avondalebrewing","address":"201 41st St S","lat":33.52451296488369,"lng":-86.77404215250755,"neighborhood":"Forest Park","city_fetched":"Birmingham,US","state":"AL","country":"United States","canonicalUrl":"https://foursquare.com/v/avondale-brewing-company/4c250bbbf1272d7f8f1984c5","categoryId":"50327c8591d4c4b30a586d5d","category":"Brewery","checkinsCount":6719,"usersCount":2749,"tipCount":56,"visitsCount":7370,"url":"http://www.avondalebrewing.com","tier":2,"message":"Moderate","currency":"$","rating":9.2},{"name":"The Collins Bar","phone":"2053237995","twitter":"collinsbham","address":"2125 2nd Ave N","lat":33.51649445191471,"lng":-86.80393137498477,"neighborhood":"Central City","city_fetched":"Birmingham,US","state":"AL","country":"United States","canonicalUrl":"https://foursquare.com/v/the-collins-bar/523cd5d811d290cb022ac2c1","categoryId":"4bf58dd8d48988d116941735","category":"Bar","checkinsCount":1822,"usersCount":1184,"tipCount":27,"visitsCount":2509,"url":"http://www.collinsbirmingham.com","tier":2,"message":"Moderate","currency":"$","rating":9.2},{"name":"Highland's Bar & Grill","phone":"2059391400","address":"2011 11th Ave S","lat":33.50065714309365,"lng":-86.79547966735771,"neighborhood":"Five Points South","city_fetched":"Birmingham,US","state":"AL","country":"United States","canonicalUrl":"https://foursquare.com/v/highlands-bar--grill/4b54cb0df964a520bbcc27e3","categoryId":"4bf58dd8d48988d116941735","category":"Bar","checkinsCount":1089,"usersCount":727,"tipCount":34,"visitsCount":1115,"url":"http://highlandsbarandgrill.com","tier":"","message":"","currency":"","rating":9.2},{"name":"The Garage Cafe","phone":"2053223220","address":"2304 10th Ter S","lat":33.50376,"lng":-86.79072356,"neighborhood":"Five Points South","city_fetched":"Birmingham,US","state":"AL","country":"United States","canonicalUrl":"https://foursquare.com/v/the-garage-cafe/4b5399e2f964a52026a427e3","categoryId":"4bf58dd8d48988d11b941735","category":"Pub","checkinsCount":2346,"usersCount":1192,"tipCount":28,"visitsCount":2746,"url":"http://garagecafe.us","tier":2,"message":"Moderate","currency":"$","rating":9},{"name":"Paramount","phone":"2053202824","twitter":"paramountbham","address":"20th Street N","lat":33.51546511605201,"lng":-86.80631014588924,"neighborhood":"Central City","city_fetched":"Birmingham,US","state":"AL","country":"United States","canonicalUrl":"https://foursquare.com/v/paramount/52c37a54498e635e856a89e4","categoryId":"4bf58dd8d48988d116941735","category":"Bar","checkinsCount":1548,"usersCount":931,"tipCount":19,"visitsCount":2119,"url":"http://paramountbirmingham.com","tier":2,"message":"Moderate","currency":"$","rating":8.9},{"name":"The Wine Loft","phone":"2053238228","twitter":"thewineloftbham","address":"2200 1st Ave N","lat":33.51588082900051,"lng":-86.8028523065552,"neighborhood":"Central City","city_fetched":"Birmingham,US","state":"AL","country":"United States","canonicalUrl":"https://foursquare.com/v/the-wine-loft/4bdcf2189e2e2d7f6483e49e","categoryId":"4bf58dd8d48988d123941735","category":"Wine Bar","checkinsCount":1736,"usersCount":987,"tipCount":9,"visitsCount":1924,"url":"http://www.wineloftbham.com","tier":2,"message":"Moderate","currency":"$","rating":8.7},{"name":"Black Market Bar","phone":"2059678787","address":"3411 Colonnade Pkwy #800","lat":33.43820503126673,"lng":-86.72921818080489,"city_fetched":"Birmingham,US","state":"AL","country":"United States","canonicalUrl":"https://foursquare.com/v/black-market-bar/4b63874bf964a52017812ae3","categoryId":"4bf58dd8d48988d116941735","category":"Bar","checkinsCount":4417,"usersCount":1600,"tipCount":22,"visitsCount":4978,"tier":2,"message":"Moderate","currency":"$","rating":8.5},{"name":"The Foreign Exchange Experience","phone":"2052798191","twitter":"theforeign1","address":"433 20th St S","lat":33.508398,"lng":-86.801155,"neighborhood":"Five Points South","city_fetched":"Birmingham,US","state":"AL","country":"United States","canonicalUrl":"https://foursquare.com/v/the-foreign-exchange-experience/510362c9e4b0c047df125b99","categoryId":"4bf58dd8d48988d121941735","category":"Lounge","checkinsCount":55,"usersCount":37,"tipCount":7,"visitsCount":56,"url":"http://www.foreignexchangebham.com","tier":"","message":"","currency":"","rating":8.4},{"name":"Plum Bar","address":"108 17th St N","lat":33.51272115534639,"lng":-86.81019930846664,"city_fetched":"Birmingham,US","state":"AL","country":"United States","canonicalUrl":"https://foursquare.com/v/plum-bar/4bd10afa046076b07f537171","categoryId":"4bf58dd8d48988d121941735","category":"Lounge","checkinsCount":967,"usersCount":413,"tipCount":8,"visitsCount":1368,"tier":"","message":"","currency":"","rating":8.4},{"name":"41st Street Pub & Aircraft Sales","phone":"2052024187","twitter":"41ststreetpub","address":"130 41st St S Ste 105","lat":33.524644377455246,"lng":-86.77474887223127,"neighborhood":"Forest Park","city_fetched":"Birmingham,US","state":"AL","country":"United States","canonicalUrl":"https://foursquare.com/v/41st-street-pub--aircraft-sales/50284ba7e4b069e8b5df0f8a","categoryId":"4bf58dd8d48988d11b941735","category":"Pub","checkinsCount":1586,"usersCount":677,"tipCount":15,"visitsCount":1642,"url":"http://41ststreetpub.com","tier":2,"message":"Moderate","currency":"$","rating":8.2},{"name":"World of Beer","phone":"2057037203","address":"1005 20th St S","lat":33.50154966755156,"lng":-86.79671097084018,"neighborhood":"Five Points South","city_fetched":"Birmingham,US","state":"AL","country":"United States","canonicalUrl":"https://foursquare.com/v/world-of-beer/504918d4e4b09f6aaf36ff7d","categoryId":"4bf58dd8d48988d116941735","category":"Bar","checkinsCount":2564,"usersCount":1344,"tipCount":30,"visitsCount":2798,"url":"http://worldofbeer.com/Locations/FivePoints","tier":2,"message":"Moderate","currency":"$","rating":8.1},{"name":"Overtime Bar","phone":"2052025674","twitter":"overtimebaral","address":"100 Frankfurt Cir","lat":33.43837666501572,"lng":-86.86605021468462,"city_fetched":"Birmingham,US","state":"AL","country":"United States","canonicalUrl":"https://foursquare.com/v/overtime-bar/4b6a247ef964a52000ca2be3","categoryId":"4bf58dd8d48988d116941735","category":"Bar","checkinsCount":748,"usersCount":354,"tipCount":4,"visitsCount":828,"url":"http://www.theovertimebar.com","tier":"","message":"","currency":"","rating":8.1},{"name":"On Tap Lakeview","phone":"2053201225","twitter":"ontapsportscafe","address":"737 29th St S","lat":33.510785,"lng":-86.786077,"neighborhood":"Southside","city_fetched":"Birmingham,US","state":"AL","country":"United States","canonicalUrl":"https://foursquare.com/v/on-tap-lakeview/4b7ca413f964a5200a9f2fe3","categoryId":"4bf58dd8d48988d11d941735","category":"Sports Bar","checkinsCount":3605,"usersCount":1264,"tipCount":32,"visitsCount":3684,"url":"http://www.ontapsportscafe.com","tier":2,"message":"Moderate","currency":"$","rating":8},{"name":"Lou's Pub","phone":"2053227005","address":"728 29th St S","lat":33.510955476700566,"lng":-86.78685967147514,"neighborhood":"Southside","city_fetched":"Birmingham,US","state":"AL","country":"United States","canonicalUrl":"https://foursquare.com/v/lous-pub/4b6a2177f964a52050c92be3","categoryId":"4bf58dd8d48988d11b941735","category":"Pub","checkinsCount":1493,"usersCount":429,"tipCount":8,"visitsCount":1521,"url":"http://louspub.com","tier":2,"message":"Moderate","currency":"$","rating":8},{"name":"Starz Karaoke Lounge","address":"5479 Highway 280 #118","lat":33.41143705085907,"lng":-86.66391953427092,"city_fetched":"Birmingham,US","state":"AL","country":"United States","canonicalUrl":"https://foursquare.com/v/starz-karaoke-lounge/4b6e3131f964a520c0b02ce3","categoryId":"4bf58dd8d48988d120941735","category":"Karaoke Bar","checkinsCount":509,"usersCount":312,"tipCount":3,"visitsCount":527,"tier":"","message":"","currency":"","rating":8},{"name":"The Blue Monkey Lounge","phone":"2059339222","address":"1318 Cobb Ln S","lat":33.4979167,"lng":-86.795279,"neighborhood":"Five Points South","city_fetched":"Birmingham,US","state":"AL","country":"United States","canonicalUrl":"https://foursquare.com/v/the-blue-monkey-lounge/4bfc8045d6f2c9b61c5b4fc8","categoryId":"4bf58dd8d48988d121941735","category":"Lounge","checkinsCount":2251,"usersCount":1233,"tipCount":34,"visitsCount":2345,"tier":"","message":"","currency":"","rating":7.9},{"name":"Matthew's Bar & Grill","phone":"2058626261","address":"2208 Morris Ave","lat":33.515489734760585,"lng":-86.80202827455595,"neighborhood":"Central City","city_fetched":"Birmingham,US","state":"AL","country":"United States","canonicalUrl":"https://foursquare.com/v/matthews-bar--grill/4ba0142ef964a5202a5837e3","categoryId":"4bf58dd8d48988d116941735","category":"Bar","checkinsCount":7165,"usersCount":625,"tipCount":35,"visitsCount":7344,"url":"http://www.matthewsbarandgrill.com","tier":2,"message":"Moderate","currency":"$","rating":7.8},{"name":"Pale Eddie's Pour House","phone":"2052970052","twitter":"paleeddies","address":"2308 2nd Ave N","lat":33.51764470354727,"lng":-86.80187131449844,"neighborhood":"Central City","city_fetched":"Birmingham,US","state":"AL","country":"United States","canonicalUrl":"https://foursquare.com/v/pale-eddies-pour-house/4c9170117f3b8cfaf4fe9c1e","categoryId":"4bf58dd8d48988d116941735","category":"Bar","checkinsCount":2004,"usersCount":757,"tipCount":10,"visitsCount":2009,"url":"http://paleeddiespourhouse.com","tier":"","message":"","currency":"","rating":7.7},{"name":"Marty's PM","lat":33.500449589312204,"lng":-86.79931083210417,"neighborhood":"Five Points South","city_fetched":"Birmingham,US","state":"AL","country":"United States","canonicalUrl":"https://foursquare.com/v/martys-pm/53005409498eb25e82b70206","categoryId":"4bf58dd8d48988d118941735","category":"Dive Bar","checkinsCount":316,"usersCount":208,"tipCount":2,"visitsCount":642,"tier":"","message":"","currency":"","rating":7.7},{"name":"The Upper Deck","address":"Valley Ave","lat":33.4721494804334,"lng":-86.81951143665503,"city_fetched":"Birmingham,US","state":"AL","country":"United States","canonicalUrl":"https://foursquare.com/v/the-upper-deck/4d5e029e1939a35dae4504ee","categoryId":"4bf58dd8d48988d116941735","category":"Bar","checkinsCount":339,"usersCount":185,"tipCount":4,"visitsCount":399,"tier":1,"message":"Cheap","currency":"$","rating":7.7},{"name":"Highland Hookah Bar","address":"2228 Highland Ave S","lat":33.501704445188864,"lng":-86.79079944902426,"neighborhood":"Five Points South","city_fetched":"Birmingham,US","state":"AL","country":"United States","canonicalUrl":"https://foursquare.com/v/highland-hookah-bar/4e8524198231a2bbfef2fc2b","categoryId":"4bf58dd8d48988d119941735","category":"Hookah Bar","checkinsCount":674,"usersCount":305,"tipCount":8,"visitsCount":683,"tier":"","message":"","currency":"","rating":7.7},{"name":"Trimtab Brewing Company","address":"2721 5th Ave S","lat":33.51264234388167,"lng":-86.79072095096278,"neighborhood":"Southside","city_fetched":"Birmingham,US","state":"AL","country":"United States","canonicalUrl":"https://foursquare.com/v/trimtab-brewing-company/52faccc5498e4b0e2a5c4a68","categoryId":"50327c8591d4c4b30a586d5d","category":"Brewery","checkinsCount":906,"usersCount":733,"tipCount":17,"visitsCount":1655,"tier":1,"message":"Cheap","currency":"$","rating":7.7},{"name":"Tin Roof","phone":"2053234356","twitter":"tinroofbham","address":"2709 7th Ave S","lat":33.51063401636097,"lng":-86.78948458981304,"neighborhood":"Southside","city_fetched":"Birmingham,US","state":"AL","country":"United States","canonicalUrl":"https://foursquare.com/v/tin-roof/4f18dd54e4b0a339fa7bf757","categoryId":"4bf58dd8d48988d116941735","category":"Bar","checkinsCount":4438,"usersCount":1723,"tipCount":22,"visitsCount":5280,"url":"http://tinroofbars.com/Home/Birmingham/","tier":1,"message":"Cheap","currency":"$","rating":7.6},{"name":"Black Market Bar and Grill","phone":"2059338035","address":"2011 Highland Ave S","lat":33.50094064738027,"lng":-86.7963528658662,"neighborhood":"Five Points South","city_fetched":"Birmingham,US","state":"AL","country":"United States","canonicalUrl":"https://foursquare.com/v/black-market-bar-and-grill/4f85d7a4e4b0ab310b127e6b","categoryId":"4bf58dd8d48988d116941735","category":"Bar","checkinsCount":3395,"usersCount":1034,"tipCount":17,"visitsCount":3526,"tier":2,"message":"Moderate","currency":"$","rating":7.6},{"name":"Steel","phone":"2053240666","address":"2300 1st Ave N","lat":33.516678,"lng":-86.80159,"neighborhood":"Central City","city_fetched":"Birmingham,US","state":"AL","country":"United States","canonicalUrl":"https://foursquare.com/v/steel/4aecd8c1f964a520b9cb21e3","categoryId":"4bf58dd8d48988d121941735","category":"Lounge","checkinsCount":2627,"usersCount":770,"tipCount":11,"visitsCount":2932,"tier":"","message":"","currency":"","rating":7.6},{"name":"Starz Karaoke Lounge","phone":"2059440077","address":"730 Valley Ave","lat":33.47653472029226,"lng":-86.8152307271174,"city_fetched":"Birmingham,US","state":"AL","country":"United States","canonicalUrl":"https://foursquare.com/v/starz-karaoke-lounge/4baedca2f964a520d1dd3be3","categoryId":"4bf58dd8d48988d120941735","category":"Karaoke Bar","checkinsCount":728,"usersCount":303,"tipCount":5,"visitsCount":737,"tier":"","message":"","currency":"","rating":7.6},{"name":"Greybar","twitter":"greybar280","address":"5426 Highway 280","lat":33.41539705462213,"lng":-86.66719168424606,"city_fetched":"Birmingham,US","state":"AL","country":"United States","canonicalUrl":"https://foursquare.com/v/greybar/4c130500a9c220a1432e559d","categoryId":"4bf58dd8d48988d116941735","category":"Bar","checkinsCount":1040,"usersCount":410,"tipCount":6,"visitsCount":1091,"tier":"","message":"","currency":"","rating":7.5},{"name":"B & A Warehouse","phone":"2053264220","twitter":"bawarehouse","address":"1531 1st Ave S","lat":33.508755,"lng":-86.80976823,"neighborhood":"Five Points South","city_fetched":"Birmingham,US","state":"AL","country":"United States","canonicalUrl":"https://foursquare.com/v/b--a-warehouse/4b91cfd6f964a52013d933e3","categoryId":"4bf58dd8d48988d116941735","category":"Bar","checkinsCount":546,"usersCount":447,"tipCount":1,"visitsCount":562,"url":"http://www.bawarehouse.com","tier":"","message":"","currency":"","rating":7.5},{"name":"Hansom Brute","lat":33.51238443314327,"lng":-86.89944178186906,"neighborhood":"Ensley","city_fetched":"Birmingham,US","state":"AL","country":"United States","canonicalUrl":"https://foursquare.com/v/hansom-brute/4dc4d8ea18387d1bd52ecfbc","categoryId":"4bf58dd8d48988d116941735","category":"Bar","checkinsCount":106,"usersCount":87,"tipCount":1,"visitsCount":141,"tier":"","message":"","currency":"","rating":7.5},{"name":"Lakeview","address":"722-724 29th St S","lat":33.51106568355302,"lng":-86.7865407465311,"neighborhood":"Southside","city_fetched":"Birmingham,US","state":"AL","country":"United States","canonicalUrl":"https://foursquare.com/v/lakeview/4bf7779c5efe2d7f53266934","categoryId":"4bf58dd8d48988d116941735","category":"Bar","checkinsCount":1480,"usersCount":215,"tipCount":2,"visitsCount":1502,"tier":"","message":"","currency":"","rating":7.5},{"name":"The Palace Gentlemen's Club","address":"610 3rd Ave W","lat":33.50576705401168,"lng":-86.84571214301285,"city_fetched":"Birmingham,US","state":"AL","country":"United States","canonicalUrl":"https://foursquare.com/v/the-palace-gentlemens-club/4c9b0307db10b60c1ab0976d","categoryId":"4bf58dd8d48988d1d6941735","category":"Strip Club","checkinsCount":1036,"usersCount":291,"tipCount":10,"visitsCount":1558,"tier":"","message":"","currency":"","rating":7.4},{"name":"The Vault","lat":33.51614957780202,"lng":-86.80743327772264,"neighborhood":"Central City","city_fetched":"Birmingham,US","state":"AL","country":"United States","canonicalUrl":"https://foursquare.com/v/the-vault/50de795ae4b04716441b5220","categoryId":"4bf58dd8d48988d121941735","category":"Lounge","checkinsCount":443,"usersCount":208,"tipCount":4,"visitsCount":588,"tier":"","message":"","currency":"","rating":7.4},{"name":"Legends Sports Lounge","phone":"2058215919","twitter":"legends_lounge","address":"230 18th St N","lat":33.5145992553697,"lng":-86.80981278419495,"city_fetched":"Birmingham,US","state":"AL","country":"United States","canonicalUrl":"https://foursquare.com/legends_lounge","categoryId":"4bf58dd8d48988d11d941735","category":"Sports Bar","checkinsCount":335,"usersCount":91,"tipCount":6,"visitsCount":339,"tier":"","message":"","currency":"","rating":7.4},{"name":"Good People Brewing","phone":"2053171363","twitter":"hmshost","address":"Birmingham-Shuttlesworth International Airport","lat":33.563284597962536,"lng":-86.75100435831841,"neighborhood":"Woodlawn","city_fetched":"Birmingham,US","state":"AL","country":"United States","canonicalUrl":"https://foursquare.com/v/good-people-brewing/512f7db6582f8d1133cebe5e","categoryId":"4bf58dd8d48988d117941735","category":"Beer Garden","checkinsCount":637,"usersCount":460,"tipCount":8,"visitsCount":640,"url":"http://www.goodpeoplebrewing.com","tier":1,"message":"Cheap","currency":"$","rating":7.4},{"name":"Cahaba Brewing Company","phone":"2055782616","twitter":"cahababrewing","address":"2616 3rd Ave S","lat":33.514330901499854,"lng":-86.7938482761383,"neighborhood":"Southside","city_fetched":"Birmingham,US","state":"AL","country":"United States","canonicalUrl":"https://foursquare.com/v/cahaba-brewing-company/4f19fc471081b9819016c54d","categoryId":"50327c8591d4c4b30a586d5d","category":"Brewery","checkinsCount":898,"usersCount":508,"tipCount":5,"visitsCount":1002,"url":"http://www.cahababrewing.com","tier":"","message":"","currency":"","rating":7.3},{"name":"The Humidor Room","phone":"2059954481","address":"5479 U.S. 280","lat":33.41178468945652,"lng":-86.6642294211547,"city_fetched":"Birmingham,US","state":"AL","country":"United States","canonicalUrl":"https://foursquare.com/v/the-humidor-room/4c633e5879d1e21e153cd815","categoryId":"4bf58dd8d48988d121941735","category":"Lounge","checkinsCount":553,"usersCount":155,"tipCount":9,"visitsCount":647,"url":"http://humidorroom280.com","tier":"","message":"","currency":"","rating":7.3},{"name":"Dirty Ashs","address":"114 17th St N","lat":33.512786,"lng":-86.81022,"city_fetched":"Birmingham,US","state":"AL","country":"United States","canonicalUrl":"https://foursquare.com/v/dirty-ashs/4e20eed6d16474063201b0d0","categoryId":"4bf58dd8d48988d119941735","category":"Hookah Bar","checkinsCount":260,"usersCount":91,"tipCount":3,"visitsCount":262,"tier":"","message":"","currency":"","rating":7.2},{"name":"Pale Eddie's","address":"2308 2nd Ave N","lat":33.51775323439502,"lng":-86.80179773929729,"neighborhood":"Central City","city_fetched":"Birmingham,US","state":"AL","country":"United States","canonicalUrl":"https://foursquare.com/v/pale-eddies/51c51174498ea67ea571d370","categoryId":"4bf58dd8d48988d116941735","category":"Bar","checkinsCount":451,"usersCount":161,"tipCount":2,"visitsCount":481,"tier":2,"message":"Moderate","currency":"$","rating":7.1},{"name":"Brown derby","phone":"2055950067","address":"3630 6th Ave S","lat":33.51835979249166,"lng":-86.77784555807449,"neighborhood":"Southside","city_fetched":"Birmingham,US","state":"AL","country":"United States","canonicalUrl":"https://foursquare.com/v/brown-derby/4c14534482a3c9b6432efdf8","categoryId":"4bf58dd8d48988d116941735","category":"Bar","checkinsCount":306,"usersCount":205,"tipCount":2,"visitsCount":481,"tier":"","message":"","currency":"","rating":7.1},{"name":"Club Onyx","address":"615 8th Ave W","lat":33.511605752923856,"lng":-86.84670205151053,"city_fetched":"Birmingham,US","state":"AL","country":"United States","canonicalUrl":"https://foursquare.com/v/club-onyx/4c8b21016418a14300c8e6ce","categoryId":"4bf58dd8d48988d11f941735","category":"Nightclub","checkinsCount":712,"usersCount":241,"tipCount":7,"visitsCount":885,"tier":"","message":"","currency":"","rating":7.1},{"name":"On Tap Inverness Corners","phone":"2054371999","twitter":"ontapsportscafe","address":"810 Inverness Cors","lat":33.416631240353475,"lng":-86.69571456646206,"city_fetched":"Birmingham,US","state":"AL","country":"United States","canonicalUrl":"https://foursquare.com/v/on-tap-inverness-corners/4b6383e0f964a520ef7f2ae3","categoryId":"4bf58dd8d48988d116941735","category":"Bar","checkinsCount":1256,"usersCount":517,"tipCount":14,"visitsCount":1353,"url":"http://www.ontapsportscafe.com","tier":"","message":"","currency":"","rating":7.1},{"name":"City Vineyard","address":"Hwy 280","lat":33.4116881402171,"lng":-86.66437206684203,"city_fetched":"Birmingham,US","state":"AL","country":"United States","canonicalUrl":"https://foursquare.com/v/city-vineyard/4ddd5788227106a58b734aa5","categoryId":"4bf58dd8d48988d123941735","category":"Wine Bar","checkinsCount":175,"usersCount":95,"tipCount":6,"visitsCount":175,"url":"http://cityvineyard.net","tier":"","message":"","currency":"","rating":7},{"name":"Birmingham Daiquiri's","phone":"2052266790","address":"324 9th St N","lat":33.50970632516626,"lng":-86.82254153929082,"city_fetched":"Birmingham,US","state":"AL","country":"United States","canonicalUrl":"https://foursquare.com/v/birmingham-daiquiris/4e0eaa8952b1b27c1b89bae6","categoryId":"4bf58dd8d48988d116941735","category":"Bar","checkinsCount":273,"usersCount":195,"tipCount":6,"visitsCount":461,"tier":"","message":"","currency":"","rating":7},{"name":"The Red Zone","address":"1108 20th St S","lat":33.500346,"lng":-86.796247,"neighborhood":"Five Points South","city_fetched":"Birmingham,US","state":"AL","country":"United States","canonicalUrl":"https://foursquare.com/v/the-red-zone/520c0c2211d22abe8b060f89","categoryId":"4bf58dd8d48988d11d941735","category":"Sports Bar","checkinsCount":382,"usersCount":167,"tipCount":15,"visitsCount":404,"url":"http://theredzonebham.com","tier":"","message":"","currency":"","rating":7},{"name":"Crestwood Tavern","phone":"2055100053","twitter":"crestwoodtav","address":"5500 Crestwood Blvd","lat":33.52876626,"lng":-86.74811351666666,"neighborhood":"Crestwood North","city_fetched":"Birmingham,US","state":"AL","country":"United States","canonicalUrl":"https://foursquare.com/v/crestwood-tavern/4b5d04a8f964a520264f29e3","categoryId":"4bf58dd8d48988d116941735","category":"Bar","checkinsCount":711,"usersCount":256,"tipCount":10,"visitsCount":774,"tier":"","message":"","currency":"","rating":7},{"name":"Al's On Seventh","phone":"2053212812","address":"2627 7th Ave S","lat":33.51024098650611,"lng":-86.79036770812107,"neighborhood":"Southside","city_fetched":"Birmingham,US","state":"AL","country":"United States","canonicalUrl":"https://foursquare.com/v/als-on-seventh/4d3a6ab40333a09320a85434","categoryId":"4bf58dd8d48988d1d8941735","category":"Gay Bar","checkinsCount":3994,"usersCount":824,"tipCount":13,"visitsCount":4722,"url":"http://alsonseventh.com","tier":1,"message":"Cheap","currency":"$","rating":7},{"name":"Tilted Kilt Birmingham","phone":"2059720204","twitter":"tiltedkiltpub","address":"14 Perimeter Park S","lat":33.43623214342915,"lng":-86.72176071904202,"city_fetched":"Birmingham,US","state":"AL","country":"United States","canonicalUrl":"https://foursquare.com/v/tilted-kilt-birmingham/4ca9082b97c8a1cd2afa8aa5","categoryId":"4bf58dd8d48988d11b941735","category":"Pub","checkinsCount":1136,"usersCount":719,"tipCount":11,"visitsCount":1276,"url":"http://www.tiltedkilt.com","tier":2,"message":"Moderate","currency":"$","rating":6.9},{"name":"Billy's Bar & Grill","twitter":"billyssportgril","address":"2012 Cahaba Rd","lat":33.49469588980663,"lng":-86.78158978248014,"neighborhood":"Red Mountain","city_fetched":"Birmingham,US","state":"AL","country":"United States","canonicalUrl":"https://foursquare.com/v/billys-bar--grill/4b48aaf5f964a5202d5226e3","categoryId":"4bf58dd8d48988d116941735","category":"Bar","checkinsCount":1440,"usersCount":774,"tipCount":9,"visitsCount":1594,"url":"http://billysbargrill.com","tier":"","message":"","currency":"","rating":6.9},{"name":"Bourbon Street","phone":"2059571006","address":"1568 Cooper Hill Rd","lat":33.526147467646055,"lng":-86.72479198508753,"neighborhood":"Crestline","city_fetched":"Birmingham,US","state":"AL","country":"United States","canonicalUrl":"https://foursquare.com/v/bourbon-street/4bad97a1f964a520ad5d3be3","categoryId":"4bf58dd8d48988d11a941735","category":"Other Nightlife","checkinsCount":939,"usersCount":376,"tipCount":7,"visitsCount":1003,"url":"http://bourbonstreetsd.com","tier":"","message":"","currency":"","rating":6.9},{"name":"Club South","phone":"2052510512","address":"1102 10th St S","lat":33.49460153333333,"lng":-86.81374273333334,"city_fetched":"Birmingham,US","state":"AL","country":"United States","canonicalUrl":"https://foursquare.com/v/club-south/4cafba271168a093dad22423","categoryId":"4bf58dd8d48988d118941735","category":"Dive Bar","checkinsCount":341,"usersCount":140,"tipCount":3,"visitsCount":349,"tier":"","message":"","currency":"","rating":6.9},{"name":"Oasis","address":"2807 7th Ave S","lat":33.51119940505848,"lng":-86.78828254195382,"neighborhood":"Southside","city_fetched":"Birmingham,US","state":"AL","country":"United States","canonicalUrl":"https://foursquare.com/v/oasis/4b7f903bf964a520993430e3","categoryId":"4bf58dd8d48988d116941735","category":"Bar","checkinsCount":845,"usersCount":394,"tipCount":2,"visitsCount":866,"tier":2,"message":"Moderate","currency":"$","rating":6.9},{"name":"Ontap Sports Cafe - Inverness","lat":33.41665506646899,"lng":-86.69558184309939,"city_fetched":"Birmingham,US","state":"AL","country":"United States","canonicalUrl":"https://foursquare.com/v/ontap-sports-cafe--inverness/4b8daadaf964a520780733e3","categoryId":"4bf58dd8d48988d11d941735","category":"Sports Bar","checkinsCount":596,"usersCount":199,"tipCount":10,"visitsCount":596,"tier":"","message":"","currency":"","rating":6.8},{"name":"Furnace","address":"309 28th St N","lat":33.522303478672825,"lng":-86.795342308864,"neighborhood":"Central City","city_fetched":"Birmingham,US","state":"AL","country":"United States","canonicalUrl":"https://foursquare.com/v/furnace/4b3db226f964a5205d9625e3","categoryId":"4bf58dd8d48988d1d6941735","category":"Strip Club","checkinsCount":628,"usersCount":507,"tipCount":7,"visitsCount":866,"tier":"","message":"","currency":"","rating":6.8},{"name":"Tilted Kilt","lat":33.436157684876584,"lng":-86.72159858769602,"city_fetched":"Birmingham,US","state":"AL","country":"United States","canonicalUrl":"https://foursquare.com/v/tilted-kilt/4b5a602bf964a5200dc128e3","categoryId":"4bf58dd8d48988d11b941735","category":"Pub","checkinsCount":1370,"usersCount":578,"tipCount":17,"visitsCount":1370,"tier":"","message":"","currency":"","rating":6.7},{"name":"Our Place Lounge","phone":"2057150077","address":"7th Ave. S","lat":33.50679959239874,"lng":-86.79781470248257,"neighborhood":"Five Points South","city_fetched":"Birmingham,US","state":"AL","country":"United States","canonicalUrl":"https://foursquare.com/v/our-place-lounge/4b5e2657f964a520698029e3","categoryId":"4bf58dd8d48988d1d8941735","category":"Gay Bar","checkinsCount":1291,"usersCount":364,"tipCount":10,"visitsCount":1409,"tier":"","message":"","currency":"","rating":6.7},{"name":"Side Bar","lat":33.51193800610108,"lng":-86.78639354969921,"neighborhood":"Southside","city_fetched":"Birmingham,US","state":"AL","country":"United States","canonicalUrl":"https://foursquare.com/v/side-bar/527f2574498e8d519d107606","categoryId":"4bf58dd8d48988d116941735","category":"Bar","checkinsCount":213,"usersCount":115,"tipCount":0,"visitsCount":227,"tier":"","message":"","currency":"","rating":6.6},{"name":"Platinum of Birmingham","phone":"2053240791","address":"821 2nd Ave N","lat":33.5079064967849,"lng":-86.82164429557295,"city_fetched":"Birmingham,US","state":"AL","country":"United States","canonicalUrl":"https://foursquare.com/v/platinum-of-birmingham/4c9f012303133704a0a56ed5","categoryId":"4bf58dd8d48988d11f941735","category":"Nightclub","checkinsCount":1065,"usersCount":384,"tipCount":6,"visitsCount":1199,"url":"http://platinumofbham.com","tier":"","message":"","currency":"","rating":6.6},{"name":"Above Rooftop Bar","phone":"2053242101","address":"2101 5th Ave N","lat":33.518753,"lng":-86.806529,"neighborhood":"Central City","city_fetched":"Birmingham,US","state":"AL","country":"United States","canonicalUrl":"https://foursquare.com/v/above-rooftop-bar/4be6407bd4f7c9b6f1a12620","categoryId":"4bf58dd8d48988d11f941735","category":"Nightclub","checkinsCount":894,"usersCount":570,"tipCount":4,"visitsCount":903,"tier":"","message":"","currency":"","rating":6.5},{"name":"Todd English P.U.B.","phone":"2053073700","twitter":"toddenglishpub","address":"2221 Richard Arrington Jr Blvd N","lat":33.525806160118414,"lng":-86.80871822645439,"city_fetched":"Birmingham,US","state":"AL","country":"United States","canonicalUrl":"https://foursquare.com/v/todd-english-pub/51198fe2e4b034f52565af93","categoryId":"4bf58dd8d48988d11b941735","category":"Pub","checkinsCount":1992,"usersCount":1150,"tipCount":34,"visitsCount":2074,"url":"http://www.toddenglishpub.com","tier":2,"message":"Moderate","currency":"$","rating":6.5},{"name":"The Red Shamrock Pub","phone":"2054081515","address":"42 Manning Pl","lat":33.40762069673756,"lng":-86.63029260134049,"city_fetched":"Birmingham,US","state":"AL","country":"United States","canonicalUrl":"https://foursquare.com/v/the-red-shamrock-pub/4ea312529a527d6517570e43","categoryId":"4bf58dd8d48988d116941735","category":"Bar","checkinsCount":649,"usersCount":168,"tipCount":6,"visitsCount":656,"tier":"","message":"","currency":"","rating":6.5},{"name":"The Quest Club","phone":"2052514313","address":"416 24th St S","lat":33.51091844119868,"lng":-86.79630381018526,"neighborhood":"Southside","city_fetched":"Birmingham,US","state":"AL","country":"United States","canonicalUrl":"https://foursquare.com/v/the-quest-club/4b745c02f964a5209ed72de3","categoryId":"4bf58dd8d48988d1d8941735","category":"Gay Bar","checkinsCount":2914,"usersCount":961,"tipCount":17,"visitsCount":3463,"tier":1,"message":"Cheap","currency":"$","rating":6.4},{"name":"Innisfree Irish Pub","address":"710 29th St S","lat":33.51124253181049,"lng":-86.78755148610342,"neighborhood":"Southside","city_fetched":"Birmingham,US","state":"AL","country":"United States","canonicalUrl":"https://foursquare.com/v/innisfree-irish-pub/4b5e1e7bf964a520bb7e29e3","categoryId":"4bf58dd8d48988d116941735","category":"Bar","checkinsCount":3688,"usersCount":1252,"tipCount":5,"visitsCount":3844,"url":"http://innisfreeirishpubs.com","tier":1,"message":"Cheap","currency":"$","rating":6.4},{"name":"Dave's Pub","phone":"2059334030","address":"1128 20th St S","lat":33.4996530903731,"lng":-86.79579853379616,"neighborhood":"Five Points South","city_fetched":"Birmingham,US","state":"AL","country":"United States","canonicalUrl":"https://foursquare.com/v/daves-pub/4c0b24db7e3fc92816f5f482","categoryId":"4bf58dd8d48988d116941735","category":"Bar","checkinsCount":1918,"usersCount":856,"tipCount":13,"visitsCount":1960,"url":"http://davespubbirmingham.com","tier":2,"message":"Moderate","currency":"$","rating":6.3},{"name":"the upside down plaza","lat":33.50141391939441,"lng":-86.79655889918659,"neighborhood":"Five Points South","city_fetched":"Birmingham,US","state":"Alabama","country":"United States","canonicalUrl":"https://foursquare.com/v/the-upside-down-plaza/4b4936bef964a520426a26e3","categoryId":"4bf58dd8d48988d116941735","category":"Bar","checkinsCount":1691,"usersCount":469,"tipCount":13,"visitsCount":1701,"tier":"","message":"","currency":"","rating":6.3},{"name":"Nana Funks","phone":"2052508003","address":"708 29th St S","lat":33.51128339767456,"lng":-86.78746461868286,"neighborhood":"Southside","city_fetched":"Birmingham,US","state":"AL","country":"United States","canonicalUrl":"https://foursquare.com/v/nana-funks/4b860c7af964a5209c7e31e3","categoryId":"4bf58dd8d48988d11f941735","category":"Nightclub","checkinsCount":1866,"usersCount":815,"tipCount":7,"visitsCount":1890,"url":"http://www.nanafunks.com","tier":2,"message":"Moderate","currency":"$","rating":6.3},{"name":"Merienda Lounge","twitter":"meriendalounge","address":"420 Richard Arrington Jr Blvd S","lat":33.50890153448283,"lng":-86.80033111708872,"neighborhood":"Five Points South","city_fetched":"Birmingham,US","state":"AL","country":"United States","canonicalUrl":"https://foursquare.com/v/merienda-lounge/4d968bd261a3a1cd52689f42","categoryId":"4bf58dd8d48988d11f941735","category":"Nightclub","checkinsCount":1020,"usersCount":449,"tipCount":5,"visitsCount":1162,"tier":"","message":"","currency":"","rating":6.2},{"name":"Courtyard Bar & Grill","address":"2015 Highland Ave S","lat":33.49973307863065,"lng":-86.79516570451719,"neighborhood":"Five Points South","city_fetched":"Birmingham,US","state":"AL","country":"United States","canonicalUrl":"https://foursquare.com/v/courtyard-bar--grill/4b8725c2f964a5202db331e3","categoryId":"4bf58dd8d48988d116941735","category":"Bar","checkinsCount":2715,"usersCount":747,"tipCount":26,"visitsCount":2717,"tier":"","message":"","currency":"","rating":6.2},{"name":"3000 BAR","phone":"2059333222","twitter":"3000barbham","address":"1100 20th St S","lat":33.50044153109858,"lng":-86.79633324359975,"neighborhood":"Five Points South","city_fetched":"Birmingham,US","state":"AL","country":"United States","canonicalUrl":"https://foursquare.com/v/3000-bar/4f35a1c2e4b0156e8587ccac","categoryId":"4bf58dd8d48988d121941735","category":"Lounge","checkinsCount":2534,"usersCount":475,"tipCount":21,"visitsCount":2666,"url":"http://www.the3000bar.com","tier":"","message":"","currency":"","rating":6.2},{"name":"Courtyard Oyster Bar","phone":"2059809891","address":"4683 U.S. 280","lat":33.42695468235134,"lng":-86.70402135147769,"city_fetched":"Birmingham,US","state":"AL","country":"United States","canonicalUrl":"https://foursquare.com/v/courtyard-oyster-bar/4b5b76daf964a520160029e3","categoryId":"4bf58dd8d48988d116941735","category":"Bar","checkinsCount":2890,"usersCount":771,"tipCount":25,"visitsCount":3280,"tier":2,"message":"Moderate","currency":"$","rating":6.2},{"name":"Wesley's Boobie Trap","phone":"2056488601","address":"7373 Highway 78","lat":33.725831744414194,"lng":-87.006975889455,"city_fetched":"Birmingham,US","state":"AL","country":"United States","canonicalUrl":"https://foursquare.com/v/wesleys-boobie-trap/4c979fb66b35a14348b437dc","categoryId":"4bf58dd8d48988d1d6941735","category":"Strip Club","checkinsCount":267,"usersCount":85,"tipCount":8,"visitsCount":267,"tier":"","message":"","currency":"","rating":6.1},{"name":"Das haus","lat":33.517854,"lng":-86.801566,"neighborhood":"Central City","city_fetched":"Birmingham,US","state":"Alabama","country":"United States","canonicalUrl":"https://foursquare.com/v/das-haus/4d1ebda7bdd7a093a17fe0ce","categoryId":"4bf58dd8d48988d117941735","category":"Beer Garden","checkinsCount":433,"usersCount":253,"tipCount":3,"visitsCount":436,"tier":"","message":"","currency":"","rating":6},{"name":"Stillwater Pub","phone":"2052025625","address":"2109 7th Ave S","lat":33.506696,"lng":-86.797915,"neighborhood":"Five Points South","city_fetched":"Birmingham,US","state":"AL","country":"United States","canonicalUrl":"https://foursquare.com/v/stillwater-pub/4b73769ef964a520c8af2de3","categoryId":"4bf58dd8d48988d11b941735","category":"Pub","checkinsCount":1611,"usersCount":508,"tipCount":9,"visitsCount":1682,"tier":1,"message":"Cheap","currency":"$","rating":5.9},{"name":"Barrister's Bar","phone":"2059786970","twitter":"barristertavern","address":"1535 Montgomery Hwy","lat":33.41072447067379,"lng":-86.80602014064789,"city_fetched":"Birmingham,US","state":"AL","country":"United States","canonicalUrl":"https://foursquare.com/v/barristers-bar/4cafd72239458cfae415fe9f","categoryId":"4bf58dd8d48988d11b941735","category":"Pub","checkinsCount":350,"usersCount":189,"tipCount":6,"visitsCount":354,"url":"http://www.barristersinhoover.com","tier":"","message":"","currency":"","rating":5.9},{"name":"The Back Nine Bar","phone":"2059814588","address":"611 Doug Baker Blvd","lat":33.40669674068749,"lng":-86.66598540996223,"city_fetched":"Birmingham,US","state":"AL","country":"United States","canonicalUrl":"https://foursquare.com/v/the-back-nine-bar/4b737a61f964a52074b02de3","categoryId":"4bf58dd8d48988d116941735","category":"Bar","checkinsCount":395,"usersCount":198,"tipCount":9,"visitsCount":399,"tier":"","message":"","currency":"","rating":5.8},{"name":"Rare Martini","twitter":"raremartini","lat":33.511641708723765,"lng":-86.78772321161748,"neighborhood":"Southside","city_fetched":"Birmingham,US","state":"AL","country":"United States","canonicalUrl":"https://foursquare.com/v/rare-martini/4b58d94ef964a5208d6e28e3","categoryId":"4bf58dd8d48988d116941735","category":"Bar","checkinsCount":1564,"usersCount":718,"tipCount":7,"visitsCount":1628,"tier":"","message":"","currency":"","rating":5.7},{"name":"Casey's Sports Grill","address":"2101 Richard Arrington Jr Blvd N","lat":33.52465298052027,"lng":-86.81018829345703,"city_fetched":"Birmingham,US","state":"AL","country":"United States","canonicalUrl":"https://foursquare.com/v/caseys-sports-grill/4b64a3b4f964a5208fc42ae3","categoryId":"4bf58dd8d48988d1d5941735","category":"Hotel Bar","checkinsCount":594,"usersCount":420,"tipCount":4,"visitsCount":596,"tier":"","message":"","currency":"","rating":5.3},{"name":"Concordia Beneficial Society","address":"3400 1st Ave N","lat":33.52362851464417,"lng":-86.78635920370782,"neighborhood":"North Avondale","city_fetched":"Birmingham,US","state":"AL","country":"United States","canonicalUrl":"https://foursquare.com/v/concordia-beneficial-society/4db387a94b226b343d7b9909","categoryId":"4bf58dd8d48988d11f941735","category":"Nightclub","checkinsCount":228,"usersCount":104,"tipCount":6,"visitsCount":310,"url":"http://www.concordiaclub.org","tier":"","message":"","currency":"","rating":5.1}]