[{"name":"JL Beers","phone":"7017514855","address":"217 N 3rd St","lat":46.80731839259231,"lng":-100.78742092436589,"neighborhood":"Downtown Bismarck","city_fetched":"Bismarck","state":"ND","country":"United States","canonicalUrl":"https://foursquare.com/v/jl-beers/50832877e4b0211346e83fb2","category":"Pub","checkinsCount":847,"usersCount":457,"tipCount":24,"visitsCount":1163,"url":"http://jlbeers.com/bismarck/","tier":"","message":"","currency":"","rating":9.2},{"name":"Blarney Stone Pub","phone":"7017517512","address":"408 E Main Ave","lat":46.805641395522706,"lng":-100.785546211413,"neighborhood":"Downtown Bismarck","city_fetched":"Bismarck","state":"ND","country":"United States","canonicalUrl":"https://foursquare.com/v/blarney-stone-pub/4b6448e9f964a52054a82ae3","category":"Pub","checkinsCount":3825,"usersCount":1559,"tipCount":28,"visitsCount":4390,"url":"http://blarneyirishpub.com","tier":2,"message":"Moderate","currency":"$","rating":8.4},{"name":"Laughing Sun Brewing","address":"107 N 4th","lat":46.8056972538634,"lng":-100.78435107737599,"neighborhood":"Downtown Bismarck","city_fetched":"Bismarck","state":"ND","country":"United States","canonicalUrl":"https://foursquare.com/v/laughing-sun-brewing/509af7efe4b077a116a4eef0","category":"Bar","checkinsCount":533,"usersCount":341,"tipCount":4,"visitsCount":573,"url":"http://www.laughingsunbrewing.com","tier":"","message":"","currency":"","rating":8.3},{"name":"Humpback Sally's","phone":"7014250844","address":"510 E Main Ave","lat":46.805494017611736,"lng":-100.78417539596558,"neighborhood":"Downtown Bismarck","city_fetched":"Bismarck","state":"ND","country":"United States","canonicalUrl":"https://foursquare.com/v/humpback-sallys/534d6488498e16ff6d54232d","category":"Bar","checkinsCount":124,"usersCount":69,"tipCount":2,"visitsCount":130,"tier":"","message":"","currency":"","rating":8.1},{"name":"The Toasted Frog","phone":"7017512229","twitter":"thetoastedfrog","address":"124 N 4th St","lat":46.80633306861848,"lng":-100.78642974170324,"neighborhood":"Downtown Bismarck","city_fetched":"Bismarck","state":"ND","country":"United States","canonicalUrl":"https://foursquare.com/v/the-toasted-frog/4ccba87db5cdbfb7272a86c1","category":"Pub","checkinsCount":1156,"usersCount":619,"tipCount":9,"visitsCount":1261,"url":"http://toastedfrog.com","tier":"","message":"","currency":"","rating":7.9},{"name":"Lucky's Bar","phone":"7012588122","address":"2176 E Thayer Ave","lat":46.80750089798276,"lng":-100.759323287408,"city_fetched":"Bismarck","state":"ND","country":"United States","canonicalUrl":"https://foursquare.com/v/luckys-bar/4c08690e340720a1ed318393","category":"Bar","checkinsCount":483,"usersCount":164,"tipCount":2,"visitsCount":692,"tier":"","message":"","currency":"","rating":7.8},{"name":"O'Brians Tavern","phone":"7012585700","address":"1059 E Interstate Ave","lat":46.833202823829595,"lng":-100.7744297897727,"city_fetched":"Bismarck","state":"ND","country":"United States","canonicalUrl":"https://foursquare.com/v/obrians-tavern/4bca809bfb84c9b6106b1d3e","category":"Bar","checkinsCount":643,"usersCount":244,"tipCount":6,"visitsCount":667,"tier":"","message":"","currency":"","rating":7.2},{"name":"Peacock Alley","phone":"7012557917","twitter":"thepeacockalley","address":"422 E Main Ave","lat":46.80556566184051,"lng":-100.78475016101717,"neighborhood":"Downtown Bismarck","city_fetched":"Bismarck","state":"ND","country":"United States","canonicalUrl":"https://foursquare.com/v/peacock-alley/4be4e65a2457a593ecf6aa15","category":"Steakhouse","checkinsCount":1747,"usersCount":793,"tipCount":20,"visitsCount":1915,"url":"http://www.peacock-alley.com","tier":3,"message":"Expensive","currency":"$","rating":7.2},{"name":"Ground Round","phone":"7012230000","address":"526 S 3rd St","lat":46.800435895316305,"lng":-100.78823937483646,"city_fetched":"Bismarck","state":"ND","country":"United States","canonicalUrl":"https://foursquare.com/v/ground-round/4b6379f2f964a520d87c2ae3","category":"American Restaurant","checkinsCount":2196,"usersCount":826,"tipCount":11,"visitsCount":2390,"url":"http://oshkoshwaterfronthotel.com/hotel_restaurant_bar.phtml","tier":"","message":"","currency":"","rating":7.2},{"name":"The Lodge at the Stadium","phone":"7012584677","address":"1247 W Divide Ave","lat":46.825699928857944,"lng":-100.8145809173584,"city_fetched":"Bismarck","state":"ND","country":"United States","canonicalUrl":"https://foursquare.com/v/the-lodge-at-the-stadium/4bc8d4593740b71315795d65","category":"Pub","checkinsCount":917,"usersCount":290,"tipCount":8,"visitsCount":932,"tier":"","message":"","currency":"","rating":7.1},{"name":"Stadium Sports Bar","phone":"7012584677","address":"1247 W Divide Ave","lat":46.825839525657095,"lng":-100.81442362586945,"city_fetched":"Bismarck","state":"ND","country":"United States","canonicalUrl":"https://foursquare.com/v/stadium-sports-bar/4e8691ee2da5fd4c82c4ea27","category":"Sports Bar","checkinsCount":673,"usersCount":293,"tipCount":6,"visitsCount":848,"tier":"","message":"","currency":"","rating":6.8},{"name":"Sidelines","phone":"7012231520","address":"300 E. Sweet Ave.","lat":46.802833,"lng":-100.78539215,"neighborhood":"Downtown Bismarck","city_fetched":"Bismarck","state":"ND","country":"United States","canonicalUrl":"https://foursquare.com/v/sidelines/4c2fe6f1a0ced13a3f6d116e","category":"Bar","checkinsCount":473,"usersCount":187,"tipCount":2,"visitsCount":512,"url":"http://www.sidelinessports.com","tier":"","message":"","currency":"","rating":6.8},{"name":"LÃ¼ft","phone":"7014250844","twitter":"luftnd","address":"510 E Main Ave","lat":46.80560022853504,"lng":-100.78408624714196,"neighborhood":"Downtown Bismarck","city_fetched":"Bismarck","state":"ND","country":"United States","canonicalUrl":"https://foursquare.com/luftnd","category":"Beer Garden","checkinsCount":191,"usersCount":133,"tipCount":4,"visitsCount":200,"tier":2,"message":"Moderate","currency":"$","rating":6.4},{"name":"Captain Freddy's","phone":"7017513348","address":"Pirates Loop SE","lat":46.80229716666667,"lng":-100.82175314426422,"city_fetched":"Bismarck","state":"ND","country":"United States","canonicalUrl":"https://foursquare.com/v/captain-freddys/4bc0c619920eb7131a87192c","category":"Bar","checkinsCount":627,"usersCount":441,"tipCount":5,"visitsCount":771,"tier":"","message":"","currency":"","rating":6.2},{"name":"Sportspage","phone":"7012240855","address":"1120 Tacoma Ave","lat":46.78334307792156,"lng":-100.7747313473393,"city_fetched":"Bismarck","state":"ND","country":"United States","canonicalUrl":"https://foursquare.com/v/sportspage/4c522ecbb6dabe9a93f2ee12","category":"Bar","checkinsCount":411,"usersCount":215,"tipCount":1,"visitsCount":517,"tier":"","message":"","currency":"","rating":6},{"name":"Comfort Inn","address":"1030 E Interstate Ave","lat":46.83331870906014,"lng":-100.77613510576286,"city_fetched":"Bismarck","state":"ND","country":"United States","canonicalUrl":"https://foursquare.com/v/comfort-inn/4bc411f8dce4eee1b8ea719d","category":"Hotel","checkinsCount":705,"usersCount":416,"tipCount":4,"visitsCount":763,"tier":"","message":"","currency":"","rating":5.9},{"name":"Borrowed Bucks Roadhouse","phone":"7012241545","twitter":"borrowedbucks","address":"118 S 3rd St","lat":46.80452464790989,"lng":-100.78840255737305,"neighborhood":"Downtown Bismarck","city_fetched":"Bismarck","state":"ND","country":"United States","canonicalUrl":"https://foursquare.com/v/borrowed-bucks-roadhouse/4bca8ab03740b71332226165","category":"Bar","checkinsCount":1387,"usersCount":437,"tipCount":10,"visitsCount":1480,"url":"http://www.bucksbismarck.com","tier":"","message":"","currency":"","rating":5.5}]