[{"name":"The Cellar","phone":"5409530651","address":"302 N Main St","lat":37.23090072650856,"lng":-80.41502952575684,"neighborhood":"Downtown Blacksburg","city_fetched":"Blacksburg","state":"VA","country":"United States","canonicalUrl":"https://foursquare.com/v/the-cellar/4b2aff88f964a52081b324e3","category":"Bar","checkinsCount":6774,"usersCount":1919,"tipCount":51,"visitsCount":6903,"url":"http://the-cellar.com","tier":2,"message":"Moderate","currency":"$","rating":8.8},{"name":"Cabo Fish Taco","phone":"5405520950","twitter":"cabobburg","address":"117 S Main St","lat":37.22878381,"lng":-80.4132336,"neighborhood":"Downtown Blacksburg","city_fetched":"Blacksburg","state":"VA","country":"United States","canonicalUrl":"https://foursquare.com/v/cabo-fish-taco/4ac61a18f964a520d4b220e3","category":"Mexican Restaurant","checkinsCount":4018,"usersCount":1826,"tipCount":46,"visitsCount":4296,"url":"http://cabofishtaco.com","tier":1,"message":"Cheap","currency":"$","rating":8.7},{"name":"622 North","phone":"5409511022","twitter":"622north","address":"622 N Main St","lat":37.234469385182855,"lng":-80.41944076503479,"neighborhood":"Downtown Blacksburg","city_fetched":"Blacksburg","state":"VA","country":"United States","canonicalUrl":"https://foursquare.com/v/622-north/4bf6f723abdaef3b3e64a184","category":"Wine Bar","checkinsCount":3311,"usersCount":965,"tipCount":27,"visitsCount":3625,"url":"http://www.622north.com","tier":2,"message":"Moderate","currency":"$","rating":8.2},{"name":"Bull & Bones Brewhaus & Grill","phone":"5409532855","twitter":"bullnbones","address":"1470 S Main St","lat":37.21324273456407,"lng":-80.4017734873104,"city_fetched":"Blacksburg","state":"VA","country":"United States","canonicalUrl":"https://foursquare.com/v/bull--bones-brewhaus--grill/4bce788968f976b0d8376683","category":"Brewery","checkinsCount":5527,"usersCount":2241,"tipCount":48,"visitsCount":6263,"url":"http://www.bullandbones.com","tier":2,"message":"Moderate","currency":"$","rating":8.1},{"name":"Hilton Garden Inn Blacksburg","phone":"5405525005","address":"900 Plantation Rd","lat":37.22498756135934,"lng":-80.44224346711142,"neighborhood":"Hethwood - Prices Fork","city_fetched":"Blacksburg","state":"VA","country":"United States","canonicalUrl":"https://foursquare.com/v/hilton-garden-inn-blacksburg/4b57cf51f964a5202a4228e3","category":"Hotel","checkinsCount":1494,"usersCount":882,"tipCount":11,"visitsCount":2055,"url":"http://www.marriott.com/hotels/travel/phfoy-newport-news-marriott-at-city-center/","tier":"","message":"","currency":"","rating":8.1},{"name":"Macado's Restaurant & Bar","phone":"5409532700","address":"922 University City Blvd.","lat":37.236457313452554,"lng":-80.4339525103569,"city_fetched":"Blacksburg","state":"VA","country":"United States","canonicalUrl":"https://foursquare.com/v/macados-restaurant--bar/4b47745bf964a5209a3226e3","category":"Sandwich Place","checkinsCount":3513,"usersCount":1874,"tipCount":38,"visitsCount":4254,"url":"http://macados.net","tier":1,"message":"Cheap","currency":"$","rating":7.9},{"name":"Champs Sports Bar & Café","phone":"5409512222","twitter":"champsbburg","address":"111 N Main St","lat":37.229392735042794,"lng":-80.41432736642516,"neighborhood":"Downtown Blacksburg","city_fetched":"Blacksburg","state":"VA","country":"United States","canonicalUrl":"https://foursquare.com/v/champs-sports-bar--caf%C3%A9/4b338852f964a520681a25e3","category":"Sports Bar","checkinsCount":4342,"usersCount":1026,"tipCount":12,"visitsCount":4405,"url":"http://champssportsbar.com","tier":1,"message":"Cheap","currency":"$","rating":7.8},{"name":"London Underground Pub","phone":"5405529044","address":"112 N Main St","lat":37.22971515722696,"lng":-80.41426759051917,"neighborhood":"Downtown Blacksburg","city_fetched":"Blacksburg","state":"VA","country":"United States","canonicalUrl":"https://foursquare.com/v/london-underground-pub/4b2b02b4f964a520a5b324e3","category":"Pub","checkinsCount":3286,"usersCount":658,"tipCount":29,"visitsCount":3447,"url":"http://lugpub.com","tier":1,"message":"Cheap","currency":"$","rating":7.8},{"name":"She-Sha Café & Hookah Lounge","phone":"5409619100","twitter":"sheshalounge","address":"211 Draper Rd NW","lat":37.22964499217634,"lng":-80.41605949401855,"neighborhood":"Downtown Blacksburg","city_fetched":"Blacksburg","state":"VA","country":"United States","canonicalUrl":"https://foursquare.com/v/shesha-caf%C3%A9--hookah-lounge/4b2b01f2f964a5209db324e3","category":"Hookah Bar","checkinsCount":1329,"usersCount":418,"tipCount":29,"visitsCount":1338,"url":"http://www.sheshacafe.com","tier":"","message":"","currency":"","rating":7.7},{"name":"Sharkey's Wing & Rib Joint","phone":"5405522030","twitter":"sharkeyswings","address":"220 N Main St","lat":37.23064872707838,"lng":-80.41511535644531,"neighborhood":"Downtown Blacksburg","city_fetched":"Blacksburg","state":"VA","country":"United States","canonicalUrl":"https://foursquare.com/v/sharkeys-wing--rib-joint/4b01d119f964a520ae4522e3","category":"BBQ Joint","checkinsCount":7798,"usersCount":2201,"tipCount":41,"visitsCount":8017,"url":"http://www.sharkeyswingandribjoint.com","tier":2,"message":"Moderate","currency":"$","rating":7.4},{"name":"Blacksburg Taphouse","phone":"5405523023","address":"607 N Main St","lat":37.2332725396332,"lng":-80.4185985158249,"neighborhood":"Downtown Blacksburg","city_fetched":"Blacksburg","state":"VA","country":"United States","canonicalUrl":"https://foursquare.com/v/blacksburg-taphouse/521e7a9f498ea0b6b9fdb4c2","category":"Bar","checkinsCount":674,"usersCount":393,"tipCount":14,"visitsCount":867,"tier":2,"message":"Moderate","currency":"$","rating":7.2},{"name":"Gaucho Grille","phone":"5409222854","twitter":"gauchogrille","address":"880 University City Blvd, Suite 201","lat":37.235488458124216,"lng":-80.43337196342779,"city_fetched":"Blacksburg","state":"VA","country":"United States","canonicalUrl":"https://foursquare.com/v/gaucho-grille/554011bf498ed17f4a5a9713","category":"Brazilian Restaurant","checkinsCount":25,"usersCount":19,"tipCount":6,"visitsCount":34,"url":"http://www.gauchogrille.com","tier":"","message":"","currency":"","rating":7.2},{"name":"Rivermill Bar & Grill","phone":"5409512483","address":"212 Draper Rd NW","lat":37.229819,"lng":-80.416012,"neighborhood":"Downtown Blacksburg","city_fetched":"Blacksburg","state":"VA","country":"United States","canonicalUrl":"https://foursquare.com/v/rivermill-bar--grill/4b43f5d6f964a52013ef25e3","category":"Pub","checkinsCount":4344,"usersCount":1334,"tipCount":27,"visitsCount":4395,"tier":2,"message":"Moderate","currency":"$","rating":6.9},{"name":"Hokie House","phone":"5405520280","address":"322 N Main St","lat":37.23135709762573,"lng":-80.415499,"neighborhood":"Downtown Blacksburg","city_fetched":"Blacksburg","state":"VA","country":"United States","canonicalUrl":"https://foursquare.com/v/hokie-house/4b2b0025f964a52085b324e3","category":"Bar","checkinsCount":4869,"usersCount":1595,"tipCount":19,"visitsCount":5208,"url":"http://hokiehouse.com","tier":1,"message":"Cheap","currency":"$","rating":6.8},{"name":"Big Al's Grille & Sportsbar","phone":"5409513300","address":"201 N Main St","lat":37.23001872481818,"lng":-80.414879322052,"neighborhood":"Downtown Blacksburg","city_fetched":"Blacksburg","state":"VA","country":"United States","canonicalUrl":"https://foursquare.com/v/big-als-grille--sportsbar/4b59de37f964a520189d28e3","category":"Bar","checkinsCount":2493,"usersCount":930,"tipCount":10,"visitsCount":2509,"url":"http://www.bigalssportsbar.com/BigAls.html","tier":"","message":"","currency":"","rating":6.7},{"name":"Top of the Stairs (TOTS)","phone":"5409532837","twitter":"tots_vt","address":"217 College Ave","lat":37.22962437372401,"lng":-80.41646840247428,"neighborhood":"Downtown Blacksburg","city_fetched":"Blacksburg","state":"VA","country":"United States","canonicalUrl":"https://foursquare.com/v/top-of-the-stairs-tots/4b43f7e1f964a5204eef25e3","category":"Bar","checkinsCount":5297,"usersCount":1874,"tipCount":30,"visitsCount":5563,"url":"http://topofthestairs.com","tier":2,"message":"Moderate","currency":"$","rating":6.5}]