[{"name":"The Tap","phone":"8122878579","twitter":"thetapbtown","address":"101 N. College Ave.","lat":39.16668392356795,"lng":-86.5350249743974,"neighborhood":"Downtown Bloomington","city_fetched":"Bloomington,US","state":"IN","country":"United States","canonicalUrl":"https://foursquare.com/v/the-tap/507c2800e4b0b5e9215c9444","categoryId":"4bf58dd8d48988d116941735","category":"Bar","checkinsCount":4623,"usersCount":1767,"tipCount":35,"visitsCount":5127,"url":"http://thetapbeer.com","tier":2,"message":"Moderate","currency":"$","rating":9.2},{"name":"Upland Brewing Company Brew Pub","phone":"8123362337","twitter":"uplandbrewco","address":"350 W 11th St","lat":39.17333737411551,"lng":-86.53767585754395,"city_fetched":"Bloomington,US","state":"IN","country":"United States","canonicalUrl":"https://foursquare.com/v/upland-brewing-company-brew-pub/4ae33784f964a520cd9121e3","categoryId":"50327c8591d4c4b30a586d5d","category":"Brewery","checkinsCount":7875,"usersCount":3865,"tipCount":72,"visitsCount":9134,"url":"http://www.uplandbeer.com","tier":2,"message":"Moderate","currency":"$","rating":9.1},{"name":"Yogi's Grill And Bar","phone":"8123239644","twitter":"yogisgrillbar","address":"519 E 10th St","lat":39.17179364643392,"lng":-86.52717232704163,"city_fetched":"Bloomington,US","state":"IN","country":"United States","canonicalUrl":"https://foursquare.com/v/yogis-grill-and-bar/4af2392bf964a520bbe621e3","categoryId":"4bf58dd8d48988d11d941735","category":"Sports Bar","checkinsCount":7788,"usersCount":2922,"tipCount":49,"visitsCount":9278,"url":"http://www.yogis.com","tier":2,"message":"Moderate","currency":"$","rating":8.6},{"name":"Nick's English Hut","phone":"8123324040","address":"423 E Kirkwood Ave","lat":39.16678627924379,"lng":-86.52879238128662,"city_fetched":"Bloomington,US","state":"IN","country":"United States","canonicalUrl":"https://foursquare.com/v/nicks-english-hut/4aef51e6f964a52086d721e3","categoryId":"4bf58dd8d48988d116941735","category":"Bar","checkinsCount":12503,"usersCount":5612,"tipCount":77,"visitsCount":13312,"url":"http://www.nicksenglishhut.com","tier":2,"message":"Moderate","currency":"$","rating":8.5},{"name":"Lennie's  (Bloomington Brewing Company)","phone":"8123232112","twitter":"lennies_bbc","address":"1795 E 10th St","lat":39.17169277312231,"lng":-86.51131760422393,"neighborhood":"Indiana University","city_fetched":"Bloomington,US","state":"IN","country":"United States","canonicalUrl":"https://foursquare.com/v/lennies--bloomington-brewing-company/4b0aa1f8f964a520cc2523e3","categoryId":"50327c8591d4c4b30a586d5d","category":"Brewery","checkinsCount":3417,"usersCount":1716,"tipCount":38,"visitsCount":4084,"url":"http://bbc.bloomington.com","tier":2,"message":"Moderate","currency":"$","rating":8.4},{"name":"The Back Door Bloomington","address":"207 S College Ave","lat":39.16522149555926,"lng":-86.53450714386965,"neighborhood":"Downtown Bloomington","city_fetched":"Bloomington,US","state":"IN","country":"United States","canonicalUrl":"https://foursquare.com/v/the-back-door-bloomington/5064d1ebe4b0675fa422bb50","categoryId":"4bf58dd8d48988d1d8941735","category":"Gay Bar","checkinsCount":829,"usersCount":296,"tipCount":5,"visitsCount":905,"url":"http://bckdoor.com","tier":"","message":"","currency":"","rating":8.2},{"name":"Kilroy's Bar & Grill","phone":"8123393006","address":"502 E Kirkwood Ave","lat":39.1663703608407,"lng":-86.5281102589774,"neighborhood":"Downtown Bloomington","city_fetched":"Bloomington,US","state":"IN","country":"United States","canonicalUrl":"https://foursquare.com/v/kilroys-bar--grill/4aea47d8f964a520bbba21e3","categoryId":"4bf58dd8d48988d116941735","category":"Bar","checkinsCount":24671,"usersCount":5031,"tipCount":87,"visitsCount":25400,"url":"http://www.kilroyskirkwood.com","tier":1,"message":"Cheap","currency":"$","rating":8.2},{"name":"Upland Brewing Company Brewery & Tasting Room","twitter":"uplandbrewco","address":"4060 W Profile Pkwy","lat":39.17219792117245,"lng":-86.5855835944867,"city_fetched":"Bloomington,US","state":"IN","country":"United States","canonicalUrl":"https://foursquare.com/v/upland-brewing-company-brewery--tasting-room/50032808e4b0644141be1e8c","categoryId":"50327c8591d4c4b30a586d5d","category":"Brewery","checkinsCount":302,"usersCount":190,"tipCount":3,"visitsCount":451,"url":"http://www.uplandbeer.com","tier":"","message":"","currency":"","rating":8.1},{"name":"C3 Bar","phone":"8122878027","twitter":"c3bloomington","address":"1505 S Piazza Dr","lat":39.149460227715345,"lng":-86.49960773937696,"city_fetched":"Bloomington,US","state":"IN","country":"United States","canonicalUrl":"https://foursquare.com/v/c3-bar/53ea4a71498e76cdafe2ee7c","categoryId":"4bf58dd8d48988d11e941735","category":"Cocktail Bar","checkinsCount":143,"usersCount":83,"tipCount":4,"visitsCount":175,"url":"http://www.c3bloomington.com","tier":"","message":"","currency":"","rating":8.1},{"name":"The Bishop","address":"123 S Walnut St","lat":39.165672,"lng":-86.533572,"neighborhood":"Downtown Bloomington","city_fetched":"Bloomington,US","state":"IN","country":"United States","canonicalUrl":"https://foursquare.com/v/the-bishop/4b270d10f964a5206d8424e3","categoryId":"4bf58dd8d48988d116941735","category":"Bar","checkinsCount":1639,"usersCount":615,"tipCount":13,"visitsCount":1655,"tier":"","message":"","currency":"","rating":7.9},{"name":"Function Brewing","phone":"8126761000","twitter":"functionbrewing","address":"108 E 6th St","lat":39.16751769888474,"lng":-86.53327912419105,"city_fetched":"Bloomington,US","state":"IN","country":"United States","canonicalUrl":"https://foursquare.com/v/function-brewing/52e04f1a11d23636247b7d36","categoryId":"50327c8591d4c4b30a586d5d","category":"Brewery","checkinsCount":823,"usersCount":411,"tipCount":17,"visitsCount":1022,"url":"http://functionbrewing.com","tier":2,"message":"Moderate","currency":"$","rating":7.8},{"name":"Serendipity","phone":"8123306688","address":"201 S College Ave","lat":39.165347219069055,"lng":-86.53458595275879,"neighborhood":"Downtown Bloomington","city_fetched":"Bloomington,US","state":"IN","country":"United States","canonicalUrl":"https://foursquare.com/v/serendipity/4c8171a7dc018cfadde2c56c","categoryId":"4bf58dd8d48988d11e941735","category":"Cocktail Bar","checkinsCount":1075,"usersCount":503,"tipCount":6,"visitsCount":1102,"url":"http://serendipitymartini.com","tier":"","message":"","currency":"","rating":7.7},{"name":"The Office Lounge","phone":"8123320911","address":"3900 E 3rd St","lat":39.163741758811334,"lng":-86.4794397354126,"city_fetched":"Bloomington,US","state":"IN","country":"United States","canonicalUrl":"https://foursquare.com/v/the-office-lounge/4b15bc80f964a5207eb323e3","categoryId":"4bf58dd8d48988d118941735","category":"Dive Bar","checkinsCount":1449,"usersCount":361,"tipCount":9,"visitsCount":1641,"tier":"","message":"","currency":"","rating":7.7},{"name":"Crazy Horse","phone":"8123368877","address":"214 W Kirkwood Ave","lat":39.16669685873246,"lng":-86.53565615415573,"neighborhood":"Downtown Bloomington","city_fetched":"Bloomington,US","state":"IN","country":"United States","canonicalUrl":"https://foursquare.com/v/crazy-horse/4aebb6e9f964a5208cc421e3","categoryId":"4bf58dd8d48988d11b941735","category":"Pub","checkinsCount":5946,"usersCount":1671,"tipCount":36,"visitsCount":5979,"url":"http://crazyhorseindiana.com","tier":"","message":"","currency":"","rating":7.6},{"name":"American Legion Post 18","address":"1800 W. 3rd St. Westplex","lat":39.165867491203805,"lng":-86.55729151065827,"city_fetched":"Bloomington,US","state":"IN","country":"United States","canonicalUrl":"https://foursquare.com/v/american-legion-post-18/4c0addff009a0f47f038eabf","categoryId":"4bf58dd8d48988d116941735","category":"Bar","checkinsCount":455,"usersCount":147,"tipCount":3,"visitsCount":570,"tier":"","message":"","currency":"","rating":7.6},{"name":"The Alley Bar","phone":"8123362216","address":"210 W Kirkwood Ave","lat":39.16670933601992,"lng":-86.53514921665192,"neighborhood":"Downtown Bloomington","city_fetched":"Bloomington,US","state":"IN","country":"United States","canonicalUrl":"https://foursquare.com/v/the-alley-bar/4aebd299f964a520e3c421e3","categoryId":"4bf58dd8d48988d116941735","category":"Bar","checkinsCount":3288,"usersCount":488,"tipCount":8,"visitsCount":3329,"url":"http://alleybarindiana.com","tier":"","message":"","currency":"","rating":7.6},{"name":"Kilroy's Bar & Grill: Sports Bar","phone":"8123336006","twitter":"kilroyssports","address":"319 N Walnut St","lat":39.1692952040062,"lng":-86.53381669477247,"city_fetched":"Bloomington,US","state":"IN","country":"United States","canonicalUrl":"https://foursquare.com/v/kilroys-bar--grill-sports-bar/4b1958c4f964a520a4db23e3","categoryId":"4bf58dd8d48988d116941735","category":"Bar","checkinsCount":8556,"usersCount":2581,"tipCount":31,"visitsCount":8819,"url":"http://www.kilroyssports.com","tier":2,"message":"Moderate","currency":"$","rating":7.4},{"name":"Player's Pub","phone":"8123342080","address":"424 S Walnut St","lat":39.16215755,"lng":-86.5338671207428,"neighborhood":"Downtown Bloomington","city_fetched":"Bloomington,US","state":"IN","country":"United States","canonicalUrl":"https://foursquare.com/v/players-pub/4b463738f964a520551a26e3","categoryId":"4bf58dd8d48988d11b941735","category":"Pub","checkinsCount":668,"usersCount":330,"tipCount":12,"visitsCount":812,"tier":"","message":"","currency":"","rating":7.4},{"name":"Scotty's Brewhouse","phone":"8123335151","twitter":"brewhouse","address":"302 N Walnut St","lat":39.16875766070471,"lng":-86.53353989124298,"city_fetched":"Bloomington,US","state":"IN","country":"United States","canonicalUrl":"https://foursquare.com/v/scottys-brewhouse/4afb5b93f964a520461d22e3","categoryId":"4bf58dd8d48988d11d941735","category":"Sports Bar","checkinsCount":7510,"usersCount":2954,"tipCount":48,"visitsCount":7808,"url":"http://www.scottysbrewhouse.com","tier":2,"message":"Moderate","currency":"$","rating":7.4},{"name":"Opie Taylor's","phone":"8123337287","address":"110 N Walnut St","lat":39.167154849134604,"lng":-86.53349612585954,"city_fetched":"Bloomington,US","state":"IN","country":"United States","canonicalUrl":"https://foursquare.com/v/opie-taylors/4b50feb3f964a5208f3c27e3","categoryId":"4bf58dd8d48988d11d941735","category":"Sports Bar","checkinsCount":1648,"usersCount":918,"tipCount":16,"visitsCount":1682,"url":"http://opietaylors.com","tier":2,"message":"Moderate","currency":"$","rating":7.3},{"name":"FARMbloomington: The Root Cellar","address":"108 E Kirkwood Ave","lat":39.16627076022408,"lng":-86.53305225779731,"neighborhood":"Downtown Bloomington","city_fetched":"Bloomington,US","state":"IN","country":"United States","canonicalUrl":"https://foursquare.com/v/farmbloomington-the-root-cellar/4bfe9dc7cdfbef3b6f52323e","categoryId":"4bf58dd8d48988d116941735","category":"Bar","checkinsCount":1417,"usersCount":550,"tipCount":8,"visitsCount":1433,"url":"http://www.farm-bloomington.com/farmrootcellar.html","tier":2,"message":"Moderate","currency":"$","rating":7.2},{"name":"The Atlas Ballroom","phone":"8123344435","address":"209 S College Ave","lat":39.16524,"lng":-86.534778,"neighborhood":"Downtown Bloomington","city_fetched":"Bloomington,US","state":"IN","country":"United States","canonicalUrl":"https://foursquare.com/v/the-atlas-ballroom/4ccdd853c9b84688db72c5c3","categoryId":"4bf58dd8d48988d116941735","category":"Bar","checkinsCount":5099,"usersCount":1148,"tipCount":24,"visitsCount":5282,"url":"http://www.atlasballroom.com","tier":1,"message":"Cheap","currency":"$","rating":7.1},{"name":"Dunnkirk","phone":"8128221483","twitter":"dunnkirk","address":"430 E Kirkwood Ave","lat":39.16634460881004,"lng":-86.5285295094848,"neighborhood":"Downtown Bloomington","city_fetched":"Bloomington,US","state":"IN","country":"United States","canonicalUrl":"https://foursquare.com/v/dunnkirk/4e587d4b887710a848265b3f","categoryId":"4bf58dd8d48988d116941735","category":"Bar","checkinsCount":4605,"usersCount":1517,"tipCount":15,"visitsCount":4634,"url":"http://kilroys-dunnkirk.com","tier":2,"message":"Moderate","currency":"$","rating":6.7},{"name":"Wind Jammer Grill","phone":"8128242628","twitter":"fourwindsfun","address":"9301 S Fairfax Rd","lat":39.01642,"lng":-86.481387,"city_fetched":"Bloomington,US","state":"IN","country":"United States","canonicalUrl":"https://foursquare.com/v/wind-jammer-grill/4ff8c5d7e4b08a4c73420d18","categoryId":"4bf58dd8d48988d1d5941735","category":"Hotel Bar","checkinsCount":79,"usersCount":55,"tipCount":3,"visitsCount":81,"url":"http://www.fourwindsresort.com","tier":2,"message":"Moderate","currency":"$","rating":6.7},{"name":"Video Saloon","phone":"8123330064","address":"105 W 7th St","lat":39.168440893917335,"lng":-86.5339350581561,"city_fetched":"Bloomington,US","state":"IN","country":"United States","canonicalUrl":"https://foursquare.com/v/video-saloon/4ae293c2f964a5201a8f21e3","categoryId":"4bf58dd8d48988d116941735","category":"Bar","checkinsCount":3678,"usersCount":1337,"tipCount":19,"visitsCount":3806,"tier":1,"message":"Cheap","currency":"$","rating":6.6},{"name":"Upstairs Pub","phone":"8123333003","address":"430 E Kirkwood Ave","lat":39.16635588333333,"lng":-86.52836491666666,"neighborhood":"Downtown Bloomington","city_fetched":"Bloomington,US","state":"IN","country":"United States","canonicalUrl":"https://foursquare.com/v/upstairs-pub/4b0617e4f964a5208ee822e3","categoryId":"4bf58dd8d48988d116941735","category":"Bar","checkinsCount":4705,"usersCount":1753,"tipCount":17,"visitsCount":4837,"tier":2,"message":"Moderate","currency":"$","rating":6.6},{"name":"Cabin Restaurant & Lounge","phone":"8123239654","address":"446 and Pine Grove Road","lat":39.11722981500962,"lng":-86.42867796057546,"city_fetched":"Bloomington,US","state":"IN","country":"United States","canonicalUrl":"https://foursquare.com/v/cabin-restaurant--lounge/4b6503e3f964a52093df2ae3","categoryId":"4bf58dd8d48988d120941735","category":"Karaoke Bar","checkinsCount":419,"usersCount":63,"tipCount":3,"visitsCount":427,"tier":"","message":"","currency":"","rating":6.6},{"name":"Brothers Bar & Grill","phone":"8123311000","address":"215 N Walnut St","lat":39.168222,"lng":-86.533755,"city_fetched":"Bloomington,US","state":"IN","country":"United States","canonicalUrl":"https://foursquare.com/v/brothers-bar--grill/4b074185f964a520ccfa22e3","categoryId":"4bf58dd8d48988d116941735","category":"Bar","checkinsCount":6170,"usersCount":2080,"tipCount":27,"visitsCount":6347,"url":"http://brothersbar.com","tier":1,"message":"Cheap","currency":"$","rating":6.2},{"name":"Hoosier Bar & Grill","address":"4645 W Richland Plaza Dr","lat":39.217307,"lng":-86.594325,"city_fetched":"Bloomington,US","state":"IN","country":"United States","canonicalUrl":"https://foursquare.com/v/hoosier-bar--grill/4e41c3c61495179c01478499","categoryId":"4bf58dd8d48988d116941735","category":"Bar","checkinsCount":302,"usersCount":134,"tipCount":4,"visitsCount":307,"tier":"","message":"","currency":"","rating":6},{"name":"Bear's Place","phone":"8123393460","address":"1316 E 3rd St","lat":39.16402285,"lng":-86.51674923333333,"city_fetched":"Bloomington,US","state":"IN","country":"United States","canonicalUrl":"https://foursquare.com/v/bears-place/4afe0764f964a520372d22e3","categoryId":"4bf58dd8d48988d116941735","category":"Bar","checkinsCount":2351,"usersCount":1136,"tipCount":13,"visitsCount":2508,"tier":2,"message":"Moderate","currency":"$","rating":5.8},{"name":"Coaches Bar & Grill Bloomington","phone":"8123393537","twitter":"whitelodging","address":"245 N College Ave","lat":39.168347,"lng":-86.53488,"neighborhood":"Downtown Bloomington","city_fetched":"Bloomington,US","state":"IN","country":"United States","canonicalUrl":"https://foursquare.com/v/coaches-bar--grill-bloomington/4b54ccc0f964a52007cd27e3","categoryId":"4bf58dd8d48988d116941735","category":"Bar","checkinsCount":1120,"usersCount":500,"tipCount":12,"visitsCount":1124,"url":"http://www.whitelodging.com","tier":"","message":"","currency":"","rating":5.8}]