[{"name":"Turkey Hill Brewing Co.","phone":"5703878422","address":"991 Central Rd","lat":41.02479460186423,"lng":-76.42621202488495,"city_fetched":"Bloomsburg,US","state":"PA","country":"United States","canonicalUrl":"https://foursquare.com/v/turkey-hill-brewing-co/4da45fd263b5a35d4cc8241a","categoryId":"50327c8591d4c4b30a586d5d","category":"Brewery","checkinsCount":1408,"usersCount":930,"tipCount":28,"visitsCount":1782,"url":"http://www.turkeyhillbrewing.com","tier":"","message":"","currency":"","rating":8.6},{"name":"Marley's Brewery And Grill","address":"Rt 11","lat":41.006568,"lng":-76.431326,"city_fetched":"Bloomsburg,US","state":"PA","country":"United States","canonicalUrl":"https://foursquare.com/v/marleys-brewery-and-grill/51c4aeeb498e5b520bf23c3a","categoryId":"50327c8591d4c4b30a586d5d","category":"Brewery","checkinsCount":702,"usersCount":594,"tipCount":18,"visitsCount":1213,"url":"http://marleysbrewery.com","tier":2,"message":"Moderate","currency":"$","rating":8.3},{"name":"West End Ale Haus","phone":"5707843500","address":"117 W Main St","lat":41.002289771621626,"lng":-76.45858222889336,"city_fetched":"Bloomsburg,US","state":"PA","country":"United States","canonicalUrl":"https://foursquare.com/v/west-end-ale-haus/53599023498efefd7f42602f","categoryId":"4bf58dd8d48988d11b941735","category":"Pub","checkinsCount":170,"usersCount":178,"tipCount":3,"visitsCount":301,"url":"http://westendalehaus.com","tier":"","message":"","currency":"","rating":8},{"name":"Scoreboard Sports Tavern","phone":"5703878999","address":"6190 4th St","lat":41.0241922,"lng":-76.34580021666666,"city_fetched":"Bloomsburg,US","state":"PA","country":"United States","canonicalUrl":"https://foursquare.com/v/scoreboard-sports-tavern/4b79fa45f964a5207a1d2fe3","categoryId":"4bf58dd8d48988d11d941735","category":"Sports Bar","checkinsCount":924,"usersCount":364,"tipCount":12,"visitsCount":1245,"url":"http://scoreboardpa.com","tier":"","message":"","currency":"","rating":7.9},{"name":"Wagon Shed","phone":"5707849999","address":"850 Railroad St","lat":40.993848151178625,"lng":-76.4574129738497,"city_fetched":"Bloomsburg,US","state":"PA","country":"United States","canonicalUrl":"https://foursquare.com/v/wagon-shed/4cf155b5c9af6dcb0adf987f","categoryId":"4bf58dd8d48988d116941735","category":"Bar","checkinsCount":140,"usersCount":91,"tipCount":0,"visitsCount":158,"url":"http://wagonshed.net","tier":"","message":"","currency":"","rating":7.5},{"name":"Good Old Days","phone":"5707846269","twitter":"goodolddaysbar","address":"501 East St","lat":41.00205136414244,"lng":-76.44895674481953,"city_fetched":"Bloomsburg,US","state":"PA","country":"United States","canonicalUrl":"https://foursquare.com/v/good-old-days/4bcbe69fb6c49c74740d9391","categoryId":"4bf58dd8d48988d120941735","category":"Karaoke Bar","checkinsCount":634,"usersCount":346,"tipCount":8,"visitsCount":755,"url":"http://goodolddaysbar.com","tier":"","message":"","currency":"","rating":7.3},{"name":"Moonlit Oasis","address":"37 E Main St","lat":41.00342349236792,"lng":-76.4557805181047,"city_fetched":"Bloomsburg,US","state":"PA","country":"United States","canonicalUrl":"https://foursquare.com/v/moonlit-oasis/50402d57e4b0f30040f04308","categoryId":"4bf58dd8d48988d119941735","category":"Hookah Bar","checkinsCount":93,"usersCount":25,"tipCount":4,"visitsCount":93,"tier":"","message":"","currency":"","rating":6.8},{"name":"Hardware Bar","phone":"5703894284","address":"22 E Main St","lat":41.00330183025591,"lng":-76.45589590072632,"city_fetched":"Bloomsburg,US","state":"PA","country":"United States","canonicalUrl":"https://foursquare.com/v/hardware-bar/4e7bde46b61c3834b8da1b95","categoryId":"4bf58dd8d48988d116941735","category":"Bar","checkinsCount":463,"usersCount":249,"tipCount":3,"visitsCount":486,"url":"http://www.downtownafterdark.com/property/BloomsburgHardwareBar","tier":"","message":"","currency":"","rating":6.5},{"name":"Cobblestone Inn","phone":"5707593847","address":"6795 Old Berwick Rd","lat":41.02876399473219,"lng":-76.33539160723973,"city_fetched":"Bloomsburg,US","state":"PA","country":"United States","canonicalUrl":"https://foursquare.com/v/cobblestone-inn/4c65a55de75ac928c45ef5da","categoryId":"4bf58dd8d48988d116941735","category":"Bar","checkinsCount":642,"usersCount":42,"tipCount":14,"visitsCount":660,"tier":"","message":"","currency":"","rating":6.4},{"name":"Cracker Barrel In Catawissa","phone":"5703562076","address":"345 Main St","lat":40.95214574472887,"lng":-76.4603445644995,"city_fetched":"Bloomsburg,US","state":"PA","country":"United States","canonicalUrl":"https://foursquare.com/v/cracker-barrel-in-catawissa/4e39e749c65b8a6b56a80ba6","categoryId":"4bf58dd8d48988d116941735","category":"Bar","checkinsCount":275,"usersCount":85,"tipCount":5,"visitsCount":279,"url":"http://www.crackerbarrel.com","tier":"","message":"","currency":"","rating":6.1}]