[{"name":"Bittercreek Ale House","phone":"2083451813","address":"246 N 8th St","lat":43.616593565009495,"lng":-116.20244735649645,"neighborhood":"Downtown Boise City","city_fetched":"Boise,US","state":"ID","country":"United States","canonicalUrl":"https://foursquare.com/v/bittercreek-ale-house/4bad27aaf964a5207e333be3","categoryId":"4bf58dd8d48988d116941735","category":"Bar","checkinsCount":5386,"usersCount":2175,"tipCount":68,"visitsCount":5520,"url":"http://www.bittercreekalehouse.com","tier":2,"message":"Moderate","currency":"$","rating":9.3},{"name":"10 Barrel Brewing","phone":"2083445870","twitter":"10barrelbrewing","address":"830 W Bannock St","lat":43.61771105330594,"lng":-116.20288255829858,"neighborhood":"Downtown Boise City","city_fetched":"Boise,US","state":"ID","country":"United States","canonicalUrl":"https://foursquare.com/v/10-barrel-brewing/514a3386e4b034cf090ebfba","categoryId":"50327c8591d4c4b30a586d5d","category":"Brewery","checkinsCount":3023,"usersCount":1800,"tipCount":50,"visitsCount":4100,"url":"http://www.10barrel.com","tier":2,"message":"Moderate","currency":"$","rating":9},{"name":"Twisted Timber Foods & Brews","phone":"2083627157","twitter":"twisted_timber","address":"4563 S Cloverdale Rd","lat":43.56178168593596,"lng":-116.33474349975586,"neighborhood":"Southwest","city_fetched":"Boise,US","state":"ID","country":"United States","canonicalUrl":"https://foursquare.com/v/twisted-timber-foods--brews/4b85ff3bf964a520fe7c31e3","categoryId":"4bf58dd8d48988d11b941735","category":"Pub","checkinsCount":1861,"usersCount":352,"tipCount":19,"visitsCount":2259,"url":"http://ilovethetimber.com","tier":2,"message":"Moderate","currency":"$","rating":8.9},{"name":"Bier:Thirty Bottle & Bistro","phone":"2083421916","twitter":"bier_thirty","address":"3073 S Bown Way","lat":43.574856899623505,"lng":-116.15471363067627,"neighborhood":"Southeast Boise","city_fetched":"Boise,US","state":"ID","country":"United States","canonicalUrl":"https://foursquare.com/v/bierthirty-bottle--bistro/4d56d79ea747b60c87bc2d2b","categoryId":"4bf58dd8d48988d117941735","category":"Beer Garden","checkinsCount":2329,"usersCount":600,"tipCount":20,"visitsCount":2660,"url":"http://www.bierthirty.com","tier":2,"message":"Moderate","currency":"$","rating":8.9},{"name":"Taphouse","phone":"2083366991","twitter":"taphouseboise","address":"760 W Main St","lat":43.615274037950144,"lng":-116.20307773812382,"neighborhood":"Downtown Boise City","city_fetched":"Boise,US","state":"ID","country":"United States","canonicalUrl":"https://foursquare.com/taphouseboise","categoryId":"4bf58dd8d48988d11d941735","category":"Sports Bar","checkinsCount":1609,"usersCount":811,"tipCount":18,"visitsCount":1822,"url":"http://boisetaphouse.com","tier":2,"message":"Moderate","currency":"$","rating":8.7},{"name":"Edge Brewing Co.","phone":"2089952979","twitter":"edgebrew","address":"525 N Steelhead Way","lat":43.6094725759285,"lng":-116.29080792014821,"city_fetched":"Boise,US","state":"ID","country":"United States","canonicalUrl":"https://foursquare.com/v/edge-brewing-co/525d9ccf498e97ffe197f72b","categoryId":"50327c8591d4c4b30a586d5d","category":"Brewery","checkinsCount":890,"usersCount":432,"tipCount":17,"visitsCount":1324,"url":"http://edgebrew.com","tier":2,"message":"Moderate","currency":"$","rating":8.7},{"name":"Modern Hotel & Bar","phone":"2084248244","twitter":"modernhotel","address":"1314 W Grove St","lat":43.61839973326468,"lng":-116.21050357818604,"neighborhood":"Downtown Boise City","city_fetched":"Boise,US","state":"ID","country":"United States","canonicalUrl":"https://foursquare.com/v/modern-hotel--bar/4b496efaf964a520bd6f26e3","categoryId":"4bf58dd8d48988d1d5941735","category":"Hotel Bar","checkinsCount":3050,"usersCount":1124,"tipCount":40,"visitsCount":3381,"url":"http://www.themodernhotel.com","tier":2,"message":"Moderate","currency":"$","rating":8.6},{"name":"Highlands Hollow","phone":"2083436820","twitter":"highlandshollow","address":"2455 N Highlands Holw","lat":43.64230371220722,"lng":-116.2084838385692,"city_fetched":"Boise,US","state":"ID","country":"United States","canonicalUrl":"https://foursquare.com/v/highlands-hollow/4b4112e7f964a5208cc025e3","categoryId":"4bf58dd8d48988d11b941735","category":"Pub","checkinsCount":1330,"usersCount":642,"tipCount":32,"visitsCount":1519,"url":"http://www.highlandshollow.com","tier":2,"message":"Moderate","currency":"$","rating":8.5},{"name":"Bardenay","phone":"2084260555","twitter":"bardenay","address":"610 W Grove St","lat":43.61401953335383,"lng":-116.20218190304135,"neighborhood":"Downtown Boise City","city_fetched":"Boise,US","state":"ID","country":"United States","canonicalUrl":"https://foursquare.com/v/bardenay/4b49617ff964a520c96e26e3","categoryId":"50327c8591d4c4b30a586d5d","category":"Brewery","checkinsCount":4479,"usersCount":2323,"tipCount":37,"visitsCount":4932,"url":"http://www.bardenay.com","tier":2,"message":"Moderate","currency":"$","rating":8.5},{"name":"Neurolux","phone":"2083430886","twitter":"neurolux","address":"113 N 11th St","lat":43.617914,"lng":-116.20670020580292,"neighborhood":"Downtown Boise City","city_fetched":"Boise,US","state":"ID","country":"United States","canonicalUrl":"https://foursquare.com/v/neurolux/4b43d6b2f964a5209ceb25e3","categoryId":"4bf58dd8d48988d116941735","category":"Bar","checkinsCount":4158,"usersCount":1043,"tipCount":26,"visitsCount":4387,"url":"http://neurolux.com","tier":2,"message":"Moderate","currency":"$","rating":8.3},{"name":"Woodland Empire Ale Craft","address":"1114 W Front St","lat":43.61637315641288,"lng":-116.20910713731422,"neighborhood":"Downtown Boise City","city_fetched":"Boise,US","state":"ID","country":"United States","canonicalUrl":"https://foursquare.com/v/woodland-empire-ale-craft/52d5b50e498e43a4f587d583","categoryId":"50327c8591d4c4b30a586d5d","category":"Brewery","checkinsCount":372,"usersCount":173,"tipCount":5,"visitsCount":416,"url":"http://woodlandempire.com","tier":1,"message":"Cheap","currency":"$","rating":8.3},{"name":"Pengilly's Saloon","phone":"2083456344","twitter":"pengillys","address":"513 W Main St","lat":43.614089,"lng":-116.200733,"neighborhood":"Downtown Boise City","city_fetched":"Boise,US","state":"ID","country":"United States","canonicalUrl":"https://foursquare.com/v/pengillys-saloon/4b47ca74f964a520dc3e26e3","categoryId":"4bf58dd8d48988d116941735","category":"Bar","checkinsCount":2790,"usersCount":884,"tipCount":17,"visitsCount":2897,"tier":1,"message":"Cheap","currency":"$","rating":8.2},{"name":"Ha'Penny Bridge Irish Pub & Grill","phone":"2083435568","address":"855 W Broad St","lat":43.61357356,"lng":-116.20643734931946,"neighborhood":"Downtown Boise City","city_fetched":"Boise,US","state":"ID","country":"United States","canonicalUrl":"https://foursquare.com/v/hapenny-bridge-irish-pub--grill/4b462a37f964a520ba1826e3","categoryId":"4bf58dd8d48988d11b941735","category":"Pub","checkinsCount":1620,"usersCount":731,"tipCount":10,"visitsCount":1625,"url":"http://hapennybridgepub.com","tier":"","message":"","currency":"","rating":8.1},{"name":"Crooked Fence Brewing","phone":"2089012090","twitter":"cfbrewery","address":"5242 W Chinden Blvd","lat":43.6450420594827,"lng":-116.27127366927945,"neighborhood":"Northwest","city_fetched":"Boise,US","state":"ID","country":"United States","canonicalUrl":"https://foursquare.com/v/crooked-fence-brewing/4f342e52e4b020e82e5c407a","categoryId":"50327c8591d4c4b30a586d5d","category":"Brewery","checkinsCount":400,"usersCount":196,"tipCount":7,"visitsCount":441,"url":"http://www.crookedfencebrewing.com","tier":"","message":"","currency":"","rating":8.1},{"name":"Brewer's Haven","phone":"2089914677","address":"1795 S. Vista","lat":43.58760311441792,"lng":-116.21410432367651,"neighborhood":"Vista","city_fetched":"Boise,US","state":"ID","country":"United States","canonicalUrl":"https://foursquare.com/v/brewers-haven/4b6dde54f964a5202a972ce3","categoryId":"50327c8591d4c4b30a586d5d","category":"Brewery","checkinsCount":781,"usersCount":328,"tipCount":6,"visitsCount":924,"tier":"","message":"","currency":"","rating":8},{"name":"Payette Brewing Company","phone":"2083440011","twitter":"payettebrewing","address":"111 W 33rd St","lat":43.621151,"lng":-116.23918737,"neighborhood":"Northwest","city_fetched":"Boise,US","state":"ID","country":"United States","canonicalUrl":"https://foursquare.com/v/payette-brewing-company/4d893ebcd85f3704fa86e3db","categoryId":"50327c8591d4c4b30a586d5d","category":"Brewery","checkinsCount":1138,"usersCount":487,"tipCount":14,"visitsCount":1312,"url":"http://payettebrewing.com","tier":"","message":"","currency":"","rating":8},{"name":"Powderhaus Brewing Company","phone":"2084735801","twitter":"powderhausbrew","address":"9719 W Chinden Blvd","lat":43.65655651503782,"lng":-116.30196800535492,"neighborhood":"West Valley","city_fetched":"Boise,US","state":"ID","country":"United States","canonicalUrl":"https://foursquare.com/v/powderhaus-brewing-company/561e55d6498e9f84888e9591","categoryId":"50327c8591d4c4b30a586d5d","category":"Brewery","checkinsCount":59,"usersCount":82,"tipCount":1,"visitsCount":128,"tier":"","message":"","currency":"","rating":7.9},{"name":"Grinkers Grand Palace","lat":43.69351577758789,"lng":-116.35183715820312,"city_fetched":"Boise,US","state":"ID","country":"United States","canonicalUrl":"https://foursquare.com/v/grinkers-grand-palace/509ee39ee4b0472289f6ef10","categoryId":"4bf58dd8d48988d11b941735","category":"Pub","checkinsCount":330,"usersCount":107,"tipCount":5,"visitsCount":356,"tier":"","message":"","currency":"","rating":7.9},{"name":"Boise Brewing","phone":"2083427655","twitter":"boisebrewery","address":"521 W Broad St","lat":43.61184060976724,"lng":-116.2030665576375,"neighborhood":"Downtown Boise City","city_fetched":"Boise,US","state":"ID","country":"United States","canonicalUrl":"https://foursquare.com/boisebrewery","categoryId":"50327c8591d4c4b30a586d5d","category":"Brewery","checkinsCount":397,"usersCount":285,"tipCount":12,"visitsCount":605,"url":"http://www.boisebrewing.com","tier":"","message":"","currency":"","rating":7.9},{"name":"The River Room","lat":43.60771569881677,"lng":-116.19444358122851,"neighborhood":"Downtown Boise City","city_fetched":"Boise,US","state":"ID","country":"United States","canonicalUrl":"https://foursquare.com/v/the-river-room/50a99f7de4b02a7dc0e54ab0","categoryId":"4bf58dd8d48988d117941735","category":"Beer Garden","checkinsCount":335,"usersCount":139,"tipCount":2,"visitsCount":340,"tier":"","message":"","currency":"","rating":7.9},{"name":"Slanted Rock Brewing Co","twitter":"slantedrock","address":"2374 E Cinema Dr","lat":43.59172892461268,"lng":-116.36607920531989,"neighborhood":"Southeast Meridian","city_fetched":"Boise,US","state":"ID","country":"United States","canonicalUrl":"https://foursquare.com/v/slanted-rock-brewing-co/4fa15c10bb3d40519d4aa5c4","categoryId":"50327c8591d4c4b30a586d5d","category":"Brewery","checkinsCount":373,"usersCount":185,"tipCount":5,"visitsCount":502,"url":"http://slantedrock.com","tier":"","message":"","currency":"","rating":7.8},{"name":"Red Feather Lounge","phone":"2084296240","twitter":"bitterfeather","address":"246 N 8th St","lat":43.616664738612755,"lng":-116.20243460641359,"neighborhood":"Downtown Boise City","city_fetched":"Boise,US","state":"ID","country":"United States","canonicalUrl":"https://foursquare.com/v/red-feather-lounge/4b3fa169f964a520c8aa25e3","categoryId":"4bf58dd8d48988d121941735","category":"Lounge","checkinsCount":3089,"usersCount":1033,"tipCount":49,"visitsCount":3111,"url":"http://redfeatherlounge.com/home.html","tier":2,"message":"Moderate","currency":"$","rating":7.8},{"name":"Symposion","phone":"2083429420","address":"2801 W Fletcher St","lat":43.61945295,"lng":-116.2252103,"neighborhood":"Northwest","city_fetched":"Boise,US","state":"ID","country":"United States","canonicalUrl":"https://foursquare.com/v/symposion/4b84d692f964a520484531e3","categoryId":"4bf58dd8d48988d118941735","category":"Dive Bar","checkinsCount":340,"usersCount":189,"tipCount":5,"visitsCount":375,"tier":"","message":"","currency":"","rating":7.8},{"name":"Bodovino","phone":"2083368466","twitter":"bodovino","address":"404 S 8th St","lat":43.61324212796453,"lng":-116.20561122894286,"neighborhood":"Downtown Boise City","city_fetched":"Boise,US","state":"ID","country":"United States","canonicalUrl":"https://foursquare.com/v/bodovino/514b67b7f2e738cb0d22597b","categoryId":"4bf58dd8d48988d123941735","category":"Wine Bar","checkinsCount":311,"usersCount":206,"tipCount":8,"visitsCount":321,"url":"http://www.bodovino.com","tier":"","message":"","currency":"","rating":7.7},{"name":"R Bar","phone":"2086290029","address":"1041 S Broadway Ave","lat":43.59999867122187,"lng":-116.19361722961814,"neighborhood":"Southeast Boise","city_fetched":"Boise,US","state":"ID","country":"United States","canonicalUrl":"https://foursquare.com/v/r-bar/4c7f0e021009a093f685464e","categoryId":"4bf58dd8d48988d116941735","category":"Bar","checkinsCount":2318,"usersCount":334,"tipCount":2,"visitsCount":2372,"url":"http://rbarboise.com","tier":"","message":"","currency":"","rating":7.7},{"name":"PreFunk Beer Pub","twitter":"prefunkbeerbar","address":"1100 W Front St","lat":43.616046,"lng":-116.208554,"neighborhood":"Downtown Boise City","city_fetched":"Boise,US","state":"ID","country":"United States","canonicalUrl":"https://foursquare.com/v/prefunk-beer-pub/51f6d2c7498eeefd09925f7c","categoryId":"4bf58dd8d48988d11b941735","category":"Pub","checkinsCount":463,"usersCount":286,"tipCount":11,"visitsCount":619,"tier":2,"message":"Moderate","currency":"$","rating":7.7},{"name":"Stagecoach Inn","phone":"2083424161","address":"3132 W Chinden Blvd","lat":43.621244993725675,"lng":-116.23675385811447,"neighborhood":"Northwest","city_fetched":"Boise,US","state":"ID","country":"United States","canonicalUrl":"https://foursquare.com/v/stagecoach-inn/556a3c91498e1cf0312804a3","categoryId":"4bf58dd8d48988d11b941735","category":"Pub","checkinsCount":39,"usersCount":115,"tipCount":0,"visitsCount":194,"tier":"","message":"","currency":"","rating":7.7},{"name":"Sockeye Grill And Brewery","phone":"2086581533","twitter":"sockeyebrew","address":"3019 N Cole Rd","lat":43.63237042279892,"lng":-116.2745928623827,"city_fetched":"Boise,US","state":"ID","country":"United States","canonicalUrl":"https://foursquare.com/v/sockeye-grill-and-brewery/4b4a6659f964a520768626e3","categoryId":"50327c8591d4c4b30a586d5d","category":"Brewery","checkinsCount":1427,"usersCount":822,"tipCount":26,"visitsCount":1743,"url":"http://www.sockeyebrew.com","tier":2,"message":"Moderate","currency":"$","rating":7.7},{"name":"The Lift Bar & Grill","phone":"2083423250","twitter":"theliftboise","address":"4091 W State St","lat":43.642806,"lng":-116.239992,"neighborhood":"Northwest","city_fetched":"Boise,US","state":"ID","country":"United States","canonicalUrl":"https://foursquare.com/v/the-lift-bar--grill/4b4e1f90f964a5200ae226e3","categoryId":"4bf58dd8d48988d116941735","category":"Bar","checkinsCount":2034,"usersCount":631,"tipCount":23,"visitsCount":2261,"url":"http://www.theliftboise.com","tier":2,"message":"Moderate","currency":"$","rating":7.6},{"name":"Twin Peaks","phone":"2083750118","address":"W Spectrum St","lat":43.58730697631836,"lng":-116.27854919433594,"neighborhood":"Southwest","city_fetched":"Boise,US","state":"ID","country":"United States","canonicalUrl":"https://foursquare.com/v/twin-peaks/524a0d0b11d212c1f11d1a09","categoryId":"4bf58dd8d48988d11d941735","category":"Sports Bar","checkinsCount":637,"usersCount":490,"tipCount":13,"visitsCount":1033,"url":"http://twinpeaksrestaurant.com","tier":2,"message":"Moderate","currency":"$","rating":7.6},{"name":"Terry's State Street Saloon","phone":"2083318225","address":"3301 N Collister Dr","lat":43.64992166238787,"lng":-116.24855411138135,"neighborhood":"Collister","city_fetched":"Boise,US","state":"ID","country":"United States","canonicalUrl":"https://foursquare.com/v/terrys-state-street-saloon/4b49e32ef964a520667526e3","categoryId":"4bf58dd8d48988d120941735","category":"Karaoke Bar","checkinsCount":1127,"usersCount":264,"tipCount":13,"visitsCount":1206,"url":"http://www.statestreetsaloon.com","tier":"","message":"","currency":"","rating":7.6},{"name":"Rudy's Pub & Grill","phone":"2088844453","address":"2310 E Overland Rd","lat":43.590627908706665,"lng":-116.36479,"neighborhood":"Southeast Meridian","city_fetched":"Boise,US","state":"ID","country":"United States","canonicalUrl":"https://foursquare.com/v/rudys-pub--grill/4b636693f964a52024772ae3","categoryId":"4bf58dd8d48988d11b941735","category":"Pub","checkinsCount":801,"usersCount":409,"tipCount":11,"visitsCount":860,"url":"http://www.rudyspubngrill.com","tier":2,"message":"Moderate","currency":"$","rating":7.6},{"name":"The Huddle","twitter":"thehuddlegrill","address":"205 N 10th St","lat":43.61778715116684,"lng":-116.2048400707222,"neighborhood":"Downtown Boise City","city_fetched":"Boise,US","state":"ID","country":"United States","canonicalUrl":"https://foursquare.com/v/the-huddle/4d5c2eda9c31b60c970fb2ee","categoryId":"4bf58dd8d48988d11d941735","category":"Sports Bar","checkinsCount":465,"usersCount":179,"tipCount":9,"visitsCount":465,"tier":"","message":"","currency":"","rating":7.6},{"name":"Eastside Tavern","address":"610 E Boise Ave","lat":43.58007845544973,"lng":-116.17580835680528,"neighborhood":"Southeast Boise","city_fetched":"Boise,US","state":"ID","country":"United States","canonicalUrl":"https://foursquare.com/v/eastside-tavern/4bfdcbe58992a593eab8acb0","categoryId":"4bf58dd8d48988d116941735","category":"Bar","checkinsCount":1153,"usersCount":279,"tipCount":7,"visitsCount":1349,"tier":"","message":"","currency":"","rating":7.5},{"name":"Harrys Meridian Grill","address":"3135 E Overland Rd","lat":43.59073952,"lng":-116.36824,"neighborhood":"Southeast Meridian","city_fetched":"Boise,US","state":"ID","country":"United States","canonicalUrl":"https://foursquare.com/v/harrys-meridian-grill/4b6e2e5cf964a52016b02ce3","categoryId":"4bf58dd8d48988d116941735","category":"Bar","checkinsCount":385,"usersCount":202,"tipCount":4,"visitsCount":470,"tier":"","message":"","currency":"","rating":7.5},{"name":"Cloud Nine Brewery","address":"1750 W State St","lat":43.625475,"lng":-116.210908,"neighborhood":"North End","city_fetched":"Boise,US","state":"ID","country":"United States","canonicalUrl":"https://foursquare.com/v/cloud-nine-brewery/5327a6c3498eb0e0d00cab90","categoryId":"50327c8591d4c4b30a586d5d","category":"Brewery","checkinsCount":213,"usersCount":162,"tipCount":9,"visitsCount":258,"tier":"","message":"","currency":"","rating":7.5},{"name":"The 44","phone":"2083440693","address":"4340 W State St","lat":43.64610135555267,"lng":-116.24352883,"neighborhood":"Northwest","city_fetched":"Boise,US","state":"ID","country":"United States","canonicalUrl":"https://foursquare.com/v/the-44/4b4e7a05f964a52026ef26e3","categoryId":"4bf58dd8d48988d118941735","category":"Dive Bar","checkinsCount":1391,"usersCount":236,"tipCount":9,"visitsCount":1443,"tier":"","message":"","currency":"","rating":7.4},{"name":"Beef O'Brady's","phone":"2088886228","twitter":"mbeefs","address":"1505 S Eagle Rd","lat":43.591558230650385,"lng":-116.35615758558878,"neighborhood":"Southeast Meridian","city_fetched":"Boise,US","state":"ID","country":"United States","canonicalUrl":"https://foursquare.com/v/beef-obradys/4ea2348be3008f7d91feee9c","categoryId":"4bf58dd8d48988d11d941735","category":"Sports Bar","checkinsCount":1065,"usersCount":414,"tipCount":15,"visitsCount":1258,"url":"http://www.beefobradys.com","tier":"","message":"","currency":"","rating":7.4},{"name":"McCleary's Pub","phone":"2083423007","address":"604 N Orchard","lat":43.610060310665865,"lng":-116.24319796280032,"city_fetched":"Boise,US","state":"ID","country":"United States","canonicalUrl":"https://foursquare.com/v/mcclearys-pub/4b9cbf38f964a520807936e3","categoryId":"4bf58dd8d48988d11b941735","category":"Pub","checkinsCount":823,"usersCount":132,"tipCount":4,"visitsCount":860,"tier":"","message":"","currency":"","rating":7.4},{"name":"The Piper Pub & Grill","phone":"2083432444","address":"150 N 8th St","lat":43.61561980417904,"lng":-116.20350090818148,"neighborhood":"Downtown Boise City","city_fetched":"Boise,US","state":"ID","country":"United States","canonicalUrl":"https://foursquare.com/v/the-piper-pub--grill/4b4519f6f964a520a40426e3","categoryId":"4bf58dd8d48988d116941735","category":"Bar","checkinsCount":1355,"usersCount":604,"tipCount":14,"visitsCount":1388,"url":"http://pipers.com","tier":2,"message":"Moderate","currency":"$","rating":7.4},{"name":"The Dutch Goose","phone":"2083428887","address":"3515 W State St","lat":43.6380031,"lng":-116.23346,"neighborhood":"Northwest","city_fetched":"Boise,US","state":"ID","country":"United States","canonicalUrl":"https://foursquare.com/v/the-dutch-goose/4b4a6188f964a520f48526e3","categoryId":"4bf58dd8d48988d118941735","category":"Dive Bar","checkinsCount":561,"usersCount":340,"tipCount":9,"visitsCount":642,"tier":"","message":"","currency":"","rating":7.4},{"name":"The Curb Bar & Grill","phone":"2088550202","address":"1760 S Meridian Rd","lat":43.58899111153297,"lng":-116.39311084,"neighborhood":"Southeast Meridian","city_fetched":"Boise,US","state":"ID","country":"United States","canonicalUrl":"https://foursquare.com/v/the-curb-bar--grill/4c89a302770fb60c79f2cbc3","categoryId":"4bf58dd8d48988d116941735","category":"Bar","checkinsCount":1531,"usersCount":544,"tipCount":24,"visitsCount":1821,"url":"http://www.curbbarandgrill.com","tier":1,"message":"Cheap","currency":"$","rating":7.4},{"name":"The Balcony Club","phone":"2083361313","twitter":"balconyclub","address":"150 N 8th St","lat":43.6161678185277,"lng":-116.2032606761951,"neighborhood":"Downtown Boise City","city_fetched":"Boise,US","state":"ID","country":"United States","canonicalUrl":"https://foursquare.com/v/the-balcony-club/4b45c1f5f964a520ea0f26e3","categoryId":"4bf58dd8d48988d1d8941735","category":"Gay Bar","checkinsCount":3594,"usersCount":804,"tipCount":21,"visitsCount":3628,"url":"http://www.thebalconyclub.com","tier":"","message":"","currency":"","rating":7.3},{"name":"13th Street Bar & Grill","phone":"2086398888","address":"1520 N 13th St","lat":43.63010992719106,"lng":-116.20319452173987,"neighborhood":"North End","city_fetched":"Boise,US","state":"ID","country":"United States","canonicalUrl":"https://foursquare.com/v/13th-street-bar--grill/4c3529c666e40f47f8d8ca8b","categoryId":"4bf58dd8d48988d11d941735","category":"Sports Bar","checkinsCount":2475,"usersCount":788,"tipCount":16,"visitsCount":2652,"url":"http://13pubandgrill.com","tier":"","message":"","currency":"","rating":7.3},{"name":"The Gathering Place","phone":"2086294369","address":"50 E State St","lat":43.695361455315876,"lng":-116.35335805811971,"city_fetched":"Boise,US","state":"ID","country":"United States","canonicalUrl":"https://foursquare.com/v/the-gathering-place/4dc62c4fae608779d14ee8ab","categoryId":"4bf58dd8d48988d116941735","category":"Bar","checkinsCount":199,"usersCount":81,"tipCount":4,"visitsCount":200,"tier":"","message":"","currency":"","rating":7.3},{"name":"Fatty's Bar","phone":"2085142531","twitter":"drinkfattys","address":"800 W Idaho St Ste 200","lat":43.61657562844549,"lng":-116.20266756884493,"neighborhood":"Downtown Boise City","city_fetched":"Boise,US","state":"ID","country":"United States","canonicalUrl":"https://foursquare.com/v/fattys-bar/4ccd297454f0b1f73c311bca","categoryId":"4bf58dd8d48988d116941735","category":"Bar","checkinsCount":2470,"usersCount":790,"tipCount":12,"visitsCount":2501,"url":"http://www.drinkfattys.com","tier":"","message":"","currency":"","rating":7.2},{"name":"Hooligans Pub","phone":"2083769800","twitter":"hooliganspub1","address":"10704 W Overland Rd","lat":43.59062277896207,"lng":-116.31604113951,"neighborhood":"Southwest","city_fetched":"Boise,US","state":"ID","country":"United States","canonicalUrl":"https://foursquare.com/v/hooligans-pub/4b6d13a4f964a520db652ce3","categoryId":"4bf58dd8d48988d11b941735","category":"Pub","checkinsCount":386,"usersCount":111,"tipCount":3,"visitsCount":390,"url":"http://www.hooliganspubboise.com","tier":"","message":"","currency":"","rating":7.2},{"name":"Tom Grainey's","phone":"2083452505","address":"109 S 6th St","lat":43.61417959,"lng":-116.20166995,"neighborhood":"Downtown Boise City","city_fetched":"Boise,US","state":"ID","country":"United States","canonicalUrl":"https://foursquare.com/v/tom-graineys/4bf981205317a5939164017f","categoryId":"4bf58dd8d48988d116941735","category":"Bar","checkinsCount":3692,"usersCount":962,"tipCount":10,"visitsCount":3841,"tier":2,"message":"Moderate","currency":"$","rating":7.1},{"name":"Whiskey Bar","address":"509 W Main St","lat":43.61408742831337,"lng":-116.20060022305037,"neighborhood":"Downtown Boise City","city_fetched":"Boise,US","state":"ID","country":"United States","canonicalUrl":"https://foursquare.com/v/whiskey-bar/53802cb3498e7fa5d01a4ae6","categoryId":"4bf58dd8d48988d11e941735","category":"Cocktail Bar","checkinsCount":156,"usersCount":114,"tipCount":3,"visitsCount":163,"tier":"","message":"","currency":"","rating":7.1},{"name":"Broadway Bar","phone":"2083429951","address":"1712 S Broadway Ave","lat":43.591817522726764,"lng":-116.19330364730128,"neighborhood":"Southeast Boise","city_fetched":"Boise,US","state":"ID","country":"United States","canonicalUrl":"https://foursquare.com/v/broadway-bar/4b462fdef964a5207d1926e3","categoryId":"4bf58dd8d48988d118941735","category":"Dive Bar","checkinsCount":845,"usersCount":227,"tipCount":3,"visitsCount":918,"tier":"","message":"","currency":"","rating":7},{"name":"Satin Dolls","phone":"2083531695","address":"4348 W State St","lat":43.64623010158539,"lng":-116.24371469020844,"neighborhood":"Northwest","city_fetched":"Boise,US","state":"ID","country":"United States","canonicalUrl":"https://foursquare.com/v/satin-dolls/4d40ed1200e8a35d3fc9fffa","categoryId":"4bf58dd8d48988d1d6941735","category":"Strip Club","checkinsCount":1052,"usersCount":84,"tipCount":2,"visitsCount":1060,"tier":"","message":"","currency":"","rating":7},{"name":"RAM Restaurant & Brewery","phone":"2088880314","twitter":"theram","address":"3272 E Pine Ave","lat":43.613397483983206,"lng":-116.35409832000732,"city_fetched":"Boise,US","state":"ID","country":"United States","canonicalUrl":"https://foursquare.com/v/ram-restaurant--brewery/4b5120d1f964a520de4327e3","categoryId":"50327c8591d4c4b30a586d5d","category":"Brewery","checkinsCount":1680,"usersCount":869,"tipCount":17,"visitsCount":1895,"url":"http://theram.com","tier":2,"message":"Moderate","currency":"$","rating":7},{"name":"The End Zone","phone":"2083840613","address":"1010 S Broadway Ave","lat":43.60045486666667,"lng":-116.19323801666667,"neighborhood":"Southeast Boise","city_fetched":"Boise,US","state":"ID","country":"United States","canonicalUrl":"https://foursquare.com/v/the-end-zone/4b4960eef964a520b86e26e3","categoryId":"4bf58dd8d48988d116941735","category":"Bar","checkinsCount":2035,"usersCount":372,"tipCount":7,"visitsCount":2056,"tier":"","message":"","currency":"","rating":6.9},{"name":"Cazba Eastern Mediterranean & Greek Cuisine","phone":"2083810222","twitter":"opalounge","address":"211 N 8th St","lat":43.616890145367535,"lng":-116.20255553599334,"neighborhood":"Downtown Boise City","city_fetched":"Boise,US","state":"ID","country":"United States","canonicalUrl":"https://foursquare.com/v/cazba-eastern-mediterranean--greek-cuisine/4b52c8d1f964a520ff8727e3","categoryId":"4bf58dd8d48988d11e941735","category":"Cocktail Bar","checkinsCount":594,"usersCount":332,"tipCount":11,"visitsCount":594,"tier":"","message":"","currency":"","rating":6.9},{"name":"Legends Sports Pub & Grill","phone":"2083771819","address":"7609 W Overland Rd","lat":43.58841107997035,"lng":-116.27753734588623,"neighborhood":"Southwest","city_fetched":"Boise,US","state":"ID","country":"United States","canonicalUrl":"https://foursquare.com/v/legends-sports-pub--grill/4b4106c3f964a520a2bf25e3","categoryId":"4bf58dd8d48988d11d941735","category":"Sports Bar","checkinsCount":1522,"usersCount":790,"tipCount":12,"visitsCount":1596,"url":"http://www.boisesportspub.com","tier":"","message":"","currency":"","rating":6.9},{"name":"Tilted Kilt Boise","phone":"2083385458","twitter":"tiltedkiltpub","address":"1555 S Broadway Ave","lat":43.59404351826584,"lng":-116.19391757973267,"neighborhood":"Southeast Boise","city_fetched":"Boise,US","state":"ID","country":"United States","canonicalUrl":"https://foursquare.com/v/tilted-kilt-boise/5307f9b9498ea17f73e8e6de","categoryId":"4bf58dd8d48988d11d941735","category":"Sports Bar","checkinsCount":326,"usersCount":280,"tipCount":7,"visitsCount":548,"url":"http://www.tiltedkilt.com","tier":2,"message":"Moderate","currency":"$","rating":6.8},{"name":"Humpin Hannah's","phone":"2083457557","address":"621 W Main St","lat":43.6145322,"lng":-116.2013951,"neighborhood":"Downtown Boise City","city_fetched":"Boise,US","state":"ID","country":"United States","canonicalUrl":"https://foursquare.com/v/humpin-hannahs/4b45c054f964a520d70f26e3","categoryId":"4bf58dd8d48988d11f941735","category":"Nightclub","checkinsCount":2208,"usersCount":860,"tipCount":25,"visitsCount":2244,"url":"http://humpinhannahsboise.com","tier":1,"message":"Cheap","currency":"$","rating":6.8},{"name":"Crescent Bar & Grill","phone":"2083229856","address":"5500 W Franklin Rd","lat":43.603251893413116,"lng":-116.24983549118042,"neighborhood":"Central Bench","city_fetched":"Boise,US","state":"ID","country":"United States","canonicalUrl":"https://foursquare.com/v/crescent-bar--grill/4be63520cf200f475363143c","categoryId":"4bf58dd8d48988d116941735","category":"Bar","checkinsCount":1364,"usersCount":540,"tipCount":10,"visitsCount":1582,"url":"http://crescentbarresort.com","tier":"","message":"","currency":"","rating":6.8},{"name":"Mulligans' Golf Pub & Eatery","phone":"2083366998","twitter":"mulliganstaff","address":"1009 W Main St","lat":43.61683019345653,"lng":-116.20659217230929,"neighborhood":"Downtown Boise City","city_fetched":"Boise,US","state":"ID","country":"United States","canonicalUrl":"https://foursquare.com/v/mulligans-golf-pub--eatery/4b45c338f964a520f80f26e3","categoryId":"4bf58dd8d48988d116941735","category":"Bar","checkinsCount":6473,"usersCount":945,"tipCount":27,"visitsCount":6669,"tier":1,"message":"Cheap","currency":"$","rating":6.7},{"name":"The Drink","address":"3000 N Lakeharbor Ln","lat":43.65186850931842,"lng":-116.25546956722945,"neighborhood":"Northwest","city_fetched":"Boise,US","state":"ID","country":"United States","canonicalUrl":"https://foursquare.com/v/the-drink/5029336ee4b039d48ce417be","categoryId":"4bf58dd8d48988d11f941735","category":"Nightclub","checkinsCount":464,"usersCount":221,"tipCount":9,"visitsCount":556,"tier":"","message":"","currency":"","rating":6.7},{"name":"RAM Restaurant & Brewery","phone":"2083452929","twitter":"theram","address":"709 E Park Blvd","lat":43.60438316,"lng":-116.192693,"neighborhood":"North - East Ends","city_fetched":"Boise,US","state":"ID","country":"United States","canonicalUrl":"https://foursquare.com/v/ram-restaurant--brewery/4b493581f964a5201b6a26e3","categoryId":"50327c8591d4c4b30a586d5d","category":"Brewery","checkinsCount":3026,"usersCount":1602,"tipCount":25,"visitsCount":3461,"url":"http://theram.com","tier":2,"message":"Moderate","currency":"$","rating":6.7},{"name":"Charlie Brown's","phone":"2083229869","address":"1690 S. Curtis","lat":43.58905012282374,"lng":-116.25338833827571,"neighborhood":"Hillcrest","city_fetched":"Boise,US","state":"ID","country":"United States","canonicalUrl":"https://foursquare.com/v/charlie-browns/4cd4903e122ba143cd4726a1","categoryId":"4bf58dd8d48988d116941735","category":"Bar","checkinsCount":437,"usersCount":154,"tipCount":3,"visitsCount":659,"tier":"","message":"","currency":"","rating":6.7},{"name":"China Blue Night Club","phone":"2083459515","twitter":"chinablueclub","address":"100 S 6th St","lat":43.614162824377395,"lng":-116.20114603369947,"neighborhood":"Downtown Boise City","city_fetched":"Boise,US","state":"ID","country":"United States","canonicalUrl":"https://foursquare.com/v/china-blue-night-club/4be0aae5b238d13a47a870a4","categoryId":"4bf58dd8d48988d11f941735","category":"Nightclub","checkinsCount":1597,"usersCount":545,"tipCount":10,"visitsCount":1617,"url":"http://www.chinabluenightclub.com","tier":3,"message":"Expensive","currency":"$","rating":6.6},{"name":"Crickets Bar And Grill","phone":"2083441635","address":"1228 S Oakland Ave","lat":43.59732173,"lng":-116.20313253333333,"neighborhood":"Southeast Boise","city_fetched":"Boise,US","state":"ID","country":"United States","canonicalUrl":"https://foursquare.com/v/crickets-bar-and-grill/4b5bf370f964a5209f1e29e3","categoryId":"4bf58dd8d48988d116941735","category":"Bar","checkinsCount":407,"usersCount":143,"tipCount":7,"visitsCount":440,"tier":"","message":"","currency":"","rating":6.6},{"name":"Buffalo Club","address":"10206 W Fairview Ave","lat":43.62040555174659,"lng":-116.309703711409,"neighborhood":"West Valley","city_fetched":"Boise,US","state":"ID","country":"United States","canonicalUrl":"https://foursquare.com/v/buffalo-club/4b920313f964a5206de333e3","categoryId":"4bf58dd8d48988d116941735","category":"Bar","checkinsCount":541,"usersCount":327,"tipCount":5,"visitsCount":640,"tier":"","message":"","currency":"","rating":6.5},{"name":"Suds Tavern","phone":"2083459656","twitter":"thesudstavern","address":"1024 S Broadway Ave","lat":43.600222716666664,"lng":-116.19324624538422,"neighborhood":"Southeast Boise","city_fetched":"Boise,US","state":"ID","country":"United States","canonicalUrl":"https://foursquare.com/v/suds-tavern/4b3ba4a8f964a520d67725e3","categoryId":"4bf58dd8d48988d118941735","category":"Dive Bar","checkinsCount":1472,"usersCount":398,"tipCount":3,"visitsCount":1477,"url":"http://www.sudstavern.com","tier":"","message":"","currency":"","rating":6.5},{"name":"WilliB's Saloon","phone":"2083315666","twitter":"willibssaloon","address":"12505 W Chinden Blvd","lat":43.662205994366275,"lng":-116.33787631988524,"city_fetched":"Boise,US","state":"ID","country":"United States","canonicalUrl":"https://foursquare.com/willibssaloon","categoryId":"4bf58dd8d48988d11e941735","category":"Cocktail Bar","checkinsCount":698,"usersCount":231,"tipCount":22,"visitsCount":744,"url":"http://www.willibs.com","tier":1,"message":"Cheap","currency":"$","rating":6.5},{"name":"Kilted Dragon Brewing","phone":"2082542012","address":"9115 W Chinden Blvd #107","lat":43.65466784801813,"lng":-116.29579688981967,"city_fetched":"Boise,US","state":"ID","country":"United States","canonicalUrl":"https://foursquare.com/v/kilted-dragon-brewing/4fd0079610813dd57abb84a8","categoryId":"50327c8591d4c4b30a586d5d","category":"Brewery","checkinsCount":257,"usersCount":89,"tipCount":5,"visitsCount":259,"url":"http://www.kilteddragon.com","tier":"","message":"","currency":"","rating":6.4},{"name":"Jim's Alibi","phone":"2083429220","address":"2710 S Broadway Ave Boise","lat":43.57767985101156,"lng":-116.19337626666666,"neighborhood":"Southeast Boise","city_fetched":"Boise,US","state":"ID","country":"United States","canonicalUrl":"https://foursquare.com/v/jims-alibi/4b9c9d1cf964a520d27236e3","categoryId":"4bf58dd8d48988d118941735","category":"Dive Bar","checkinsCount":686,"usersCount":224,"tipCount":4,"visitsCount":738,"tier":"","message":"","currency":"","rating":6.4},{"name":"Varsity Pub","lat":43.61765815,"lng":-116.35560696666667,"neighborhood":"Northeast Meridian","city_fetched":"Boise,US","state":"Idaho","country":"United States","canonicalUrl":"https://foursquare.com/v/varsity-pub/4eaf60f8b634097eca3722b6","categoryId":"4bf58dd8d48988d11f941735","category":"Nightclub","checkinsCount":331,"usersCount":144,"tipCount":4,"visitsCount":332,"tier":"","message":"","currency":"","rating":6.4},{"name":"Country Inn & Suites By Carlson, Boise West at Meridian, ID","phone":"2086393300","address":"3355 E Pine Ave","lat":43.611436,"lng":-116.353316,"city_fetched":"Boise,US","state":"ID","country":"United States","canonicalUrl":"https://foursquare.com/v/country-inn--suites-by-carlson-boise-west-at-meridian-id/4bc3cd9ddce4eee12dc2719d","categoryId":"4bf58dd8d48988d1d5941735","category":"Hotel Bar","checkinsCount":145,"usersCount":95,"tipCount":0,"visitsCount":153,"url":"http://www.countryinns.com","tier":"","message":"","currency":"","rating":6.4},{"name":"Lucky Dog Tavern","phone":"2083330074","twitter":"luckydogboise","address":"2223 W Fairview Ave","lat":43.62025022506714,"lng":-116.21723976666667,"neighborhood":"Northwest","city_fetched":"Boise,US","state":"ID","country":"United States","canonicalUrl":"https://foursquare.com/v/lucky-dog-tavern/4b81d8bef964a520ecc030e3","categoryId":"4bf58dd8d48988d1d8941735","category":"Gay Bar","checkinsCount":1890,"usersCount":406,"tipCount":13,"visitsCount":2040,"url":"http://www.luckydogtavern.com","tier":1,"message":"Cheap","currency":"$","rating":6.3},{"name":"The Ranch Club","phone":"2083437447","address":"3544 W Chinden Blvd","lat":43.62405598454017,"lng":-116.24069123546136,"neighborhood":"Northwest","city_fetched":"Boise,US","state":"ID","country":"United States","canonicalUrl":"https://foursquare.com/v/the-ranch-club/4b4d3650f964a52057ce26e3","categoryId":"4bf58dd8d48988d116941735","category":"Bar","checkinsCount":892,"usersCount":320,"tipCount":6,"visitsCount":992,"tier":"","message":"","currency":"","rating":6.3},{"name":"Pinnacle Sports Grill","phone":"2088844400","address":"2092 N Eagle Rd","lat":43.63085559203799,"lng":-116.35406457482524,"city_fetched":"Boise,US","state":"ID","country":"United States","canonicalUrl":"https://foursquare.com/v/pinnacle-sports-grill/4c0ff80b7c49b71367b83606","categoryId":"4bf58dd8d48988d11d941735","category":"Sports Bar","checkinsCount":1142,"usersCount":540,"tipCount":8,"visitsCount":1329,"url":"http://www.pinnaclesportsgrill.com","tier":"","message":"","currency":"","rating":6.2},{"name":"Main Street Bistro","phone":"2083459515","twitter":"mainstbistro","address":"609 W Main St","lat":43.614530683333335,"lng":-116.201809,"neighborhood":"Downtown Boise City","city_fetched":"Boise,US","state":"ID","country":"United States","canonicalUrl":"https://foursquare.com/v/main-street-bistro/4b45c00df964a520d10f26e3","categoryId":"4bf58dd8d48988d116941735","category":"Bar","checkinsCount":2345,"usersCount":677,"tipCount":8,"visitsCount":2349,"url":"http://www.msbidaho.com","tier":"","message":"","currency":"","rating":6.2},{"name":"Egyptian Hookah Bar","address":"5165 N Glenwood St","lat":43.65143522584354,"lng":-116.28051429640473,"neighborhood":"Northwest","city_fetched":"Boise,US","state":"ID","country":"United States","canonicalUrl":"https://foursquare.com/v/egyptian-hookah-bar/4df2e2b452b100c2d7f8f740","categoryId":"4bf58dd8d48988d119941735","category":"Hookah Bar","checkinsCount":841,"usersCount":103,"tipCount":5,"visitsCount":860,"tier":"","message":"","currency":"","rating":6.2},{"name":"O'Michael's Pub and Grill","phone":"2083428948","address":"2433 N Bogus Basin Rd","lat":43.6418755,"lng":-116.2085,"city_fetched":"Boise,US","state":"ID","country":"United States","canonicalUrl":"https://foursquare.com/v/omichaels-pub-and-grill/4b3c3d63f964a5203f8325e3","categoryId":"4bf58dd8d48988d11b941735","category":"Pub","checkinsCount":511,"usersCount":181,"tipCount":12,"visitsCount":523,"url":"http://209.210.60.50/links.asp","tier":"","message":"","currency":"","rating":6.1},{"name":"Fireside Inn","address":"1610 N 31st St","lat":43.63505957885054,"lng":-116.22657145,"neighborhood":"Sunset","city_fetched":"Boise,US","state":"ID","country":"United States","canonicalUrl":"https://foursquare.com/v/fireside-inn/4b9c73a4f964a520ba6936e3","categoryId":"4bf58dd8d48988d118941735","category":"Dive Bar","checkinsCount":361,"usersCount":94,"tipCount":5,"visitsCount":368,"tier":"","message":"","currency":"","rating":6},{"name":"The Torch Lounge","phone":"2083440218","address":"1826 W Main St","lat":43.62191049,"lng":-116.21605861,"neighborhood":"Northwest","city_fetched":"Boise,US","state":"ID","country":"United States","canonicalUrl":"https://foursquare.com/v/the-torch-lounge/4b63b517f964a520598d2ae3","categoryId":"4bf58dd8d48988d1d6941735","category":"Strip Club","checkinsCount":1512,"usersCount":239,"tipCount":11,"visitsCount":1543,"tier":"","message":"","currency":"","rating":6},{"name":"Cheerleaders Sports Bar & Grill","phone":"2089399209","address":"3541 N Eagle Rd","lat":43.63722860813141,"lng":-116.35484013333334,"neighborhood":"Northeast Meridian","city_fetched":"Boise,US","state":"ID","country":"United States","canonicalUrl":"https://foursquare.com/v/cheerleaders-sports-bar--grill/4b4fdc95f964a520e11727e3","categoryId":"4bf58dd8d48988d11d941735","category":"Sports Bar","checkinsCount":1007,"usersCount":488,"tipCount":12,"visitsCount":1053,"tier":2,"message":"Moderate","currency":"$","rating":5.9},{"name":"10th Street Station","phone":"2083442677","address":"104 N 10th St","lat":43.61701794233042,"lng":-116.2054912452711,"neighborhood":"Downtown Boise City","city_fetched":"Boise,US","state":"ID","country":"United States","canonicalUrl":"https://foursquare.com/v/10th-street-station/4b47dec4f964a5203b4226e3","categoryId":"4bf58dd8d48988d116941735","category":"Bar","checkinsCount":768,"usersCount":278,"tipCount":9,"visitsCount":794,"tier":"","message":"","currency":"","rating":5.8},{"name":"Dirty Little Roddy's","phone":"2083459515","twitter":"dirtylilroddys","address":"100 S 6th St","lat":43.61408295286036,"lng":-116.20137607569526,"neighborhood":"Downtown Boise City","city_fetched":"Boise,US","state":"ID","country":"United States","canonicalUrl":"https://foursquare.com/v/dirty-little-roddys/4b45bfb7f964a520d00f26e3","categoryId":"4bf58dd8d48988d116941735","category":"Bar","checkinsCount":1550,"usersCount":530,"tipCount":3,"visitsCount":1552,"url":"http://www.dirtylittleroddys.com","tier":"","message":"","currency":"","rating":5.8},{"name":"Cactus Bar","phone":"2083429732","address":"517 W Main St","lat":43.61409437950513,"lng":-116.2009449678341,"neighborhood":"Downtown Boise City","city_fetched":"Boise,US","state":"ID","country":"United States","canonicalUrl":"https://foursquare.com/v/cactus-bar/4b462f85f964a5206d1926e3","categoryId":"4bf58dd8d48988d118941735","category":"Dive Bar","checkinsCount":2005,"usersCount":667,"tipCount":11,"visitsCount":2034,"tier":1,"message":"Cheap","currency":"$","rating":5.7},{"name":"Silly Birch","twitter":"sillybirch","address":"507 W Main St","lat":43.613840493028626,"lng":-116.20050330203782,"neighborhood":"Downtown Boise City","city_fetched":"Boise,US","state":"ID","country":"United States","canonicalUrl":"https://foursquare.com/v/silly-birch/500a0ea0e4b0a62ff420942c","categoryId":"4bf58dd8d48988d116941735","category":"Bar","checkinsCount":807,"usersCount":202,"tipCount":6,"visitsCount":829,"url":"http://www.tiatoboise.com","tier":"","message":"","currency":"","rating":5.7},{"name":"Busters Sports Bar","phone":"2083455688","address":"1326 S Broadway Ave","lat":43.59608125,"lng":-116.1932096,"neighborhood":"Southeast Boise","city_fetched":"Boise,US","state":"ID","country":"United States","canonicalUrl":"https://foursquare.com/v/busters-sports-bar/4bba9ff7935e95213f692890","categoryId":"4bf58dd8d48988d11d941735","category":"Sports Bar","checkinsCount":1034,"usersCount":399,"tipCount":5,"visitsCount":1048,"url":"http://busterssportsbar.com","tier":"","message":"","currency":"","rating":5.6},{"name":"Gone Rogue","address":"409 S 8th St","lat":43.61329865892775,"lng":-116.20630118079006,"neighborhood":"Downtown Boise City","city_fetched":"Boise,US","state":"ID","country":"United States","canonicalUrl":"https://foursquare.com/v/gone-rogue/50b412cce4b047c32b9fc5a3","categoryId":"4bf58dd8d48988d11b941735","category":"Pub","checkinsCount":245,"usersCount":104,"tipCount":2,"visitsCount":248,"tier":"","message":"","currency":"","rating":5.5},{"name":"Vista Bar","phone":"2083429911","address":"813 S Vista Ave","lat":43.59646439552307,"lng":-116.21418451666666,"neighborhood":"Depot Bench","city_fetched":"Boise,US","state":"ID","country":"United States","canonicalUrl":"https://foursquare.com/v/vista-bar/4b4be944f964a52013ab26e3","categoryId":"4bf58dd8d48988d118941735","category":"Dive Bar","checkinsCount":309,"usersCount":130,"tipCount":2,"visitsCount":310,"tier":"","message":"","currency":"","rating":5.2}]