[{"name":"Appalachian Mountain Brewery","address":"Appalachian State Blvd","lat":36.203407128249296,"lng":-81.66846966169912,"city_fetched":"Boone","state":"NC","country":"United States","canonicalUrl":"https://foursquare.com/v/appalachian-mountain-brewery/502fe2a8e4b003c0ecd278ac","category":"Brewery","checkinsCount":1600,"usersCount":1053,"tipCount":25,"visitsCount":2237,"url":"http://appalachianmountainbrewery.com","tier":1,"message":"Cheap","currency":"$","rating":9.2},{"name":"Lost Province Brewing Company","phone":"8282653506","twitter":"lost_province","address":"130 N Depot St","lat":36.21916232998392,"lng":-81.68341636627999,"neighborhood":"Downtown Boone","city_fetched":"Boone","state":"NC","country":"United States","canonicalUrl":"https://foursquare.com/v/lost-province-brewing-company/53e50644498e35f10c619132","category":"Brewery","checkinsCount":423,"usersCount":490,"tipCount":20,"visitsCount":703,"url":"http://lostprovince.com","tier":"","message":"","currency":"","rating":8.5},{"name":"COBO Sushi","phone":"8283861201","twitter":"cobosushi","address":"161 Howard St","lat":36.2188588,"lng":-81.6856079,"neighborhood":"Downtown Boone","city_fetched":"Boone","state":"NC","country":"United States","canonicalUrl":"https://foursquare.com/v/cobo-sushi/51980a02498e4697285ccb97","category":"Japanese Restaurant","checkinsCount":436,"usersCount":225,"tipCount":7,"visitsCount":460,"url":"http://www.cobosushi.com","tier":2,"message":"Moderate","currency":"$","rating":8.2},{"name":"Vidalia Restaurant and Wine Bar","phone":"8282639176","address":"831 W King St","lat":36.22016159593487,"lng":-81.6867475469058,"neighborhood":"Downtown Boone","city_fetched":"Boone","state":"NC","country":"United States","canonicalUrl":"https://foursquare.com/v/vidalia-restaurant-and-wine-bar/4bb8ba3ecf2fc9b6fac59f02","category":"Wine Bar","checkinsCount":341,"usersCount":191,"tipCount":12,"visitsCount":347,"url":"http://www.vidaliaofboonenc.com","tier":"","message":"","currency":"","rating":8.1},{"name":"The Town Tavern","phone":"8282642226","address":"208 Faculty St #A","lat":36.20859202934051,"lng":-81.67422944606753,"city_fetched":"Boone","state":"NC","country":"United States","canonicalUrl":"https://foursquare.com/v/the-town-tavern/4b64d80cf964a52071d42ae3","category":"Bar","checkinsCount":3534,"usersCount":907,"tipCount":11,"visitsCount":3691,"url":"http://towntavernboone.com","tier":"","message":"","currency":"","rating":8.1},{"name":"Cafe Portofino","phone":"8282647772","twitter":"portoboone","address":"970 Rivers St","lat":36.2180862426758,"lng":-81.685661315918,"neighborhood":"Downtown Boone","city_fetched":"Boone","state":"NC","country":"United States","canonicalUrl":"https://foursquare.com/v/cafe-portofino/4b5a3543f964a5204ab428e3","category":"American Restaurant","checkinsCount":2659,"usersCount":1079,"tipCount":22,"visitsCount":2913,"url":"http://www.cafeportofino.net","tier":2,"message":"Moderate","currency":"$","rating":8.1},{"name":"Macado's Restaurant and Bar","phone":"8282641375","address":"539 W King St","lat":36.217758614553695,"lng":-81.68236297625471,"neighborhood":"Downtown Boone","city_fetched":"Boone","state":"NC","country":"United States","canonicalUrl":"https://foursquare.com/v/macados-restaurant-and-bar/4b7f07cdf964a520821130e3","category":"Sandwich Place","checkinsCount":3559,"usersCount":2224,"tipCount":45,"visitsCount":3838,"url":"http://www.macados.net","tier":1,"message":"Cheap","currency":"$","rating":7.8},{"name":"Galileo's","phone":"8288659591","twitter":"galileosboone","address":"1087 W King St","lat":36.2207999802337,"lng":-81.69107304603178,"neighborhood":"Downtown Boone","city_fetched":"Boone","state":"NC","country":"United States","canonicalUrl":"https://foursquare.com/v/galileos/4bca82d33740b713c3126165","category":"Bar","checkinsCount":1426,"usersCount":545,"tipCount":12,"visitsCount":1656,"url":"http://www.galileosboone.com","tier":1,"message":"Cheap","currency":"$","rating":7.7},{"name":"Boone Saloon","phone":"8282641811","address":"489 W King St","lat":36.217292871059605,"lng":-81.68173200450572,"neighborhood":"Downtown Boone","city_fetched":"Boone","state":"NC","country":"United States","canonicalUrl":"https://foursquare.com/v/boone-saloon/4bba7f85cf2fc9b63aa9a102","category":"Bar","checkinsCount":2901,"usersCount":1004,"tipCount":17,"visitsCount":3032,"url":"http://www.boonesaloon.com","tier":1,"message":"Cheap","currency":"$","rating":7.5},{"name":"Klondike Cafe","phone":"8282649988","twitter":"kdikecafe","address":"441 Blowing Rock Rd","lat":36.21176633895548,"lng":-81.67517423629761,"city_fetched":"Boone","state":"NC","country":"United States","canonicalUrl":"https://foursquare.com/v/klondike-cafe/4b549307f964a520b6c027e3","category":"Bar","checkinsCount":2649,"usersCount":442,"tipCount":7,"visitsCount":2661,"tier":1,"message":"Cheap","currency":"$","rating":7.5},{"name":"Capone's Pizza and Bar","phone":"8282651886","address":"454 W King St","lat":36.2173011921646,"lng":-81.6809459559196,"neighborhood":"Downtown Boone","city_fetched":"Boone","state":"NC","country":"United States","canonicalUrl":"https://foursquare.com/v/capones-pizza-and-bar/4bc0e6d3f8219c741173b210","category":"Pizza Place","checkinsCount":917,"usersCount":528,"tipCount":7,"visitsCount":1041,"url":"http://caponesboone.com","tier":"","message":"","currency":"","rating":7.4},{"name":"TAPP Room","phone":"8283861216","address":"421 Blowing Rock Rd","lat":36.21191847071607,"lng":-81.67533108092536,"city_fetched":"Boone","state":"NC","country":"United States","canonicalUrl":"https://foursquare.com/v/tapp-room/4e6ec2891f6e63a4ea7bb7bd","category":"Bar","checkinsCount":3226,"usersCount":805,"tipCount":17,"visitsCount":3366,"url":"http://tapproom.com","tier":"","message":"","currency":"","rating":7.2},{"name":"Parthenon Cafe","phone":"8282630900","address":"Blowing Rock Rd.","lat":36.211635006215964,"lng":-81.67511182480568,"city_fetched":"Boone","state":"NC","country":"United States","canonicalUrl":"https://foursquare.com/v/parthenon-cafe/4c8a7c4be51e6dcbd86d69de","category":"Greek Restaurant","checkinsCount":1826,"usersCount":349,"tipCount":7,"visitsCount":1827,"tier":"","message":"","currency":"","rating":7},{"name":"Murphy's Pub","phone":"8282645117","address":"747 W King St","lat":36.219408409529336,"lng":-81.68571024506873,"neighborhood":"Downtown Boone","city_fetched":"Boone","state":"NC","country":"United States","canonicalUrl":"https://foursquare.com/v/murphys-pub/4d1e0a735c4ca1cd2ccd8c3d","category":"Pub","checkinsCount":1903,"usersCount":865,"tipCount":23,"visitsCount":2091,"url":"http://www.murphysboone.com","tier":2,"message":"Moderate","currency":"$","rating":6.8},{"name":"Primo's","phone":"8283559800","twitter":"eatatprimos","address":"1180 Blowing Rock Rd at Boone Mall","lat":36.20154893110181,"lng":-81.66835734948442,"city_fetched":"Boone","state":"NC","country":"United States","canonicalUrl":"https://foursquare.com/v/primos/4c633464de1b2d7fff43e470","category":"Italian Restaurant","checkinsCount":372,"usersCount":193,"tipCount":11,"visitsCount":382,"tier":2,"message":"Moderate","currency":"$","rating":6.4}]