[{"name":"Samuel Adams Brewery","phone":"6173685080","twitter":"samueladamsbeer","address":"30 Germania St","lat":42.31451354657694,"lng":-71.1031807831952,"neighborhood":"Jamaica Plain","city_fetched":"Boston","state":"MA","country":"United States","canonicalUrl":"https://foursquare.com/samueladamsbeer","category":"Brewery","checkinsCount":23556,"usersCount":20438,"tipCount":219,"visitsCount":25419,"url":"http://www.samueladams.com/brewery-and-craft/our-brewery","tier":1,"message":"Cheap","currency":"$","rating":9.6},{"name":"Jaho Coffee Roaster & Wine Bar","phone":"8572334094","twitter":"jahocoffee","address":"665 Washington St","lat":42.351693769391716,"lng":-71.06284914469381,"neighborhood":"Chinatown - Leather District","city_fetched":"Boston","state":"MA","country":"United States","canonicalUrl":"https://foursquare.com/v/jaho-coffee-roaster--wine-bar/55e0c3d7498ec10bc1501534","category":"Coffee Shop","checkinsCount":1100,"usersCount":734,"tipCount":25,"visitsCount":1423,"url":"http://www.jaho.com","tier":2,"message":"Moderate","currency":"$","rating":9.4},{"name":"Harpoon Brewery","phone":"6174562322","twitter":"harpoon_brewery","address":"306 Northern Ave","lat":42.34699969120303,"lng":-71.03450775146484,"neighborhood":"Seaport District","city_fetched":"Boston","state":"MA","country":"United States","canonicalUrl":"https://foursquare.com/v/harpoon-brewery/40b28c80f964a52073f81ee3","category":"Brewery","checkinsCount":28848,"usersCount":20031,"tipCount":266,"visitsCount":32653,"url":"http://www.harpoonbrewery.com","tier":2,"message":"Moderate","currency":"$","rating":9.4},{"name":"Picco","phone":"6179270066","twitter":"piccorestaurant","address":"513 Tremont St","lat":42.34484482487368,"lng":-71.07050567865372,"neighborhood":"South End","city_fetched":"Boston","state":"MA","country":"United States","canonicalUrl":"https://foursquare.com/v/picco/49fb126bf964a520146e1fe3","category":"Pizza Place","checkinsCount":7673,"usersCount":4280,"tipCount":150,"visitsCount":8399,"url":"http://www.piccorestaurant.com","tier":2,"message":"Moderate","currency":"$","rating":9.3},{"name":"Aeronaut Brewing Company","phone":"6179874236","twitter":"aeronautbrewing","address":"14 Tyler St","lat":42.381443731437365,"lng":-71.10440611839294,"city_fetched":"Boston","state":"MA","country":"United States","canonicalUrl":"https://foursquare.com/v/aeronaut-brewing-company/52a1da9d11d2623b045bd2a0","category":"Brewery","checkinsCount":2731,"usersCount":1884,"tipCount":26,"visitsCount":3354,"url":"http://www.aeronautbrewing.com","tier":2,"message":"Moderate","currency":"$","rating":9.3},{"name":"Toro Restaurant","phone":"6175364300","twitter":"tororestaurant","address":"1704 Washington St","lat":42.33705434900476,"lng":-71.07601104579051,"neighborhood":"South End","city_fetched":"Boston","state":"MA","country":"United States","canonicalUrl":"https://foursquare.com/v/toro-restaurant/43e9e7eff964a520202f1fe3","category":"Tapas Restaurant","checkinsCount":9713,"usersCount":6473,"tipCount":232,"visitsCount":10861,"url":"http://www.toro-restaurant.com","tier":3,"message":"Expensive","currency":"$","rating":9.3},{"name":"Beehive","phone":"6174230069","twitter":"bostonbeehive","address":"541 Tremont St","lat":42.34433603568153,"lng":-71.0714903172068,"neighborhood":"South End","city_fetched":"Boston","state":"MA","country":"United States","canonicalUrl":"https://foursquare.com/v/beehive/49d67623f964a520d25c1fe3","category":"American Restaurant","checkinsCount":17923,"usersCount":12110,"tipCount":230,"visitsCount":19467,"url":"http://www.beehiveboston.com","tier":2,"message":"Moderate","currency":"$","rating":9.3},{"name":"Trillium Brewing Company","phone":"6174538745","twitter":"trilliumbrewing","address":"369 Congress St","lat":42.349784376011634,"lng":-71.04776002495406,"neighborhood":"Seaport District","city_fetched":"Boston","state":"MA","country":"United States","canonicalUrl":"https://foursquare.com/v/trillium-brewing-company/4e3d729daeb73139a178d4fa","category":"Brewery","checkinsCount":2615,"usersCount":1517,"tipCount":36,"visitsCount":3064,"url":"http://www.trilliumbrewing.com","tier":2,"message":"Moderate","currency":"$","rating":9.2},{"name":"Backbar","phone":"6177180249","twitter":"backbarunion","address":"7 Sanborn Ct","lat":42.37991557410913,"lng":-71.09427915202252,"city_fetched":"Boston","state":"MA","country":"United States","canonicalUrl":"https://foursquare.com/v/backbar/4ee6ab65d3e34ebcf1f3049b","category":"Cocktail Bar","checkinsCount":4184,"usersCount":2167,"tipCount":61,"visitsCount":4417,"url":"http://www.backbarunion.com","tier":3,"message":"Expensive","currency":"$","rating":9.2},{"name":"Gyu-Kaku Japanese BBQ","phone":"6172646190","twitter":"gyukakujbbq","address":"1002 Beacon St","lat":42.34630150484215,"lng":-71.10701062926266,"neighborhood":"Coolidge Corner","city_fetched":"Boston","state":"MA","country":"United States","canonicalUrl":"https://foursquare.com/v/gyukaku-japanese-bbq/51703b83e4b06748d3b28952","category":"Japanese Restaurant","checkinsCount":2355,"usersCount":1514,"tipCount":19,"visitsCount":2736,"url":"http://www.gyu-kaku.com","tier":3,"message":"Expensive","currency":"$","rating":9.2},{"name":"Brewer's Fork","address":"7 Moulton St","lat":42.37660882862164,"lng":-71.05655240640417,"neighborhood":"Thompson Square - Bunker Hill","city_fetched":"Boston","state":"MA","country":"United States","canonicalUrl":"https://foursquare.com/v/brewers-fork/54ebdb95498e4a516b5f74f3","category":"Gastropub","checkinsCount":940,"usersCount":826,"tipCount":12,"visitsCount":1577,"url":"http://brewersfork.com","tier":"","message":"","currency":"","rating":9.1},{"name":"Barcelona Wine Bar - South End","phone":"6172662600","twitter":"barcelonawineba","address":"525 Tremont St","lat":42.34455926588533,"lng":-71.07095641527168,"neighborhood":"South End","city_fetched":"Boston","state":"MA","country":"United States","canonicalUrl":"https://foursquare.com/v/barcelona-wine-bar--south-end/546cfcc8498e75b35e1f1f58","category":"Wine Bar","checkinsCount":1669,"usersCount":1652,"tipCount":19,"visitsCount":2334,"url":"http://barcelonawinebar.com","tier":"","message":"","currency":"","rating":9.1},{"name":"The Publick House","phone":"6172772880","twitter":"thepublickhouse","address":"1648 Beacon St","lat":42.3393373883933,"lng":-71.136654317379,"neighborhood":"Washington Square","city_fetched":"Boston","state":"MA","country":"United States","canonicalUrl":"https://foursquare.com/v/the-publick-house/49c2f987f964a52049561fe3","category":"Gastropub","checkinsCount":13044,"usersCount":6115,"tipCount":142,"visitsCount":13533,"url":"http://www.thepublickhousebeerbar.com","tier":2,"message":"Moderate","currency":"$","rating":9.1},{"name":"Posto","phone":"6176250600","twitter":"pizzeriaposto","address":"187 Elm St","lat":42.393127,"lng":-71.12042837,"neighborhood":"Davis Square","city_fetched":"Boston","state":"MA","country":"United States","canonicalUrl":"https://foursquare.com/v/posto/4bb5ea84941ad13ac7a21ee3","category":"Wine Bar","checkinsCount":4178,"usersCount":2824,"tipCount":84,"visitsCount":5177,"url":"http://www.postoboston.com","tier":2,"message":"Moderate","currency":"$","rating":9.1},{"name":"The Druid","phone":"6174970965","address":"1357 Cambridge St","lat":42.37366871829149,"lng":-71.10029697418213,"neighborhood":"Inman Square","city_fetched":"Boston","state":"MA","country":"United States","canonicalUrl":"https://foursquare.com/v/the-druid/40b28c80f964a52049f81ee3","category":"Pub","checkinsCount":5225,"usersCount":2694,"tipCount":68,"visitsCount":5278,"url":"http://druidpub.com","tier":2,"message":"Moderate","currency":"$","rating":9},{"name":"The Gallows","phone":"6174250200","twitter":"segallows","address":"1395 Washington St","lat":42.3412054749113,"lng":-71.07017877424695,"neighborhood":"South End","city_fetched":"Boston","state":"MA","country":"United States","canonicalUrl":"https://foursquare.com/v/the-gallows/4bcc74e70687ef3ba63adfcc","category":"Gastropub","checkinsCount":9099,"usersCount":5241,"tipCount":156,"visitsCount":10335,"url":"http://www.thegallowsboston.com","tier":3,"message":"Expensive","currency":"$","rating":9},{"name":"Deep Ellum","phone":"6177872337","address":"477 Cambridge St","lat":42.35387018847631,"lng":-71.1369788646698,"neighborhood":"Allston","city_fetched":"Boston","state":"MA","country":"United States","canonicalUrl":"https://foursquare.com/v/deep-ellum/49ce55f6f964a520335a1fe3","category":"Gastropub","checkinsCount":16223,"usersCount":6168,"tipCount":186,"visitsCount":16749,"url":"http://www.deepellum-boston.com","tier":2,"message":"Moderate","currency":"$","rating":9},{"name":"Drink","phone":"6176951806","twitter":"drinkboston","address":"348 Congress St","lat":42.35039340633491,"lng":-71.04862689971924,"neighborhood":"Seaport District","city_fetched":"Boston","state":"MA","country":"United States","canonicalUrl":"https://foursquare.com/v/drink/49c01e77f964a5204a551fe3","category":"Cocktail Bar","checkinsCount":12849,"usersCount":7603,"tipCount":220,"visitsCount":13091,"url":"http://www.drinkfortpoint.com","tier":3,"message":"Expensive","currency":"$","rating":9},{"name":"Cuchi Cuchi","phone":"6178642929","twitter":"soycuchicuchi","address":"795 Main St","lat":42.36335522879942,"lng":-71.09711678586824,"city_fetched":"Boston","state":"MA","country":"United States","canonicalUrl":"https://foursquare.com/v/cuchi-cuchi/42fbe680f964a520e7261fe3","category":"Lounge","checkinsCount":4430,"usersCount":3719,"tipCount":74,"visitsCount":5167,"url":"http://www.cuchicuchi.cc","tier":3,"message":"Expensive","currency":"$","rating":9},{"name":"The Butcher Shop","phone":"6174234800","address":"552 Tremont St","lat":42.344052,"lng":-71.071546,"neighborhood":"South End","city_fetched":"Boston","state":"MA","country":"United States","canonicalUrl":"https://foursquare.com/v/the-butcher-shop/49cf773ef964a520aa5a1fe3","category":"Gastropub","checkinsCount":3849,"usersCount":2381,"tipCount":63,"visitsCount":3885,"url":"http://www.thebutchershopboston.com","tier":3,"message":"Expensive","currency":"$","rating":9},{"name":"The Lower Depths","phone":"6172666662","twitter":"lowerdepthsbos","address":"476 Commonwealth Ave","lat":42.348729,"lng":-71.093918,"neighborhood":"Kenmore","city_fetched":"Boston","state":"MA","country":"United States","canonicalUrl":"https://foursquare.com/v/the-lower-depths/48a093dff964a52088511fe3","category":"Bar","checkinsCount":9752,"usersCount":4587,"tipCount":114,"visitsCount":10536,"url":"http://thelowerdepths.com","tier":1,"message":"Cheap","currency":"$","rating":8.9},{"name":"Harvest","phone":"6178682255","twitter":"dineatharvest","address":"44 Brattle St","lat":42.37360135042072,"lng":-71.12188865478788,"neighborhood":"Harvard Square","city_fetched":"Boston","state":"MA","country":"United States","canonicalUrl":"https://foursquare.com/v/harvest/49cf65d9f964a520a75a1fe3","category":"American Restaurant","checkinsCount":2745,"usersCount":2017,"tipCount":37,"visitsCount":2868,"url":"http://www.harvestcambridge.com","tier":3,"message":"Expensive","currency":"$","rating":8.9},{"name":"Green Street","phone":"6178761655","address":"280 Green St","lat":42.3646499126496,"lng":-71.10418467060916,"city_fetched":"Boston","state":"MA","country":"United States","canonicalUrl":"https://foursquare.com/v/green-street/40b28c80f964a5204af81ee3","category":"Cocktail Bar","checkinsCount":8570,"usersCount":4654,"tipCount":99,"visitsCount":9604,"url":"http://greenstreetgrill.com","tier":3,"message":"Expensive","currency":"$","rating":8.9},{"name":"Russell House Tavern","phone":"6175006055","twitter":"russellhousetav","address":"14 JFK St","lat":42.373137668004134,"lng":-71.11951231956482,"neighborhood":"Harvard Square","city_fetched":"Boston","state":"MA","country":"United States","canonicalUrl":"https://foursquare.com/v/russell-house-tavern/4b96aba8f964a520e2dc34e3","category":"Gastropub","checkinsCount":20802,"usersCount":11946,"tipCount":248,"visitsCount":21931,"url":"http://www.russellhousecambridge.com","tier":3,"message":"Expensive","currency":"$","rating":8.9},{"name":"House of Blues","phone":"8886932583","twitter":"hobboston","address":"15 Lansdowne St","lat":42.34720973424667,"lng":-71.09595039890698,"neighborhood":"Fenway - Kenmore - Audubon Circle - Longwood","city_fetched":"Boston","state":"MA","country":"United States","canonicalUrl":"https://foursquare.com/hobboston","category":"Music Venue","checkinsCount":39556,"usersCount":20216,"tipCount":142,"visitsCount":41000,"url":"http://www.houseofblues.com/boston","tier":"","message":"","currency":"","rating":8.9},{"name":"The Haven","phone":"6175242836","twitter":"thehavenjp","address":"2 Perkins St","lat":42.321804863563216,"lng":-71.11045165685418,"neighborhood":"Jamaica Hills - Pond","city_fetched":"Boston","state":"MA","country":"United States","canonicalUrl":"https://foursquare.com/v/the-haven/4bd386b0a8b3a59349406a5f","category":"Gastropub","checkinsCount":3492,"usersCount":1746,"tipCount":79,"visitsCount":3713,"url":"http://www.thehavenjp.com","tier":2,"message":"Moderate","currency":"$","rating":8.9},{"name":"Brick & Mortar","phone":"6174910061","twitter":"brickmortarltd","address":"569 Massachusetts Ave","lat":42.364852947590535,"lng":-71.10243802095619,"city_fetched":"Boston","state":"MA","country":"United States","canonicalUrl":"https://foursquare.com/v/brick--mortar/4edec0d0be7b760697a558f7","category":"Cocktail Bar","checkinsCount":7986,"usersCount":3732,"tipCount":94,"visitsCount":8213,"url":"http://brickandmortarbar.com","tier":2,"message":"Moderate","currency":"$","rating":8.9},{"name":"Wink & Nod","phone":"6174820117","twitter":"wink_and_nod","address":"3 Appleton St","lat":42.3466346273556,"lng":-71.0694011317407,"neighborhood":"South End","city_fetched":"Boston","state":"MA","country":"United States","canonicalUrl":"https://foursquare.com/v/wink--nod/5327ab0e498ec1898d83d2f5","category":"Cocktail Bar","checkinsCount":1487,"usersCount":1456,"tipCount":33,"visitsCount":1950,"url":"http://winkandnod.com","tier":3,"message":"Expensive","currency":"$","rating":8.9},{"name":"Trina's Starlite Lounge","phone":"6175760006","twitter":"trinastarlite","address":"3 Beacon St","lat":42.37446879403717,"lng":-71.10163142603781,"neighborhood":"Inman Square","city_fetched":"Boston","state":"MA","country":"United States","canonicalUrl":"https://foursquare.com/v/trinas-starlite-lounge/4abd2eb7f964a520e28820e3","category":"Bar","checkinsCount":11371,"usersCount":3705,"tipCount":125,"visitsCount":12208,"url":"http://trinastarlitelounge.com","tier":2,"message":"Moderate","currency":"$","rating":8.9},{"name":"Total Wine & More","phone":"6173154855","twitter":"totalwine","address":"11 Mystic View Rd","lat":42.399161774233136,"lng":-71.06837868690491,"city_fetched":"Boston","state":"MA","country":"United States","canonicalUrl":"https://foursquare.com/v/total-wine--more/57375cf1cd1055b342cbabf4","category":"Wine Shop","checkinsCount":296,"usersCount":288,"tipCount":5,"visitsCount":500,"url":"http://www.totalwine.com","tier":"","message":"","currency":"","rating":8.9},{"name":"The Abbey","phone":"6177308040","twitter":"abbeybrookline","address":"1657 Beacon St","lat":42.33886526964078,"lng":-71.13670810406235,"neighborhood":"Washington Square","city_fetched":"Boston","state":"MA","country":"United States","canonicalUrl":"https://foursquare.com/v/the-abbey/4c7eb9a3fb74236ab007f8b9","category":"Bar","checkinsCount":5036,"usersCount":2116,"tipCount":55,"visitsCount":5141,"url":"http://abbeyrestaurant.com","tier":2,"message":"Moderate","currency":"$","rating":8.8},{"name":"JM Curley","phone":"6173385333","twitter":"jmcurleybar","address":"21 Temple Pl","lat":42.35537291832595,"lng":-71.06230942806134,"neighborhood":"Downtown Boston","city_fetched":"Boston","state":"MA","country":"United States","canonicalUrl":"https://foursquare.com/v/jm-curley/4ed578ef8b81e3224623faeb","category":"Gastropub","checkinsCount":9761,"usersCount":5276,"tipCount":156,"visitsCount":11027,"url":"http://jmcurleyboston.com","tier":2,"message":"Moderate","currency":"$","rating":8.8},{"name":"Anchovies","phone":"6172665088","address":"433 Columbus Ave","lat":42.343933,"lng":-71.077814,"neighborhood":"South End","city_fetched":"Boston","state":"MA","country":"United States","canonicalUrl":"https://foursquare.com/v/anchovies/40b28c80f964a520fdf71ee3","category":"Bar","checkinsCount":5033,"usersCount":1966,"tipCount":47,"visitsCount":5425,"url":"http://anchoviesboston.com","tier":2,"message":"Moderate","currency":"$","rating":8.8},{"name":"Sonsie","phone":"6173512500","twitter":"sonsie_boston","address":"327 Newbury St","lat":42.348686,"lng":-71.086074,"neighborhood":"Back Bay West","city_fetched":"Boston","state":"MA","country":"United States","canonicalUrl":"https://foursquare.com/v/sonsie/3fd66200f964a520e4eb1ee3","category":"Wine Bar","checkinsCount":10960,"usersCount":8019,"tipCount":106,"visitsCount":12270,"url":"http://www.sonsieboston.com","tier":3,"message":"Expensive","currency":"$","rating":8.8},{"name":"Oberon","phone":"6174952668","twitter":"americanrep","address":"2 Arrow St","lat":42.370888135128915,"lng":-71.11431624969478,"city_fetched":"Boston","state":"MA","country":"United States","canonicalUrl":"https://foursquare.com/v/oberon/4aa31c34f964a520604320e3","category":"Nightclub","checkinsCount":4404,"usersCount":2669,"tipCount":29,"visitsCount":4626,"url":"http://americanrepertorytheater.org/oberon","tier":2,"message":"Moderate","currency":"$","rating":8.8},{"name":"The Hawthorne","phone":"6175329150","twitter":"bar500a","address":"500A Commonwealth Ave","lat":42.3488,"lng":-71.095484,"neighborhood":"Kenmore","city_fetched":"Boston","state":"MA","country":"United States","canonicalUrl":"https://foursquare.com/v/the-hawthorne/4ec2a66f29c276d58354e98d","category":"Cocktail Bar","checkinsCount":6508,"usersCount":3236,"tipCount":99,"visitsCount":6551,"url":"http://www.thehawthornebar.com","tier":3,"message":"Expensive","currency":"$","rating":8.8},{"name":"Lord Hobo","phone":"6172508454","twitter":"lordhobo","address":"92 Hampshire St","lat":42.368748,"lng":-71.094817,"city_fetched":"Boston","state":"MA","country":"United States","canonicalUrl":"https://foursquare.com/v/lord-hobo/4afd89c6f964a520692822e3","category":"Gastropub","checkinsCount":12173,"usersCount":6217,"tipCount":106,"visitsCount":14268,"url":"http://lordhobo.com","tier":2,"message":"Moderate","currency":"$","rating":8.8},{"name":"Five Horses Tavern","phone":"6177641655","twitter":"5horsestavern","address":"400 Highland Ave","lat":42.395832,"lng":-71.120845,"neighborhood":"Davis Square","city_fetched":"Boston","state":"MA","country":"United States","canonicalUrl":"https://foursquare.com/v/five-horses-tavern/4e5d79ae7d8bcd38b7e2e945","category":"Gastropub","checkinsCount":12749,"usersCount":5882,"tipCount":123,"visitsCount":14685,"url":"http://fivehorsestavern.com","tier":2,"message":"Moderate","currency":"$","rating":8.7},{"name":"Sportello","phone":"6177371234","address":"348 Congress St","lat":42.350541984483044,"lng":-71.04872922737755,"neighborhood":"Seaport District","city_fetched":"Boston","state":"MA","country":"United States","canonicalUrl":"https://foursquare.com/v/sportello/4a4c06ddf964a520f6ac1fe3","category":"Italian Restaurant","checkinsCount":5886,"usersCount":3191,"tipCount":103,"visitsCount":5904,"url":"http://www.sportelloboston.com","tier":3,"message":"Expensive","currency":"$","rating":8.7},{"name":"O Ya","phone":"6176549900","address":"9 East St","lat":42.35152301458727,"lng":-71.05677293896478,"neighborhood":"Downtown Boston","city_fetched":"Boston","state":"MA","country":"United States","canonicalUrl":"https://foursquare.com/v/o-ya/4a42d407f964a52046a61fe3","category":"Sushi Restaurant","checkinsCount":1444,"usersCount":1105,"tipCount":63,"visitsCount":1487,"url":"http://www.oyarestaurantboston.com","tier":4,"message":"Very Expensive","currency":"$","rating":8.7},{"name":"Darryl's Corner Bar & Kitchen","phone":"6175361100","twitter":"dcbkboston","address":"604 Columbus Ave","lat":42.33993901292103,"lng":-71.08227266525128,"neighborhood":"Roxbury","city_fetched":"Boston","state":"MA","country":"United States","canonicalUrl":"https://foursquare.com/v/darryls-corner-bar--kitchen/4c6ee53ab3ce224b52256fc6","category":"Bar","checkinsCount":2651,"usersCount":2029,"tipCount":59,"visitsCount":3361,"url":"http://www.dcbkboston.com","tier":"","message":"","currency":"","rating":8.7},{"name":"Mystic Brewery","phone":"6174662079","address":"174 Williams St","lat":42.39181587806693,"lng":-71.04426043074731,"city_fetched":"Boston","state":"MA","country":"United States","canonicalUrl":"https://foursquare.com/v/mystic-brewery/4eda6a27f790c04545b983c0","category":"Brewery","checkinsCount":903,"usersCount":802,"tipCount":14,"visitsCount":1255,"url":"http://mystic-brewery.com","tier":"","message":"","currency":"","rating":8.7},{"name":"Harpoon Beer hall","address":"306 Northern Ave","lat":42.347267407290154,"lng":-71.03543296420406,"neighborhood":"Seaport District","city_fetched":"Boston","state":"MA","country":"United States","canonicalUrl":"https://foursquare.com/v/harpoon-beer-hall/53d033a6498ee87a0bf3a66e","category":"Brewery","checkinsCount":269,"usersCount":229,"tipCount":9,"visitsCount":274,"tier":"","message":"","currency":"","rating":8.7},{"name":"Meadhall","phone":"6177144372","twitter":"meadhall","address":"4 Cambridge Ctr","lat":42.36365726858562,"lng":-71.08726143836975,"neighborhood":"Kendall Square","city_fetched":"Boston","state":"MA","country":"United States","canonicalUrl":"https://foursquare.com/v/meadhall/4db81694f7b15ca52ce24788","category":"Bar","checkinsCount":17069,"usersCount":9099,"tipCount":179,"visitsCount":18930,"url":"http://themeadhall.com","tier":3,"message":"Expensive","currency":"$","rating":8.7},{"name":"Sunset Grill & Tap","phone":"6172541331","twitter":"sunsetgt","address":"130 Brighton Ave","lat":42.352752247580234,"lng":-71.13164395093918,"neighborhood":"Brighton","city_fetched":"Boston","state":"MA","country":"United States","canonicalUrl":"https://foursquare.com/v/sunset-grill--tap/4ad0d7a5f964a5204cda20e3","category":"Bar","checkinsCount":22397,"usersCount":10976,"tipCount":204,"visitsCount":23649,"url":"http://www.allstonsfinest.com","tier":2,"message":"Moderate","currency":"$","rating":8.7},{"name":"Warren Tavern","phone":"6172418142","twitter":"warrentavern","address":"2 Pleasant St","lat":42.374177865450235,"lng":-71.06309288745587,"neighborhood":"Thompson Square - Bunker Hill","city_fetched":"Boston","state":"MA","country":"United States","canonicalUrl":"https://foursquare.com/v/warren-tavern/44394daff964a5201c321fe3","category":"Pub","checkinsCount":6346,"usersCount":3786,"tipCount":85,"visitsCount":7198,"url":"http://warrentavern.com","tier":2,"message":"Moderate","currency":"$","rating":8.7},{"name":"Bella Luna & Milky Way","phone":"6175246060","twitter":"milkywayjp","address":"284 Amory St","lat":42.31443859184791,"lng":-71.10424269870694,"neighborhood":"Jamaica Plain","city_fetched":"Boston","state":"MA","country":"United States","canonicalUrl":"https://foursquare.com/v/bella-luna--milky-way/4a31b011f964a520119a1fe3","category":"American Restaurant","checkinsCount":5165,"usersCount":2480,"tipCount":52,"visitsCount":5393,"url":"http://www.milkywayjp.com","tier":2,"message":"Moderate","currency":"$","rating":8.7},{"name":"J.J. Foley's Cafe","phone":"6177289101","twitter":"jjfoleyscafe","address":"117 E Berkeley St","lat":42.343668243908056,"lng":-71.06538522299476,"neighborhood":"South End","city_fetched":"Boston","state":"MA","country":"United States","canonicalUrl":"https://foursquare.com/v/jj-foleys-cafe/40a2ba80f964a520fdf21ee3","category":"Pub","checkinsCount":6579,"usersCount":2535,"tipCount":38,"visitsCount":7067,"url":"http://jjfoleyscafe.com","tier":2,"message":"Moderate","currency":"$","rating":8.7},{"name":"R. F. O'Sullivan & Son Pub","phone":"6174919638","address":"282 Beacon St","lat":42.383174,"lng":-71.112317,"city_fetched":"Boston","state":"MA","country":"United States","canonicalUrl":"https://foursquare.com/v/r-f-osullivan--son-pub/49d2cbfdf964a520da5b1fe3","category":"Pub","checkinsCount":3338,"usersCount":1920,"tipCount":74,"visitsCount":3784,"url":"http://www.rf-osullivan.com","tier":2,"message":"Moderate","currency":"$","rating":8.6},{"name":"Cambridge Common","phone":"6175471228","address":"1667 Massachusetts Ave","lat":42.382089624489545,"lng":-71.11947476863861,"neighborhood":"Aggasiz - Harvard University","city_fetched":"Boston","state":"MA","country":"United States","canonicalUrl":"https://foursquare.com/v/cambridge-common/40b28c80f964a5202cf81ee3","category":"Pub","checkinsCount":11866,"usersCount":5226,"tipCount":108,"visitsCount":12803,"url":"http://cambridgecommonrestaurant.com","tier":2,"message":"Moderate","currency":"$","rating":8.6},{"name":"Bull McCabe's","phone":"6174406045","twitter":"bullmccabesma","address":"366A Somerville Ave","lat":42.380979,"lng":-71.099457,"city_fetched":"Boston","state":"MA","country":"United States","canonicalUrl":"https://foursquare.com/v/bull-mccabes/4a904aa2f964a5201a1720e3","category":"Pub","checkinsCount":2171,"usersCount":1120,"tipCount":34,"visitsCount":2462,"url":"http://bullmccabesboston.com","tier":"","message":"","currency":"","rating":8.6},{"name":"Bleacher Bar","phone":"6172622424","twitter":"bleacherbar","address":"82A Lansdowne St","lat":42.34693825360386,"lng":-71.09677441392516,"neighborhood":"Fenway - Kenmore - Audubon Circle - Longwood","city_fetched":"Boston","state":"MA","country":"United States","canonicalUrl":"https://foursquare.com/v/bleacher-bar/4a5d25abf964a52047bd1fe3","category":"Sports Bar","checkinsCount":12096,"usersCount":8727,"tipCount":85,"visitsCount":12110,"url":"http://bleacherbarboston.com","tier":2,"message":"Moderate","currency":"$","rating":8.6},{"name":"Brendan Behan Pub","phone":"6175225386","address":"378 Centre St","lat":42.32210589637807,"lng":-71.10932592762688,"neighborhood":"Hyde Square","city_fetched":"Boston","state":"MA","country":"United States","canonicalUrl":"https://foursquare.com/v/brendan-behan-pub/40a2ba80f964a52005f31ee3","category":"Pub","checkinsCount":3447,"usersCount":1228,"tipCount":38,"visitsCount":3647,"url":"http://www.brendanbehanpub.com","tier":1,"message":"Cheap","currency":"$","rating":8.6},{"name":"Stars On Hingham Harbor","phone":"7817493200","address":"4 Otis St","lat":42.24509902562634,"lng":-70.88471068779444,"city_fetched":"Boston","state":"MA","country":"United States","canonicalUrl":"https://foursquare.com/v/stars-on-hingham-harbor/4a4d4548f964a520cbad1fe3","category":"American Restaurant","checkinsCount":2285,"usersCount":1167,"tipCount":36,"visitsCount":2615,"url":"http://www.eatwellinc.com/stars/stars-menus-dinner.html","tier":2,"message":"Moderate","currency":"$","rating":8.6},{"name":"Deuxave","phone":"6175175915","address":"371 Commonwealth Ave","lat":42.34941738147801,"lng":-71.08879532470532,"neighborhood":"Back Bay West","city_fetched":"Boston","state":"MA","country":"United States","canonicalUrl":"https://foursquare.com/v/deuxave/4c65d0d09cb82d7f0c018fd2","category":"New American Restaurant","checkinsCount":2134,"usersCount":1643,"tipCount":38,"visitsCount":2445,"url":"http://www.deuxave.com","tier":3,"message":"Expensive","currency":"$","rating":8.6},{"name":"Cambridge Brewing Company","phone":"6174941994","twitter":"cambridgebrewer","address":"1 Kendall Square, Building 100","lat":42.36645556205954,"lng":-71.09083414077759,"neighborhood":"Kendall Square","city_fetched":"Boston","state":"MA","country":"United States","canonicalUrl":"https://foursquare.com/v/cambridge-brewing-company/40b28c80f964a52044f81ee3","category":"Brewery","checkinsCount":15485,"usersCount":8067,"tipCount":114,"visitsCount":16195,"url":"http://cambridgebrewingcompany.com","tier":2,"message":"Moderate","currency":"$","rating":8.5},{"name":"Simpli Bar & Bites","phone":"6175222400","twitter":"simplibb","address":"3840 Washington St","lat":42.29708833418059,"lng":-71.11656767702755,"neighborhood":"Forest Hills - Woodbourne","city_fetched":"Boston","state":"MA","country":"United States","canonicalUrl":"https://foursquare.com/simplibb","category":"Bar","checkinsCount":512,"usersCount":274,"tipCount":13,"visitsCount":707,"url":"http://simplibarandbites.com","tier":2,"message":"Moderate","currency":"$","rating":8.5},{"name":"Park","phone":"6174919851","twitter":"parkcambridge","address":"59 JFK St","lat":42.37184969743746,"lng":-71.12082098334682,"neighborhood":"Harvard Square","city_fetched":"Boston","state":"MA","country":"United States","canonicalUrl":"https://foursquare.com/v/park/4f7c8902e4b032c26c6798db","category":"Gastropub","checkinsCount":7284,"usersCount":4180,"tipCount":89,"visitsCount":7830,"url":"http://www.parkcambridge.com","tier":2,"message":"Moderate","currency":"$","rating":8.5},{"name":"DeLux","phone":"6173385258","address":"100 Chandler St","lat":42.346274263837536,"lng":-71.07316165787722,"neighborhood":"South End","city_fetched":"Boston","state":"MA","country":"United States","canonicalUrl":"https://foursquare.com/v/delux/5365815411d2fc37ab971f11","category":"Dive Bar","checkinsCount":792,"usersCount":725,"tipCount":9,"visitsCount":1212,"tier":"","message":"","currency":"","rating":8.5},{"name":"Stoddard's Fine Food & Ale","phone":"6174260048","twitter":"stoddardspub","address":"48 Temple Pl","lat":42.355100081975316,"lng":-71.0618045312126,"neighborhood":"Downtown Boston","city_fetched":"Boston","state":"MA","country":"United States","canonicalUrl":"https://foursquare.com/stoddardspub","category":"Gastropub","checkinsCount":9188,"usersCount":5647,"tipCount":98,"visitsCount":10025,"url":"http://stoddardsfoodandale.com","tier":2,"message":"Moderate","currency":"$","rating":8.5},{"name":"EMC Club","address":"Fenway Park","lat":42.34636877414081,"lng":-71.09799302460456,"neighborhood":"Fenway - Kenmore - Audubon Circle - Longwood","city_fetched":"Boston","state":"MA","country":"United States","canonicalUrl":"https://foursquare.com/v/emc-club/4bcb476efb84c9b6437c1e3e","category":"Sports Bar","checkinsCount":2130,"usersCount":894,"tipCount":6,"visitsCount":2131,"tier":"","message":"","currency":"","rating":8.5},{"name":"Brass Union","phone":"6176239211","address":"70 Union Sq","lat":42.37984848022461,"lng":-71.09530639648438,"city_fetched":"Boston","state":"MA","country":"United States","canonicalUrl":"https://foursquare.com/v/brass-union/539a251f498e91468926c823","category":"Lounge","checkinsCount":1523,"usersCount":940,"tipCount":16,"visitsCount":1810,"url":"http://www.brassunion.com","tier":"","message":"","currency":"","rating":8.5},{"name":"Doyle's Cafe","phone":"6175242345","address":"3484 Washington St","lat":42.306415549446825,"lng":-71.10737040080987,"neighborhood":"Jamaica Plain","city_fetched":"Boston","state":"MA","country":"United States","canonicalUrl":"https://foursquare.com/v/doyles-cafe/4575cf5df964a520a23e1fe3","category":"Pub","checkinsCount":12580,"usersCount":9623,"tipCount":120,"visitsCount":13927,"url":"http://www.doylescafeboston.com","tier":2,"message":"Moderate","currency":"$","rating":8.4},{"name":"Downeast Cider House","twitter":"downeastcider","address":"200 Terminal St","lat":42.38269984863099,"lng":-71.05047225952148,"neighborhood":"Thompson Square - Bunker Hill","city_fetched":"Boston","state":"MA","country":"United States","canonicalUrl":"https://foursquare.com/v/downeast-cider-house/521aa6b2498eaada1823de98","category":"Brewery","checkinsCount":937,"usersCount":1089,"tipCount":17,"visitsCount":1511,"url":"http://www.downeastcider.com","tier":"","message":"","currency":"","rating":8.4},{"name":"Telegraph Hill Kitchen & Bar","phone":"6172695200","twitter":"telegraphhillsb","address":"289 Dorchester St","lat":42.33192963121678,"lng":-71.0527975312022,"neighborhood":"D Street - West Broadway","city_fetched":"Boston","state":"MA","country":"United States","canonicalUrl":"https://foursquare.com/telegraphhillsb","category":"Bar","checkinsCount":1498,"usersCount":824,"tipCount":18,"visitsCount":2067,"url":"http://www.telegraphhillboston.com","tier":"","message":"","currency":"","rating":8.4},{"name":"The Kirkland Tap & Trotter","phone":"8572596585","twitter":"tapandtrotter","address":"425 Washington St","lat":42.378233980299974,"lng":-71.10686302185059,"city_fetched":"Boston","state":"MA","country":"United States","canonicalUrl":"https://foursquare.com/v/the-kirkland-tap--trotter/52268df493cd24f393bf6d33","category":"Gastropub","checkinsCount":2716,"usersCount":2061,"tipCount":57,"visitsCount":3546,"url":"http://kirklandtapandtrotter.com","tier":3,"message":"Expensive","currency":"$","rating":8.4},{"name":"Waterclub","phone":"6173286500","twitter":"waterclubmb","address":"319 Victory Rd","lat":42.29956020367389,"lng":-71.02859024213629,"neighborhood":"Marina Bay","city_fetched":"Boston","state":"MA","country":"United States","canonicalUrl":"https://foursquare.com/v/waterclub/4baf3223f964a5205cf03be3","category":"Bar","checkinsCount":4143,"usersCount":1631,"tipCount":8,"visitsCount":4216,"url":"http://thewaterclub.com","tier":2,"message":"Moderate","currency":"$","rating":8.4},{"name":"Saloon","phone":"6176284444","address":"255 Elm St","lat":42.3955646871927,"lng":-71.12201750278473,"neighborhood":"Davis Square","city_fetched":"Boston","state":"MA","country":"United States","canonicalUrl":"https://foursquare.com/v/saloon/4ebc55c7f9f48676cf6e0e86","category":"Whisky Bar","checkinsCount":6582,"usersCount":3590,"tipCount":72,"visitsCount":6605,"url":"http://www.foundryonelm.com","tier":3,"message":"Expensive","currency":"$","rating":8.4},{"name":"Post 390","phone":"6173990015","twitter":"post390","address":"406 Stuart St","lat":42.349109,"lng":-71.074126,"neighborhood":"Prudential - St. Botolph","city_fetched":"Boston","state":"MA","country":"United States","canonicalUrl":"https://foursquare.com/v/post-390/4abec83ef964a520d98f20e3","category":"American Restaurant","checkinsCount":7783,"usersCount":5278,"tipCount":68,"visitsCount":8559,"url":"http://www.post390restaurant.com","tier":3,"message":"Expensive","currency":"$","rating":8.4},{"name":"Somerville Brewing Company - Slumbrew","phone":"8004281150","twitter":"slumbrew","address":"15 Ward St","lat":42.37490478041099,"lng":-71.08906226405043,"city_fetched":"Boston","state":"MA","country":"United States","canonicalUrl":"https://foursquare.com/v/somerville-brewing-company--slumbrew/5616cfee498ed6c1f2ab1652","category":"Brewery","checkinsCount":1015,"usersCount":866,"tipCount":14,"visitsCount":1519,"url":"http://www.slumbrew.com","tier":"","message":"","currency":"","rating":8.4},{"name":"Miracle of Science Bar & Grill","phone":"6178682866","twitter":"miraclescience","address":"321 Massachusetts Ave","lat":42.3625553567826,"lng":-71.09875202178955,"city_fetched":"Boston","state":"MA","country":"United States","canonicalUrl":"https://foursquare.com/v/miracle-of-science-bar--grill/40b28c80f964a5204df81ee3","category":"Bar","checkinsCount":10012,"usersCount":5697,"tipCount":89,"visitsCount":10488,"url":"http://miracleofscience.us","tier":2,"message":"Moderate","currency":"$","rating":8.3},{"name":"Hopster's","phone":"6179160752","twitter":"hopstersbrew","address":"292 Centre St","lat":42.358150482177734,"lng":-71.1847915649414,"neighborhood":"Newton Corner","city_fetched":"Boston","state":"MA","country":"United States","canonicalUrl":"https://foursquare.com/v/hopsters/523b7a7511d21f3a2a642a3f","category":"Brewery","checkinsCount":989,"usersCount":689,"tipCount":25,"visitsCount":1105,"url":"http://www.hopsters.net","tier":"","message":"","currency":"","rating":8.3},{"name":"Aquitaine","phone":"6174248577","twitter":"aquitaineboston","address":"569 Tremont St","lat":42.34372926102444,"lng":-71.07237241452523,"neighborhood":"South End","city_fetched":"Boston","state":"MA","country":"United States","canonicalUrl":"https://foursquare.com/v/aquitaine/4a4ec7f4f964a5200eaf1fe3","category":"Wine Bar","checkinsCount":5052,"usersCount":3385,"tipCount":65,"visitsCount":5169,"url":"http://www.aquitaineboston.com","tier":3,"message":"Expensive","currency":"$","rating":8.3},{"name":"Lucky's Lounge","phone":"6173575825","twitter":"luckyslounge","address":"355 Congress St","lat":42.35023964938393,"lng":-71.04852610131019,"neighborhood":"Seaport District","city_fetched":"Boston","state":"MA","country":"United States","canonicalUrl":"https://foursquare.com/v/luckys-lounge/45016cecf964a520c2381fe3","category":"Bar","checkinsCount":9964,"usersCount":6061,"tipCount":89,"visitsCount":10289,"url":"http://www.luckyslounge.com","tier":2,"message":"Moderate","currency":"$","rating":8.3},{"name":"Donohue's Bar and Grill","phone":"6179244900","twitter":"donohues","address":"87 Bigelow Ave","lat":42.36832193327475,"lng":-71.15752635104671,"neighborhood":"East Watertown","city_fetched":"Boston","state":"MA","country":"United States","canonicalUrl":"https://foursquare.com/v/donohues-bar-and-grill/49e8971bf964a52056651fe3","category":"Sports Bar","checkinsCount":3510,"usersCount":1242,"tipCount":36,"visitsCount":4176,"url":"http://www.donohuesbar.com","tier":2,"message":"Moderate","currency":"$","rating":8.3},{"name":"Bukowski Tavern","phone":"6174379999","twitter":"bukowskiboston","address":"50 Dalton St","lat":42.34761695357469,"lng":-71.08566167577462,"neighborhood":"Fenway - Kenmore - Audubon Circle - Longwood","city_fetched":"Boston","state":"MA","country":"United States","canonicalUrl":"https://foursquare.com/v/bukowski-tavern/40b28c80f964a520f2f71ee3","category":"Bar","checkinsCount":14805,"usersCount":6677,"tipCount":136,"visitsCount":15457,"url":"http://www.bukowskitavern.net","tier":2,"message":"Moderate","currency":"$","rating":8.3},{"name":"Lizard Lounge","phone":"6175470759","address":"1667 Massachusetts Ave","lat":42.382121437444916,"lng":-71.1195850340483,"neighborhood":"Aggasiz - Harvard University","city_fetched":"Boston","state":"MA","country":"United States","canonicalUrl":"https://foursquare.com/v/lizard-lounge/40b28c80f964a52039f81ee3","category":"Bar","checkinsCount":1934,"usersCount":963,"tipCount":16,"visitsCount":1942,"url":"http://lizardloungeclub.com","tier":"","message":"","currency":"","rating":8.3},{"name":"BU Pub","phone":"6173537782","twitter":"budiningservice","address":"225 Bay State Rd","lat":42.35095,"lng":-71.10354,"neighborhood":"Kenmore","city_fetched":"Boston","state":"MA","country":"United States","canonicalUrl":"https://foursquare.com/v/bu-pub/4448d608f964a52071321fe3","category":"Pub","checkinsCount":6948,"usersCount":1662,"tipCount":21,"visitsCount":7163,"url":"http://www.bu.edu/dining","tier":2,"message":"Moderate","currency":"$","rating":8.3},{"name":"Thornton's Fenway Grille","phone":"6174210104","twitter":"thorntonsgrille","address":"100 Peterborough St","lat":42.34315115761582,"lng":-71.09943794393189,"neighborhood":"Fenway - Kenmore - Audubon Circle - Longwood","city_fetched":"Boston","state":"MA","country":"United States","canonicalUrl":"https://foursquare.com/thorntonsgrille","category":"American Restaurant","checkinsCount":3014,"usersCount":1498,"tipCount":29,"visitsCount":3105,"url":"http://thorntonsfenwaygrille.com","tier":2,"message":"Moderate","currency":"$","rating":8.3},{"name":"Crow's Landing","address":"6 Crow Point Ln","lat":42.249602,"lng":-70.904072,"city_fetched":"Boston","state":"MA","country":"United States","canonicalUrl":"https://foursquare.com/v/crows-landing/527432cb498eb4a114828682","category":"Gastropub","checkinsCount":176,"usersCount":84,"tipCount":4,"visitsCount":248,"tier":"","message":"","currency":"","rating":8.2},{"name":"Salvatore's","phone":"4693309700","address":"225 Northern Ave","lat":42.348424542666,"lng":-71.03838708150951,"neighborhood":"Seaport District","city_fetched":"Boston","state":"MA","country":"United States","canonicalUrl":"https://foursquare.com/v/salvatores/4a60f602f964a5208fc11fe3","category":"Italian Restaurant","checkinsCount":3498,"usersCount":2169,"tipCount":21,"visitsCount":3543,"url":"http://salvatoresboston.com","tier":3,"message":"Expensive","currency":"$","rating":8.2},{"name":"Spoke","phone":"6177189463","twitter":"spokewinebar","address":"89 Holland St","lat":42.39871662414547,"lng":-71.12435473282916,"neighborhood":"Davis Square","city_fetched":"Boston","state":"MA","country":"United States","canonicalUrl":"https://foursquare.com/v/spoke/5154c2c5e4b00f047db5c179","category":"Wine Bar","checkinsCount":1133,"usersCount":714,"tipCount":23,"visitsCount":1184,"url":"http://spokewinebar.com","tier":2,"message":"Moderate","currency":"$","rating":8.2},{"name":"Boston Beer Works","phone":"6175362337","twitter":"beer_works","address":"61 Brookline Ave","lat":42.34701753247426,"lng":-71.09893709421158,"neighborhood":"Kenmore","city_fetched":"Boston","state":"MA","country":"United States","canonicalUrl":"https://foursquare.com/v/boston-beer-works/3fd66200f964a52040f11ee3","category":"Brewery","checkinsCount":18117,"usersCount":14102,"tipCount":157,"visitsCount":19637,"url":"http://www.beerworks.net","tier":2,"message":"Moderate","currency":"$","rating":8.2},{"name":"Bull and Finch Pub (Cheers Beacon Hill)","phone":"6172279605","twitter":"bullandfinchpub","address":"84 Beacon St","lat":42.35582844465323,"lng":-71.0711827433512,"neighborhood":"Beacon Hill","city_fetched":"Boston","state":"MA","country":"United States","canonicalUrl":"https://foursquare.com/bullandfinchpub","category":"Bar","checkinsCount":17505,"usersCount":16787,"tipCount":116,"visitsCount":19666,"url":"http://www.cheersboston.com","tier":1,"message":"Cheap","currency":"$","rating":8.2},{"name":"Legal on the Mystic","phone":"6173374088","twitter":"legalseafoods","address":"301 Great River Rd","lat":42.395937082423465,"lng":-71.08102798461914,"neighborhood":"Mystic River","city_fetched":"Boston","state":"MA","country":"United States","canonicalUrl":"https://foursquare.com/v/legal-on-the-mystic/53fc8572498e23e4c8c831d7","category":"Seafood Restaurant","checkinsCount":1112,"usersCount":778,"tipCount":14,"visitsCount":1346,"url":"http://www.legalonthemystic.com","tier":2,"message":"Moderate","currency":"$","rating":8.2},{"name":"Ward 8","phone":"8573504412","twitter":"ward8bos","address":"90 N Washington St","lat":42.36541020569682,"lng":-71.05849076748328,"neighborhood":"North End","city_fetched":"Boston","state":"MA","country":"United States","canonicalUrl":"https://foursquare.com/v/ward-8/529d0b3911d2e1c994c39b59","category":"Gastropub","checkinsCount":2000,"usersCount":1683,"tipCount":33,"visitsCount":2682,"url":"http://www.ward8.com","tier":3,"message":"Expensive","currency":"$","rating":8.2},{"name":"The Abbey (Cambridge)","phone":"6177144944","twitter":"abbey2cambridge","address":"1755 Massachusetts Ave","lat":42.38509609543279,"lng":-71.1192426812209,"neighborhood":"Aggasiz - Harvard University","city_fetched":"Boston","state":"MA","country":"United States","canonicalUrl":"https://foursquare.com/v/the-abbey-cambridge/53890854498e3f763f4d6334","category":"Bar","checkinsCount":960,"usersCount":677,"tipCount":11,"visitsCount":1358,"url":"http://abbeycambridge.com","tier":"","message":"","currency":"","rating":8.2},{"name":"Mr. Dooley's","phone":"6173385656","address":"77 Broad St","lat":42.35768570577897,"lng":-71.05359569191933,"neighborhood":"Financial District","city_fetched":"Boston","state":"MA","country":"United States","canonicalUrl":"https://foursquare.com/v/mr-dooleys/4bd1ddb677b29c74906f8d82","category":"Pub","checkinsCount":4471,"usersCount":3171,"tipCount":48,"visitsCount":4795,"url":"http://www.somerspubs.com","tier":2,"message":"Moderate","currency":"$","rating":8.2},{"name":"The Four's","phone":"6177204455","address":"166 Canal St","lat":42.36513585593103,"lng":-71.06085857337197,"neighborhood":"Downtown Boston","city_fetched":"Boston","state":"MA","country":"United States","canonicalUrl":"https://foursquare.com/v/the-fours/40b28c80f964a520e3f71ee3","category":"Sports Bar","checkinsCount":11222,"usersCount":6071,"tipCount":69,"visitsCount":11686,"url":"http://www.thefours.com","tier":2,"message":"Moderate","currency":"$","rating":8.2},{"name":"Metropolis","phone":"6172472931","address":"584 Tremont St","lat":42.343398,"lng":-71.072741,"neighborhood":"South End","city_fetched":"Boston","state":"MA","country":"United States","canonicalUrl":"https://foursquare.com/v/metropolis/4a820424f964a52051f81fe3","category":"Wine Bar","checkinsCount":2722,"usersCount":1554,"tipCount":32,"visitsCount":2766,"url":"http://www.metropolisboston.com","tier":2,"message":"Moderate","currency":"$","rating":8.2},{"name":"The Plough and Stars","phone":"6175760032","twitter":"ploughandstarma","address":"912 Massachusetts Ave","lat":42.36830651,"lng":-71.1088316,"city_fetched":"Boston","state":"MA","country":"United States","canonicalUrl":"https://foursquare.com/v/the-plough-and-stars/40b28c80f964a52050f81ee3","category":"Pub","checkinsCount":4847,"usersCount":2599,"tipCount":54,"visitsCount":5290,"url":"http://ploughandstars.com","tier":2,"message":"Moderate","currency":"$","rating":8.2},{"name":"Winter Hill Brewing Company","address":"328 Broadway","lat":42.39274349905896,"lng":-71.09377429483466,"neighborhood":"Winter Hill","city_fetched":"Boston","state":"MA","country":"United States","canonicalUrl":"https://foursquare.com/v/winter-hill-brewing-company/56fda0e4498e0beb2b1b7f23","category":"Brewery","checkinsCount":342,"usersCount":279,"tipCount":7,"visitsCount":503,"url":"http://winterhillbrewing.com","tier":"","message":"","currency":"","rating":8.2},{"name":"Firebrand Saints","phone":"6174013399","twitter":"firebrandsaints","address":"1 Broadway","lat":42.362404145575546,"lng":-71.08329401386581,"neighborhood":"Kendall Square","city_fetched":"Boston","state":"MA","country":"United States","canonicalUrl":"https://foursquare.com/v/firebrand-saints/4e726f6ee4cda03368a72e8d","category":"Bar","checkinsCount":5011,"usersCount":2690,"tipCount":51,"visitsCount":5602,"url":"http://firebrandsaints.com","tier":2,"message":"Moderate","currency":"$","rating":8.2},{"name":"Bantam Cidery","phone":"6172998600","twitter":"bantamcider","address":"230 Somerville Ave","lat":42.37773166226736,"lng":-71.09181869265568,"city_fetched":"Boston","state":"MA","country":"United States","canonicalUrl":"https://foursquare.com/v/bantam-cidery/531bb084498ebc415d3aa083","category":"Brewery","checkinsCount":774,"usersCount":684,"tipCount":22,"visitsCount":983,"url":"http://www.bantamcider.com/find-us/taproom","tier":1,"message":"Cheap","currency":"$","rating":8.2},{"name":"W Lounge","phone":"6172618700","address":"100 Stuart St","lat":42.35103950870976,"lng":-71.06544325663914,"neighborhood":"Downtown Boston","city_fetched":"Boston","state":"MA","country":"United States","canonicalUrl":"https://foursquare.com/v/w-lounge/4b50fd60f964a520343c27e3","category":"Hotel Bar","checkinsCount":3498,"usersCount":1820,"tipCount":20,"visitsCount":3521,"url":"http://wboston.com","tier":"","message":"","currency":"","rating":8.1},{"name":"Koreana","phone":"6175768661","address":"154 Prospect St","lat":42.36909627914429,"lng":-71.10103726387024,"city_fetched":"Boston","state":"MA","country":"United States","canonicalUrl":"https://foursquare.com/v/koreana/43a1b210f964a5202f2c1fe3","category":"Korean Restaurant","checkinsCount":3139,"usersCount":2704,"tipCount":33,"visitsCount":4096,"url":"http://www.koreanaboston.com","tier":2,"message":"Moderate","currency":"$","rating":8.1},{"name":"Marathon Sports","phone":"6177359373","address":"1638 Beacon St","lat":42.33940811,"lng":-71.136018,"neighborhood":"Washington Square","city_fetched":"Boston","state":"MA","country":"United States","canonicalUrl":"https://foursquare.com/v/marathon-sports/4b380bdaf964a520cc4a25e3","category":"Sporting Goods Shop","checkinsCount":498,"usersCount":311,"tipCount":5,"visitsCount":502,"tier":"","message":"","currency":"","rating":8.1},{"name":"Tangierino","phone":"6172426009","twitter":"tangierino","address":"83 Main St","lat":42.3737615912475,"lng":-71.06272727325836,"neighborhood":"Thompson Square - Bunker Hill","city_fetched":"Boston","state":"MA","country":"United States","canonicalUrl":"https://foursquare.com/v/tangierino/4a0c3163f964a52016751fe3","category":"Moroccan Restaurant","checkinsCount":1822,"usersCount":1461,"tipCount":29,"visitsCount":1984,"url":"http://www.tangierino.com","tier":3,"message":"Expensive","currency":"$","rating":8.1},{"name":"Kelley's Square Pub","phone":"6175674627","address":"84 Bennington St","lat":42.376184258978796,"lng":-71.03575217239573,"neighborhood":"Central Maverick Square - Paris Street","city_fetched":"Boston","state":"MA","country":"United States","canonicalUrl":"https://foursquare.com/v/kelleys-square-pub/4bcbb2310687ef3b2e4ddecc","category":"Pub","checkinsCount":1686,"usersCount":712,"tipCount":22,"visitsCount":2158,"url":"http://www.kelleyssquarepub.com","tier":1,"message":"Cheap","currency":"$","rating":8.1},{"name":"Harry's Bar and Grill","phone":"6177389990","twitter":"harrys1430comm","address":"1430 Commonwealth Ave","lat":42.348467,"lng":-71.140003,"neighborhood":"Brighton","city_fetched":"Boston","state":"MA","country":"United States","canonicalUrl":"https://foursquare.com/v/harrys-bar-and-grill/43a976d5f964a5207b2c1fe3","category":"Bar","checkinsCount":7756,"usersCount":2835,"tipCount":63,"visitsCount":9351,"url":"http://www.harrysboston.com","tier":2,"message":"Moderate","currency":"$","rating":8.1},{"name":"Buff's Pub","phone":"6173329134","address":"317 Washington St","lat":42.357061364254264,"lng":-71.18656754493713,"neighborhood":"Newton Corner","city_fetched":"Boston","state":"MA","country":"United States","canonicalUrl":"https://foursquare.com/v/buffs-pub/4a22164ff964a5205e7d1fe3","category":"Sports Bar","checkinsCount":4458,"usersCount":2173,"tipCount":71,"visitsCount":5070,"url":"http://buffspubofnewton.com","tier":2,"message":"Moderate","currency":"$","rating":8.1},{"name":"Tavern at the End of the World","phone":"6172414999","twitter":"tavernendworld","address":"108 Cambridge St","lat":42.382176799730004,"lng":-71.07933819293976,"neighborhood":"Charlestown","city_fetched":"Boston","state":"MA","country":"United States","canonicalUrl":"https://foursquare.com/v/tavern-at-the-end-of-the-world/4a7dfc6af964a52082f01fe3","category":"Pub","checkinsCount":3155,"usersCount":1904,"tipCount":32,"visitsCount":3782,"url":"http://tavernattheendoftheworld.com","tier":2,"message":"Moderate","currency":"$","rating":8.1},{"name":"Thirsty Scholar Pub","phone":"6174972294","address":"70 Beacon Street","lat":42.37639054656029,"lng":-71.10414728522301,"city_fetched":"Boston","state":"MA","country":"United States","canonicalUrl":"https://foursquare.com/v/thirsty-scholar-pub/40b28c80f964a52062f81ee3","category":"Pub","checkinsCount":4408,"usersCount":2567,"tipCount":26,"visitsCount":5080,"url":"http://www.thirstyscholarpub.com","tier":2,"message":"Moderate","currency":"$","rating":8.1},{"name":"The Corrib Pub and Restaurant","phone":"6177870882","address":"396 Market St","lat":42.349872,"lng":-71.152783,"neighborhood":"Brighton","city_fetched":"Boston","state":"MA","country":"United States","canonicalUrl":"https://foursquare.com/v/the-corrib-pub-and-restaurant/43a6baf0f964a520612c1fe3","category":"Pub","checkinsCount":904,"usersCount":531,"tipCount":8,"visitsCount":928,"url":"http://www.corribpub.com","tier":"","message":"","currency":"","rating":8.1},{"name":"The Fours","phone":"6174714447","address":"15 Cottage Ave","lat":42.248585551587475,"lng":-71.00096864419159,"neighborhood":"Quincy Center","city_fetched":"Boston","state":"MA","country":"United States","canonicalUrl":"https://foursquare.com/v/the-fours/4a95c3d5f964a5208e2420e3","category":"Sports Bar","checkinsCount":5255,"usersCount":2459,"tipCount":45,"visitsCount":5855,"url":"http://www.thefours.com/quincy/","tier":2,"message":"Moderate","currency":"$","rating":8.1},{"name":"Pour House Bar & Grill","phone":"6172361767","twitter":"pourboston","address":"907 Boylston St","lat":42.348246585636474,"lng":-71.08428418636322,"neighborhood":"Back Bay West","city_fetched":"Boston","state":"MA","country":"United States","canonicalUrl":"https://foursquare.com/pourboston","category":"Bar","checkinsCount":27391,"usersCount":12965,"tipCount":168,"visitsCount":27758,"url":"http://www.pourhouseboston.com","tier":2,"message":"Moderate","currency":"$","rating":8.1},{"name":"Parlor Sports","phone":"6175760231","address":"1 Beacon St","lat":42.3743877172212,"lng":-71.10159080610718,"neighborhood":"Inman Square","city_fetched":"Boston","state":"MA","country":"United States","canonicalUrl":"https://foursquare.com/v/parlor-sports/4eb014ee0cd6528d8349a0f1","category":"Sports Bar","checkinsCount":2716,"usersCount":766,"tipCount":25,"visitsCount":2766,"url":"http://parlorsportsbar.com/#!/","tier":2,"message":"Moderate","currency":"$","rating":8.1},{"name":"Boston Beer Works","phone":"6178962337","twitter":"beer_works","address":"112 Canal St","lat":42.36461792255766,"lng":-71.06023180255647,"neighborhood":"Downtown Boston","city_fetched":"Boston","state":"MA","country":"United States","canonicalUrl":"https://foursquare.com/v/boston-beer-works/4420e943f964a52089311fe3","category":"Brewery","checkinsCount":14566,"usersCount":9103,"tipCount":118,"visitsCount":15520,"url":"http://www.beerworks.net","tier":2,"message":"Moderate","currency":"$","rating":8},{"name":"Olde Magoun's Saloon","phone":"6177762600","twitter":"magounssaloon","address":"518 Medford St","lat":42.39671052907866,"lng":-71.10399898064013,"neighborhood":"Magoun Square","city_fetched":"Boston","state":"MA","country":"United States","canonicalUrl":"https://foursquare.com/magounssaloon","category":"Bar","checkinsCount":7609,"usersCount":2612,"tipCount":58,"visitsCount":8539,"url":"http://www.magounssaloon.com","tier":2,"message":"Moderate","currency":"$","rating":8},{"name":"Irish Village","phone":"6177875427","address":"224 Market St","lat":42.355008,"lng":-71.149633,"neighborhood":"Brighton","city_fetched":"Boston","state":"MA","country":"United States","canonicalUrl":"https://foursquare.com/v/irish-village/49bfeff8f964a52036551fe3","category":"Pub","checkinsCount":1153,"usersCount":537,"tipCount":5,"visitsCount":1317,"url":"http://irishvillageboston.com","tier":"","message":"","currency":"","rating":8},{"name":"The Banshee Bar","phone":"6174369747","twitter":"bansheeboston","address":"934 Dorchester Ave","lat":42.31903421544646,"lng":-71.05656623840332,"neighborhood":"Dorchester","city_fetched":"Boston","state":"MA","country":"United States","canonicalUrl":"https://foursquare.com/bansheeboston","category":"Pub","checkinsCount":4761,"usersCount":1811,"tipCount":37,"visitsCount":5730,"url":"http://www.bansheeboston.com","tier":1,"message":"Cheap","currency":"$","rating":8},{"name":"Navy Yard Bistro","phone":"6172420036","address":"1 1st Ave","lat":42.375147133333336,"lng":-71.0548146,"neighborhood":"Thompson Square - Bunker Hill","city_fetched":"Boston","state":"MA","country":"United States","canonicalUrl":"https://foursquare.com/v/navy-yard-bistro/4b0dc3f2f964a520a34f23e3","category":"Wine Bar","checkinsCount":1261,"usersCount":733,"tipCount":20,"visitsCount":1366,"url":"http://www.navyyardbistro.com","tier":"","message":"","currency":"","rating":8},{"name":"The Phoenix Landing","phone":"6175766260","address":"512 Massachusetts Ave","lat":42.364178392732526,"lng":-71.1018171170972,"city_fetched":"Boston","state":"MA","country":"United States","canonicalUrl":"https://foursquare.com/v/the-phoenix-landing/40b28c80f964a5204ff81ee3","category":"Bar","checkinsCount":10021,"usersCount":4354,"tipCount":65,"visitsCount":10463,"url":"http://phoenixlandingbar.com","tier":2,"message":"Moderate","currency":"$","rating":8},{"name":"The Glenville Stops","phone":"6179033638","twitter":"glenvillestops","address":"87 Glenville Ave","lat":42.34950942346274,"lng":-71.13509505053209,"city_fetched":"Boston","state":"MA","country":"United States","canonicalUrl":"https://foursquare.com/v/the-glenville-stops/53309e44498e3c6c34953cc8","category":"Gastropub","checkinsCount":408,"usersCount":395,"tipCount":12,"visitsCount":609,"url":"http://glenvillestops.com","tier":2,"message":"Moderate","currency":"$","rating":8},{"name":"ONCE Lounge","phone":"6172850167","twitter":"cuisineenlocale","address":"156 Highland Ave","lat":42.38820282377623,"lng":-71.10369723425801,"city_fetched":"Boston","state":"MA","country":"United States","canonicalUrl":"https://foursquare.com/v/once-lounge/55db8fda498e1abc53c10a78","category":"Lounge","checkinsCount":207,"usersCount":133,"tipCount":3,"visitsCount":225,"tier":"","message":"","currency":"","rating":8},{"name":"The Yard","address":"Liberty Hotel","lat":42.362179,"lng":-71.070401,"neighborhood":"West End","city_fetched":"Boston","state":"MA","country":"United States","canonicalUrl":"https://foursquare.com/v/the-yard/4bef201e2ff520a13929e8a2","category":"Hotel Bar","checkinsCount":332,"usersCount":225,"tipCount":6,"visitsCount":332,"url":"http://www.libertyhotel.com/food_and_drink/yard.html","tier":"","message":"","currency":"","rating":8},{"name":"Bostonia Public House","address":"131 State St","lat":42.35915779873752,"lng":-71.05436448484313,"neighborhood":"Financial District","city_fetched":"Boston","state":"MA","country":"United States","canonicalUrl":"https://foursquare.com/v/bostonia-public-house/534eb5d611d2211b3ec84cd8","category":"Bar","checkinsCount":2316,"usersCount":2276,"tipCount":26,"visitsCount":3072,"url":"http://bostoniapublichouse.com","tier":2,"message":"Moderate","currency":"$","rating":8},{"name":"Eugene O'Neill's Pub","phone":"6175532492","address":"3700 Washington St","lat":42.300569,"lng":-71.112808,"neighborhood":"Forest Hills - Woodbourne","city_fetched":"Boston","state":"MA","country":"United States","canonicalUrl":"https://foursquare.com/v/eugene-oneills-pub/50592500e4b0cd60fec17941","category":"Pub","checkinsCount":836,"usersCount":319,"tipCount":14,"visitsCount":884,"tier":"","message":"","currency":"","rating":8},{"name":"Bell In Hand Tavern","phone":"6172272098","twitter":"bellinhandtav","address":"45 Union St","lat":42.36145156505159,"lng":-71.05729602322587,"neighborhood":"Downtown Boston","city_fetched":"Boston","state":"MA","country":"United States","canonicalUrl":"https://foursquare.com/v/bell-in-hand-tavern/40b28c80f964a52090f71ee3","category":"Pub","checkinsCount":17379,"usersCount":13629,"tipCount":109,"visitsCount":17758,"url":"http://www.bellinhand.com","tier":2,"message":"Moderate","currency":"$","rating":8},{"name":"Caf ArtScience","phone":"8579992193","twitter":"cafeartscience","address":"650 E Kendall St","lat":42.364498202358924,"lng":-71.08129773917885,"neighborhood":"Kendall Square","city_fetched":"Boston","state":"MA","country":"United States","canonicalUrl":"https://foursquare.com/v/caf%C3%A9-artscience/544a721a498eb67087513cb2","category":"French Restaurant","checkinsCount":933,"usersCount":626,"tipCount":16,"visitsCount":1143,"url":"http://cafeartscience.com","tier":4,"message":"Very Expensive","currency":"$","rating":7.9},{"name":"Cathedral Station","phone":"6173386060","twitter":"cssportsbar","address":"1222 Washington St","lat":42.34284760647527,"lng":-71.06673740476865,"neighborhood":"South End","city_fetched":"Boston","state":"MA","country":"United States","canonicalUrl":"https://foursquare.com/v/cathedral-station/536bb4c0498e1d4e3e9b6afc","category":"Gay Bar","checkinsCount":1750,"usersCount":629,"tipCount":6,"visitsCount":2466,"url":"http://cathedralstation.com","tier":2,"message":"Moderate","currency":"$","rating":7.9},{"name":"Legal Harborside - Floor 2","phone":"6174772900","twitter":"legalseafoods","address":"270 Northern Ave","lat":42.348625,"lng":-71.038052,"neighborhood":"Seaport District","city_fetched":"Boston","state":"MA","country":"United States","canonicalUrl":"https://foursquare.com/v/legal-harborside--floor-2/4e663ff4aeb7360316867948","category":"Seafood Restaurant","checkinsCount":798,"usersCount":704,"tipCount":5,"visitsCount":802,"url":"http://www.legalharborside.com","tier":1,"message":"Cheap","currency":"$","rating":7.9},{"name":"Andala Coffee House","phone":"6179452212","address":"286 Franklin St","lat":42.36486978,"lng":-71.105735,"city_fetched":"Boston","state":"MA","country":"United States","canonicalUrl":"https://foursquare.com/v/andala-coffee-house/49e5edf6f964a520e5631fe3","category":"Coffee Shop","checkinsCount":2918,"usersCount":2212,"tipCount":50,"visitsCount":3853,"tier":2,"message":"Moderate","currency":"$","rating":7.9},{"name":"UNI Sashimi Bar","phone":"6175367200","twitter":"unisashimi","address":"370 Commonwealth Ave","lat":42.34870092443234,"lng":-71.08846455179469,"neighborhood":"Back Bay West","city_fetched":"Boston","state":"MA","country":"United States","canonicalUrl":"https://foursquare.com/v/uni-sashimi-bar/4a6908e7f964a5207fcb1fe3","category":"Japanese Restaurant","checkinsCount":1528,"usersCount":1072,"tipCount":43,"visitsCount":1612,"url":"http://www.unisashimibar.com","tier":4,"message":"Very Expensive","currency":"$","rating":7.9},{"name":"Cantina La Mexicana","phone":"6177765232","twitter":"cantina_la_mex","address":"247 Washington St","lat":42.379694,"lng":-71.094155,"city_fetched":"Boston","state":"MA","country":"United States","canonicalUrl":"https://foursquare.com/v/cantina-la-mexicana/4a8195d0f964a520f1f61fe3","category":"Mexican Restaurant","checkinsCount":2201,"usersCount":936,"tipCount":25,"visitsCount":2280,"url":"http://www.lataqueria.com","tier":2,"message":"Moderate","currency":"$","rating":7.8},{"name":"The Tavern at Granite Links","phone":"6176891900","address":"100 Quarry Hills Dr","lat":42.244221720932266,"lng":-71.04889172815926,"city_fetched":"Boston","state":"MA","country":"United States","canonicalUrl":"https://foursquare.com/v/the-tavern-at-granite-links/4bf6ff875317a593d63dfd7e","category":"American Restaurant","checkinsCount":1910,"usersCount":1297,"tipCount":15,"visitsCount":2652,"url":"http://www.granitelinksgolfclub.com/club/scripts/section/section.asp?GRP=25690&NS=PT","tier":3,"message":"Expensive","currency":"$","rating":7.8},{"name":"Empire Restaurant & Lounge","phone":"6172950001","twitter":"bostonempire","address":"1 Marina Park Dr","lat":42.3531050750461,"lng":-71.04534387588501,"neighborhood":"Seaport District","city_fetched":"Boston","state":"MA","country":"United States","canonicalUrl":"https://foursquare.com/v/empire-restaurant--lounge/4fb3e9febe77d18702013307","category":"Asian Restaurant","checkinsCount":4487,"usersCount":3330,"tipCount":56,"visitsCount":5124,"url":"http://bostonempire.com","tier":3,"message":"Expensive","currency":"$","rating":7.8},{"name":"@MidEastClub Upstairs","phone":"6178643278","twitter":"mideastclub","address":"472 Massachusetts Ave","lat":42.36385547909579,"lng":-71.1012948607748,"city_fetched":"Boston","state":"MA","country":"United States","canonicalUrl":"https://foursquare.com/v/mideastclub-upstairs/40b28c80f964a5204cf81ee3","category":"Rock Club","checkinsCount":7709,"usersCount":4460,"tipCount":30,"visitsCount":7769,"url":"http://www.mideastclub.com","tier":"","message":"","currency":"","rating":7.8},{"name":"Daedalus","phone":"6173490071","address":"45 Mount Auburn St","lat":42.371343080904076,"lng":-71.1165560717644,"neighborhood":"Harvard Square","city_fetched":"Boston","state":"MA","country":"United States","canonicalUrl":"https://foursquare.com/v/daedalus/44e1b94ff964a5201f371fe3","category":"Restaurant","checkinsCount":7217,"usersCount":5240,"tipCount":53,"visitsCount":8689,"tier":2,"message":"Moderate","currency":"$","rating":7.8},{"name":"McGreevy's","phone":"6172620911","twitter":"mcgreevys","address":"911 Boylston St","lat":42.348289205597304,"lng":-71.08437269926071,"neighborhood":"Back Bay West","city_fetched":"Boston","state":"MA","country":"United States","canonicalUrl":"https://foursquare.com/v/mcgreevys/4a56e103f964a520ddb51fe3","category":"Irish Pub","checkinsCount":14067,"usersCount":7862,"tipCount":79,"visitsCount":14168,"url":"http://www.mcgreevysboston.com","tier":2,"message":"Moderate","currency":"$","rating":7.7},{"name":"Boston Winery","phone":"6172659463","address":"26 Ericsson St","lat":42.29178045,"lng":-71.040061,"neighborhood":"Neponset - Port Norfolk","city_fetched":"Boston","state":"MA","country":"United States","canonicalUrl":"https://foursquare.com/v/boston-winery/4c66fbacd3899c747214ff29","category":"Winery","checkinsCount":374,"usersCount":408,"tipCount":8,"visitsCount":487,"url":"http://www.bostonwinery.net","tier":"","message":"","currency":"","rating":7.7},{"name":"Daddy Jones","phone":"6176909095","address":"525 Medford St","lat":42.39686782671429,"lng":-71.10387712155146,"neighborhood":"Magoun Square","city_fetched":"Boston","state":"MA","country":"United States","canonicalUrl":"https://foursquare.com/v/daddy-jones/5092e793e4b0a40e1aeb2ac9","category":"Greek Restaurant","checkinsCount":1619,"usersCount":623,"tipCount":16,"visitsCount":1689,"url":"http://daddyjonesbar.com","tier":2,"message":"Moderate","currency":"$","rating":7.7},{"name":"Cathay Center","phone":"7813371856","address":"211 Bridge St","lat":42.24244453490715,"lng":-70.95670877713604,"neighborhood":"North Weymouth","city_fetched":"Boston","state":"MA","country":"United States","canonicalUrl":"https://foursquare.com/v/cathay-center/4be9e2cf6295c9b651cc8508","category":"Chinese Restaurant","checkinsCount":959,"usersCount":494,"tipCount":5,"visitsCount":1147,"url":"http://cathaycenter.com","tier":2,"message":"Moderate","currency":"$","rating":7.6}]