[{"name":"Avery Brewing Co.","phone":"3034404324","twitter":"averybrewingco","address":"4910 Nautilus Ct N","lat":40.0622769327219,"lng":-105.20508599923984,"neighborhood":"Gunbarrel","city_fetched":"Boulder","state":"CO","country":"United States","canonicalUrl":"https://foursquare.com/v/avery-brewing-co/532612ef498ea4799a6000f3","category":"Brewery","checkinsCount":2671,"usersCount":2999,"tipCount":51,"visitsCount":4438,"url":"http://averybrewing.com","tier":"","message":"","currency":"","rating":9.4},{"name":"Mountain Sun Pub & Brewery","phone":"3035460886","twitter":"mountainsunpub","address":"1535 Pearl St","lat":40.018909,"lng":-105.275186,"neighborhood":"Downtown Boulder","city_fetched":"Boulder","state":"CO","country":"United States","canonicalUrl":"https://foursquare.com/v/mountain-sun-pub--brewery/479b612df964a520694d1fe3","category":"Pub","checkinsCount":12286,"usersCount":6768,"tipCount":137,"visitsCount":13477,"url":"http://www.mountainsunpub.com","tier":1,"message":"Cheap","currency":"$","rating":9.3},{"name":"OAK at fourteenth","phone":"3034443622","twitter":"oakatfourteenth","address":"1400 Pearl St","lat":40.018226,"lng":-105.277206,"neighborhood":"Downtown Boulder","city_fetched":"Boulder","state":"CO","country":"United States","canonicalUrl":"https://foursquare.com/v/oak-at-fourteenth/4cdafe1a52d88eec8eebf828","category":"New American Restaurant","checkinsCount":4136,"usersCount":2227,"tipCount":62,"visitsCount":4532,"url":"http://www.oakatfourteenth.com","tier":2,"message":"Moderate","currency":"$","rating":9.3},{"name":"Brasserie Ten Ten","phone":"3039981010","address":"1011 Walnut St","lat":40.016508,"lng":-105.282106,"neighborhood":"Downtown Boulder","city_fetched":"Boulder","state":"CO","country":"United States","canonicalUrl":"https://foursquare.com/v/brasserie-ten-ten/4a20356af964a520587c1fe3","category":"French Restaurant","checkinsCount":5414,"usersCount":2613,"tipCount":77,"visitsCount":5591,"url":"http://www.brasserietenten.com","tier":3,"message":"Expensive","currency":"$","rating":9.2},{"name":"The Mediterranean","phone":"3034445335","address":"1002 Walnut St","lat":40.0163241912064,"lng":-105.28197921921014,"neighborhood":"Downtown Boulder","city_fetched":"Boulder","state":"CO","country":"United States","canonicalUrl":"https://foursquare.com/v/the-mediterranean/49f79d78f964a520c56c1fe3","category":"Mediterranean Restaurant","checkinsCount":9838,"usersCount":5508,"tipCount":103,"visitsCount":10277,"url":"http://themedboulder.com","tier":2,"message":"Moderate","currency":"$","rating":9.1},{"name":"Upslope Brewing Company","phone":"3034492911","twitter":"upslope","address":"1501 Lee Hill Rd","lat":40.0628003047562,"lng":-105.27923583984375,"city_fetched":"Boulder","state":"CO","country":"United States","canonicalUrl":"https://foursquare.com/v/upslope-brewing-company/4af5f30af964a52042ff21e3","category":"Brewery","checkinsCount":2145,"usersCount":1291,"tipCount":38,"visitsCount":2532,"url":"http://upslopebrewing.com","tier":1,"message":"Cheap","currency":"$","rating":9.1},{"name":"Amu","phone":"3034400807","address":"1221 Spruce St","lat":40.01904918567827,"lng":-105.27992157039488,"neighborhood":"Central Boulder","city_fetched":"Boulder","state":"CO","country":"United States","canonicalUrl":"https://foursquare.com/v/amu/4b6503a1f964a5207ddf2ae3","category":"Japanese Restaurant","checkinsCount":596,"usersCount":348,"tipCount":16,"visitsCount":596,"url":"http://www.izakayaamu.com","tier":2,"message":"Moderate","currency":"$","rating":9},{"name":"Upslope Brewery","phone":"3033961898","twitter":"upslope","address":"1898 S Flatiron Ct","lat":40.02029815965016,"lng":-105.21851805351551,"city_fetched":"Boulder","state":"CO","country":"United States","canonicalUrl":"https://foursquare.com/v/upslope-brewery/51707f71498e196045c1eada","category":"Brewery","checkinsCount":1747,"usersCount":1287,"tipCount":24,"visitsCount":2779,"url":"http://upslopebrewing.com","tier":2,"message":"Moderate","currency":"$","rating":9},{"name":"Southern Sun Pub & Brewery","phone":"3035430886","twitter":"mountainsunpub","address":"627 S Broadway St","lat":39.98441398143768,"lng":-105.24928629398346,"neighborhood":"Table Mesa","city_fetched":"Boulder","state":"CO","country":"United States","canonicalUrl":"https://foursquare.com/v/southern-sun-pub--brewery/49cacd10f964a520e4581fe3","category":"Pub","checkinsCount":7840,"usersCount":3180,"tipCount":70,"visitsCount":8600,"url":"http://www.mountainsunpub.com","tier":2,"message":"Moderate","currency":"$","rating":8.9},{"name":"Half Fast Subs","phone":"3034490404","twitter":"halffastsubs","address":"1215 13th St","lat":40.009012144576964,"lng":-105.2764356136322,"neighborhood":"University Hill","city_fetched":"Boulder","state":"CO","country":"United States","canonicalUrl":"https://foursquare.com/v/half-fast-subs/49f28624f964a520426a1fe3","category":"Sandwich Place","checkinsCount":6664,"usersCount":2916,"tipCount":52,"visitsCount":7200,"url":"http://www.halffastsubs.com","tier":2,"message":"Moderate","currency":"$","rating":8.9},{"name":"The Bitter Bar","phone":"3034423050","twitter":"thebitterbar","address":"835 Walnut St","lat":40.01617758575881,"lng":-105.28421401977539,"neighborhood":"Downtown Boulder","city_fetched":"Boulder","state":"CO","country":"United States","canonicalUrl":"https://foursquare.com/v/the-bitter-bar/4e7cc6d18130ad2f0a47315a","category":"Cocktail Bar","checkinsCount":4562,"usersCount":2198,"tipCount":32,"visitsCount":5064,"url":"http://www.thebitterbar.com","tier":3,"message":"Expensive","currency":"$","rating":8.9},{"name":"Frasca Food and Wine","phone":"3034426966","twitter":"frascafoodwine","address":"1738 Pearl St","lat":40.01941273553378,"lng":-105.27245708840208,"neighborhood":"Downtown Boulder","city_fetched":"Boulder","state":"CO","country":"United States","canonicalUrl":"https://foursquare.com/v/frasca-food-and-wine/4a610e58f964a520bcc11fe3","category":"Italian Restaurant","checkinsCount":1880,"usersCount":1041,"tipCount":31,"visitsCount":1902,"url":"http://www.frascafoodandwine.com","tier":3,"message":"Expensive","currency":"$","rating":8.9},{"name":"FATE Brewing Company","phone":"3034493283","twitter":"fatebrewingco","address":"1600 38th St Ste 100","lat":40.01499435375046,"lng":-105.24541854858398,"neighborhood":"Central Boulder","city_fetched":"Boulder","state":"CO","country":"United States","canonicalUrl":"https://foursquare.com/v/fate-brewing-company/503bf02e16480737a0cbc0f3","category":"Brewery","checkinsCount":4676,"usersCount":3287,"tipCount":64,"visitsCount":6628,"url":"http://fatebrewingcompany.com","tier":2,"message":"Moderate","currency":"$","rating":8.8},{"name":"The Kitchen Upstairs","phone":"3035445973","twitter":"thekitchen","address":"1039 Pearl St","lat":40.017694124152044,"lng":-105.28171058030233,"neighborhood":"Downtown Boulder","city_fetched":"Boulder","state":"CO","country":"United States","canonicalUrl":"https://foursquare.com/v/the-kitchen-upstairs/4e8e51056da16fd9cf0619da","category":"Lounge","checkinsCount":2170,"usersCount":1057,"tipCount":14,"visitsCount":2201,"url":"http://thekitchen.com","tier":"","message":"","currency":"","rating":8.7},{"name":"Twisted Pine Brewing Company","phone":"3037869270","twitter":"twistedpine","address":"3201 Walnut St","lat":40.02044677734375,"lng":-105.251168,"neighborhood":"Central Boulder","city_fetched":"Boulder","state":"CO","country":"United States","canonicalUrl":"https://foursquare.com/v/twisted-pine-brewing-company/49dc4f0af964a5206e5f1fe3","category":"Brewery","checkinsCount":2968,"usersCount":2183,"tipCount":31,"visitsCount":3682,"url":"http://twistedpinebrewing.com","tier":2,"message":"Moderate","currency":"$","rating":8.7},{"name":"World Famous Dark Horse Bar & Grill","phone":"3034428162","twitter":"bouldershorse","address":"2922 Baseline Rd","lat":39.99905158933003,"lng":-105.25525689125061,"city_fetched":"Boulder","state":"CO","country":"United States","canonicalUrl":"https://foursquare.com/bouldershorse","category":"Bar","checkinsCount":6078,"usersCount":3091,"tipCount":51,"visitsCount":7200,"url":"http://www.darkhorsebar.com","tier":1,"message":"Cheap","currency":"$","rating":8.6},{"name":"West End Tavern","phone":"3034443535","twitter":"westendtavern","address":"926 Pearl St","lat":40.01706063284189,"lng":-105.28320810477051,"neighborhood":"Downtown Boulder","city_fetched":"Boulder","state":"CO","country":"United States","canonicalUrl":"https://foursquare.com/v/west-end-tavern/40e0b100f964a52029041fe3","category":"Bar","checkinsCount":11114,"usersCount":5189,"tipCount":111,"visitsCount":11553,"url":"http://www.thewestendtavern.com","tier":2,"message":"Moderate","currency":"$","rating":8.5},{"name":"The Sink","phone":"3034447465","address":"1165 13th St","lat":40.008643906823245,"lng":-105.27650935807895,"neighborhood":"University Hill","city_fetched":"Boulder","state":"CO","country":"United States","canonicalUrl":"https://foursquare.com/v/the-sink/4d0d837e3bbaa14305883dda","category":"Bar","checkinsCount":7557,"usersCount":3945,"tipCount":86,"visitsCount":8020,"url":"http://www.thesink.com","tier":2,"message":"Moderate","currency":"$","rating":8.5},{"name":"Sanitas Brewing Company","phone":"3034424130","twitter":"sanitasbrewing","address":"3550 Frontier Ave Ste A","lat":40.02149013819996,"lng":-105.24735690848992,"neighborhood":"Central Boulder","city_fetched":"Boulder","state":"CO","country":"United States","canonicalUrl":"https://foursquare.com/v/sanitas-brewing-company/518f009f498e50c4591fe027","category":"Brewery","checkinsCount":1417,"usersCount":1181,"tipCount":21,"visitsCount":2248,"url":"http://sanitasbrewing.com","tier":2,"message":"Moderate","currency":"$","rating":8.5},{"name":"Backcountry Pizza & Tap House","phone":"3034494285","address":"2319 Arapahoe Ave","lat":40.01490071591494,"lng":-105.26406708519661,"neighborhood":"Goss - Grove","city_fetched":"Boulder","state":"CO","country":"United States","canonicalUrl":"https://foursquare.com/v/backcountry-pizza--tap-house/4d44ae940349224b4aedfc4e","category":"Pizza Place","checkinsCount":4503,"usersCount":2104,"tipCount":36,"visitsCount":5171,"url":"http://www.backcountrypizzaandtaphouse.com","tier":2,"message":"Moderate","currency":"$","rating":8.5},{"name":"303 Vodka Tasting Room","address":"2500 47th St #105","lat":40.025799,"lng":-105.242649,"city_fetched":"Boulder","state":"CO","country":"United States","canonicalUrl":"https://foursquare.com/v/303-vodka-tasting-room/4bf5ad849abec9b6df6f24e8","category":"Cocktail Bar","checkinsCount":683,"usersCount":403,"tipCount":13,"visitsCount":780,"url":"http://303vodka.com","tier":"","message":"","currency":"","rating":8.5},{"name":"Boulder Beer Company","phone":"3034448448","twitter":"boulderbeerco","address":"2880 Wilderness Pl","lat":40.02682145662323,"lng":-105.24808265797508,"neighborhood":"Central Boulder","city_fetched":"Boulder","state":"CO","country":"United States","canonicalUrl":"https://foursquare.com/v/boulder-beer-company/4b283356f964a520be9024e3","category":"Brewery","checkinsCount":4589,"usersCount":2970,"tipCount":47,"visitsCount":5430,"url":"http://boulderbeer.com","tier":2,"message":"Moderate","currency":"$","rating":8.4},{"name":"Under The Sun Eatery & Pizzeria","phone":"3039276921","twitter":"mountainsunpub","address":"627 S Broadway St","lat":39.984482428172676,"lng":-105.24943701776718,"neighborhood":"Table Mesa","city_fetched":"Boulder","state":"CO","country":"United States","canonicalUrl":"https://foursquare.com/v/under-the-sun-eatery--pizzeria/50d52479e4b06bd2dce933f8","category":"Brewery","checkinsCount":1705,"usersCount":747,"tipCount":14,"visitsCount":1925,"url":"http://mountainsunpub.com","tier":2,"message":"Moderate","currency":"$","rating":8.4},{"name":"Japango","phone":"3039380330","twitter":"japangosushi","address":"1136 Pearl St","lat":40.017792762778434,"lng":-105.280327382481,"neighborhood":"Downtown Boulder","city_fetched":"Boulder","state":"CO","country":"United States","canonicalUrl":"https://foursquare.com/v/japango/4a00e060f964a520bb701fe3","category":"Sushi Restaurant","checkinsCount":2439,"usersCount":1392,"tipCount":37,"visitsCount":2483,"url":"http://www.boulderjapango.com","tier":2,"message":"Moderate","currency":"$","rating":8.4},{"name":"Illegal Pete's","phone":"3034443055","address":"1124 13th St","lat":40.007800307254136,"lng":-105.27601210676973,"neighborhood":"University Hill","city_fetched":"Boulder","state":"CO","country":"United States","canonicalUrl":"https://foursquare.com/v/illegal-petes/49d90daff964a520f75d1fe3","category":"Burrito Place","checkinsCount":2690,"usersCount":1202,"tipCount":24,"visitsCount":2851,"url":"http://www.illegalpetes.com","tier":2,"message":"Moderate","currency":"$","rating":8.4},{"name":"World of Beer","lat":40.017268,"lng":-105.283116,"neighborhood":"Downtown Boulder","city_fetched":"Boulder","state":"CO","country":"United States","canonicalUrl":"https://foursquare.com/v/world-of-beer/574a0090498eb57fd9497761","category":"Gastropub","checkinsCount":140,"usersCount":100,"tipCount":3,"visitsCount":143,"tier":"","message":"","currency":"","rating":8.3},{"name":"Finkel & Garf Brewing Co.","phone":"7203796042","address":"5455 Spine Rd Ste A","lat":40.07386198406438,"lng":-105.20229231355437,"neighborhood":"Gunbarrel","city_fetched":"Boulder","state":"CO","country":"United States","canonicalUrl":"https://foursquare.com/v/finkel--garf-brewing-co/53b873c6498e1c8eb2f4df87","category":"Brewery","checkinsCount":342,"usersCount":294,"tipCount":6,"visitsCount":487,"tier":"","message":"","currency":"","rating":8.2},{"name":"J Wells Brewery","phone":"3033960384","twitter":"jwellsbrewery","address":"2516 49th St #5","lat":40.023753,"lng":-105.237813,"city_fetched":"Boulder","state":"CO","country":"United States","canonicalUrl":"https://foursquare.com/jwellsbrewery","category":"Brewery","checkinsCount":454,"usersCount":324,"tipCount":11,"visitsCount":585,"url":"http://jwellsbrewery.com","tier":1,"message":"Cheap","currency":"$","rating":8.2},{"name":"Vapor Distillery","phone":"3039976134","twitter":"vapordistillery","address":"5311 Western Ave Ste 180","lat":40.01843363246964,"lng":-105.22875136425523,"city_fetched":"Boulder","state":"CO","country":"United States","canonicalUrl":"https://foursquare.com/v/vapor-distillery/53cf4285498e6e3e7f215887","category":"Speakeasy","checkinsCount":277,"usersCount":151,"tipCount":6,"visitsCount":298,"url":"http://vapordistillery.com","tier":1,"message":"Cheap","currency":"$","rating":8.1},{"name":"Bramble & Hare","phone":"3034449110","address":"1970 13th St","lat":40.01805,"lng":-105.278503,"neighborhood":"Downtown Boulder","city_fetched":"Boulder","state":"CO","country":"United States","canonicalUrl":"https://foursquare.com/v/bramble--hare/4fee55c2e4b0283e9a71835d","category":"Gastropub","checkinsCount":955,"usersCount":535,"tipCount":15,"visitsCount":984,"url":"http://brambleandhare.com","tier":3,"message":"Expensive","currency":"$","rating":8},{"name":"Rio Grande","phone":"3034443690","twitter":"myriogrande","address":"1101 Walnut St","lat":40.01690601666667,"lng":-105.280816,"neighborhood":"Downtown Boulder","city_fetched":"Boulder","state":"CO","country":"United States","canonicalUrl":"https://foursquare.com/v/rio-grande/49d6ceb8f964a520055d1fe3","category":"Mexican Restaurant","checkinsCount":11678,"usersCount":5030,"tipCount":85,"visitsCount":12145,"url":"http://www.riograndemexican.com","tier":2,"message":"Moderate","currency":"$","rating":7.9},{"name":"Bohemian Biergarten","phone":"7203288328","address":"2017 13th St","lat":40.01866488877271,"lng":-105.27911566477913,"neighborhood":"Downtown Boulder","city_fetched":"Boulder","state":"CO","country":"United States","canonicalUrl":"https://foursquare.com/v/bohemian-biergarten/5149e7cbe4b08b3e83297030","category":"Beer Garden","checkinsCount":4492,"usersCount":2375,"tipCount":38,"visitsCount":5249,"url":"http://www.bohemianbiergarten.com","tier":2,"message":"Moderate","currency":"$","rating":7.9},{"name":"Walnut Brewery","phone":"3034471345","address":"1123 Walnut St","lat":40.01684194,"lng":-105.28036773204803,"neighborhood":"Downtown Boulder","city_fetched":"Boulder","state":"CO","country":"United States","canonicalUrl":"https://foursquare.com/v/walnut-brewery/40e0b100f964a52024041fe3","category":"Brewery","checkinsCount":7562,"usersCount":4022,"tipCount":65,"visitsCount":7781,"url":"http://walnutbrewery.com","tier":2,"message":"Moderate","currency":"$","rating":7.9},{"name":"BJ's Restaurant and Brewhouse","phone":"3034405200","twitter":"bjsrestaurants","address":"1690 28th St","lat":40.01771131,"lng":-105.2578663,"neighborhood":"Central Boulder","city_fetched":"Boulder","state":"CO","country":"United States","canonicalUrl":"https://foursquare.com/v/bjs-restaurant-and-brewhouse/5022c5fae4b05abb1cec8c60","category":"American Restaurant","checkinsCount":3252,"usersCount":2191,"tipCount":32,"visitsCount":4324,"url":"http://t.co/bl46gcjDLN","tier":2,"message":"Moderate","currency":"$","rating":7.8},{"name":"Carelli's Restaurant","phone":"3039389300","address":"645 30th St","lat":39.99905102997533,"lng":-105.2534258708226,"city_fetched":"Boulder","state":"CO","country":"United States","canonicalUrl":"https://foursquare.com/v/carellis-restaurant/4a12f82cf964a520a6771fe3","category":"Italian Restaurant","checkinsCount":884,"usersCount":615,"tipCount":9,"visitsCount":966,"url":"http://carellis.com","tier":4,"message":"Very Expensive","currency":"$","rating":7.8},{"name":"West Flanders Brewing Company","phone":"3034472739","twitter":"westflanders","address":"1125 Pearl St","lat":40.017909643823295,"lng":-105.28060173486669,"neighborhood":"Downtown Boulder","city_fetched":"Boulder","state":"CO","country":"United States","canonicalUrl":"https://foursquare.com/westflanders","category":"Pub","checkinsCount":5659,"usersCount":3938,"tipCount":68,"visitsCount":5901,"url":"http://wfbrews.com","tier":2,"message":"Moderate","currency":"$","rating":7.8},{"name":"Wild Woods Brewery","phone":"3034841465","twitter":"wildwoodsbeer","address":"5460 Conestoga Ct","lat":40.01621521386681,"lng":-105.22593442730657,"city_fetched":"Boulder","state":"CO","country":"United States","canonicalUrl":"https://foursquare.com/v/wild-woods-brewery/50624743e4b0d29ce7da391d","category":"Brewery","checkinsCount":892,"usersCount":564,"tipCount":9,"visitsCount":1071,"tier":"","message":"","currency":"","rating":7.7},{"name":"No Name Bar","address":"1325 Broadway","lat":40.009842,"lng":-105.27715,"neighborhood":"University Hill","city_fetched":"Boulder","state":"CO","country":"United States","canonicalUrl":"https://foursquare.com/v/no-name-bar/4b565d00f964a520400d28e3","category":"Speakeasy","checkinsCount":970,"usersCount":452,"tipCount":16,"visitsCount":978,"tier":"","message":"","currency":"","rating":7.7},{"name":"Pettyjohn's Liquor and Wine (and Craft beer!)","phone":"3034992337","twitter":"pettyjohnsstore","address":"613 S Broadway St","lat":39.98443459028534,"lng":-105.25019706412387,"neighborhood":"Table Mesa","city_fetched":"Boulder","state":"CO","country":"United States","canonicalUrl":"https://foursquare.com/pettyjohnsstore","category":"Liquor Store","checkinsCount":346,"usersCount":130,"tipCount":12,"visitsCount":352,"url":"https://pettyjohns.wordpress.com","tier":"","message":"","currency":"","rating":7.6},{"name":"Harpo's Sports Grill","phone":"3034449464","twitter":"harposboulder","address":"2860 Arapahoe Ave","lat":40.01436263472886,"lng":-105.25692333852544,"neighborhood":"East Boulder","city_fetched":"Boulder","state":"CO","country":"United States","canonicalUrl":"https://foursquare.com/v/harpos-sports-grill/49fcdc6cf964a520e96e1fe3","category":"Sports Bar","checkinsCount":3256,"usersCount":1463,"tipCount":30,"visitsCount":3701,"url":"http://www.harpossportsgrill.com","tier":2,"message":"Moderate","currency":"$","rating":7.6},{"name":"License No. 1","address":"Spruce","lat":40.019374,"lng":-105.2794,"neighborhood":"Central Boulder","city_fetched":"Boulder","state":"CO","country":"United States","canonicalUrl":"https://foursquare.com/v/license-no-1/5380343b498e59fb622c878e","category":"Speakeasy","checkinsCount":642,"usersCount":410,"tipCount":9,"visitsCount":679,"tier":"","message":"","currency":"","rating":7.6},{"name":"The Hookah House","phone":"3034440804","twitter":"thehookahhouse","address":"1325 Broadway #215","lat":40.01001,"lng":-105.27724801666666,"neighborhood":"University Hill","city_fetched":"Boulder","state":"CO","country":"United States","canonicalUrl":"https://foursquare.com/v/the-hookah-house/4a18d362f964a520ee791fe3","category":"Hookah Bar","checkinsCount":1231,"usersCount":399,"tipCount":12,"visitsCount":1237,"url":"http://www.hookahhouse.net","tier":"","message":"","currency":"","rating":7.4},{"name":"The Rayback Collective","address":"2775 Valmont Rd, Boulder, CO 80304","lat":40.029064,"lng":-105.25605,"neighborhood":"Glenwood Grove - North Iris","city_fetched":"Boulder","state":"CO","country":"United States","canonicalUrl":"https://foursquare.com/v/the-rayback-collective/57819c21498e7f187f80cf28","category":"Beer Garden","checkinsCount":141,"usersCount":135,"tipCount":3,"visitsCount":203,"tier":"","message":"","currency":"","rating":7.3},{"name":"The Walrus Saloon","phone":"3034439902","twitter":"boulderwalrus","address":"1173 Walnut St.","lat":40.016702056047436,"lng":-105.2808818033871,"neighborhood":"Downtown Boulder","city_fetched":"Boulder","state":"CO","country":"United States","canonicalUrl":"https://foursquare.com/v/the-walrus-saloon/40e0b100f964a52025041fe3","category":"Dive Bar","checkinsCount":4735,"usersCount":1853,"tipCount":23,"visitsCount":4817,"url":"http://boulderwalrus.com","tier":"","message":"","currency":"","rating":7.2},{"name":"Asher Brewing Company","phone":"3035301381","twitter":"asherbrewing","address":"4699 Nautilus Ct S Ste 104","lat":40.06031553333333,"lng":-105.2059833,"neighborhood":"Gunbarrel","city_fetched":"Boulder","state":"CO","country":"United States","canonicalUrl":"https://foursquare.com/v/asher-brewing-company/4b6dced6f964a520c9912ce3","category":"Brewery","checkinsCount":1267,"usersCount":673,"tipCount":14,"visitsCount":1529,"tier":"","message":"","currency":"","rating":7.2},{"name":"Rueben's Burger Bistro","phone":"3034435000","twitter":"ruebensboulder","address":"1800 Broadway","lat":40.016871380199305,"lng":-105.27956720007555,"neighborhood":"Downtown Boulder","city_fetched":"Boulder","state":"CO","country":"United States","canonicalUrl":"https://foursquare.com/v/ruebens-burger-bistro/4bd9058a11dcc92879c9f833","category":"Burger Joint","checkinsCount":4696,"usersCount":1900,"tipCount":50,"visitsCount":4846,"url":"http://ruebensburgerbistro.com","tier":2,"message":"Moderate","currency":"$","rating":7.2},{"name":"SiP - Wine • Beer • Coffee","phone":"3035442000","address":"2810 E College Ave","lat":40.00710908420239,"lng":-105.25807203251834,"neighborhood":"East Boulder","city_fetched":"Boulder","state":"CO","country":"United States","canonicalUrl":"https://foursquare.com/v/sip--wine--beer--coffee/51eaef40498e70eec3240272","category":"Wine Bar","checkinsCount":91,"usersCount":56,"tipCount":4,"visitsCount":91,"tier":"","message":"","currency":"","rating":7.1},{"name":"BRU Handbuilt Ales & Eats","phone":"7206385193","address":"5290 Arapahoe Ave Ste I","lat":40.01415951796709,"lng":-105.22996843282114,"neighborhood":"East Boulder","city_fetched":"Boulder","state":"CO","country":"United States","canonicalUrl":"https://foursquare.com/v/bru-handbuilt-ales--eats/519e7956498e69ffd11c494f","category":"Brewery","checkinsCount":903,"usersCount":662,"tipCount":23,"visitsCount":1100,"tier":"","message":"","currency":"","rating":7.1},{"name":"Shine Restaurant & Gathering Place","phone":"3034490120","twitter":"shineboulder","address":"2027 13th St","lat":40.018805198099116,"lng":-105.27913281166704,"neighborhood":"Downtown Boulder","city_fetched":"Boulder","state":"CO","country":"United States","canonicalUrl":"https://foursquare.com/v/shine-restaurant--gathering-place/4ee42c984690f889404ef8db","category":"Gastropub","checkinsCount":2726,"usersCount":1440,"tipCount":34,"visitsCount":2795,"url":"http://www.shineboulder.com","tier":2,"message":"Moderate","currency":"$","rating":7.1},{"name":"Press Play","phone":"7205084916","address":"1005 Pearl St","lat":40.01759857222551,"lng":-105.2823278788556,"neighborhood":"Downtown Boulder","city_fetched":"Boulder","state":"CO","country":"United States","canonicalUrl":"https://foursquare.com/v/press-play/504a3476e4b0273936abf47c","category":"Dive Bar","checkinsCount":2138,"usersCount":921,"tipCount":24,"visitsCount":2173,"url":"http://pressplaybar.com","tier":1,"message":"Cheap","currency":"$","rating":7},{"name":"The Attic Bar and Bistro","phone":"3034151300","twitter":"theatticbarco","address":"949 Walnut St","lat":40.016514715131706,"lng":-105.28239646772307,"neighborhood":"Downtown Boulder","city_fetched":"Boulder","state":"CO","country":"United States","canonicalUrl":"https://foursquare.com/v/the-attic-bar-and-bistro/4a2ddd0cf964a52000981fe3","category":"Bar","checkinsCount":4843,"usersCount":1886,"tipCount":30,"visitsCount":4879,"url":"http://www.atticbistro.com","tier":1,"message":"Cheap","currency":"$","rating":6.9}]