[{"name":"novo dolce","phone":"2709043300","address":"Old Town Square 651 31-W Bypass","lat":36.988634,"lng":-86.430327,"city_fetched":"Bowling Green","state":"KY","country":"United States","canonicalUrl":"https://foursquare.com/v/novo-dolce/537269b7498e7892c51c9c95","category":"Gastropub","checkinsCount":128,"usersCount":232,"tipCount":3,"visitsCount":474,"url":"http://novodolce.com","tier":"","message":"","currency":"","rating":8.8},{"name":"Double Dogs","phone":"2708439357","address":"1780 Scottsville Rd","lat":36.966706,"lng":-86.43188,"city_fetched":"Bowling Green","state":"KY","country":"United States","canonicalUrl":"https://foursquare.com/v/double-dogs/4b45fde2f964a520b41326e3","category":"Bar","checkinsCount":1810,"usersCount":1153,"tipCount":20,"visitsCount":2496,"url":"http://doubledogs.biz","tier":2,"message":"Moderate","currency":"$","rating":8.3},{"name":"White Squirrel Brewery","twitter":"whitesquirrelbg","address":"871 Broadway Ave","lat":36.98456290758016,"lng":-86.44064163564617,"city_fetched":"Bowling Green","state":"KY","country":"United States","canonicalUrl":"https://foursquare.com/v/white-squirrel-brewery/552d4a88498e2c593c8ac3a3","category":"Brewery","checkinsCount":154,"usersCount":280,"tipCount":5,"visitsCount":483,"url":"http://whitesquirrelbrewery.com","tier":1,"message":"Cheap","currency":"$","rating":8.3},{"name":"Micki's on Main","address":"440 Main Street","lat":36.993148508385,"lng":-86.44080468953898,"city_fetched":"Bowling Green","state":"KY","country":"United States","canonicalUrl":"https://foursquare.com/v/mickis-on-main/4dc33ec9d4c0ad9c0f519290","category":"Bar","checkinsCount":414,"usersCount":198,"tipCount":6,"visitsCount":445,"url":"http://440main.com","tier":"","message":"","currency":"","rating":8.1},{"name":"Cloud 9 Hookah","phone":"2709044151","address":"802 Broadway Ave","lat":36.98622861002976,"lng":-86.4410948753357,"city_fetched":"Bowling Green","state":"KY","country":"United States","canonicalUrl":"https://foursquare.com/v/cloud-9-hookah/4f6415bb0cd6efd2b1025814","category":"Hookah Bar","checkinsCount":373,"usersCount":76,"tipCount":8,"visitsCount":386,"tier":"","message":"","currency":"","rating":8.1},{"name":"643 Sports Bar","phone":"2708460020","twitter":"643sportsbar","address":"360 8th Ave","lat":36.995682734278844,"lng":-86.44076022034817,"city_fetched":"Bowling Green","state":"KY","country":"United States","canonicalUrl":"https://foursquare.com/v/643-sports-bar/5335c2e3498edae64c0329ee","category":"Sports Bar","checkinsCount":209,"usersCount":95,"tipCount":8,"visitsCount":253,"tier":"","message":"","currency":"","rating":7.9},{"name":"Wino's Depot","lat":36.959627993549894,"lng":-86.46941488794113,"city_fetched":"Bowling Green","state":"KY","country":"United States","canonicalUrl":"https://foursquare.com/v/winos-depot/4ed02c90d3e3521ce56ac1db","category":"Wine Bar","checkinsCount":478,"usersCount":136,"tipCount":7,"visitsCount":483,"tier":"","message":"","currency":"","rating":7.6},{"name":"Hilligan's","phone":"2704950891","twitter":"hilligansbg","address":"1265 College St","lat":36.989986525465376,"lng":-86.44779080280361,"city_fetched":"Bowling Green","state":"KY","country":"United States","canonicalUrl":"https://foursquare.com/v/hilligans/4b501522f964a520671c27e3","category":"Sports Bar","checkinsCount":1753,"usersCount":544,"tipCount":10,"visitsCount":2191,"tier":"","message":"","currency":"","rating":7.6},{"name":"OverTime Sports Bar and Grill","phone":"2709044430","address":"773 Bakerfields Way","lat":36.960523597776444,"lng":-86.46369613352658,"city_fetched":"Bowling Green","state":"KY","country":"United States","canonicalUrl":"https://foursquare.com/v/overtime-sports-bar-and-grill/4bc3621cb492d13ab9aaa860","category":"Sports Bar","checkinsCount":1971,"usersCount":638,"tipCount":17,"visitsCount":2350,"url":"http://www.overtimebg.com","tier":"","message":"","currency":"","rating":7.2},{"name":"Prince Hooka Bar","phone":"2707460107","twitter":"princehookahbg","address":"116 Old Morgantown Rd","lat":36.98872294542993,"lng":-86.45752230474702,"city_fetched":"Bowling Green","state":"KY","country":"United States","canonicalUrl":"https://foursquare.com/v/prince-hooka-bar/4c7df268b33a224bcaa5d981","category":"Hookah Bar","checkinsCount":220,"usersCount":97,"tipCount":4,"visitsCount":229,"tier":"","message":"","currency":"","rating":7.1},{"name":"Dublin's Irish Pub","address":"904 State St","lat":36.9928370888381,"lng":-86.44072563317243,"city_fetched":"Bowling Green","state":"KY","country":"United States","canonicalUrl":"https://foursquare.com/v/dublins-irish-pub/4fc8410de4b059f59930cb34","category":"Pub","checkinsCount":92,"usersCount":68,"tipCount":2,"visitsCount":94,"tier":"","message":"","currency":"","rating":6.9},{"name":"Chuck's Wine & Spirits","phone":"2707815923","address":"386 Three Springs Rd","lat":36.93629394510383,"lng":-86.42063138763251,"city_fetched":"Bowling Green","state":"KY","country":"United States","canonicalUrl":"https://foursquare.com/v/chucks-wine--spirits/4b5742a5f964a520e62d28e3","category":"Beer Garden","checkinsCount":243,"usersCount":168,"tipCount":2,"visitsCount":268,"tier":"","message":"","currency":"","rating":6.8},{"name":"Tidball's","phone":"2707939955","address":"522 Morris Aly","lat":36.991621255874634,"lng":-86.44055843353271,"city_fetched":"Bowling Green","state":"KY","country":"United States","canonicalUrl":"https://foursquare.com/v/tidballs/4b3b8eadf964a520c57525e3","category":"Bar","checkinsCount":669,"usersCount":224,"tipCount":13,"visitsCount":688,"url":"http://ticketsus.at/yahooinc/342460.html","tier":"","message":"","currency":"","rating":6.6},{"name":"Spillway Bar and Grill","phone":"2708429397","address":"2195 Old Louisville Rd","lat":37.007419220924824,"lng":-86.41116142272949,"city_fetched":"Bowling Green","state":"KY","country":"United States","canonicalUrl":"https://foursquare.com/v/spillway-bar-and-grill/4b60842ff964a5200aeb29e3","category":"Bar","checkinsCount":200,"usersCount":110,"tipCount":4,"visitsCount":266,"url":"http://www.spillwaybarandgrill.com","tier":"","message":"","currency":"","rating":6.4}]