[{"name":"Montana Ale Works","phone":"4065877700","address":"611 E Main St","lat":45.67963999,"lng":-111.02776893,"city_fetched":"Bozeman","state":"MT","country":"United States","canonicalUrl":"https://foursquare.com/v/montana-ale-works/4b3952f3f964a520a25a25e3","category":"American Restaurant","checkinsCount":3070,"usersCount":2332,"tipCount":61,"visitsCount":4013,"url":"http://www.montanaaleworks.com","tier":2,"message":"Moderate","currency":"$","rating":9.1},{"name":"Plonk","phone":"4065872170","address":"29 E Main St","lat":45.679355,"lng":-111.0361775,"city_fetched":"Bozeman","state":"MT","country":"United States","canonicalUrl":"https://foursquare.com/v/plonk/4b47af59f964a520853a26e3","category":"Wine Bar","checkinsCount":1601,"usersCount":859,"tipCount":28,"visitsCount":1835,"url":"http://plonkwine.com","tier":3,"message":"Expensive","currency":"$","rating":8.7},{"name":"Copper Whiskey Bar & Grill","phone":"4064041700","address":"101 E Main St","lat":45.67944930943644,"lng":-111.03559294999734,"city_fetched":"Bozeman","state":"MT","country":"United States","canonicalUrl":"https://foursquare.com/v/copper-whiskey-bar--grill/51537ca6e4b0696e45c0da35","category":"Whisky Bar","checkinsCount":624,"usersCount":349,"tipCount":11,"visitsCount":690,"url":"http://coppermontana.com","tier":2,"message":"Moderate","currency":"$","rating":8.7},{"name":"Bridger Brewing","phone":"4065872124","twitter":"bridgerbrewing","address":"1609 S 11th Ave","lat":45.662682582084685,"lng":-111.05261388311484,"city_fetched":"Bozeman","state":"MT","country":"United States","canonicalUrl":"https://foursquare.com/v/bridger-brewing/505f5bb4e4b0f168c043f188","category":"Brewery","checkinsCount":1033,"usersCount":592,"tipCount":16,"visitsCount":1926,"url":"http://www.bridgerbrewing.com","tier":1,"message":"Cheap","currency":"$","rating":8.7},{"name":"14 North","phone":"4064041800","address":"14 N Church Ave","lat":45.679672,"lng":-111.029969,"city_fetched":"Bozeman","state":"MT","country":"United States","canonicalUrl":"https://foursquare.com/v/14-north/51b684ef498e42db85b4de88","category":"Gastropub","checkinsCount":217,"usersCount":179,"tipCount":3,"visitsCount":264,"url":"http://14northrestaurant.com","tier":"","message":"","currency":"","rating":8.2},{"name":"MAP Brewing Co","lat":45.703187477120906,"lng":-111.04022787264032,"city_fetched":"Bozeman","state":"MT","country":"United States","canonicalUrl":"https://foursquare.com/v/map-brewing-co/562eb75b498e4d5a269e4a51","category":"Brewery","checkinsCount":168,"usersCount":211,"tipCount":4,"visitsCount":412,"tier":"","message":"","currency":"","rating":8.1},{"name":"Pour House Bar & Grill","phone":"4065877982","address":"15 N Rouse Ave","lat":45.67969878009338,"lng":-111.03225231170654,"city_fetched":"Bozeman","state":"MT","country":"United States","canonicalUrl":"https://foursquare.com/v/pour-house-bar--grill/4b47df5cf964a520624226e3","category":"Bar","checkinsCount":1239,"usersCount":469,"tipCount":11,"visitsCount":1421,"url":"http://www.pourhousemt.com","tier":2,"message":"Moderate","currency":"$","rating":7.9},{"name":"Cannery Lounge and Package Liquor","phone":"4065860270","address":"43 W Main St","lat":45.67946490848315,"lng":-111.03874889574914,"city_fetched":"Bozeman","state":"MT","country":"United States","canonicalUrl":"https://foursquare.com/v/cannery-lounge-and-package-liquor/4baed29cf964a520e9da3be3","category":"Bar","checkinsCount":472,"usersCount":211,"tipCount":5,"visitsCount":481,"tier":"","message":"","currency":"","rating":7.9},{"name":"Bacchus Pub","phone":"4065220079","address":"105 W Main St","lat":45.679447666768795,"lng":-111.03912949562073,"city_fetched":"Bozeman","state":"MT","country":"United States","canonicalUrl":"https://foursquare.com/v/bacchus-pub/4b496837f964a520476f26e3","category":"Pub","checkinsCount":1871,"usersCount":779,"tipCount":29,"visitsCount":2088,"url":"http://www.bacchuspubbozeman.com","tier":2,"message":"Moderate","currency":"$","rating":7.8},{"name":"Scoop Bar","phone":"4065229141","twitter":"scoopbarbozeman","address":"712 W Main St","lat":45.67875430601138,"lng":-111.04710466048638,"city_fetched":"Bozeman","state":"MT","country":"United States","canonicalUrl":"https://foursquare.com/scoopbarbozeman","category":"Bar","checkinsCount":219,"usersCount":93,"tipCount":7,"visitsCount":220,"url":"http://www.scoopbar.com","tier":"","message":"","currency":"","rating":7.8},{"name":"Lockhorn Hard Cider","phone":"4064041168","address":"21 S Wallace Ave","lat":45.6785774230957,"lng":-111.02855682373047,"city_fetched":"Bozeman","state":"MT","country":"United States","canonicalUrl":"https://foursquare.com/v/lockhorn-hard-cider/52f1829211d2629c599b7a56","category":"Brewery","checkinsCount":209,"usersCount":121,"tipCount":9,"visitsCount":246,"url":"http://lockhornhardcider.com","tier":2,"message":"Moderate","currency":"$","rating":7.7},{"name":"406 Brewing Company","phone":"4065853745","address":"101 E Oak St Ste D","lat":45.69292129,"lng":-111.03435478333333,"city_fetched":"Bozeman","state":"MT","country":"United States","canonicalUrl":"https://foursquare.com/v/406-brewing-company/4db3838b5da3a76f442bec75","category":"Brewery","checkinsCount":755,"usersCount":386,"tipCount":8,"visitsCount":1014,"url":"http://406brewing.com","tier":"","message":"","currency":"","rating":7.7},{"name":"Zebra Cocktail Lounge","phone":"4065858851","address":"321 E Main St","lat":45.67965755260995,"lng":-111.03235960006714,"city_fetched":"Bozeman","state":"MT","country":"United States","canonicalUrl":"https://foursquare.com/v/zebra-cocktail-lounge/4bdbdd123904a5935f504c9e","category":"Rock Club","checkinsCount":324,"usersCount":133,"tipCount":5,"visitsCount":327,"url":"http://www.zebracocktaillounge.com","tier":"","message":"","currency":"","rating":7.7},{"name":"Bozeman Brewing Company","phone":"4065859142","twitter":"bozemanbrewing","address":"504 N Broadway Ave","lat":45.68452354093922,"lng":-111.02400441657815,"city_fetched":"Bozeman","state":"MT","country":"United States","canonicalUrl":"https://foursquare.com/v/bozeman-brewing-company/4c6753d77abde21ea16c6668","category":"Brewery","checkinsCount":804,"usersCount":435,"tipCount":16,"visitsCount":992,"url":"http://bozemanbrewing.com","tier":"","message":"","currency":"","rating":7.7},{"name":"Colonel Blacks","phone":"4065858851","address":"321 E Main St","lat":45.67979247880638,"lng":-111.03230595588684,"city_fetched":"Bozeman","state":"MT","country":"United States","canonicalUrl":"https://foursquare.com/v/colonel-blacks/4c38299cae2da5936d4500c6","category":"Bar","checkinsCount":269,"usersCount":104,"tipCount":2,"visitsCount":272,"tier":"","message":"","currency":"","rating":7.7},{"name":"Spectators Sports Bar & Grill","phone":"4065872156","address":"19 Tai Ln","lat":45.663272801763696,"lng":-111.05403921365809,"city_fetched":"Bozeman","state":"MT","country":"United States","canonicalUrl":"https://foursquare.com/v/spectators-sports-bar--grill/4b5cc1a0f964a520744229e3","category":"Sports Bar","checkinsCount":659,"usersCount":331,"tipCount":7,"visitsCount":960,"tier":2,"message":"Moderate","currency":"$","rating":7.4},{"name":"The Bay Bar and Grille","phone":"4065870484","address":"2825 W Main St #5K","lat":45.67360877434686,"lng":-111.07883056446686,"city_fetched":"Bozeman","state":"MT","country":"United States","canonicalUrl":"https://foursquare.com/v/the-bay-bar-and-grille/4bb3dafc2397b713e0b738b3","category":"American Restaurant","checkinsCount":507,"usersCount":318,"tipCount":6,"visitsCount":663,"url":"http://www.thebaybarandgrille.com","tier":2,"message":"Moderate","currency":"$","rating":7.4},{"name":"The Molly Brown","address":"703 W Babcock St","lat":45.67862498163969,"lng":-111.04691594839096,"city_fetched":"Bozeman","state":"MT","country":"United States","canonicalUrl":"https://foursquare.com/v/the-molly-brown/4bdbccfb3904a593c5284c9e","category":"Bar","checkinsCount":604,"usersCount":282,"tipCount":4,"visitsCount":736,"tier":"","message":"","currency":"","rating":7.4},{"name":"Rocking R Bar","phone":"4065879355","address":"211 E Main St","lat":45.679359,"lng":-111.0338204,"city_fetched":"Bozeman","state":"MT","country":"United States","canonicalUrl":"https://foursquare.com/v/rocking-r-bar/4e31e82dd164fd324aba381a","category":"Bar","checkinsCount":1527,"usersCount":874,"tipCount":7,"visitsCount":1881,"url":"http://rockingrbar.com","tier":2,"message":"Moderate","currency":"$","rating":7.3},{"name":"White Dog Brewing","address":"121 W Main St","lat":45.67941665649414,"lng":-111.03954315185547,"city_fetched":"Bozeman","state":"MT","country":"United States","canonicalUrl":"https://foursquare.com/v/white-dog-brewing/55b1471f498ef435e804a747","category":"Brewery","checkinsCount":91,"usersCount":61,"tipCount":2,"visitsCount":93,"tier":"","message":"","currency":"","rating":7.2},{"name":"Bozeman Taproom & Fill Station","phone":"4065772337","address":"321 E Mendenhall St","lat":45.68049856640149,"lng":-111.0322741674591,"city_fetched":"Bozeman","state":"MT","country":"United States","canonicalUrl":"https://foursquare.com/v/bozeman-taproom--fill-station/571e93e0498e9f3e069b5516","category":"Bar","checkinsCount":35,"usersCount":46,"tipCount":3,"visitsCount":60,"url":"http://www.bozemantaproom.com","tier":"","message":"","currency":"","rating":7.2},{"name":"The Club Tavern & Grill","phone":"4065566212","address":"1325 N 7th Ave","lat":45.69414607867868,"lng":-111.0479171845345,"city_fetched":"Bozeman","state":"MT","country":"United States","canonicalUrl":"https://foursquare.com/v/the-club-tavern--grill/4de921cf1838b9ad8d20637e","category":"American Restaurant","checkinsCount":351,"usersCount":205,"tipCount":6,"visitsCount":377,"url":"http://www.theclubtavernandgrill.com","tier":3,"message":"Expensive","currency":"$","rating":7.1},{"name":"Haufbrau","phone":"4065874931","address":"22 S 8th Ave","lat":45.67860061948108,"lng":-111.04774475097656,"city_fetched":"Bozeman","state":"MT","country":"United States","canonicalUrl":"https://foursquare.com/v/haufbrau/4c4235dfd7fad13aa6cf08da","category":"Beer Garden","checkinsCount":472,"usersCount":150,"tipCount":8,"visitsCount":501,"tier":"","message":"","currency":"","rating":7},{"name":"Crystal Bar","phone":"4065860972","address":"123 E Main St","lat":45.67942740326726,"lng":-111.03498758810663,"city_fetched":"Bozeman","state":"MT","country":"United States","canonicalUrl":"https://foursquare.com/v/crystal-bar/4b82fc76f964a52006f130e3","category":"Bar","checkinsCount":847,"usersCount":378,"tipCount":5,"visitsCount":892,"tier":1,"message":"Cheap","currency":"$","rating":7},{"name":"The Filling Station","address":"2005 N Rouse Ave","lat":45.698802656996236,"lng":-111.03196125894048,"city_fetched":"Bozeman","state":"MT","country":"United States","canonicalUrl":"https://foursquare.com/v/the-filling-station/4b63bbc4f964a520d08e2ae3","category":"Bar","checkinsCount":201,"usersCount":149,"tipCount":2,"visitsCount":258,"tier":"","message":"","currency":"","rating":6.6},{"name":"The Bozeman Bowl","phone":"4065865018","address":"414 E Babcock St","lat":45.67803091674782,"lng":-111.03083610534668,"city_fetched":"Bozeman","state":"MT","country":"United States","canonicalUrl":"https://foursquare.com/v/the-bozeman-bowl/4c621892edb29c74496925a7","category":"Bowling Alley","checkinsCount":306,"usersCount":184,"tipCount":0,"visitsCount":351,"tier":"","message":"","currency":"","rating":6.3},{"name":"Bar Nine","phone":"4065512185","address":"311 E Main St","lat":45.679407,"lng":-111.032697,"city_fetched":"Bozeman","state":"MT","country":"United States","canonicalUrl":"https://foursquare.com/v/bar-nine/4bc7ef968b7c9c742f7637cf","category":"Bar","checkinsCount":815,"usersCount":356,"tipCount":6,"visitsCount":880,"tier":"","message":"","currency":"","rating":6.2},{"name":"Eagles Lounge","address":"312 E Main St","lat":45.679140332509455,"lng":-111.03256344795227,"city_fetched":"Bozeman","state":"MT","country":"United States","canonicalUrl":"https://foursquare.com/v/eagles-lounge/4b7f6d03f964a520f82d30e3","category":"Dive Bar","checkinsCount":303,"usersCount":135,"tipCount":3,"visitsCount":305,"tier":"","message":"","currency":"","rating":6.1},{"name":"The Cats Paw","phone":"4065863542","address":"721 N 7th Ave","lat":45.6872284279046,"lng":-111.0466542528519,"city_fetched":"Bozeman","state":"MT","country":"United States","canonicalUrl":"https://foursquare.com/v/the-cats-paw/4bd759ede914a593dc0851fa","category":"Dive Bar","checkinsCount":494,"usersCount":346,"tipCount":4,"visitsCount":699,"tier":1,"message":"Cheap","currency":"$","rating":5.7},{"name":"Hideaway Lounge","address":"1625 W Main St","lat":45.67996144294739,"lng":-111.05960011482239,"city_fetched":"Bozeman","state":"MT","country":"United States","canonicalUrl":"https://foursquare.com/v/hideaway-lounge/4c0db61dd64c0f475735275d","category":"Sports Bar","checkinsCount":233,"usersCount":95,"tipCount":2,"visitsCount":247,"tier":"","message":"","currency":"","rating":5}]