[{"name":"Broken Compass Brewing","twitter":"brkncompassbrew","address":"68 Continental Ct Unit B-12","lat":39.51475180914868,"lng":-106.0534930229187,"city_fetched":"Breckenridge","state":"CO","country":"United States","canonicalUrl":"https://foursquare.com/v/broken-compass-brewing/52733e6311d236cd6b54a276","category":"Brewery","checkinsCount":730,"usersCount":756,"tipCount":16,"visitsCount":1055,"url":"http://brokencompassbrewing.com","tier":"","message":"","currency":"","rating":9.1},{"name":"Apres","phone":"9704236700","twitter":"apreslibations","address":"130 S. Main St.","lat":39.48095324420713,"lng":-106.0460713505745,"city_fetched":"Breckenridge","state":"CO","country":"United States","canonicalUrl":"https://foursquare.com/v/apres/52b45f8011d24df7b5915092","category":"Beer Garden","checkinsCount":523,"usersCount":415,"tipCount":13,"visitsCount":560,"url":"http://www.apreslibations.com","tier":"","message":"","currency":"","rating":9},{"name":"Downstairs at Eric's","phone":"9704531401","address":"111 S Main St.","lat":39.48175234664178,"lng":-106.04635298252106,"city_fetched":"Breckenridge","state":"CO","country":"United States","canonicalUrl":"https://foursquare.com/v/downstairs-at-erics/40e0b100f964a52064031fe3","category":"Pizza Place","checkinsCount":5063,"usersCount":3838,"tipCount":54,"visitsCount":5303,"url":"http://downstairsaterics.com","tier":2,"message":"Moderate","currency":"$","rating":8.7},{"name":"Blue Stag Saloon","lat":39.4786,"lng":-106.045654,"city_fetched":"Breckenridge","state":"CO","country":"United States","canonicalUrl":"https://foursquare.com/v/blue-stag-saloon/53ae56d3498e0bd7ae4132e3","category":"Bar","checkinsCount":620,"usersCount":594,"tipCount":7,"visitsCount":767,"tier":"","message":"","currency":"","rating":8.7},{"name":"Ollie's Pub","phone":"9704539148","address":"401 S. Main St.","lat":39.4780982,"lng":-106.045428,"city_fetched":"Breckenridge","state":"CO","country":"United States","canonicalUrl":"https://foursquare.com/v/ollies-pub/4de2cf25b0fb2671488f4937","category":"Pub","checkinsCount":3488,"usersCount":2790,"tipCount":27,"visitsCount":4089,"url":"http://olliespub.com","tier":2,"message":"Moderate","currency":"$","rating":8.6},{"name":"Breckenridge Brewery & Pub","phone":"9704531550","twitter":"breckbrew","address":"600 S Main St","lat":39.476163,"lng":-106.043907,"city_fetched":"Breckenridge","state":"CO","country":"United States","canonicalUrl":"https://foursquare.com/v/breckenridge-brewery--pub/40e0b100f964a52017031fe3","category":"Brewery","checkinsCount":9966,"usersCount":8409,"tipCount":104,"visitsCount":11043,"url":"http://www.breckbrewpub.com","tier":2,"message":"Moderate","currency":"$","rating":8.5},{"name":"The Canteen","lat":39.48419973049967,"lng":-106.04567484458833,"city_fetched":"Breckenridge","state":"CO","country":"United States","canonicalUrl":"https://foursquare.com/v/the-canteen/548e20c2498e5c3a988b855b","category":"Beer Garden","checkinsCount":467,"usersCount":547,"tipCount":6,"visitsCount":617,"tier":"","message":"","currency":"","rating":8.3},{"name":"Breckenridge Oktoberfest","address":"Main Street","lat":39.48036516262101,"lng":-106.04603072493859,"city_fetched":"Breckenridge","state":"CO","country":"United States","canonicalUrl":"https://foursquare.com/v/breckenridge-oktoberfest/4e74db6e8998ed82a43b0d7e","category":"Beer Garden","checkinsCount":426,"usersCount":334,"tipCount":5,"visitsCount":464,"tier":"","message":"","currency":"","rating":8.3},{"name":"Blue River Bistro","phone":"9704536974","twitter":"blueriverbistro","address":"305 North Main Street","lat":39.48501490794505,"lng":-106.04645490646362,"city_fetched":"Breckenridge","state":"CO","country":"United States","canonicalUrl":"https://foursquare.com/v/blue-river-bistro/4b0b2d5ff964a5202c2e23e3","category":"Italian Restaurant","checkinsCount":2160,"usersCount":1744,"tipCount":44,"visitsCount":2491,"url":"http://www.blueriverbistro.com","tier":2,"message":"Moderate","currency":"$","rating":8.2},{"name":"The Motherloaded Tavern","phone":"9704532572","address":"103 S Main St.","lat":39.482048,"lng":-106.04633,"city_fetched":"Breckenridge","state":"CO","country":"United States","canonicalUrl":"https://foursquare.com/v/the-motherloaded-tavern/4b2c3752f964a520f8c324e3","category":"Bar","checkinsCount":3115,"usersCount":2305,"tipCount":54,"visitsCount":3311,"url":"http://motherloadedtavern.com","tier":2,"message":"Moderate","currency":"$","rating":7.8},{"name":"Gold Pan Saloon","phone":"9704535499","address":"103 N Main","lat":39.4824601481999,"lng":-106.04626606553036,"city_fetched":"Breckenridge","state":"CO","country":"United States","canonicalUrl":"https://foursquare.com/v/gold-pan-saloon/4b4ed4c8f964a5200ff626e3","category":"Bar","checkinsCount":2702,"usersCount":2252,"tipCount":27,"visitsCount":2950,"url":"http://thegoldpansaloon.com","tier":"","message":"","currency":"","rating":7.6},{"name":"T-Bar","phone":"9704535000","twitter":"breckenridgemtn","address":"1599 County Road 3","lat":39.48061230911885,"lng":-106.0671321560844,"city_fetched":"Breckenridge","state":"CO","country":"United States","canonicalUrl":"https://foursquare.com/v/tbar/4cdd852bd4ecb1f7d6e98548","category":"Bar","checkinsCount":3678,"usersCount":2303,"tipCount":23,"visitsCount":3735,"url":"http://www.breckenridge.com","tier":2,"message":"Moderate","currency":"$","rating":7.4},{"name":"The Absinthe Bar","address":"324 N Main St","lat":39.47840146361377,"lng":-106.04553134463258,"city_fetched":"Breckenridge","state":"CO","country":"United States","canonicalUrl":"https://foursquare.com/v/the-absinthe-bar/4d609922e4fe54810d73829e","category":"Bar","checkinsCount":648,"usersCount":510,"tipCount":5,"visitsCount":651,"url":"http://swisshavenrestaurant.com","tier":2,"message":"Moderate","currency":"$","rating":7.4},{"name":"Ski Hill Grill","twitter":"breckenridgemtn","address":"1312 Ski Hill Rd.","lat":39.480680409677454,"lng":-106.06710345290283,"city_fetched":"Breckenridge","state":"CO","country":"United States","canonicalUrl":"https://foursquare.com/v/ski-hill-grill/4c83d2602f1c236abc254643","category":"Apres Ski Bar","checkinsCount":1639,"usersCount":1078,"tipCount":16,"visitsCount":1660,"url":"http://www.breckenridge.com","tier":"","message":"","currency":"","rating":7.3},{"name":"Jake's Dive Bar","address":"100 Main St.","lat":39.482623978543096,"lng":-106.04605942499542,"city_fetched":"Breckenridge","state":"CO","country":"United States","canonicalUrl":"https://foursquare.com/v/jakes-dive-bar/4b64cfc0f964a520efd12ae3","category":"Dive Bar","checkinsCount":1141,"usersCount":851,"tipCount":15,"visitsCount":1156,"tier":1,"message":"Cheap","currency":"$","rating":7.2},{"name":"C.B. & Potts","address":"Main street","lat":39.47958766752218,"lng":-106.04609386506922,"city_fetched":"Breckenridge","state":"CO","country":"United States","canonicalUrl":"https://foursquare.com/v/cb--potts/5653da5e498e337169c2722f","category":"Pub","checkinsCount":150,"usersCount":143,"tipCount":3,"visitsCount":155,"tier":"","message":"","currency":"","rating":7.1},{"name":"Sevens","phone":"9704968910","twitter":"breckenridgemtn","address":"1979 Ski Hill Road","lat":39.4855476509051,"lng":-106.06712641544775,"city_fetched":"Breckenridge","state":"CO","country":"United States","canonicalUrl":"https://foursquare.com/v/sevens/4b7efb4bf964a520130e30e3","category":"American Restaurant","checkinsCount":2018,"usersCount":1412,"tipCount":30,"visitsCount":2144,"url":"http://www.breckenridge.com","tier":2,"message":"Moderate","currency":"$","rating":6.8},{"name":"Cecilia's","phone":"9704532243","address":"520 S Main St","lat":39.476741,"lng":-106.044567,"city_fetched":"Breckenridge","state":"CO","country":"United States","canonicalUrl":"https://foursquare.com/v/cecilias/40e0b100f964a52039031fe3","category":"Bar","checkinsCount":1284,"usersCount":1000,"tipCount":12,"visitsCount":1339,"url":"http://cecilias.tv","tier":"","message":"","currency":"","rating":6.7},{"name":"Ullr's Sports Grill","address":"401 S Main St","lat":39.476729,"lng":-106.04544,"city_fetched":"Breckenridge","state":"CO","country":"United States","canonicalUrl":"https://foursquare.com/v/ullrs-sports-grill/4b2d9110f964a520fbd824e3","category":"Bar","checkinsCount":674,"usersCount":451,"tipCount":5,"visitsCount":703,"tier":2,"message":"Moderate","currency":"$","rating":6.6},{"name":"The Brown Hotel & Restaurant","phone":"9704530084","address":"208 S Ridge St","lat":39.483858162205784,"lng":-106.04468756704928,"city_fetched":"Breckenridge","state":"CO","country":"United States","canonicalUrl":"https://foursquare.com/v/the-brown-hotel--restaurant/4cf30f2c8333224b2bdf138e","category":"Dive Bar","checkinsCount":369,"usersCount":279,"tipCount":7,"visitsCount":385,"tier":1,"message":"Cheap","currency":"$","rating":6.2},{"name":"Burke & Riley's Irish Pub","phone":"9705472782","address":"520 South Main St","lat":39.476823,"lng":-106.04446,"city_fetched":"Breckenridge","state":"CO","country":"United States","canonicalUrl":"https://foursquare.com/v/burke--rileys-irish-pub/4b0f52c7f964a520836123e3","category":"Pub","checkinsCount":2206,"usersCount":1452,"tipCount":26,"visitsCount":2250,"url":"http://burke.com","tier":"","message":"","currency":"","rating":6.2},{"name":"Park Avenue Pub","address":"605 S Park Ave.","lat":39.477368361498364,"lng":-106.04667360723323,"city_fetched":"Breckenridge","state":"CO","country":"United States","canonicalUrl":"https://foursquare.com/v/park-avenue-pub/4b1dea40f964a5204d1624e3","category":"Pub","checkinsCount":702,"usersCount":521,"tipCount":7,"visitsCount":724,"tier":"","message":"","currency":"","rating":6.2},{"name":"Brooklyns Billards And Tavern","address":"520 s main","lat":39.477128,"lng":-106.045122,"city_fetched":"Breckenridge","state":"CO","country":"United States","canonicalUrl":"https://foursquare.com/v/brooklyns-billards-and-tavern/4cca4805d7538cfa1e1df278","category":"Bar","checkinsCount":641,"usersCount":455,"tipCount":4,"visitsCount":645,"tier":"","message":"","currency":"","rating":6.1},{"name":"The Maggie at Peak 9 Base","twitter":"breckenridgemtn","address":"605 S Park","lat":39.47595528124577,"lng":-106.04731649166712,"city_fetched":"Breckenridge","state":"CO","country":"United States","canonicalUrl":"https://foursquare.com/v/the-maggie-at-peak-9-base/4b563d16f964a520e50628e3","category":"Bar","checkinsCount":2560,"usersCount":2000,"tipCount":13,"visitsCount":3175,"url":"http://www.breckenridge.com","tier":2,"message":"Moderate","currency":"$","rating":5.9},{"name":"Coppertop Bar & Cafe","address":"620 Village Rd.","lat":39.473545,"lng":-106.0513,"city_fetched":"Breckenridge","state":"CO","country":"United States","canonicalUrl":"https://foursquare.com/v/coppertop-bar--cafe/4b51ff91f964a5203e6027e3","category":"Food Court","checkinsCount":2547,"usersCount":1593,"tipCount":14,"visitsCount":2606,"url":"http://www.beaverrun.com/breckenridge-restaurants-dining","tier":2,"message":"Moderate","currency":"$","rating":5.8},{"name":"Napper Tandy's Irish Pub","phone":"9704534949","address":"110 Lincoln Ave.","lat":39.48234850380489,"lng":-106.0453821047917,"city_fetched":"Breckenridge","state":"CO","country":"United States","canonicalUrl":"https://foursquare.com/v/napper-tandys-irish-pub/4bac2f41f964a520cce93ae3","category":"Bar","checkinsCount":679,"usersCount":551,"tipCount":7,"visitsCount":689,"tier":"","message":"","currency":"","rating":5.5},{"name":"Liquid Lounge","phone":"9704532782","address":"520 Main St","lat":39.476651044147985,"lng":-106.04450962802957,"city_fetched":"Breckenridge","state":"CO","country":"United States","canonicalUrl":"https://foursquare.com/v/liquid-lounge/4b0f820ff964a520cd6223e3","category":"Bar","checkinsCount":827,"usersCount":582,"tipCount":13,"visitsCount":835,"tier":"","message":"","currency":"","rating":5.2}]