[{"name":"Fremont Brewing Company","phone":"2064202407","twitter":"fremontbrewing","address":"3409 Woodland Park Ave N","lat":47.64902743926716,"lng":-122.34464548812034,"neighborhood":"Fremont","city_fetched":"Bremerton,US","state":"WA","country":"United States","canonicalUrl":"https://foursquare.com/v/fremont-brewing-company/40b13b00f964a52081f61ee3","categoryId":"50327c8591d4c4b30a586d5d","category":"Brewery","checkinsCount":12011,"usersCount":7272,"tipCount":112,"visitsCount":15327,"url":"http://www.fremontbrewing.com","tier":1,"message":"Cheap","currency":"$","rating":9.4},{"name":"Bathtub Gin & Co.","phone":"2067286069","address":"2205 2nd Ave","lat":47.612886268508305,"lng":-122.3451367020607,"neighborhood":"Belltown","city_fetched":"Bremerton,US","state":"WA","country":"United States","canonicalUrl":"https://foursquare.com/v/bathtub-gin--co/4a7a27bcf964a520b1e81fe3","categoryId":"4bf58dd8d48988d1d4941735","category":"Speakeasy","checkinsCount":8431,"usersCount":5402,"tipCount":103,"visitsCount":8638,"url":"http://bathtubginseattle.com","tier":2,"message":"Moderate","currency":"$","rating":9.1},{"name":"Smith","phone":"2067091900","twitter":"smithseattle","address":"332 15th Ave E","lat":47.621532796618126,"lng":-122.3124891834766,"neighborhood":"Capitol Hill","city_fetched":"Bremerton,US","state":"WA","country":"United States","canonicalUrl":"https://foursquare.com/v/smith/46781e65f964a520e9471fe3","categoryId":"4bf58dd8d48988d11b941735","category":"Pub","checkinsCount":12453,"usersCount":5136,"tipCount":84,"visitsCount":13337,"url":"http://www.smithseattle.com","tier":2,"message":"Moderate","currency":"$","rating":9.1},{"name":"Brouwer's Cafe","phone":"2062672437","twitter":"brouwerscafe","address":"400 N 35th St","lat":47.651678732878814,"lng":-122.3542033601333,"neighborhood":"Fremont","city_fetched":"Bremerton,US","state":"WA","country":"United States","canonicalUrl":"https://foursquare.com/v/brouwers-cafe/437e6b00f964a520bd2a1fe3","categoryId":"4bf58dd8d48988d11b941735","category":"Pub","checkinsCount":16059,"usersCount":7597,"tipCount":97,"visitsCount":17089,"url":"http://brouwerscafe.blogspot.com","tier":2,"message":"Moderate","currency":"$","rating":9.1},{"name":"West 5","phone":"2069351966","twitter":"westfive","address":"4539 California Ave SW","lat":47.561794131235374,"lng":-122.38707974457343,"neighborhood":"West Seattle","city_fetched":"Bremerton,US","state":"WA","country":"United States","canonicalUrl":"https://foursquare.com/v/west-5/42af6f80f964a5205c251fe3","categoryId":"4bf58dd8d48988d121941735","category":"Lounge","checkinsCount":4434,"usersCount":1752,"tipCount":57,"visitsCount":4547,"url":"http://www.westfive.com","tier":2,"message":"Moderate","currency":"$","rating":9.1},{"name":"Oliver's Twist","phone":"2067066673","twitter":"mrsowerberry","address":"6822 Greenwood Ave N","lat":47.6795009,"lng":-122.355089,"neighborhood":"Phinney Ridge","city_fetched":"Bremerton,US","state":"WA","country":"United States","canonicalUrl":"https://foursquare.com/v/olivers-twist/45b7e0f5f964a520ca411fe3","categoryId":"4bf58dd8d48988d11e941735","category":"Cocktail Bar","checkinsCount":3137,"usersCount":1496,"tipCount":36,"visitsCount":3514,"url":"http://www.oliverstwistseattle.com","tier":2,"message":"Moderate","currency":"$","rating":9},{"name":"Stoup Brewing","phone":"2064575524","twitter":"stoupbrewing","address":"1108 NW 52nd St","lat":47.66655946531123,"lng":-122.3711755674959,"neighborhood":"Ballard","city_fetched":"Bremerton,US","state":"WA","country":"United States","canonicalUrl":"https://foursquare.com/v/stoup-brewing/51951469498e4f724104b356","categoryId":"50327c8591d4c4b30a586d5d","category":"Brewery","checkinsCount":3151,"usersCount":2079,"tipCount":32,"visitsCount":4322,"url":"http://stoupbrewing.com","tier":1,"message":"Cheap","currency":"$","rating":9},{"name":"Two Beers Brewing Company","phone":"2067620490","twitter":"twobeersbrewing","address":"4700 Ohio Ave S","lat":47.56073928625916,"lng":-122.33798337481352,"neighborhood":"Industrial District","city_fetched":"Bremerton,US","state":"WA","country":"United States","canonicalUrl":"https://foursquare.com/v/two-beers-brewing-company/4af5f6fdf964a52089ff21e3","categoryId":"50327c8591d4c4b30a586d5d","category":"Brewery","checkinsCount":2713,"usersCount":1240,"tipCount":20,"visitsCount":3012,"url":"http://www.twobeersbrewery.com","tier":"","message":"","currency":"","rating":8.9},{"name":"Prost - West Seattle","phone":"2064207174","twitter":"prostwest","address":"3407 California Ave SW","lat":47.573485,"lng":-122.38700505,"neighborhood":"North Admiral","city_fetched":"Bremerton,US","state":"WA","country":"United States","canonicalUrl":"https://foursquare.com/v/prost--west-seattle/4a12465af964a52087771fe3","categoryId":"4bf58dd8d48988d11b941735","category":"Pub","checkinsCount":2923,"usersCount":1053,"tipCount":22,"visitsCount":3299,"url":"http://prostwestseattle.com","tier":2,"message":"Moderate","currency":"$","rating":8.8},{"name":"The Octopus Bar","phone":"2065822483","address":"2109 N 45th St","lat":47.661295811706594,"lng":-122.33319320070191,"neighborhood":"Wallingford","city_fetched":"Bremerton,US","state":"WA","country":"United States","canonicalUrl":"https://foursquare.com/v/the-octopus-bar/52e313b8498e58b7dc9f26dc","categoryId":"4bf58dd8d48988d118941735","category":"Dive Bar","checkinsCount":1329,"usersCount":840,"tipCount":16,"visitsCount":1530,"url":"http://theoctopusbar.com","tier":1,"message":"Cheap","currency":"$","rating":8.8},{"name":"Peddler Brewing Company","phone":"3603620002","twitter":"peddlerbrewing","address":"1514 NW Leary Way","lat":47.66382074912687,"lng":-122.37700439650484,"neighborhood":"Ballard","city_fetched":"Bremerton,US","state":"WA","country":"United States","canonicalUrl":"https://foursquare.com/peddlerbrewing","categoryId":"50327c8591d4c4b30a586d5d","category":"Brewery","checkinsCount":2068,"usersCount":1794,"tipCount":13,"visitsCount":3024,"url":"http://www.peddlerbrewing.com","tier":1,"message":"Cheap","currency":"$","rating":8.8},{"name":"Reuben's Brews","phone":"2067842859","twitter":"reubensbrews","address":"1406 NW 53rd St Ste 1A","lat":47.66732166779699,"lng":-122.37415316855241,"neighborhood":"Ballard","city_fetched":"Bremerton,US","state":"WA","country":"United States","canonicalUrl":"https://foursquare.com/v/reubens-brews/4f1c60f5e4b04ae084158528","categoryId":"50327c8591d4c4b30a586d5d","category":"Brewery","checkinsCount":4497,"usersCount":2121,"tipCount":38,"visitsCount":5797,"url":"http://reubensbrews.com","tier":2,"message":"Moderate","currency":"$","rating":8.8},{"name":"The Pine Box","phone":"2065880375","twitter":"pinebox","address":"1600 Melrose Ave","lat":47.61543746977134,"lng":-122.32766405932361,"neighborhood":"Capitol Hill","city_fetched":"Bremerton,US","state":"WA","country":"United States","canonicalUrl":"https://foursquare.com/v/the-pine-box/4f566c9ae4b01a8c7fd8b325","categoryId":"4bf58dd8d48988d11b941735","category":"Pub","checkinsCount":10337,"usersCount":5191,"tipCount":70,"visitsCount":11679,"url":"http://pineboxbar.com","tier":2,"message":"Moderate","currency":"$","rating":8.8},{"name":"Liberty","phone":"2063239898","twitter":"libertylovesyou","address":"517 15th Ave E","lat":47.623565302687545,"lng":-122.31286715744078,"neighborhood":"Capitol Hill","city_fetched":"Bremerton,US","state":"WA","country":"United States","canonicalUrl":"https://foursquare.com/v/liberty/4447ebabf964a5206e321fe3","categoryId":"4bf58dd8d48988d121941735","category":"Lounge","checkinsCount":10372,"usersCount":3567,"tipCount":100,"visitsCount":10654,"url":"http://www.libertybars.com","tier":2,"message":"Moderate","currency":"$","rating":8.8},{"name":"Sun Liquor Lounge","phone":"2068601130","twitter":"sunliquor","address":"607 Summit Ave E","lat":47.62456058,"lng":-122.32541,"neighborhood":"Capitol Hill","city_fetched":"Bremerton,US","state":"WA","country":"United States","canonicalUrl":"https://foursquare.com/v/sun-liquor-lounge/449a8388f964a52098341fe3","categoryId":"4bf58dd8d48988d11e941735","category":"Cocktail Bar","checkinsCount":5779,"usersCount":2284,"tipCount":49,"visitsCount":5872,"url":"http://sunliquor.com","tier":2,"message":"Moderate","currency":"$","rating":8.8},{"name":"The Saint","phone":"2063239922","twitter":"thesaintsocial","address":"1416 E Olive Way","lat":47.617564,"lng":-122.326499,"neighborhood":"Capitol Hill","city_fetched":"Bremerton,US","state":"WA","country":"United States","canonicalUrl":"https://foursquare.com/v/the-saint/47fcdf8df964a520d74e1fe3","categoryId":"4bf58dd8d48988d116941735","category":"Bar","checkinsCount":4940,"usersCount":2676,"tipCount":51,"visitsCount":5008,"url":"http://www.thesaintsocialclub.com","tier":2,"message":"Moderate","currency":"$","rating":8.7},{"name":"Witness","phone":"2063290248","address":"410 Broadway E","lat":47.62234979281263,"lng":-122.32087384500876,"neighborhood":"Capitol Hill","city_fetched":"Bremerton,US","state":"WA","country":"United States","canonicalUrl":"https://foursquare.com/v/witness/52156bbd498eb27e8d0eb520","categoryId":"4bf58dd8d48988d11e941735","category":"Cocktail Bar","checkinsCount":4830,"usersCount":1885,"tipCount":44,"visitsCount":5106,"url":"http://witnessbar.com","tier":2,"message":"Moderate","currency":"$","rating":8.7},{"name":"Hazlewood","phone":"2067830478","address":"2311 NW Market St","lat":47.668571068450944,"lng":-122.386772710321,"neighborhood":"Ballard","city_fetched":"Bremerton,US","state":"WA","country":"United States","canonicalUrl":"https://foursquare.com/v/hazlewood/43df51bdf964a520b72e1fe3","categoryId":"4bf58dd8d48988d116941735","category":"Bar","checkinsCount":3856,"usersCount":1692,"tipCount":30,"visitsCount":3930,"tier":2,"message":"Moderate","currency":"$","rating":8.7},{"name":"Knee High Stocking Co.","phone":"2069797049","twitter":"kneehighstockco","address":"1356 E Olive Way","lat":47.616954,"lng":-122.32723,"neighborhood":"Capitol Hill","city_fetched":"Bremerton,US","state":"WA","country":"United States","canonicalUrl":"https://foursquare.com/v/knee-high-stocking-co/49b7551df964a52028531fe3","categoryId":"4bf58dd8d48988d1d4941735","category":"Speakeasy","checkinsCount":5451,"usersCount":3207,"tipCount":58,"visitsCount":5554,"url":"http://www.kneehighstocking.com","tier":2,"message":"Moderate","currency":"$","rating":8.7},{"name":"Beveridge Place Pub","phone":"2069329906","twitter":"bppub","address":"6413 California Ave SW","lat":47.545433160264224,"lng":-122.38745304827644,"neighborhood":"West Seattle","city_fetched":"Bremerton,US","state":"WA","country":"United States","canonicalUrl":"https://foursquare.com/v/beveridge-place-pub/442c2497f964a520d0311fe3","categoryId":"4bf58dd8d48988d11b941735","category":"Pub","checkinsCount":6178,"usersCount":2197,"tipCount":39,"visitsCount":6683,"url":"http://www.beveridgeplacepub.com","tier":2,"message":"Moderate","currency":"$","rating":8.7},{"name":"Rob Roy","phone":"2069568423","twitter":"robroyseattle","address":"2332 2nd Ave","lat":47.614807,"lng":-122.34669768333333,"neighborhood":"Belltown","city_fetched":"Bremerton,US","state":"WA","country":"United States","canonicalUrl":"https://foursquare.com/v/rob-roy/41a7c380f964a520491e1fe3","categoryId":"4bf58dd8d48988d11e941735","category":"Cocktail Bar","checkinsCount":9057,"usersCount":3782,"tipCount":90,"visitsCount":9205,"url":"http://www.robroyseattle.com","tier":2,"message":"Moderate","currency":"$","rating":8.6},{"name":"Essex","address":"1421 NW 70th St","lat":47.679422,"lng":-122.37491,"neighborhood":"Ballard","city_fetched":"Bremerton,US","state":"WA","country":"United States","canonicalUrl":"https://foursquare.com/v/essex/5028592be4b07f3295f264f6","categoryId":"4bf58dd8d48988d11e941735","category":"Cocktail Bar","checkinsCount":1094,"usersCount":552,"tipCount":14,"visitsCount":1131,"url":"http://essexbarseattle.com","tier":2,"message":"Moderate","currency":"$","rating":8.6},{"name":"Naked City Brewery & Taphouse","phone":"2068386299","twitter":"nakedcitybeer","address":"8564 Greenwood Ave N","lat":47.69181130035372,"lng":-122.35504746437073,"neighborhood":"Greenwood","city_fetched":"Bremerton,US","state":"WA","country":"United States","canonicalUrl":"https://foursquare.com/v/naked-city-brewery--taphouse/49bfcb74f964a52025551fe3","categoryId":"50327c8591d4c4b30a586d5d","category":"Brewery","checkinsCount":9970,"usersCount":3513,"tipCount":75,"visitsCount":10414,"url":"http://nakedcitybrewing.com","tier":2,"message":"Moderate","currency":"$","rating":8.6},{"name":"Elliott Bay Brewhouse & Pub","phone":"2062464211","twitter":"elliottbay_beer","address":"255 SW 152nd St","lat":47.466683265464816,"lng":-122.33884550261838,"city_fetched":"Bremerton,US","state":"WA","country":"United States","canonicalUrl":"https://foursquare.com/v/elliott-bay-brewhouse--pub/4ad21a84f964a52065df20e3","categoryId":"50327c8591d4c4b30a586d5d","category":"Brewery","checkinsCount":4953,"usersCount":2151,"tipCount":50,"visitsCount":5666,"url":"http://www.elliottbaybrewing.com","tier":2,"message":"Moderate","currency":"$","rating":8.6},{"name":"Six Seven","phone":"2062694575","twitter":"theedgewatersea","address":"2411 Alaskan Way","lat":47.61260978618081,"lng":-122.35276489817964,"neighborhood":"Belltown","city_fetched":"Bremerton,US","state":"WA","country":"United States","canonicalUrl":"https://foursquare.com/v/six-seven/439be173f964a520e62b1fe3","categoryId":"4bf58dd8d48988d1d5941735","category":"Hotel Bar","checkinsCount":3732,"usersCount":2696,"tipCount":78,"visitsCount":3886,"url":"http://www.facebook.com/TheEdgewater","tier":3,"message":"Expensive","currency":"$","rating":8.6},{"name":"Foundation Nightclub","phone":"2065357285","twitter":"foundationsea","address":"2218 Western Ave Ste 100","lat":47.61247140914838,"lng":-122.34650116379463,"neighborhood":"Belltown","city_fetched":"Bremerton,US","state":"WA","country":"United States","canonicalUrl":"https://foursquare.com/foundationsea","categoryId":"4bf58dd8d48988d11f941735","category":"Nightclub","checkinsCount":3525,"usersCount":1844,"tipCount":13,"visitsCount":4282,"url":"http://www.foundation-nightclub.com","tier":2,"message":"Moderate","currency":"$","rating":8.6},{"name":"King's Hardware","phone":"2067820027","twitter":"kingsballard","address":"5225 Ballard Ave NW","lat":47.66593648637691,"lng":-122.38303899765015,"neighborhood":"Ballard","city_fetched":"Bremerton,US","state":"WA","country":"United States","canonicalUrl":"https://foursquare.com/v/kings-hardware/4512dc9af964a520ae391fe3","categoryId":"4bf58dd8d48988d116941735","category":"Bar","checkinsCount":14427,"usersCount":6749,"tipCount":97,"visitsCount":14680,"url":"http://www.kingsballard.com","tier":2,"message":"Moderate","currency":"$","rating":8.6},{"name":"Monkey Loft","address":"2915 1st Ave","lat":47.57727482724362,"lng":-122.33444086623992,"city_fetched":"Bremerton,US","state":"WA","country":"United States","canonicalUrl":"https://foursquare.com/v/monkey-loft/4e85947893ad3864105e2462","categoryId":"4bf58dd8d48988d11a941735","category":"Other Nightlife","checkinsCount":887,"usersCount":605,"tipCount":10,"visitsCount":1285,"tier":2,"message":"Moderate","currency":"$","rating":8.5},{"name":"Prost Tavern","phone":"2067065430","twitter":"prosttavern","address":"7311 Greenwood Ave N","lat":47.68221258833846,"lng":-122.35551879691516,"neighborhood":"Phinney Ridge","city_fetched":"Bremerton,US","state":"WA","country":"United States","canonicalUrl":"https://foursquare.com/v/prost-tavern/412bd680f964a520980c1fe3","categoryId":"4bf58dd8d48988d116941735","category":"Bar","checkinsCount":2206,"usersCount":1065,"tipCount":15,"visitsCount":2253,"url":"http://www.prosttavern.net","tier":2,"message":"Moderate","currency":"$","rating":8.5},{"name":"The Leary Traveler","phone":"2067834805","twitter":"thelearytraveler","address":"4354 Leary Way NW","lat":47.660252,"lng":-122.36567974090221,"neighborhood":"Fremont","city_fetched":"Bremerton,US","state":"WA","country":"United States","canonicalUrl":"https://foursquare.com/v/the-leary-traveler/4a2dba30f964a520e6971fe3","categoryId":"4bf58dd8d48988d116941735","category":"Bar","checkinsCount":3061,"usersCount":1249,"tipCount":27,"visitsCount":3110,"url":"http://www.learytraveler.com/home","tier":2,"message":"Moderate","currency":"$","rating":8.5},{"name":"Art of the Table","phone":"2062820942","address":"1054 N 39th St","lat":47.653967,"lng":-122.3444527387619,"neighborhood":"Fremont","city_fetched":"Bremerton,US","state":"WA","country":"United States","canonicalUrl":"https://foursquare.com/v/art-of-the-table/4a77b232f964a52000e51fe3","categoryId":"4bf58dd8d48988d123941735","category":"Wine Bar","checkinsCount":768,"usersCount":714,"tipCount":20,"visitsCount":926,"url":"http://www.artofthetable.net","tier":"","message":"","currency":"","rating":8.5},{"name":"The Grizzled Wizard","phone":"2063954749","twitter":"grizzledwizard","address":"2317 N 45th St","lat":47.66130989841848,"lng":-122.33065427444382,"neighborhood":"Wallingford","city_fetched":"Bremerton,US","state":"WA","country":"United States","canonicalUrl":"https://foursquare.com/v/the-grizzled-wizard/4ba18714f964a52047be37e3","categoryId":"4bf58dd8d48988d116941735","category":"Bar","checkinsCount":4014,"usersCount":685,"tipCount":12,"visitsCount":4299,"url":"http://grizzledwizard.com","tier":"","message":"","currency":"","rating":8.5},{"name":"SeaMonster Lounge","phone":"2069921120","address":"2202 N 45th St","lat":47.661387925730004,"lng":-122.33233451843262,"neighborhood":"Wallingford","city_fetched":"Bremerton,US","state":"WA","country":"United States","canonicalUrl":"https://foursquare.com/v/seamonster-lounge/43b69f92f964a520ca2c1fe3","categoryId":"4bf58dd8d48988d121941735","category":"Lounge","checkinsCount":2166,"usersCount":1021,"tipCount":23,"visitsCount":2325,"tier":1,"message":"Cheap","currency":"$","rating":8.5},{"name":"Locöl Barley & Vine","phone":"2067087725","twitter":"locolseattle","address":"7902 35th Ave SW","lat":47.53175055,"lng":-122.376373,"neighborhood":"Roxhill","city_fetched":"Bremerton,US","state":"WA","country":"United States","canonicalUrl":"https://foursquare.com/v/loc%C3%B6l-barley--vine/4d0955e363d52c0fdc90cb7f","categoryId":"4bf58dd8d48988d123941735","category":"Wine Bar","checkinsCount":1290,"usersCount":531,"tipCount":18,"visitsCount":1341,"url":"http://www.locolseattle.com","tier":2,"message":"Moderate","currency":"$","rating":8.5},{"name":"Percy's & Co.","phone":"2064203750","address":"5233 Ballard Ave NW","lat":47.666237,"lng":-122.383192,"neighborhood":"Ballard","city_fetched":"Bremerton,US","state":"WA","country":"United States","canonicalUrl":"https://foursquare.com/v/percys--co/520947d611d2031f1ae47e8a","categoryId":"4bf58dd8d48988d11e941735","category":"Cocktail Bar","checkinsCount":2910,"usersCount":1777,"tipCount":26,"visitsCount":3007,"url":"http://www.percysseattle.com","tier":2,"message":"Moderate","currency":"$","rating":8.4},{"name":"Outlander Brewery & Pub","phone":"2064864088","twitter":"outlanderbrew","address":"225 N 36th St","lat":47.65232213800995,"lng":-122.35522985458373,"neighborhood":"Fremont","city_fetched":"Bremerton,US","state":"WA","country":"United States","canonicalUrl":"https://foursquare.com/v/outlander-brewery--pub/5009f956067dc4c8b165a68b","categoryId":"50327c8591d4c4b30a586d5d","category":"Brewery","checkinsCount":1950,"usersCount":1247,"tipCount":13,"visitsCount":2193,"url":"http://outlanderbrewing.com","tier":1,"message":"Cheap","currency":"$","rating":8.4},{"name":"Pies & Pints","phone":"2065247082","twitter":"piespints","address":"1215 NE 65th St","lat":47.67569341947555,"lng":-122.3150047659874,"neighborhood":"Roosevelt","city_fetched":"Bremerton,US","state":"WA","country":"United States","canonicalUrl":"https://foursquare.com/v/pies--pints/414a2900f964a520ce1c1fe3","categoryId":"4bf58dd8d48988d11b941735","category":"Pub","checkinsCount":4397,"usersCount":2220,"tipCount":48,"visitsCount":4762,"url":"http://piesandpints.com","tier":2,"message":"Moderate","currency":"$","rating":8.4},{"name":"Populuxe Brewing","phone":"2067063400","twitter":"populuxebrewing","address":"826B NW 49th St","lat":47.66454237104572,"lng":-122.3679296540399,"neighborhood":"Ballard","city_fetched":"Bremerton,US","state":"WA","country":"United States","canonicalUrl":"https://foursquare.com/v/populuxe-brewing/51301af4e4b03f2989fc0a65","categoryId":"50327c8591d4c4b30a586d5d","category":"Brewery","checkinsCount":1722,"usersCount":1277,"tipCount":23,"visitsCount":2441,"url":"http://www.populuxebrewing.com","tier":"","message":"","currency":"","rating":8.4},{"name":"Star Brass Lounge","address":"5809 Airport Way S","lat":47.550701263552476,"lng":-122.31840030967504,"neighborhood":"Georgetown","city_fetched":"Bremerton,US","state":"WA","country":"United States","canonicalUrl":"https://foursquare.com/v/star-brass-lounge/51675db3e4b058109a3bc3ce","categoryId":"4bf58dd8d48988d121941735","category":"Lounge","checkinsCount":925,"usersCount":648,"tipCount":4,"visitsCount":1216,"tier":"","message":"","currency":"","rating":8.4},{"name":"C.C. Attle's","phone":"2067260565","address":"1701 E Olive Way","lat":47.61967371476228,"lng":-122.32331156730652,"neighborhood":"Capitol Hill","city_fetched":"Bremerton,US","state":"WA","country":"United States","canonicalUrl":"https://foursquare.com/v/cc-attles/43012c80f964a520fc261fe3","categoryId":"4bf58dd8d48988d1d8941735","category":"Gay Bar","checkinsCount":8344,"usersCount":2119,"tipCount":33,"visitsCount":9754,"url":"http://ccattles.net","tier":1,"message":"Cheap","currency":"$","rating":8.4},{"name":"The Atlantic Crossing","phone":"2067296266","twitter":"acpubseattle","address":"6508 Roosevelt Way NE","lat":47.67616231,"lng":-122.31724067,"neighborhood":"Roosevelt","city_fetched":"Bremerton,US","state":"WA","country":"United States","canonicalUrl":"https://foursquare.com/v/the-atlantic-crossing/46c0d694f964a520f0491fe3","categoryId":"4bf58dd8d48988d11b941735","category":"Pub","checkinsCount":4492,"usersCount":1453,"tipCount":37,"visitsCount":4642,"url":"http://theatlanticcrossing.com","tier":1,"message":"Cheap","currency":"$","rating":8.4},{"name":"Shorty's","phone":"2064415449","address":"2222 2nd Ave","lat":47.61378894064022,"lng":-122.34492074104432,"neighborhood":"Belltown","city_fetched":"Bremerton,US","state":"WA","country":"United States","canonicalUrl":"https://foursquare.com/v/shortys/40b3de00f964a52029001fe3","categoryId":"4bf58dd8d48988d118941735","category":"Dive Bar","checkinsCount":13076,"usersCount":5550,"tipCount":75,"visitsCount":13241,"url":"http://www.shortydog.com","tier":1,"message":"Cheap","currency":"$","rating":8.3},{"name":"The Duchess Tavern","phone":"2065278606","address":"2827 NE 55th St","lat":47.66851049,"lng":-122.296139,"neighborhood":"Northeast Seattle","city_fetched":"Bremerton,US","state":"WA","country":"United States","canonicalUrl":"https://foursquare.com/v/the-duchess-tavern/435d7580f964a52019291fe3","categoryId":"4bf58dd8d48988d118941735","category":"Dive Bar","checkinsCount":2200,"usersCount":1181,"tipCount":25,"visitsCount":2429,"tier":"","message":"","currency":"","rating":8.3},{"name":"Tin Room Bar & Grill","phone":"2062428040","address":"923 SW 152nd St","lat":47.46666133403778,"lng":-122.346834,"city_fetched":"Bremerton,US","state":"WA","country":"United States","canonicalUrl":"https://foursquare.com/v/tin-room-bar--grill/444bfae2f964a5207d321fe3","categoryId":"4bf58dd8d48988d116941735","category":"Bar","checkinsCount":1657,"usersCount":624,"tipCount":17,"visitsCount":1756,"url":"http://tinroombar.com","tier":"","message":"","currency":"","rating":8.3},{"name":"List","phone":"2064411000","address":"2226 1st Ave","lat":47.613234401461476,"lng":-122.34615082837043,"neighborhood":"Belltown","city_fetched":"Bremerton,US","state":"WA","country":"United States","canonicalUrl":"https://foursquare.com/v/list/49c6da71f964a52085571fe3","categoryId":"4bf58dd8d48988d121941735","category":"Lounge","checkinsCount":8511,"usersCount":3264,"tipCount":89,"visitsCount":8558,"url":"http://www.listbelltown.com","tier":2,"message":"Moderate","currency":"$","rating":8.3},{"name":"Slaughter County Brewing Co.","phone":"3603292340","twitter":"scbc_beer","address":"1307 Bay St","lat":47.543184317208485,"lng":-122.62685048168937,"city_fetched":"Bremerton,US","state":"WA","country":"United States","canonicalUrl":"https://foursquare.com/v/slaughter-county-brewing-co/501b3d32e4b050c6fa56ebef","categoryId":"50327c8591d4c4b30a586d5d","category":"Brewery","checkinsCount":576,"usersCount":255,"tipCount":5,"visitsCount":684,"tier":"","message":"","currency":"","rating":8.3},{"name":"Hattie's Hat Restaurant","phone":"2067840175","twitter":"hatties_hat","address":"5231 Ballard Ave NW","lat":47.666122804221374,"lng":-122.38309135874057,"neighborhood":"Ballard","city_fetched":"Bremerton,US","state":"WA","country":"United States","canonicalUrl":"https://foursquare.com/v/hatties-hat-restaurant/40b13b00f964a52096f61ee3","categoryId":"4bf58dd8d48988d116941735","category":"Bar","checkinsCount":6569,"usersCount":2983,"tipCount":52,"visitsCount":6640,"url":"http://hatties-hat.com","tier":2,"message":"Moderate","currency":"$","rating":8.3},{"name":"Smartypants Garage","address":"626 SW 152nd St","lat":47.4671559516987,"lng":-122.34291112682561,"city_fetched":"Bremerton,US","state":"WA","country":"United States","canonicalUrl":"https://foursquare.com/v/smartypants-garage/55b07b8f498ea862bbad9041","categoryId":"4bf58dd8d48988d11b941735","category":"Pub","checkinsCount":267,"usersCount":117,"tipCount":7,"visitsCount":335,"tier":"","message":"","currency":"","rating":8.3},{"name":"74th Street Ale House","phone":"2067842955","twitter":"74thalehouse","address":"7401 Greenwood Ave N","lat":47.682681,"lng":-122.355431,"neighborhood":"Phinney Ridge","city_fetched":"Bremerton,US","state":"WA","country":"United States","canonicalUrl":"https://foursquare.com/v/74th-street-ale-house/40b13b00f964a5201df61ee3","categoryId":"4bf58dd8d48988d11b941735","category":"Pub","checkinsCount":3799,"usersCount":1333,"tipCount":32,"visitsCount":3944,"url":"http://seattlealehouses.com/74th/default.htm","tier":2,"message":"Moderate","currency":"$","rating":8.3},{"name":"Elliott Bay Brewery and Pub","phone":"2069328695","twitter":"elliottbay_beer","address":"4720 California Ave SW","lat":47.56039917469025,"lng":-122.3865419626236,"neighborhood":"West Seattle","city_fetched":"Bremerton,US","state":"WA","country":"United States","canonicalUrl":"https://foursquare.com/v/elliott-bay-brewery-and-pub/40b13b00f964a52074f61ee3","categoryId":"50327c8591d4c4b30a586d5d","category":"Brewery","checkinsCount":5330,"usersCount":2268,"tipCount":64,"visitsCount":5454,"url":"http://www.elliottbaybrewing.com","tier":2,"message":"Moderate","currency":"$","rating":8.3},{"name":"Marco Polo Pub","phone":"2067623964","address":"5613 4th Ave S","lat":47.55207821116157,"lng":-122.32981860637665,"neighborhood":"Georgetown","city_fetched":"Bremerton,US","state":"WA","country":"United States","canonicalUrl":"https://foursquare.com/v/marco-polo-pub/40b13b00f964a520baf61ee3","categoryId":"4bf58dd8d48988d11b941735","category":"Pub","checkinsCount":2763,"usersCount":950,"tipCount":33,"visitsCount":3678,"url":"http://www.marcopoloseattle.com","tier":2,"message":"Moderate","currency":"$","rating":8.3},{"name":"Tallulah's","phone":"2068600077","twitter":"tallulahseattle","address":"550 19th Ave E","lat":47.62433076005991,"lng":-122.3072075843811,"neighborhood":"Capitol Hill","city_fetched":"Bremerton,US","state":"WA","country":"United States","canonicalUrl":"https://foursquare.com/v/tallulahs/52a7810611d2234ab9564dac","categoryId":"4bf58dd8d48988d116941735","category":"Bar","checkinsCount":2269,"usersCount":1383,"tipCount":31,"visitsCount":2516,"url":"http://aneighborhoodcafe.com","tier":2,"message":"Moderate","currency":"$","rating":8.3},{"name":"Cyclops","phone":"2064411677","address":"2421 1st Ave","lat":47.614658707193755,"lng":-122.3487685515101,"neighborhood":"Belltown","city_fetched":"Bremerton,US","state":"WA","country":"United States","canonicalUrl":"https://foursquare.com/v/cyclops/41044980f964a520730b1fe3","categoryId":"4bf58dd8d48988d116941735","category":"Bar","checkinsCount":7324,"usersCount":3235,"tipCount":53,"visitsCount":7620,"url":"http://cyclopsseattle.com","tier":2,"message":"Moderate","currency":"$","rating":8.2},{"name":"Russell's","phone":"2065471653","address":"4111 Stone Way N","lat":47.657079184166605,"lng":-122.34237490294319,"neighborhood":"Fremont","city_fetched":"Bremerton,US","state":"WA","country":"United States","canonicalUrl":"https://foursquare.com/v/russells/532d2fb1498ed3bab7a31084","categoryId":"4bf58dd8d48988d116941735","category":"Bar","checkinsCount":420,"usersCount":399,"tipCount":7,"visitsCount":752,"url":"http://russellsseattle.com","tier":2,"message":"Moderate","currency":"$","rating":8.2},{"name":"Kate's Pub","phone":"2065476832","address":"309 NE 45th St","lat":47.66126478333334,"lng":-122.324594,"neighborhood":"Wallingford","city_fetched":"Bremerton,US","state":"WA","country":"United States","canonicalUrl":"https://foursquare.com/v/kates-pub/4767a0f0f964a520f24c1fe3","categoryId":"4bf58dd8d48988d116941735","category":"Bar","checkinsCount":6187,"usersCount":1840,"tipCount":35,"visitsCount":6370,"tier":2,"message":"Moderate","currency":"$","rating":8.2},{"name":"Cloverleaf Sports Bar & Grill","phone":"3603778516","address":"1240 Hollis St","lat":47.60287039,"lng":-122.62792682,"neighborhood":"East Bremerton","city_fetched":"Bremerton,US","state":"WA","country":"United States","canonicalUrl":"https://foursquare.com/v/cloverleaf-sports-bar--grill/4bdbc5603904a5937b134c9e","categoryId":"4bf58dd8d48988d11d941735","category":"Sports Bar","checkinsCount":1491,"usersCount":511,"tipCount":12,"visitsCount":1707,"url":"http://cloverleafsbg.com","tier":"","message":"","currency":"","rating":8.2},{"name":"Montana","phone":"2064224647","address":"1506 E Olive Way","lat":47.61787100261665,"lng":-122.32611399694993,"neighborhood":"Capitol Hill","city_fetched":"Bremerton,US","state":"WA","country":"United States","canonicalUrl":"https://foursquare.com/v/montana/4ed545e8f790888b54679bb8","categoryId":"4bf58dd8d48988d116941735","category":"Bar","checkinsCount":7803,"usersCount":2791,"tipCount":55,"visitsCount":8051,"url":"http://montanainseattle.com","tier":1,"message":"Cheap","currency":"$","rating":8.2},{"name":"Captain Blacks","phone":"2063279549","twitter":"captainblacks","address":"129 Belmont Ave E","lat":47.61931657791138,"lng":-122.324372716362,"neighborhood":"Capitol Hill","city_fetched":"Bremerton,US","state":"WA","country":"United States","canonicalUrl":"https://foursquare.com/captainblacks","categoryId":"4bf58dd8d48988d116941735","category":"Bar","checkinsCount":7149,"usersCount":2855,"tipCount":39,"visitsCount":7303,"url":"http://www.captainblacksseattle.com","tier":1,"message":"Cheap","currency":"$","rating":8.2},{"name":"Bainbridge Island Brewing","phone":"2064514646","address":"9415 Coppertop Loop NE","lat":47.64832361950252,"lng":-122.5251152912705,"city_fetched":"Bremerton,US","state":"WA","country":"United States","canonicalUrl":"https://foursquare.com/v/bainbridge-island-brewing/4fc14c83e4b0d51625085b42","categoryId":"50327c8591d4c4b30a586d5d","category":"Brewery","checkinsCount":644,"usersCount":537,"tipCount":12,"visitsCount":778,"url":"http://bainbridgebeer.com","tier":"","message":"","currency":"","rating":8.2},{"name":"The Garage","phone":"3603772116","address":"6812 Kitsap Way","lat":47.580355266666665,"lng":-122.705128,"neighborhood":"West Bremerton","city_fetched":"Bremerton,US","state":"WA","country":"United States","canonicalUrl":"https://foursquare.com/v/the-garage/4bb943da53649c74dee747fb","categoryId":"4bf58dd8d48988d116941735","category":"Bar","checkinsCount":440,"usersCount":339,"tipCount":7,"visitsCount":783,"tier":"","message":"","currency":"","rating":8.2},{"name":"Tracyton Public House","phone":"3604056768","address":"403 NW Tracy Ave","lat":47.608274712664844,"lng":-122.65574489562076,"city_fetched":"Bremerton,US","state":"WA","country":"United States","canonicalUrl":"https://foursquare.com/v/tracyton-public-house/4b95ef33f964a520f8b734e3","categoryId":"4bf58dd8d48988d116941735","category":"Bar","checkinsCount":2421,"usersCount":393,"tipCount":13,"visitsCount":2569,"tier":"","message":"","currency":"","rating":8.1},{"name":"Burgundian","phone":"2064208943","twitter":"burgundianbeer","address":"2253 N 56th St","lat":47.668955,"lng":-122.331401,"neighborhood":"Wallingford","city_fetched":"Bremerton,US","state":"WA","country":"United States","canonicalUrl":"https://foursquare.com/v/burgundian/4eec033ab8f76a24a381311b","categoryId":"4bf58dd8d48988d11b941735","category":"Pub","checkinsCount":3936,"usersCount":1998,"tipCount":47,"visitsCount":4566,"url":"http://www.burgundianbar.com","tier":2,"message":"Moderate","currency":"$","rating":8.1},{"name":"Duck Island Ale House","phone":"2067833360","address":"7317 Aurora Ave N","lat":47.682248793727105,"lng":-122.34463512897491,"neighborhood":"Phinney Ridge","city_fetched":"Bremerton,US","state":"WA","country":"United States","canonicalUrl":"https://foursquare.com/v/duck-island-ale-house/40b13b00f964a5206bf61ee3","categoryId":"4bf58dd8d48988d11b941735","category":"Pub","checkinsCount":1789,"usersCount":634,"tipCount":9,"visitsCount":1837,"url":"http://duckislandalehouse.blogspot.com","tier":2,"message":"Moderate","currency":"$","rating":8.1},{"name":"Redwood","phone":"2063291952","address":"514 E Howell St","lat":47.61781954377525,"lng":-122.32453628076125,"neighborhood":"Capitol Hill","city_fetched":"Bremerton,US","state":"WA","country":"United States","canonicalUrl":"https://foursquare.com/v/redwood/443b7e26f964a52028321fe3","categoryId":"4bf58dd8d48988d118941735","category":"Dive Bar","checkinsCount":6955,"usersCount":2503,"tipCount":48,"visitsCount":7560,"tier":2,"message":"Moderate","currency":"$","rating":8.1},{"name":"Valhöll Brewery","phone":"3609300172","twitter":"valhollbrew","address":"18970 3rd Ave NE","lat":47.73516617558514,"lng":-122.64545397394056,"city_fetched":"Bremerton,US","state":"WA","country":"United States","canonicalUrl":"https://foursquare.com/v/valh%C3%B6ll-brewery/51280b9ee4b09295101dfed8","categoryId":"50327c8591d4c4b30a586d5d","category":"Brewery","checkinsCount":947,"usersCount":337,"tipCount":13,"visitsCount":1056,"url":"http://www.valhollbrewing.com","tier":"","message":"","currency":"","rating":8.1},{"name":"Shanghai Room","address":"8700 Greenwood Ave N","lat":47.69237398812623,"lng":-122.35513346271225,"neighborhood":"Greenwood","city_fetched":"Bremerton,US","state":"WA","country":"United States","canonicalUrl":"https://foursquare.com/v/shanghai-room/55ab20e8498e3d4419261165","categoryId":"4bf58dd8d48988d121941735","category":"Lounge","checkinsCount":245,"usersCount":69,"tipCount":0,"visitsCount":252,"tier":"","message":"","currency":"","rating":8.1},{"name":"Clever Bottle","phone":"2069152220","address":"2222 2nd Ave Ste 100","lat":47.613694,"lng":-122.34488,"neighborhood":"Belltown","city_fetched":"Bremerton,US","state":"WA","country":"United States","canonicalUrl":"https://foursquare.com/v/clever-bottle/4b04e385f964a520da5622e3","categoryId":"4bf58dd8d48988d11e941735","category":"Cocktail Bar","checkinsCount":4142,"usersCount":1651,"tipCount":35,"visitsCount":4194,"url":"http://www.cleverbottle.com","tier":2,"message":"Moderate","currency":"$","rating":8.1},{"name":"Suite 410","phone":"2066824101","twitter":"suite410","address":"410 Stewart St","lat":47.612582086773145,"lng":-122.3384815977716,"neighborhood":"Belltown","city_fetched":"Bremerton,US","state":"WA","country":"United States","canonicalUrl":"https://foursquare.com/suite410","categoryId":"4bf58dd8d48988d11e941735","category":"Cocktail Bar","checkinsCount":1957,"usersCount":1071,"tipCount":16,"visitsCount":1982,"url":"http://www.suite410bar.com","tier":"","message":"","currency":"","rating":8.1},{"name":"Vidiot","address":"4310 Admiral Way SW","lat":47.581450386630785,"lng":-122.3857139570193,"neighborhood":"North Admiral","city_fetched":"Bremerton,US","state":"WA","country":"United States","canonicalUrl":"https://foursquare.com/v/vidiot/52aa6e9a11d21af27ed022fd","categoryId":"4bf58dd8d48988d116941735","category":"Bar","checkinsCount":333,"usersCount":236,"tipCount":1,"visitsCount":408,"tier":1,"message":"Cheap","currency":"$","rating":8.1},{"name":"Herb & Bitter Public House","address":"516 Broadway E","lat":47.62358826327844,"lng":-122.32071324360489,"neighborhood":"Capitol Hill","city_fetched":"Bremerton,US","state":"WA","country":"United States","canonicalUrl":"https://foursquare.com/v/herb--bitter-public-house/55751527498ef4e2722759e3","categoryId":"4bf58dd8d48988d11e941735","category":"Cocktail Bar","checkinsCount":731,"usersCount":518,"tipCount":11,"visitsCount":779,"tier":"","message":"","currency":"","rating":8},{"name":"Hotel Albatross","phone":"2065666181","address":"2319 NW Market St","lat":47.66843624531419,"lng":-122.38716538048612,"neighborhood":"Ballard","city_fetched":"Bremerton,US","state":"WA","country":"United States","canonicalUrl":"https://foursquare.com/v/hotel-albatross/54cae47b498ec48ec869b86e","categoryId":"4bf58dd8d48988d11e941735","category":"Cocktail Bar","checkinsCount":732,"usersCount":507,"tipCount":8,"visitsCount":834,"tier":"","message":"","currency":"","rating":8},{"name":"The Westy Sports and Spirits","address":"7808 35th Ave SW","lat":47.53163009610777,"lng":-122.3764200425684,"neighborhood":"Roxhill","city_fetched":"Bremerton,US","state":"WA","country":"United States","canonicalUrl":"https://foursquare.com/v/the-westy-sports-and-spirits/5472981b498e591c7c92e204","categoryId":"4bf58dd8d48988d11d941735","category":"Sports Bar","checkinsCount":532,"usersCount":285,"tipCount":7,"visitsCount":736,"tier":"","message":"","currency":"","rating":8},{"name":"Kiss Cafe","phone":"2067895477","twitter":"ballardkisscafe","address":"2817 NW Market St","lat":47.66854262,"lng":-122.39357946666667,"neighborhood":"Ballard","city_fetched":"Bremerton,US","state":"WA","country":"United States","canonicalUrl":"https://foursquare.com/v/kiss-cafe/48bc0d04f964a520ce511fe3","categoryId":"4bf58dd8d48988d116941735","category":"Bar","checkinsCount":3345,"usersCount":1200,"tipCount":43,"visitsCount":3725,"url":"http://www.ballardkisscafe.com","tier":1,"message":"Cheap","currency":"$","rating":8},{"name":"The New Bridge","address":"6301 California Ave","lat":47.546567779092214,"lng":-122.38743439485584,"neighborhood":"West Seattle","city_fetched":"Bremerton,US","state":"WA","country":"United States","canonicalUrl":"https://foursquare.com/v/the-new-bridge/52a2a4b711d2efdc1bb02b1a","categoryId":"4bf58dd8d48988d11b941735","category":"Pub","checkinsCount":1145,"usersCount":550,"tipCount":9,"visitsCount":1578,"url":"http://thebridgeseattle.com","tier":2,"message":"Moderate","currency":"$","rating":8},{"name":"The Upstairs","phone":"2064414013","twitter":"theupstairssea","address":"2209 2nd Ave","lat":47.61349835068585,"lng":-122.3447918095442,"neighborhood":"Belltown","city_fetched":"Bremerton,US","state":"WA","country":"United States","canonicalUrl":"https://foursquare.com/theupstairssea","categoryId":"4bf58dd8d48988d116941735","category":"Bar","checkinsCount":2947,"usersCount":1480,"tipCount":14,"visitsCount":3009,"url":"http://www.theupstairsseattle.com","tier":2,"message":"Moderate","currency":"$","rating":8},{"name":"Quoin","phone":"2065472040","twitter":"revelseattle","address":"403 N 36th St","lat":47.652012,"lng":-122.354135,"neighborhood":"Fremont","city_fetched":"Bremerton,US","state":"WA","country":"United States","canonicalUrl":"https://foursquare.com/v/quoin/4d09158e7b30a1cd351ea3cc","categoryId":"4bf58dd8d48988d11e941735","category":"Cocktail Bar","checkinsCount":1391,"usersCount":895,"tipCount":17,"visitsCount":1398,"url":"http://www.revelseattle.com/quoin/","tier":"","message":"","currency":"","rating":8},{"name":"The Noble Fir","phone":"2064207425","twitter":"thenoblefir","address":"5316 Ballard Ave NW","lat":47.66680225725799,"lng":-122.38369741253861,"neighborhood":"Ballard","city_fetched":"Bremerton,US","state":"WA","country":"United States","canonicalUrl":"https://foursquare.com/v/the-noble-fir/4c06e6eeb4aa0f47ecd96462","categoryId":"4bf58dd8d48988d116941735","category":"Bar","checkinsCount":4869,"usersCount":1968,"tipCount":26,"visitsCount":4918,"url":"http://thenoblefir.com","tier":2,"message":"Moderate","currency":"$","rating":8},{"name":"The Bounty - Stone Way","phone":"2065499149","twitter":"thebountycaffe","address":"1218 N 45th St","lat":47.661485476463334,"lng":-122.3422908782959,"neighborhood":"Wallingford","city_fetched":"Bremerton,US","state":"WA","country":"United States","canonicalUrl":"https://foursquare.com/v/the-bounty--stone-way/4b7470cef964a520d6dc2de3","categoryId":"4bf58dd8d48988d116941735","category":"Bar","checkinsCount":1912,"usersCount":457,"tipCount":11,"visitsCount":2009,"tier":1,"message":"Cheap","currency":"$","rating":8},{"name":"Georgetown Liquor Company","phone":"2067636764","address":"5501 Airport Way S Ste B","lat":47.55325,"lng":-122.32139276666666,"neighborhood":"Georgetown","city_fetched":"Bremerton,US","state":"WA","country":"United States","canonicalUrl":"https://foursquare.com/v/georgetown-liquor-company/45d0cfe2f964a520ad421fe3","categoryId":"4bf58dd8d48988d116941735","category":"Bar","checkinsCount":3984,"usersCount":1563,"tipCount":39,"visitsCount":4325,"url":"http://www.georgetownliquorcompany.com","tier":2,"message":"Moderate","currency":"$","rating":8},{"name":"Wigwam Tavern","phone":"3608313548","twitter":"tavernwigwam","address":"3548 W Belfair Valley Rd","lat":47.52947764735838,"lng":-122.69841436702694,"city_fetched":"Bremerton,US","state":"WA","country":"United States","canonicalUrl":"https://foursquare.com/v/wigwam-tavern/4f32c5f919836c91c7f902b4","categoryId":"56aa371ce4b08b9a8d57356c","category":"Beer Bar","checkinsCount":209,"usersCount":94,"tipCount":6,"visitsCount":258,"url":"http://www.tavernwigwam.com","tier":1,"message":"Cheap","currency":"$","rating":7.9},{"name":"Full Throttle Bottles","phone":"2067632079","twitter":"ftbottles","address":"5909 Airport Way S","lat":47.54987723333333,"lng":-122.317594,"neighborhood":"Georgetown","city_fetched":"Bremerton,US","state":"WA","country":"United States","canonicalUrl":"https://foursquare.com/v/full-throttle-bottles/49de845bf964a52062601fe3","categoryId":"4bf58dd8d48988d117941735","category":"Beer Garden","checkinsCount":1306,"usersCount":514,"tipCount":18,"visitsCount":1310,"url":"http://www.fullthrottlebottles.com","tier":"","message":"","currency":"","rating":7.9},{"name":"Babirusa","phone":"2063292744","address":"2236 Eastlake Ave E","lat":47.6394940122971,"lng":-122.32591982280069,"neighborhood":"Eastlake","city_fetched":"Bremerton,US","state":"WA","country":"United States","canonicalUrl":"https://foursquare.com/v/babirusa/5372b90d498e96210e64a2eb","categoryId":"4bf58dd8d48988d116941735","category":"Bar","checkinsCount":370,"usersCount":173,"tipCount":4,"visitsCount":405,"url":"http://blindpigbistro.com","tier":"","message":"","currency":"","rating":7.9},{"name":"Belltown Pub","phone":"2064486210","twitter":"thebelltownpub","address":"2322 1st Ave","lat":47.613755993173825,"lng":-122.34724760055542,"neighborhood":"Belltown","city_fetched":"Bremerton,US","state":"WA","country":"United States","canonicalUrl":"https://foursquare.com/thebelltownpub","categoryId":"4bf58dd8d48988d11b941735","category":"Pub","checkinsCount":10479,"usersCount":4423,"tipCount":62,"visitsCount":10861,"url":"http://belltownpub.com","tier":1,"message":"Cheap","currency":"$","rating":7.9},{"name":"Über Tavern","phone":"2067822337","twitter":"ubertavern","address":"7517 Aurora Ave N","lat":47.68376562248428,"lng":-122.34469413757324,"neighborhood":"Greenwood","city_fetched":"Bremerton,US","state":"WA","country":"United States","canonicalUrl":"https://foursquare.com/v/%C3%BCber-tavern/49e8c95cf964a52080651fe3","categoryId":"4bf58dd8d48988d116941735","category":"Bar","checkinsCount":3199,"usersCount":1067,"tipCount":29,"visitsCount":3390,"url":"http://www.uberbier.com","tier":2,"message":"Moderate","currency":"$","rating":7.9},{"name":"The Lookout","phone":"2063290454","twitter":"lookoutseattle","address":"757 Bellevue Ave E","lat":47.62674,"lng":-122.32686959,"neighborhood":"Capitol Hill","city_fetched":"Bremerton,US","state":"WA","country":"United States","canonicalUrl":"https://foursquare.com/v/the-lookout/4a3c7ad7f964a52092a11fe3","categoryId":"4bf58dd8d48988d116941735","category":"Bar","checkinsCount":6397,"usersCount":2631,"tipCount":54,"visitsCount":7195,"url":"http://www.thelookoutcapitolhill.com","tier":1,"message":"Cheap","currency":"$","rating":7.9},{"name":"The Attic Alehouse & Eatery","phone":"2063233131","address":"4226 E Madison St","lat":47.63627697964918,"lng":-122.27758116905254,"neighborhood":"Madison Park","city_fetched":"Bremerton,US","state":"WA","country":"United States","canonicalUrl":"https://foursquare.com/v/the-attic-alehouse--eatery/435ad280f964a520fe281fe3","categoryId":"4bf58dd8d48988d116941735","category":"Bar","checkinsCount":3144,"usersCount":1270,"tipCount":16,"visitsCount":3241,"url":"http://www.atticalehouse.com","tier":"","message":"","currency":"","rating":7.9},{"name":"Red Star","phone":"2062583087","address":"513 N 36th St, Seattle, WA 98103","lat":47.65147854447698,"lng":-122.35152660362007,"neighborhood":"Fremont","city_fetched":"Bremerton,US","state":"WA","country":"United States","canonicalUrl":"https://foursquare.com/v/red-star/53211dd5498e695eb68ab085","categoryId":"4bf58dd8d48988d116941735","category":"Bar","checkinsCount":1410,"usersCount":994,"tipCount":21,"visitsCount":1937,"url":"http://www.redstartacobar.com","tier":1,"message":"Cheap","currency":"$","rating":7.9},{"name":"College Inn Pub","phone":"2066342307","address":"4006 University Way NE","lat":47.655492660303366,"lng":-122.31308077655942,"neighborhood":"University District","city_fetched":"Bremerton,US","state":"WA","country":"United States","canonicalUrl":"https://foursquare.com/v/college-inn-pub/40b13b00f964a52053f61ee3","categoryId":"4bf58dd8d48988d11b941735","category":"Pub","checkinsCount":3999,"usersCount":1707,"tipCount":25,"visitsCount":4325,"url":"http://www.collegeinnpub.com","tier":1,"message":"Cheap","currency":"$","rating":7.9},{"name":"9 Million in Unmarked Bills","phone":"2066320880","twitter":"9millionbar","address":"3507 Fremont Pl N","lat":47.65087847651902,"lng":-122.35080689191818,"neighborhood":"Fremont","city_fetched":"Bremerton,US","state":"WA","country":"United States","canonicalUrl":"https://foursquare.com/v/9-million-in-unmarked-bills/4a3c6271f964a52078a11fe3","categoryId":"4bf58dd8d48988d122941735","category":"Whisky Bar","checkinsCount":7136,"usersCount":4086,"tipCount":45,"visitsCount":7429,"url":"http://www.9m-unmarked.com","tier":2,"message":"Moderate","currency":"$","rating":7.8},{"name":"Ballard Beer Company","address":"2050 NW Market St","lat":47.66885336136473,"lng":-122.38428073579962,"neighborhood":"Ballard","city_fetched":"Bremerton,US","state":"WA","country":"United States","canonicalUrl":"https://foursquare.com/v/ballard-beer-company/53bdea1a498e4c32e8eb6817","categoryId":"4bf58dd8d48988d117941735","category":"Beer Garden","checkinsCount":1131,"usersCount":588,"tipCount":6,"visitsCount":1152,"tier":"","message":"","currency":"","rating":7.8},{"name":"9lb Hammer","phone":"2067623373","address":"6009 Airport Way S","lat":47.54895624637603,"lng":-122.31675525410789,"neighborhood":"Georgetown","city_fetched":"Bremerton,US","state":"WA","country":"United States","canonicalUrl":"https://foursquare.com/v/9lb-hammer/43753080f964a5202d2a1fe3","categoryId":"4bf58dd8d48988d118941735","category":"Dive Bar","checkinsCount":4706,"usersCount":1766,"tipCount":22,"visitsCount":4839,"url":"http://www.ninepoundhammer.com","tier":1,"message":"Cheap","currency":"$","rating":7.8},{"name":"Hula Hula","phone":"2062845003","twitter":"seattlehulahula","address":"106 1st Ave N","lat":47.618849873542786,"lng":-122.355247,"neighborhood":"Lower Queen Anne","city_fetched":"Bremerton,US","state":"WA","country":"United States","canonicalUrl":"https://foursquare.com/v/hula-hula/465d9c6ef964a5203f471fe3","categoryId":"4bf58dd8d48988d120941735","category":"Karaoke Bar","checkinsCount":7697,"usersCount":3122,"tipCount":34,"visitsCount":8206,"url":"http://hulahula.org","tier":2,"message":"Moderate","currency":"$","rating":7.8},{"name":"Pennyroyal Bar","phone":"2068261700","twitter":"pennyroyal_bar","address":"2000 2nd Ave","lat":47.61194829610567,"lng":-122.34169480696261,"neighborhood":"Belltown","city_fetched":"Bremerton,US","state":"WA","country":"United States","canonicalUrl":"https://foursquare.com/v/pennyroyal-bar/54d41cec498e6a2031db8690","categoryId":"4bf58dd8d48988d11e941735","category":"Cocktail Bar","checkinsCount":388,"usersCount":266,"tipCount":4,"visitsCount":406,"url":"http://www.pennyroyalbar.com","tier":"","message":"","currency":"","rating":7.8},{"name":"The Tin Hat Bar & Grill","phone":"2067822770","address":"512 NW 65th St","lat":47.676061,"lng":-122.362954,"neighborhood":"Phinney Ridge","city_fetched":"Bremerton,US","state":"WA","country":"United States","canonicalUrl":"https://foursquare.com/v/the-tin-hat-bar--grill/40b13b00f964a52021f71ee3","categoryId":"4bf58dd8d48988d116941735","category":"Bar","checkinsCount":3444,"usersCount":1190,"tipCount":22,"visitsCount":3604,"tier":1,"message":"Cheap","currency":"$","rating":7.8},{"name":"The Thirsty Fish","phone":"2067821999","address":"9041 Holman Rd NW","lat":47.695146158570864,"lng":-122.37525515465454,"neighborhood":"Crown Hill","city_fetched":"Bremerton,US","state":"WA","country":"United States","canonicalUrl":"https://foursquare.com/v/the-thirsty-fish/4c94358d58d4b60c04e72629","categoryId":"4bf58dd8d48988d11d941735","category":"Sports Bar","checkinsCount":1544,"usersCount":369,"tipCount":11,"visitsCount":1745,"url":"http://thethirstyfish.net","tier":"","message":"","currency":"","rating":7.8},{"name":"Revolver Bar","address":"1514 E Olive Way","lat":47.618139,"lng":-122.326043,"neighborhood":"Capitol Hill","city_fetched":"Bremerton,US","state":"WA","country":"United States","canonicalUrl":"https://foursquare.com/v/revolver-bar/5369baf4498e3d06235f57d9","categoryId":"4bf58dd8d48988d116941735","category":"Bar","checkinsCount":1237,"usersCount":592,"tipCount":6,"visitsCount":1297,"url":"http://www.revolverbarseattle.com","tier":"","message":"","currency":"","rating":7.7},{"name":"The Sixgill","phone":"2064662846","twitter":"thesixgill","address":"3417 Evanston Ave N","lat":47.650551433765905,"lng":-122.35159277915955,"neighborhood":"Fremont","city_fetched":"Bremerton,US","state":"WA","country":"United States","canonicalUrl":"https://foursquare.com/v/the-sixgill/515b535e526244a28b74b8d7","categoryId":"4bf58dd8d48988d11b941735","category":"Pub","checkinsCount":2136,"usersCount":1173,"tipCount":25,"visitsCount":2480,"url":"http://www.thesixgill.com","tier":2,"message":"Moderate","currency":"$","rating":7.7},{"name":"Two Bells Bar & Grill","phone":"2064413050","address":"2313 4th Ave","lat":47.61556410626521,"lng":-122.34460294246674,"neighborhood":"Belltown","city_fetched":"Bremerton,US","state":"WA","country":"United States","canonicalUrl":"https://foursquare.com/v/two-bells-bar--grill/40b13b00f964a5202ff71ee3","categoryId":"4bf58dd8d48988d11b941735","category":"Pub","checkinsCount":5015,"usersCount":1951,"tipCount":36,"visitsCount":5319,"url":"http://thetwobells.com","tier":2,"message":"Moderate","currency":"$","rating":7.7},{"name":"Bait Shop","phone":"2064208742","twitter":"baitshopseattle","address":"606 Broadway E","lat":47.624620340022766,"lng":-122.32084221505697,"neighborhood":"Capitol Hill","city_fetched":"Bremerton,US","state":"WA","country":"United States","canonicalUrl":"https://foursquare.com/v/bait-shop/50bf9b21582ff054194651e8","categoryId":"4bf58dd8d48988d116941735","category":"Bar","checkinsCount":4309,"usersCount":1837,"tipCount":35,"visitsCount":4889,"url":"http://baitshopseattle.com","tier":2,"message":"Moderate","currency":"$","rating":7.7},{"name":"Buckley's in Belltown","phone":"2065888879","twitter":"buckleyspubs","address":"2331 2nd Ave","lat":47.614694398611675,"lng":-122.34703325734567,"neighborhood":"Belltown","city_fetched":"Bremerton,US","state":"WA","country":"United States","canonicalUrl":"https://foursquare.com/v/buckleys-in-belltown/49bc015af964a52007541fe3","categoryId":"4bf58dd8d48988d11d941735","category":"Sports Bar","checkinsCount":14849,"usersCount":5251,"tipCount":85,"visitsCount":15261,"url":"http://www.buckleysseattle.com/btmainpage.htm","tier":2,"message":"Moderate","currency":"$","rating":7.7},{"name":"Nickerson Street Saloon","phone":"2062848819","twitter":"nickstsaloon","address":"318 Nickerson St","lat":47.64650887,"lng":-122.35020193,"neighborhood":"North Queen Anne","city_fetched":"Bremerton,US","state":"WA","country":"United States","canonicalUrl":"https://foursquare.com/v/nickerson-street-saloon/40b13b00f964a520cdf61ee3","categoryId":"4bf58dd8d48988d11b941735","category":"Pub","checkinsCount":4516,"usersCount":2532,"tipCount":17,"visitsCount":5479,"url":"http://www.nickersonstreetsaloon.net","tier":2,"message":"Moderate","currency":"$","rating":7.7},{"name":"Sitting Room","phone":"2062852830","address":"108 W Roy St","lat":47.62582713371857,"lng":-122.35859217820368,"neighborhood":"Lower Queen Anne","city_fetched":"Bremerton,US","state":"WA","country":"United States","canonicalUrl":"https://foursquare.com/v/sitting-room/40b13b00f964a5200af71ee3","categoryId":"4bf58dd8d48988d121941735","category":"Lounge","checkinsCount":2541,"usersCount":1605,"tipCount":21,"visitsCount":2733,"url":"http://www.the-sitting-room.com","tier":2,"message":"Moderate","currency":"$","rating":7.7},{"name":"Barrel Thief","phone":"2063724747","twitter":"barrelthiefsea","address":"3417 Evanston Ave N","lat":47.650693520144905,"lng":-122.3514386299589,"neighborhood":"Fremont","city_fetched":"Bremerton,US","state":"WA","country":"United States","canonicalUrl":"https://foursquare.com/v/barrel-thief/51eafb39498e53269314c739","categoryId":"4bf58dd8d48988d11e941735","category":"Cocktail Bar","checkinsCount":1157,"usersCount":842,"tipCount":12,"visitsCount":1247,"url":"http://bthief.com","tier":2,"message":"Moderate","currency":"$","rating":7.7},{"name":"Cafe Racer","phone":"2065235282","twitter":"_caferacer_","address":"5828 Roosevelt Way NE","lat":47.671518,"lng":-122.317361,"neighborhood":"University District","city_fetched":"Bremerton,US","state":"WA","country":"United States","canonicalUrl":"https://foursquare.com/v/cafe-racer/451aa9c8f964a520663a1fe3","categoryId":"4bf58dd8d48988d116941735","category":"Bar","checkinsCount":2407,"usersCount":1074,"tipCount":19,"visitsCount":2792,"url":"http://caferacerseattle.com","tier":1,"message":"Cheap","currency":"$","rating":7.7},{"name":"Targy's Tavern","phone":"2063528882","twitter":"targystavern","address":"600 W Crockett St","lat":47.63776733486148,"lng":-122.36507832642302,"neighborhood":"West Queen Anne","city_fetched":"Bremerton,US","state":"WA","country":"United States","canonicalUrl":"https://foursquare.com/targystavern","categoryId":"4bf58dd8d48988d118941735","category":"Dive Bar","checkinsCount":2257,"usersCount":1000,"tipCount":9,"visitsCount":2902,"url":"http://targys.com","tier":"","message":"","currency":"","rating":7.7},{"name":"George & Dragon Pub","phone":"2065456864","address":"206 N 36th St","lat":47.65292922278706,"lng":-122.35616326332092,"neighborhood":"Fremont","city_fetched":"Bremerton,US","state":"WA","country":"United States","canonicalUrl":"https://foursquare.com/v/george--dragon-pub/40b13b00f964a52086f61ee3","categoryId":"4bf58dd8d48988d11b941735","category":"Pub","checkinsCount":8049,"usersCount":3023,"tipCount":44,"visitsCount":8703,"url":"http://www.georgeanddragonpub.com","tier":2,"message":"Moderate","currency":"$","rating":7.7},{"name":"The Nabob","phone":"2062819850","twitter":"thenabobbar","address":"819 5th Ave N","lat":47.62689784,"lng":-122.347583,"neighborhood":"Lower Queen Anne","city_fetched":"Bremerton,US","state":"WA","country":"United States","canonicalUrl":"https://foursquare.com/v/the-nabob/4518fb71f964a520543a1fe3","categoryId":"4bf58dd8d48988d11b941735","category":"Pub","checkinsCount":3889,"usersCount":1560,"tipCount":24,"visitsCount":4033,"url":"http://www.thenabobbar.com","tier":2,"message":"Moderate","currency":"$","rating":7.6},{"name":"Cookies Clubhouse Bar & Grill","phone":"3603735643","address":"332 S National Ave","lat":47.55926430619284,"lng":-122.6675732188106,"neighborhood":"West Bremerton","city_fetched":"Bremerton,US","state":"WA","country":"United States","canonicalUrl":"https://foursquare.com/v/cookies-clubhouse-bar--grill/4bd665805631c9b609eba530","categoryId":"4bf58dd8d48988d116941735","category":"Bar","checkinsCount":2249,"usersCount":160,"tipCount":11,"visitsCount":2277,"tier":"","message":"","currency":"","rating":7.6},{"name":"The Canterbury Alehouse","phone":"2063253110","twitter":"canterburyales","address":"534 15th Ave E","lat":47.62421162379486,"lng":-122.31263740914278,"neighborhood":"Capitol Hill","city_fetched":"Bremerton,US","state":"WA","country":"United States","canonicalUrl":"https://foursquare.com/v/the-canterbury-alehouse/537fa0c5498eb7855e7e9c88","categoryId":"4bf58dd8d48988d11b941735","category":"Pub","checkinsCount":1017,"usersCount":880,"tipCount":7,"visitsCount":1460,"url":"http://thecanterburyalehouse.com","tier":"","message":"","currency":"","rating":7.6},{"name":"Solo-Bar","phone":"2062130080","address":"200 Roy St","lat":47.625379,"lng":-122.35193278750002,"neighborhood":"Lower Queen Anne","city_fetched":"Bremerton,US","state":"WA","country":"United States","canonicalUrl":"https://foursquare.com/v/solobar/4abc43dff964a520f28620e3","categoryId":"4bf58dd8d48988d116941735","category":"Bar","checkinsCount":1845,"usersCount":964,"tipCount":15,"visitsCount":1903,"url":"http://www.solo-bar.com","tier":2,"message":"Moderate","currency":"$","rating":7.6},{"name":"Hudson Public House","phone":"2065245070","address":"8014 15th Ave NE","lat":47.68719,"lng":-122.31199371666666,"neighborhood":"Roosevelt","city_fetched":"Bremerton,US","state":"WA","country":"United States","canonicalUrl":"https://foursquare.com/v/hudson-public-house/4a541dcbf964a5200bb31fe3","categoryId":"4bf58dd8d48988d11b941735","category":"Pub","checkinsCount":1645,"usersCount":558,"tipCount":16,"visitsCount":1673,"url":"http://www.hudsonpublichouse.com","tier":"","message":"","currency":"","rating":7.6},{"name":"Tini Big's Lounge","phone":"2062840931","address":"100 Denny Way","lat":47.618581,"lng":-122.35526465,"neighborhood":"Belltown","city_fetched":"Bremerton,US","state":"WA","country":"United States","canonicalUrl":"https://foursquare.com/v/tini-bigs-lounge/40b13b00f964a52022f71ee3","categoryId":"4bf58dd8d48988d11e941735","category":"Cocktail Bar","checkinsCount":3750,"usersCount":1836,"tipCount":31,"visitsCount":3800,"url":"http://www.tinibigs.com","tier":2,"message":"Moderate","currency":"$","rating":7.6},{"name":"Highline","phone":"2063287837","twitter":"highline_bar","address":"210 Broadway E","lat":47.620261291870754,"lng":-122.32071116566658,"neighborhood":"Capitol Hill","city_fetched":"Bremerton,US","state":"WA","country":"United States","canonicalUrl":"https://foursquare.com/v/highline/4bb41ce3643cd13a5674395c","categoryId":"4bf58dd8d48988d116941735","category":"Bar","checkinsCount":5624,"usersCount":2002,"tipCount":59,"visitsCount":5669,"url":"http://highlineseattle.com","tier":2,"message":"Moderate","currency":"$","rating":7.6},{"name":"Bad Jimmy's Brewing Co.","phone":"2067891548","twitter":"badjimmys","address":"4358B Leary Way NW","lat":47.660039046215886,"lng":-122.36552099193497,"neighborhood":"Ballard","city_fetched":"Bremerton,US","state":"WA","country":"United States","canonicalUrl":"https://foursquare.com/v/bad-jimmys-brewing-co/51d5d947498e004faff93afe","categoryId":"50327c8591d4c4b30a586d5d","category":"Brewery","checkinsCount":1389,"usersCount":970,"tipCount":13,"visitsCount":1608,"url":"http://www.badjimmysbrewingco.com","tier":1,"message":"Cheap","currency":"$","rating":7.6},{"name":"Ballard Loft","phone":"2064202737","twitter":"ballardloft","address":"5105 Ballard Ave NW","lat":47.66444804153244,"lng":-122.38130360841751,"neighborhood":"Ballard","city_fetched":"Bremerton,US","state":"WA","country":"United States","canonicalUrl":"https://foursquare.com/v/ballard-loft/4a00de28f964a520b8701fe3","categoryId":"4bf58dd8d48988d11d941735","category":"Sports Bar","checkinsCount":10483,"usersCount":3815,"tipCount":51,"visitsCount":10864,"url":"http://www.ballardloft.com","tier":2,"message":"Moderate","currency":"$","rating":7.6},{"name":"Jolly Roger Taproom","phone":"2067826181","address":"1111 NW Ballard Way","lat":47.663143758711975,"lng":-122.37207314069143,"neighborhood":"Ballard","city_fetched":"Bremerton,US","state":"WA","country":"United States","canonicalUrl":"https://foursquare.com/v/jolly-roger-taproom/40b13b00f964a520a1f61ee3","categoryId":"50327c8591d4c4b30a586d5d","category":"Brewery","checkinsCount":5544,"usersCount":1785,"tipCount":40,"visitsCount":5700,"url":"http://maritimebrewery.com","tier":2,"message":"Moderate","currency":"$","rating":7.6},{"name":"Whisky Bar","phone":"2064434490","address":"2122 2nd Ave","lat":47.613117161776174,"lng":-122.34358892612323,"neighborhood":"Belltown","city_fetched":"Bremerton,US","state":"WA","country":"United States","canonicalUrl":"https://foursquare.com/v/whisky-bar/4b7b1c04f964a520f2512fe3","categoryId":"4bf58dd8d48988d122941735","category":"Whisky Bar","checkinsCount":3495,"usersCount":2650,"tipCount":44,"visitsCount":4042,"url":"http://thewhiskybar.com","tier":2,"message":"Moderate","currency":"$","rating":7.6},{"name":"Whalemaker Lounge","phone":"2066320767","twitter":"ivarsclams","address":"401 NE Northlake Way","lat":47.653542,"lng":-122.323929,"neighborhood":"Wallingford","city_fetched":"Bremerton,US","state":"WA","country":"United States","canonicalUrl":"https://foursquare.com/v/whalemaker-lounge/4e474abe52b1bac0d983572a","categoryId":"4bf58dd8d48988d121941735","category":"Lounge","checkinsCount":634,"usersCount":260,"tipCount":5,"visitsCount":636,"url":"http://www.ivars.com/locations/salmon-house","tier":"","message":"","currency":"","rating":7.6},{"name":"The Arena Sports Bar & Grille","phone":"3606277515","address":"4111 Wheaton Way","lat":47.6017852942776,"lng":-122.63076948630525,"neighborhood":"East Bremerton","city_fetched":"Bremerton,US","state":"WA","country":"United States","canonicalUrl":"https://foursquare.com/v/the-arena-sports-bar--grille/4edd53b98b8173160fd2e6e1","categoryId":"4bf58dd8d48988d11d941735","category":"Sports Bar","checkinsCount":1528,"usersCount":441,"tipCount":21,"visitsCount":1733,"url":"http://arenasportsbarandgrille.com","tier":"","message":"","currency":"","rating":7.6},{"name":"Buckley's on Queen Anne","phone":"2066910232","twitter":"buckleyspubs","address":"232 1st Ave W","lat":47.62079824117669,"lng":-122.35786378383636,"neighborhood":"Lower Queen Anne","city_fetched":"Bremerton,US","state":"WA","country":"United States","canonicalUrl":"https://foursquare.com/v/buckleys-on-queen-anne/42893400f964a52067231fe3","categoryId":"4bf58dd8d48988d11b941735","category":"Pub","checkinsCount":8114,"usersCount":3602,"tipCount":56,"visitsCount":9300,"url":"http://www.buckleysseattle.com/mainpage.htm","tier":2,"message":"Moderate","currency":"$","rating":7.5},{"name":"The Sexton","phone":"2068298645","twitter":"sextonseattle","address":"5327 Ballard Ave NW","lat":47.667009285623266,"lng":-122.38393574718894,"neighborhood":"Ballard","city_fetched":"Bremerton,US","state":"WA","country":"United States","canonicalUrl":"https://foursquare.com/v/the-sexton/4ee2cbd177c8e893168be2ab","categoryId":"4bf58dd8d48988d116941735","category":"Bar","checkinsCount":2572,"usersCount":1621,"tipCount":26,"visitsCount":2596,"url":"http://www.sextonballard.com","tier":2,"message":"Moderate","currency":"$","rating":7.5},{"name":"Silver City Brewery","phone":"3608131487","address":"206 Katy Penman Ave","lat":47.56163218928327,"lng":-122.67831716733518,"neighborhood":"West Bremerton","city_fetched":"Bremerton,US","state":"WA","country":"United States","canonicalUrl":"https://foursquare.com/v/silver-city-brewery/4bd365af77b29c749dc19082","categoryId":"50327c8591d4c4b30a586d5d","category":"Brewery","checkinsCount":802,"usersCount":253,"tipCount":3,"visitsCount":949,"url":"http://silvercitybrewery.com","tier":"","message":"","currency":"","rating":7.5},{"name":"Leny's Place","phone":"2066329175","address":"2219 N 56th St","lat":47.66884398267769,"lng":-122.33227806085154,"neighborhood":"Wallingford","city_fetched":"Bremerton,US","state":"WA","country":"United States","canonicalUrl":"https://foursquare.com/v/lenys-place/40b13b00f964a520abf61ee3","categoryId":"4bf58dd8d48988d11b941735","category":"Pub","checkinsCount":3728,"usersCount":1234,"tipCount":22,"visitsCount":3891,"tier":1,"message":"Cheap","currency":"$","rating":7.5},{"name":"Husky Tailgate","address":"E1 North Lot","lat":47.6572666734196,"lng":-122.30077764277104,"neighborhood":"University District","city_fetched":"Bremerton,US","state":"WA","country":"United States","canonicalUrl":"https://foursquare.com/v/husky-tailgate/4e625a278877954de827cb31","categoryId":"4bf58dd8d48988d117941735","category":"Beer Garden","checkinsCount":1076,"usersCount":737,"tipCount":1,"visitsCount":1311,"tier":"","message":"","currency":"","rating":7.5},{"name":"Barking Dog Alehouse","phone":"2067822974","address":"705 NW 70th St","lat":47.67948304514109,"lng":-122.36486393068886,"neighborhood":"Phinney Ridge","city_fetched":"Bremerton,US","state":"WA","country":"United States","canonicalUrl":"https://foursquare.com/v/barking-dog-alehouse/4259be00f964a520f5201fe3","categoryId":"4bf58dd8d48988d11b941735","category":"Pub","checkinsCount":3748,"usersCount":1232,"tipCount":22,"visitsCount":4292,"url":"http://thebarkingdogalehouse.com","tier":2,"message":"Moderate","currency":"$","rating":7.5},{"name":"St. Andrew's Bar & Grill","phone":"2065231193","address":"7406 Aurora Ave N","lat":47.68367894774342,"lng":-122.34422206878662,"neighborhood":"Green Lake","city_fetched":"Bremerton,US","state":"WA","country":"United States","canonicalUrl":"https://foursquare.com/v/st-andrews-bar--grill/474b1930f964a5209d4c1fe3","categoryId":"4bf58dd8d48988d11b941735","category":"Pub","checkinsCount":3005,"usersCount":1102,"tipCount":14,"visitsCount":3168,"url":"http://www.standrewsbarandgrill.com","tier":2,"message":"Moderate","currency":"$","rating":7.5},{"name":"The Lounge @ Edgewater","phone":"2067287000","address":"2411 Alaskan Way","lat":47.612525,"lng":-122.352719,"neighborhood":"Belltown","city_fetched":"Bremerton,US","state":"WA","country":"United States","canonicalUrl":"https://foursquare.com/v/the-lounge--edgewater/4e52f36aaeb74b745811833e","categoryId":"4bf58dd8d48988d1d5941735","category":"Hotel Bar","checkinsCount":404,"usersCount":314,"tipCount":2,"visitsCount":405,"url":"http://www.edgewaterhotel.com","tier":"","message":"","currency":"","rating":7.5},{"name":"Der Blokken Brewery","phone":"3603772344","address":"1100 Perry Ave","lat":47.570574168783814,"lng":-122.6140972832843,"neighborhood":"Manette","city_fetched":"Bremerton,US","state":"WA","country":"United States","canonicalUrl":"https://foursquare.com/v/der-blokken-brewery/4ba28257f964a52077ff37e3","categoryId":"50327c8591d4c4b30a586d5d","category":"Brewery","checkinsCount":1197,"usersCount":440,"tipCount":16,"visitsCount":1329,"url":"http://derblokken.com","tier":"","message":"","currency":"","rating":7.5},{"name":"Virginia Inn Tavern","phone":"2067281937","twitter":"thevirginiainn","address":"1927 1st Ave","lat":47.611114224808084,"lng":-122.34260565387471,"neighborhood":"Pike Place","city_fetched":"Bremerton,US","state":"WA","country":"United States","canonicalUrl":"https://foursquare.com/v/virginia-inn-tavern/40b13b00f964a52035f71ee3","categoryId":"4bf58dd8d48988d11b941735","category":"Pub","checkinsCount":2769,"usersCount":1800,"tipCount":29,"visitsCount":2790,"url":"http://virginiainnseattle.com","tier":"","message":"","currency":"","rating":7.4},{"name":"Rabbit Hole","phone":"2067286069","address":"2222 2nd Ave","lat":47.613759053504204,"lng":-122.34510275978869,"neighborhood":"Belltown","city_fetched":"Bremerton,US","state":"WA","country":"United States","canonicalUrl":"https://foursquare.com/v/rabbit-hole/4d7ec3e16174a35d44338f03","categoryId":"4bf58dd8d48988d118941735","category":"Dive Bar","checkinsCount":6719,"usersCount":2826,"tipCount":30,"visitsCount":6788,"url":"http://www.rabbitholeseattle.com","tier":2,"message":"Moderate","currency":"$","rating":7.4},{"name":"Hale's Ales Brewery & Pub","phone":"2067061544","twitter":"halesales","address":"4301 Leary Way NW","lat":47.659102760074134,"lng":-122.36530421639631,"neighborhood":"Ballard","city_fetched":"Bremerton,US","state":"WA","country":"United States","canonicalUrl":"https://foursquare.com/v/hales-ales-brewery--pub/40b13b00f964a52094f61ee3","categoryId":"50327c8591d4c4b30a586d5d","category":"Brewery","checkinsCount":6056,"usersCount":3963,"tipCount":50,"visitsCount":6851,"url":"http://halesales.com","tier":2,"message":"Moderate","currency":"$","rating":7.4},{"name":"Seattle Hookah Lounge","phone":"2067086081","address":"4701 Roosevelt Way NE","lat":47.663252,"lng":-122.317667,"neighborhood":"University District","city_fetched":"Bremerton,US","state":"WA","country":"United States","canonicalUrl":"https://foursquare.com/v/seattle-hookah-lounge/514fec34e4b05d9264a19568","categoryId":"4bf58dd8d48988d121941735","category":"Lounge","checkinsCount":256,"usersCount":126,"tipCount":0,"visitsCount":371,"tier":"","message":"","currency":"","rating":7.4},{"name":"Oliver's Lounge","phone":"2063826995","twitter":"oliverslounge","address":"405 Olive Way","lat":47.612363618401645,"lng":-122.33846633733293,"neighborhood":"Belltown","city_fetched":"Bremerton,US","state":"WA","country":"United States","canonicalUrl":"https://foursquare.com/oliverslounge","categoryId":"4bf58dd8d48988d11e941735","category":"Cocktail Bar","checkinsCount":1740,"usersCount":1014,"tipCount":25,"visitsCount":1749,"url":"http://www.mayflowerpark.com","tier":3,"message":"Expensive","currency":"$","rating":7.4},{"name":"The Cozy Nut Tavern","phone":"2067842240","twitter":"thecozynut","address":"123 N 85th St","lat":47.690433278514334,"lng":-122.35676547300129,"neighborhood":"Greenwood","city_fetched":"Bremerton,US","state":"WA","country":"United States","canonicalUrl":"https://foursquare.com/v/the-cozy-nut-tavern/53bf3c17498e57909256d76a","categoryId":"4bf58dd8d48988d116941735","category":"Bar","checkinsCount":288,"usersCount":180,"tipCount":6,"visitsCount":313,"tier":"","message":"","currency":"","rating":7.4},{"name":"Teddy's Tavern","address":"1012 NE 65th St","lat":47.675899303260294,"lng":-122.31677770614624,"neighborhood":"Roosevelt","city_fetched":"Bremerton,US","state":"WA","country":"United States","canonicalUrl":"https://foursquare.com/v/teddys-tavern/40b13b00f964a5201af71ee3","categoryId":"4bf58dd8d48988d116941735","category":"Bar","checkinsCount":2053,"usersCount":948,"tipCount":19,"visitsCount":2097,"url":"http://teddysseattle.com","tier":"","message":"","currency":"","rating":7.4},{"name":"Summit Public House","phone":"2063247611","address":"601 Summit Ave E","lat":47.624343431364665,"lng":-122.3253000117125,"neighborhood":"Capitol Hill","city_fetched":"Bremerton,US","state":"WA","country":"United States","canonicalUrl":"https://foursquare.com/v/summit-public-house/428d2880f964a520aa231fe3","categoryId":"4bf58dd8d48988d116941735","category":"Bar","checkinsCount":4867,"usersCount":1338,"tipCount":31,"visitsCount":5000,"url":"http://www.summitpublichouse.com","tier":1,"message":"Cheap","currency":"$","rating":7.4},{"name":"Shelter Lounge","phone":"2068298568","address":"4810 Leary Ave. NW","lat":47.664465,"lng":-122.37916095,"neighborhood":"Ballard","city_fetched":"Bremerton,US","state":"WA","country":"United States","canonicalUrl":"https://foursquare.com/v/shelter-lounge/4ae253c3f964a5204a8d21e3","categoryId":"4bf58dd8d48988d121941735","category":"Lounge","checkinsCount":5473,"usersCount":3033,"tipCount":43,"visitsCount":5970,"url":"http://theshelterlounge.com","tier":2,"message":"Moderate","currency":"$","rating":7.4},{"name":"The Blue Glass","phone":"2064201631","twitter":"theblueglass","address":"704 NW 65th St","lat":47.67608986,"lng":-122.364925,"neighborhood":"Phinney Ridge","city_fetched":"Bremerton,US","state":"WA","country":"United States","canonicalUrl":"https://foursquare.com/v/the-blue-glass/4cf70e08665854810d09cd98","categoryId":"4bf58dd8d48988d11e941735","category":"Cocktail Bar","checkinsCount":1110,"usersCount":531,"tipCount":10,"visitsCount":1124,"url":"http://theblueglass.net","tier":2,"message":"Moderate","currency":"$","rating":7.3},{"name":"Copper Coin","phone":"2064203608","address":"2329 California Ave SW","lat":47.58211298119921,"lng":-122.38665868043829,"neighborhood":"North Admiral","city_fetched":"Bremerton,US","state":"WA","country":"United States","canonicalUrl":"https://foursquare.com/v/copper-coin/507ca106e4b09a4c6260826f","categoryId":"4bf58dd8d48988d11b941735","category":"Pub","checkinsCount":951,"usersCount":466,"tipCount":13,"visitsCount":1052,"tier":"","message":"","currency":"","rating":7.3},{"name":"Sarajevo Lounge","phone":"2064489000","twitter":"sarajevolounge","address":"2332 1st Ave","lat":47.61426273551953,"lng":-122.34763870365828,"neighborhood":"Belltown","city_fetched":"Bremerton,US","state":"WA","country":"United States","canonicalUrl":"https://foursquare.com/v/sarajevo-lounge/4de1ed018877bcb68638e7d4","categoryId":"4bf58dd8d48988d121941735","category":"Lounge","checkinsCount":1483,"usersCount":946,"tipCount":17,"visitsCount":1531,"url":"http://www.sarajevolounge.com","tier":2,"message":"Moderate","currency":"$","rating":7.3},{"name":"McMenamins Queen Anne","phone":"2062854722","twitter":"captainneon","address":"200 Roy St","lat":47.62545926923205,"lng":-122.35186128049895,"neighborhood":"Lower Queen Anne","city_fetched":"Bremerton,US","state":"WA","country":"United States","canonicalUrl":"https://foursquare.com/v/mcmenamins-queen-anne/45b7e1dbf964a520cb411fe3","categoryId":"4bf58dd8d48988d11d941735","category":"Sports Bar","checkinsCount":4733,"usersCount":2838,"tipCount":45,"visitsCount":4967,"url":"http://www.mcmenamins.com/308-mcmenamins-queen-anne-home","tier":2,"message":"Moderate","currency":"$","rating":7.3},{"name":"Kellys 19th Hole","phone":"3604799077","address":"2171 Erlands Point Rd NW","lat":47.596023319971124,"lng":-122.7082479163387,"city_fetched":"Bremerton,US","state":"WA","country":"United States","canonicalUrl":"https://foursquare.com/v/kellys-19th-hole/4cf75436680259410b476d73","categoryId":"4bf58dd8d48988d11d941735","category":"Sports Bar","checkinsCount":981,"usersCount":312,"tipCount":8,"visitsCount":1058,"tier":"","message":"","currency":"","rating":7.3},{"name":"The Pub at Third Place","phone":"2065230217","address":"6504 20th Ave NE","lat":47.67580539145922,"lng":-122.30624198913574,"neighborhood":"Northeast Seattle","city_fetched":"Bremerton,US","state":"WA","country":"United States","canonicalUrl":"https://foursquare.com/v/the-pub-at-third-place/46805e5ff964a5201b481fe3","categoryId":"4bf58dd8d48988d11b941735","category":"Pub","checkinsCount":1574,"usersCount":696,"tipCount":22,"visitsCount":1606,"url":"http://www.vioscafe.com/viospub.html","tier":"","message":"","currency":"","rating":7.3},{"name":"LUCID","phone":"2064023042","twitter":"clearlylucid","address":"5241 University Way NE","lat":47.6676599082709,"lng":-122.31308142836254,"neighborhood":"University District","city_fetched":"Bremerton,US","state":"WA","country":"United States","canonicalUrl":"https://foursquare.com/v/lucid/49d03794f964a520115b1fe3","categoryId":"4bf58dd8d48988d121941735","category":"Lounge","checkinsCount":1106,"usersCount":701,"tipCount":11,"visitsCount":1129,"url":"http://www.lucidseattle.com","tier":"","message":"","currency":"","rating":7.3},{"name":"418 Public House","phone":"2067830418","address":"418 NW 65th St","lat":47.676073,"lng":-122.36238886666666,"neighborhood":"Phinney Ridge","city_fetched":"Bremerton,US","state":"WA","country":"United States","canonicalUrl":"https://foursquare.com/v/418-public-house/4db4c5f00437fa536a336526","categoryId":"4bf58dd8d48988d11b941735","category":"Pub","checkinsCount":1643,"usersCount":639,"tipCount":14,"visitsCount":1717,"tier":1,"message":"Cheap","currency":"$","rating":7.3},{"name":"The Mix Martini Lounge","phone":"2064482656","address":"2318 2nd Ave","lat":47.614376,"lng":-122.346253,"neighborhood":"Belltown","city_fetched":"Bremerton,US","state":"WA","country":"United States","canonicalUrl":"https://foursquare.com/v/the-mix-martini-lounge/532ca696498edd855d3c0773","categoryId":"4bf58dd8d48988d121941735","category":"Lounge","checkinsCount":105,"usersCount":76,"tipCount":9,"visitsCount":105,"tier":2,"message":"Moderate","currency":"$","rating":7.2},{"name":"The Fremont Dock","phone":"2068298372","address":"1102 N 34th St","lat":47.64883916,"lng":-122.34364,"neighborhood":"Fremont","city_fetched":"Bremerton,US","state":"WA","country":"United States","canonicalUrl":"https://foursquare.com/v/the-fremont-dock/4528bed4f964a5201c3b1fe3","categoryId":"4bf58dd8d48988d118941735","category":"Dive Bar","checkinsCount":4136,"usersCount":1628,"tipCount":19,"visitsCount":4581,"url":"http://www.fremontdock.com","tier":2,"message":"Moderate","currency":"$","rating":7.2},{"name":"The Park Public House","phone":"2067898187","twitter":"theparkpub","address":"6114 Phinney Ave N","lat":47.673632,"lng":-122.35421145,"neighborhood":"Phinney Ridge","city_fetched":"Bremerton,US","state":"WA","country":"United States","canonicalUrl":"https://foursquare.com/v/the-park-public-house/40b13b00f964a520dff61ee3","categoryId":"4bf58dd8d48988d11b941735","category":"Pub","checkinsCount":2296,"usersCount":1019,"tipCount":13,"visitsCount":2413,"url":"http://theparkpub.com","tier":2,"message":"Moderate","currency":"$","rating":7.2},{"name":"Hi Fidelity Lounge","phone":"3603735454","address":"2711 6th St","lat":47.56732655,"lng":-122.653911,"neighborhood":"West Bremerton","city_fetched":"Bremerton,US","state":"WA","country":"United States","canonicalUrl":"https://foursquare.com/v/hi-fidelity-lounge/4af23911f964a520b9e621e3","categoryId":"4bf58dd8d48988d11e941735","category":"Cocktail Bar","checkinsCount":909,"usersCount":175,"tipCount":9,"visitsCount":910,"url":"https://hifidelitylounge.wordpress.com","tier":"","message":"","currency":"","rating":7.2},{"name":"Brother Don's","phone":"3603778442","address":"4200 Kitsap Way","lat":47.568595316666666,"lng":-122.67085,"neighborhood":"West Bremerton","city_fetched":"Bremerton,US","state":"WA","country":"United States","canonicalUrl":"https://foursquare.com/v/brother-dons/4baa7f3cf964a520206f3ae3","categoryId":"4bf58dd8d48988d11d941735","category":"Sports Bar","checkinsCount":499,"usersCount":166,"tipCount":6,"visitsCount":548,"url":"http://brotherdonsbremerton.com","tier":"","message":"","currency":"","rating":7.2},{"name":"Norm's Eatery & Ale House","phone":"2065471417","address":"460 N 36th St","lat":47.652023,"lng":-122.35285,"neighborhood":"Fremont","city_fetched":"Bremerton,US","state":"WA","country":"United States","canonicalUrl":"https://foursquare.com/v/norms-eatery--ale-house/427d5680f964a520a9211fe3","categoryId":"4bf58dd8d48988d11b941735","category":"Pub","checkinsCount":7194,"usersCount":3537,"tipCount":61,"visitsCount":7269,"tier":2,"message":"Moderate","currency":"$","rating":7.2},{"name":"Eastlake Bar & Grill","phone":"2069577777","twitter":"eastlakebandg","address":"2947 Eastlake Ave E","lat":47.64867603778839,"lng":-122.324021,"neighborhood":"Eastlake","city_fetched":"Bremerton,US","state":"WA","country":"United States","canonicalUrl":"https://foursquare.com/v/eastlake-bar--grill/438e4fbef964a520382b1fe3","categoryId":"4bf58dd8d48988d116941735","category":"Bar","checkinsCount":7517,"usersCount":3834,"tipCount":43,"visitsCount":8137,"url":"http://neighborhoodgrills.com/eastlake/index.html","tier":2,"message":"Moderate","currency":"$","rating":7.2},{"name":"Elysian Tangletown","phone":"2065475929","twitter":"elysianbrewing","address":"2106 N 55th St","lat":47.668806680685286,"lng":-122.33349323272705,"neighborhood":"Wallingford","city_fetched":"Bremerton,US","state":"WA","country":"United States","canonicalUrl":"https://foursquare.com/v/elysian-tangletown/4245f780f964a52071201fe3","categoryId":"50327c8591d4c4b30a586d5d","category":"Brewery","checkinsCount":5223,"usersCount":2210,"tipCount":35,"visitsCount":5328,"url":"http://elysianbrewing.com","tier":2,"message":"Moderate","currency":"$","rating":7.2},{"name":"The District Lounge","phone":"2065474134","twitter":"udistrictlounge","address":"4507 Brooklyn Ave NE","lat":47.66132126666667,"lng":-122.314694,"neighborhood":"University District","city_fetched":"Bremerton,US","state":"WA","country":"United States","canonicalUrl":"https://foursquare.com/udistrictlounge","categoryId":"4bf58dd8d48988d121941735","category":"Lounge","checkinsCount":1650,"usersCount":760,"tipCount":12,"visitsCount":1684,"url":"http://www.thedistrictsea.com","tier":"","message":"","currency":"","rating":7.1},{"name":"Asgard Tavern by Odin Brewing Company","phone":"2064024704","twitter":"asgardtavern","address":"1300 N Northlake Way","lat":47.64830363700444,"lng":-122.34205484390259,"neighborhood":"Wallingford","city_fetched":"Bremerton,US","state":"WA","country":"United States","canonicalUrl":"https://foursquare.com/v/asgard-tavern-by-odin-brewing-company/51be3644501960cdf6b0ca6f","categoryId":"50327c8591d4c4b30a586d5d","category":"Brewery","checkinsCount":478,"usersCount":354,"tipCount":9,"visitsCount":479,"tier":1,"message":"Cheap","currency":"$","rating":7.1},{"name":"Finn MacCool's","phone":"2066750885","address":"4217 University Way NE","lat":47.6589394,"lng":-122.313449,"neighborhood":"University District","city_fetched":"Bremerton,US","state":"WA","country":"United States","canonicalUrl":"https://foursquare.com/v/finn-maccools/40b92400f964a5209b001fe3","categoryId":"4bf58dd8d48988d116941735","category":"Bar","checkinsCount":5376,"usersCount":2321,"tipCount":33,"visitsCount":5521,"url":"http://www.finnmaccools.com","tier":2,"message":"Moderate","currency":"$","rating":7.1},{"name":"The Corner Pocket","phone":"2069330320","address":"4302 SW Alaska St","lat":47.56112917,"lng":-122.38693203,"neighborhood":"West Seattle","city_fetched":"Bremerton,US","state":"WA","country":"United States","canonicalUrl":"https://foursquare.com/v/the-corner-pocket/41ddd100f964a520c01e1fe3","categoryId":"4bf58dd8d48988d116941735","category":"Bar","checkinsCount":1152,"usersCount":433,"tipCount":8,"visitsCount":1155,"url":"http://www.cp-sport.com","tier":2,"message":"Moderate","currency":"$","rating":7.1},{"name":"Duos Lounge","phone":"2064522452","twitter":"duoslounge","address":"2940 SW Avalon Way","lat":47.56968752410486,"lng":-122.37082073774269,"neighborhood":"West Seattle","city_fetched":"Bremerton,US","state":"WA","country":"United States","canonicalUrl":"https://foursquare.com/v/duos-lounge/503a9ee7e4b04042f65f86ad","categoryId":"4bf58dd8d48988d121941735","category":"Lounge","checkinsCount":679,"usersCount":333,"tipCount":13,"visitsCount":760,"url":"http://www.douslounge.com","tier":2,"message":"Moderate","currency":"$","rating":7},{"name":"Little Red Hen","phone":"2065221168","twitter":"lrhseattle","address":"7115 Woodlawn Ave NE","lat":47.680226286776886,"lng":-122.32482969760895,"neighborhood":"Green Lake","city_fetched":"Bremerton,US","state":"WA","country":"United States","canonicalUrl":"https://foursquare.com/v/little-red-hen/40b13b00f964a52016f71ee3","categoryId":"4bf58dd8d48988d11b941735","category":"Pub","checkinsCount":3532,"usersCount":1610,"tipCount":23,"visitsCount":3623,"url":"http://www.littleredhen.com","tier":1,"message":"Cheap","currency":"$","rating":7},{"name":"Manette Saloon And Side Bar","phone":"3607920801","address":"2113 E 11th St","lat":47.570202,"lng":-122.61512586,"neighborhood":"Manette","city_fetched":"Bremerton,US","state":"WA","country":"United States","canonicalUrl":"https://foursquare.com/v/manette-saloon-and-side-bar/4b788aa9f964a52075d52ee3","categoryId":"4bf58dd8d48988d116941735","category":"Bar","checkinsCount":1584,"usersCount":403,"tipCount":6,"visitsCount":1610,"url":"http://www.themanette.com","tier":"","message":"","currency":"","rating":7},{"name":"Rickshaw","phone":"2067890120","address":"322 N 105th St","lat":47.70526914657202,"lng":-122.35453248023987,"neighborhood":"Bitter Lake","city_fetched":"Bremerton,US","state":"WA","country":"United States","canonicalUrl":"https://foursquare.com/v/rickshaw/423b6b80f964a5203e201fe3","categoryId":"4bf58dd8d48988d116941735","category":"Bar","checkinsCount":1994,"usersCount":1000,"tipCount":20,"visitsCount":2237,"url":"http://www.therickshaw.net","tier":2,"message":"Moderate","currency":"$","rating":7},{"name":"Murphy's Pub","phone":"2066342110","twitter":"murphysseattle","address":"1928 N 45th St","lat":47.66145657256136,"lng":-122.33392238616943,"neighborhood":"Wallingford","city_fetched":"Bremerton,US","state":"WA","country":"United States","canonicalUrl":"https://foursquare.com/v/murphys-pub/40b13b00f964a520c5f61ee3","categoryId":"4bf58dd8d48988d11b941735","category":"Pub","checkinsCount":3428,"usersCount":1588,"tipCount":27,"visitsCount":3556,"url":"http://www.murphysseattle.com","tier":1,"message":"Cheap","currency":"$","rating":7},{"name":"The Night Owl","lat":47.664342,"lng":-122.313591,"neighborhood":"University District","city_fetched":"Bremerton,US","state":"WA","country":"United States","canonicalUrl":"https://foursquare.com/v/the-night-owl/50f11ec3e4b0b20f54f05bd4","categoryId":"4bf58dd8d48988d119941735","category":"Hookah Bar","checkinsCount":83,"usersCount":51,"tipCount":4,"visitsCount":84,"tier":"","message":"","currency":"","rating":7},{"name":"Tug Tavern","phone":"2067688852","address":"2216 SW Orchard St","lat":47.53800982061636,"lng":-122.36172894420272,"neighborhood":"High Point","city_fetched":"Bremerton,US","state":"WA","country":"United States","canonicalUrl":"https://foursquare.com/v/tug-tavern/40b13b00f964a5202cf71ee3","categoryId":"4bf58dd8d48988d118941735","category":"Dive Bar","checkinsCount":1163,"usersCount":445,"tipCount":14,"visitsCount":1496,"url":"http://tuginn.com","tier":1,"message":"Cheap","currency":"$","rating":6.9},{"name":"The Market Arms","phone":"2067890480","address":"2401 NW Market St","lat":47.66850865023101,"lng":-122.38760948181152,"neighborhood":"Ballard","city_fetched":"Bremerton,US","state":"WA","country":"United States","canonicalUrl":"https://foursquare.com/v/the-market-arms/4c0c40647e3fc9287e9df682","categoryId":"4bf58dd8d48988d116941735","category":"Bar","checkinsCount":6634,"usersCount":2846,"tipCount":45,"visitsCount":6997,"url":"http://www.themarketarms.com","tier":2,"message":"Moderate","currency":"$","rating":6.9},{"name":"Ballard Elks","phone":"2067840827","address":"6411 Seaview Ave NW","lat":47.675169676361385,"lng":-122.40811228752136,"neighborhood":"Sunset Hill","city_fetched":"Bremerton,US","state":"WA","country":"United States","canonicalUrl":"https://foursquare.com/v/ballard-elks/4abbbe70f964a520a48420e3","categoryId":"4bf58dd8d48988d116941735","category":"Bar","checkinsCount":1485,"usersCount":287,"tipCount":3,"visitsCount":1603,"tier":"","message":"","currency":"","rating":6.9},{"name":"The Tin Lizzie Lounge","phone":"2062831499","twitter":"tinlizzielounge","address":"600 Queen Anne Ave N","lat":47.62484737986842,"lng":-122.35659720592221,"neighborhood":"Lower Queen Anne","city_fetched":"Bremerton,US","state":"WA","country":"United States","canonicalUrl":"https://foursquare.com/tinlizzielounge","categoryId":"4bf58dd8d48988d121941735","category":"Lounge","checkinsCount":1020,"usersCount":642,"tipCount":13,"visitsCount":1032,"url":"http://thetinlizzielounge.com","tier":"","message":"","currency":"","rating":6.9},{"name":"Sporty's","phone":"2064630940","address":"17611 Vashon Hwy. SW","lat":47.446889,"lng":-122.460654,"city_fetched":"Bremerton,US","state":"WA","country":"United States","canonicalUrl":"https://foursquare.com/v/sportys/4e3dbb6bd164b52911b186c9","categoryId":"4bf58dd8d48988d11d941735","category":"Sports Bar","checkinsCount":139,"usersCount":98,"tipCount":2,"visitsCount":140,"tier":"","message":"","currency":"","rating":6.9},{"name":"Plate & Pint","lat":47.63503800732714,"lng":-122.5172614097865,"neighborhood":"Winslow","city_fetched":"Bremerton,US","state":"WA","country":"United States","canonicalUrl":"https://foursquare.com/v/plate--pint/554d36a3498e4f50f05f55d6","categoryId":"4bf58dd8d48988d11d941735","category":"Sports Bar","checkinsCount":119,"usersCount":72,"tipCount":1,"visitsCount":167,"tier":"","message":"","currency":"","rating":6.9},{"name":"Green Lake Alehouse","phone":"2062945753","address":"7900 E Green Lake Dr N","lat":47.685857448455124,"lng":-122.33700992003831,"neighborhood":"Green Lake","city_fetched":"Bremerton,US","state":"WA","country":"United States","canonicalUrl":"https://foursquare.com/v/green-lake-alehouse/5594d39f498e5c1f0fa21d03","categoryId":"4bf58dd8d48988d11b941735","category":"Pub","checkinsCount":199,"usersCount":128,"tipCount":2,"visitsCount":218,"tier":"","message":"","currency":"","rating":6.8},{"name":"Margaux Restaurant","phone":"2062192224","twitter":"warwickseattle","address":"401 Lenora St","lat":47.6140374,"lng":-122.340969,"neighborhood":"Belltown","city_fetched":"Bremerton,US","state":"WA","country":"United States","canonicalUrl":"https://foursquare.com/warwickseattle","categoryId":"4bf58dd8d48988d121941735","category":"Lounge","checkinsCount":931,"usersCount":602,"tipCount":10,"visitsCount":939,"url":"http://www.margauxseattle.com","tier":"","message":"","currency":"","rating":6.8},{"name":"Toronado","phone":"2065250654","twitter":"toronadon","address":"1205 NE 65th St","lat":47.675924587177846,"lng":-122.3154929280281,"neighborhood":"Roosevelt","city_fetched":"Bremerton,US","state":"WA","country":"United States","canonicalUrl":"https://foursquare.com/v/toronado/53dc4474498e9abfcc2b6f48","categoryId":"4bf58dd8d48988d116941735","category":"Bar","checkinsCount":862,"usersCount":509,"tipCount":16,"visitsCount":1071,"url":"http://toronadoseattle.com","tier":"","message":"","currency":"","rating":6.8},{"name":"Roosevelt Ale House","phone":"2065275480","twitter":"ralehouse","address":"8824 Roosevelt Way NE","lat":47.6928795198187,"lng":-122.31738883544436,"neighborhood":"Northgate","city_fetched":"Bremerton,US","state":"WA","country":"United States","canonicalUrl":"https://foursquare.com/v/roosevelt-ale-house/4aab641bf964a5208c5920e3","categoryId":"4bf58dd8d48988d11b941735","category":"Pub","checkinsCount":3075,"usersCount":1028,"tipCount":23,"visitsCount":3301,"url":"http://rooseveltalehouse.com","tier":2,"message":"Moderate","currency":"$","rating":6.8},{"name":"Macleod's Scottish Pub","phone":"2066877115","twitter":"macleodsballard","address":"5200 Ballard Ave NW","lat":47.66584202425063,"lng":-122.38232144584956,"neighborhood":"Ballard","city_fetched":"Bremerton,US","state":"WA","country":"United States","canonicalUrl":"https://foursquare.com/v/macleods-scottish-pub/4ef14f9082319545fe38a9af","categoryId":"4bf58dd8d48988d11e941735","category":"Cocktail Bar","checkinsCount":2577,"usersCount":1719,"tipCount":23,"visitsCount":2619,"tier":"","message":"","currency":"","rating":6.8},{"name":"Hilltop Ale House","phone":"2062853887","twitter":"hilltopalehouse","address":"2129 Queen Anne Ave N","lat":47.638086034492346,"lng":-122.35705500830439,"neighborhood":"West Queen Anne","city_fetched":"Bremerton,US","state":"WA","country":"United States","canonicalUrl":"https://foursquare.com/v/hilltop-ale-house/40b13b00f964a52097f61ee3","categoryId":"4bf58dd8d48988d11b941735","category":"Pub","checkinsCount":4087,"usersCount":1588,"tipCount":45,"visitsCount":4253,"url":"http://seattlealehouses.com/hilltop/","tier":2,"message":"Moderate","currency":"$","rating":6.8},{"name":"Da Spot Hookah Lounge","twitter":"gknutson","address":"1914 Minor Avenue","lat":47.61803931170593,"lng":-122.33246326446533,"neighborhood":"Belltown","city_fetched":"Bremerton,US","state":"WA","country":"United States","canonicalUrl":"https://foursquare.com/v/da-spot-hookah-lounge/4e3a0d15b3ade614e126e199","categoryId":"4bf58dd8d48988d119941735","category":"Hookah Bar","checkinsCount":529,"usersCount":139,"tipCount":6,"visitsCount":572,"tier":"","message":"","currency":"","rating":6.8},{"name":"Charlie's On Broadway","address":"217 Broadway E","lat":47.62037607825229,"lng":-122.32097960521564,"neighborhood":"Capitol Hill","city_fetched":"Bremerton,US","state":"WA","country":"United States","canonicalUrl":"https://foursquare.com/v/charlies-on-broadway/565a4aeb498eccbbe22c5d11","categoryId":"4bf58dd8d48988d11b941735","category":"Pub","checkinsCount":399,"usersCount":215,"tipCount":1,"visitsCount":485,"tier":"","message":"","currency":"","rating":6.8},{"name":"Thunderbird Tavern","phone":"2067812473","twitter":"tbirdballard","address":"7515 15th Ave NW","lat":47.683699483333335,"lng":-122.37701256666666,"neighborhood":"Loyal Heights","city_fetched":"Bremerton,US","state":"WA","country":"United States","canonicalUrl":"https://foursquare.com/v/thunderbird-tavern/4c78673d93ef236a3751ac0f","categoryId":"4bf58dd8d48988d116941735","category":"Bar","checkinsCount":272,"usersCount":122,"tipCount":12,"visitsCount":333,"tier":1,"message":"Cheap","currency":"$","rating":6.7},{"name":"Red Onion Tavern","phone":"2063231611","address":"4210 E Madison St","lat":47.635978,"lng":-122.278089,"neighborhood":"Madison Park","city_fetched":"Bremerton,US","state":"WA","country":"United States","canonicalUrl":"https://foursquare.com/v/red-onion-tavern/40b13b00f964a520edf61ee3","categoryId":"4bf58dd8d48988d116941735","category":"Bar","checkinsCount":794,"usersCount":307,"tipCount":8,"visitsCount":799,"tier":"","message":"","currency":"","rating":6.7},{"name":"Boxcar Ale House","phone":"2062866000","address":"3407 Gilman Ave W","lat":47.65058757118734,"lng":-122.38238990306854,"neighborhood":"Magnolia","city_fetched":"Bremerton,US","state":"WA","country":"United States","canonicalUrl":"https://foursquare.com/v/boxcar-ale-house/49caed36f964a520f0581fe3","categoryId":"4bf58dd8d48988d116941735","category":"Bar","checkinsCount":2661,"usersCount":1041,"tipCount":16,"visitsCount":3129,"tier":"","message":"","currency":"","rating":6.7},{"name":"The Monkey Pub","phone":"2065236457","address":"5305 Roosevelt Way NE","lat":47.667224,"lng":-122.31734120000002,"neighborhood":"University District","city_fetched":"Bremerton,US","state":"WA","country":"United States","canonicalUrl":"https://foursquare.com/v/the-monkey-pub/40b13b00f964a520c1f61ee3","categoryId":"4bf58dd8d48988d120941735","category":"Karaoke Bar","checkinsCount":1231,"usersCount":468,"tipCount":8,"visitsCount":1285,"url":"http://www.myspace.com/monkeypub","tier":"","message":"","currency":"","rating":6.7},{"name":"Kangaroo & Kiwi","phone":"2062970507","address":"2026 NW Market St","lat":47.66876874963109,"lng":-122.38370418548584,"neighborhood":"Ballard","city_fetched":"Bremerton,US","state":"WA","country":"United States","canonicalUrl":"https://foursquare.com/v/kangaroo--kiwi/41f98080f964a520351f1fe3","categoryId":"4bf58dd8d48988d11b941735","category":"Pub","checkinsCount":6336,"usersCount":3032,"tipCount":36,"visitsCount":6610,"url":"http://kangarooandkiwi.com","tier":2,"message":"Moderate","currency":"$","rating":6.6},{"name":"Fremont Oktoberfest","lat":47.65165770210868,"lng":-122.35608980897787,"neighborhood":"Fremont","city_fetched":"Bremerton,US","state":"WA","country":"United States","canonicalUrl":"https://foursquare.com/v/fremont-oktoberfest/523cd3b311d20523c2c6903d","categoryId":"4bf58dd8d48988d117941735","category":"Beer Garden","checkinsCount":163,"usersCount":178,"tipCount":1,"visitsCount":190,"tier":"","message":"","currency":"","rating":6.6},{"name":"Kai's Bistro & Lounge","phone":"2065472784","address":"1312 NE 43rd St","lat":47.659847,"lng":-122.31375217437744,"neighborhood":"University District","city_fetched":"Bremerton,US","state":"WA","country":"United States","canonicalUrl":"https://foursquare.com/v/kais-bistro--lounge/41ddd100f964a520c11e1fe3","categoryId":"4bf58dd8d48988d121941735","category":"Lounge","checkinsCount":646,"usersCount":375,"tipCount":10,"visitsCount":646,"tier":"","message":"","currency":"","rating":6.6},{"name":"Ould Triangle","phone":"2067067798","address":"9736 Greenwood Ave N","lat":47.700794,"lng":-122.35520126,"neighborhood":"Greenwood","city_fetched":"Bremerton,US","state":"WA","country":"United States","canonicalUrl":"https://foursquare.com/v/ould-triangle/413cfa00f964a520451c1fe3","categoryId":"4bf58dd8d48988d11b941735","category":"Pub","checkinsCount":687,"usersCount":316,"tipCount":6,"visitsCount":752,"tier":"","message":"","currency":"","rating":6.6},{"name":"Redline WS","twitter":"redlinews","address":"3295 SW Avalon Way","lat":47.564099130715114,"lng":-122.3756239269066,"neighborhood":"West Seattle","city_fetched":"Bremerton,US","state":"WA","country":"United States","canonicalUrl":"https://foursquare.com/v/redline-ws/5275b97911d2d2574c9bb593","categoryId":"4bf58dd8d48988d11d941735","category":"Sports Bar","checkinsCount":193,"usersCount":103,"tipCount":10,"visitsCount":200,"url":"http://www.redline-ws.com","tier":"","message":"","currency":"","rating":6.6},{"name":"The Cask","phone":"2069320977","address":"2358 California Ave SW","lat":47.58149738094433,"lng":-122.38632977354503,"neighborhood":"North Admiral","city_fetched":"Bremerton,US","state":"WA","country":"United States","canonicalUrl":"https://foursquare.com/v/the-cask/4c300c477cc0c9b6e5e0ec9a","categoryId":"4bf58dd8d48988d123941735","category":"Wine Bar","checkinsCount":441,"usersCount":224,"tipCount":8,"visitsCount":442,"tier":"","message":"","currency":"","rating":6.6},{"name":"Changes in Wallingford","phone":"2065458363","address":"2103 N 45th St","lat":47.661281,"lng":-122.333504,"neighborhood":"Wallingford","city_fetched":"Bremerton,US","state":"WA","country":"United States","canonicalUrl":"https://foursquare.com/v/changes-in-wallingford/40b13b00f964a5204af61ee3","categoryId":"4bf58dd8d48988d11b941735","category":"Pub","checkinsCount":2390,"usersCount":510,"tipCount":13,"visitsCount":2427,"url":"http://www.changesinwallingford.com","tier":1,"message":"Cheap","currency":"$","rating":6.6},{"name":"Waterwheel Lounge","phone":"2067845701","twitter":"thewaterwheel","address":"7034 15th Ave NW","lat":47.68058462403192,"lng":-122.37632438584549,"neighborhood":"Ballard","city_fetched":"Bremerton,US","state":"WA","country":"United States","canonicalUrl":"https://foursquare.com/v/waterwheel-lounge/40b13b00f964a52039f71ee3","categoryId":"4bf58dd8d48988d120941735","category":"Karaoke Bar","checkinsCount":3066,"usersCount":1274,"tipCount":24,"visitsCount":3328,"url":"http://thewaterwheellounge.com","tier":1,"message":"Cheap","currency":"$","rating":6.5},{"name":"Conor Byrne Pub","phone":"2067843640","twitter":"conorbyrnepub","address":"5140 Ballard Ave NW","lat":47.66552768,"lng":-122.38188,"neighborhood":"Ballard","city_fetched":"Bremerton,US","state":"WA","country":"United States","canonicalUrl":"https://foursquare.com/v/conor-byrne-pub/45193982f964a520573a1fe3","categoryId":"4bf58dd8d48988d11b941735","category":"Pub","checkinsCount":2614,"usersCount":1631,"tipCount":9,"visitsCount":2714,"url":"http://conorbyrnepub.com","tier":"","message":"","currency":"","rating":6.5},{"name":"Ballard Station Public House","phone":"2069069040","twitter":"ballardstation","address":"2236 NW Market St","lat":47.66881251011296,"lng":-122.3862626911311,"neighborhood":"Ballard","city_fetched":"Bremerton,US","state":"WA","country":"United States","canonicalUrl":"https://foursquare.com/v/ballard-station-public-house/50259257e4b02a96b1ac4a9f","categoryId":"4bf58dd8d48988d11b941735","category":"Pub","checkinsCount":1578,"usersCount":811,"tipCount":8,"visitsCount":1636,"tier":2,"message":"Moderate","currency":"$","rating":6.5},{"name":"The Pour House","phone":"3603776250","address":"312 Naval Ave","lat":47.56555061507952,"lng":-122.64616387210634,"neighborhood":"West Bremerton","city_fetched":"Bremerton,US","state":"WA","country":"United States","canonicalUrl":"https://foursquare.com/v/the-pour-house/4b7a5c5ff964a520862a2fe3","categoryId":"4bf58dd8d48988d116941735","category":"Bar","checkinsCount":800,"usersCount":203,"tipCount":11,"visitsCount":807,"tier":"","message":"","currency":"","rating":6.4},{"name":"Horse and Cow Pub and Grill","address":"4th street","lat":47.56587173405303,"lng":-122.62788231372659,"neighborhood":"Downtown Bremerton","city_fetched":"Bremerton,US","state":"WA","country":"United States","canonicalUrl":"https://foursquare.com/v/horse-and-cow-pub-and-grill/53bf88f2498e1f34dc31aac6","categoryId":"4bf58dd8d48988d11b941735","category":"Pub","checkinsCount":191,"usersCount":132,"tipCount":2,"visitsCount":273,"tier":"","message":"","currency":"","rating":6.4},{"name":"The Angry Beaver","phone":"2067826044","address":"8412 Greenwood Ave N","lat":47.69021555447222,"lng":-122.35507616786732,"neighborhood":"Greenwood","city_fetched":"Bremerton,US","state":"WA","country":"United States","canonicalUrl":"https://foursquare.com/v/the-angry-beaver/507a3368e4b05ac93d7f7895","categoryId":"4bf58dd8d48988d11d941735","category":"Sports Bar","checkinsCount":1668,"usersCount":852,"tipCount":23,"visitsCount":1731,"url":"http://angrybeaverseattle.com","tier":2,"message":"Moderate","currency":"$","rating":6.4},{"name":"Bill's On Greenwood","phone":"2067081400","address":"8560 Greenwood Ave N","lat":47.6918089174084,"lng":-122.3550042257941,"neighborhood":"Greenwood","city_fetched":"Bremerton,US","state":"WA","country":"United States","canonicalUrl":"https://foursquare.com/v/bills-on-greenwood/52632c92498e7f3d43307fef","categoryId":"4bf58dd8d48988d116941735","category":"Bar","checkinsCount":684,"usersCount":270,"tipCount":10,"visitsCount":715,"url":"http://www.billsongreenwood.com","tier":2,"message":"Moderate","currency":"$","rating":6.4},{"name":"Industry Lounge","phone":"2067623453","address":"6601 E Marginal Way S","lat":47.544146822109774,"lng":-122.33034533154243,"neighborhood":"Georgetown","city_fetched":"Bremerton,US","state":"WA","country":"United States","canonicalUrl":"https://foursquare.com/v/industry-lounge/4a013671f964a520de701fe3","categoryId":"4bf58dd8d48988d121941735","category":"Lounge","checkinsCount":251,"usersCount":122,"tipCount":6,"visitsCount":251,"url":"http://www.theindustrylounge.com","tier":"","message":"","currency":"","rating":6.4},{"name":"Phinney Market Pub & Eatery","phone":"2062199105","twitter":"phinneymarket","address":"5918 Phinney Ave N","lat":47.672359,"lng":-122.354137,"neighborhood":"Phinney Ridge","city_fetched":"Bremerton,US","state":"WA","country":"United States","canonicalUrl":"https://foursquare.com/phinneymarket","categoryId":"4bf58dd8d48988d11b941735","category":"Pub","checkinsCount":2100,"usersCount":1092,"tipCount":19,"visitsCount":2442,"url":"http://phinneymarketpub.com","tier":2,"message":"Moderate","currency":"$","rating":6.4},{"name":"Mandarin Gate","phone":"2065270709","address":"10000 Aurora Ave N","lat":47.701790838342525,"lng":-122.34379291534424,"neighborhood":"Northgate","city_fetched":"Bremerton,US","state":"WA","country":"United States","canonicalUrl":"https://foursquare.com/v/mandarin-gate/445bcd77f964a520ea321fe3","categoryId":"4bf58dd8d48988d120941735","category":"Karaoke Bar","checkinsCount":1161,"usersCount":455,"tipCount":6,"visitsCount":1200,"url":"http://www.mandaringateseattle.com","tier":"","message":"","currency":"","rating":6.3},{"name":"Ballard Grill & Ale House","phone":"2067829024","address":"4300 Leary Way NW","lat":47.6590914497474,"lng":-122.3646365384887,"neighborhood":"Fremont","city_fetched":"Bremerton,US","state":"WA","country":"United States","canonicalUrl":"https://foursquare.com/v/ballard-grill--ale-house/4abf2010f964a520d99020e3","categoryId":"4bf58dd8d48988d116941735","category":"Bar","checkinsCount":1011,"usersCount":415,"tipCount":10,"visitsCount":1012,"tier":"","message":"","currency":"","rating":6.3},{"name":"Lamplighter Public House","phone":"2067829690","address":"820 NW 85th St","lat":47.690790351539746,"lng":-122.36695462875826,"neighborhood":"Crown Hill","city_fetched":"Bremerton,US","state":"WA","country":"United States","canonicalUrl":"https://foursquare.com/v/lamplighter-public-house/529018bf11d2ec25ba1d769b","categoryId":"4bf58dd8d48988d11b941735","category":"Pub","checkinsCount":318,"usersCount":158,"tipCount":3,"visitsCount":355,"tier":2,"message":"Moderate","currency":"$","rating":6.2},{"name":"Magnolia Village Pub","phone":"2062859756","address":"3221 W McGraw St","lat":47.63940524909589,"lng":-122.39938847517408,"neighborhood":"Magnolia","city_fetched":"Bremerton,US","state":"WA","country":"United States","canonicalUrl":"https://foursquare.com/v/magnolia-village-pub/4a9f1fbef964a5209e3c20e3","categoryId":"4bf58dd8d48988d11b941735","category":"Pub","checkinsCount":2452,"usersCount":843,"tipCount":20,"visitsCount":2502,"tier":2,"message":"Moderate","currency":"$","rating":6.2},{"name":"Crescent Lounge","phone":"2067208188","address":"1413 E Olive Way","lat":47.617447585434114,"lng":-122.3263908998923,"neighborhood":"Capitol Hill","city_fetched":"Bremerton,US","state":"WA","country":"United States","canonicalUrl":"https://foursquare.com/v/crescent-lounge/483c1c07f964a52016501fe3","categoryId":"4bf58dd8d48988d1d8941735","category":"Gay Bar","checkinsCount":4412,"usersCount":1743,"tipCount":29,"visitsCount":4468,"tier":1,"message":"Cheap","currency":"$","rating":6.2},{"name":"The Old Pequliar","phone":"2067828886","address":"1722 NW Market St","lat":47.668822,"lng":-122.37999,"neighborhood":"Ballard","city_fetched":"Bremerton,US","state":"WA","country":"United States","canonicalUrl":"https://foursquare.com/v/the-old-pequliar/40b13b00f964a520d4f61ee3","categoryId":"4bf58dd8d48988d11b941735","category":"Pub","checkinsCount":3362,"usersCount":1323,"tipCount":19,"visitsCount":3446,"tier":2,"message":"Moderate","currency":"$","rating":6.2},{"name":"Nasty Ogre Brewing","lat":47.597134650440296,"lng":-122.64182582356325,"neighborhood":"East Bremerton","city_fetched":"Bremerton,US","state":"WA","country":"United States","canonicalUrl":"https://foursquare.com/v/nasty-ogre-brewing/51d9cb99498e1b2de4f47d39","categoryId":"50327c8591d4c4b30a586d5d","category":"Brewery","checkinsCount":1333,"usersCount":179,"tipCount":15,"visitsCount":1338,"tier":"","message":"","currency":"","rating":6.2},{"name":"NYP Bar and Grill Seattle","phone":"2069132565","twitter":"nypburlington","address":"500 Mercer St","lat":47.62463,"lng":-122.34754,"neighborhood":"Lower Queen Anne","city_fetched":"Bremerton,US","state":"WA","country":"United States","canonicalUrl":"https://foursquare.com/v/nyp-bar-and-grill-seattle/4eb06f71f9f463d3c3d278e6","categoryId":"4bf58dd8d48988d11d941735","category":"Sports Bar","checkinsCount":2979,"usersCount":1578,"tipCount":36,"visitsCount":3149,"url":"http://www.newyorkpizzaandbar.com","tier":2,"message":"Moderate","currency":"$","rating":6.1},{"name":"South Pacific Sports Bar","phone":"3604791657","address":"218 1st St","lat":47.56360733333333,"lng":-122.62617635,"neighborhood":"West Bremerton","city_fetched":"Bremerton,US","state":"WA","country":"United States","canonicalUrl":"https://foursquare.com/v/south-pacific-sports-bar/4b415c40f964a520d0c525e3","categoryId":"4bf58dd8d48988d11d941735","category":"Sports Bar","checkinsCount":730,"usersCount":322,"tipCount":8,"visitsCount":741,"url":"http://southpacificsportsbar.com","tier":"","message":"","currency":"","rating":6.1},{"name":"Amber","phone":"2067288500","twitter":"amberbelltown","address":"2214 1st Ave","lat":47.6130601,"lng":-122.345695,"neighborhood":"Belltown","city_fetched":"Bremerton,US","state":"WA","country":"United States","canonicalUrl":"https://foursquare.com/v/amber/44809857f964a5200d341fe3","categoryId":"4bf58dd8d48988d121941735","category":"Lounge","checkinsCount":6980,"usersCount":4076,"tipCount":29,"visitsCount":7122,"url":"http://amberseattle.com","tier":"","message":"","currency":"","rating":6},{"name":"McCloud's","phone":"3603733093","address":"2901 Perry Ave","lat":47.58885316804442,"lng":-122.61465078462983,"neighborhood":"East Bremerton","city_fetched":"Bremerton,US","state":"WA","country":"United States","canonicalUrl":"https://foursquare.com/v/mcclouds/4ca28f70a73cb60c887a1178","categoryId":"4bf58dd8d48988d116941735","category":"Bar","checkinsCount":1462,"usersCount":564,"tipCount":15,"visitsCount":1714,"url":"http://www.thenewmccloudsgrillhouseandsaloon.com","tier":1,"message":"Cheap","currency":"$","rating":6},{"name":"Ozzie's","phone":"2062844618","twitter":"ozziesbar","address":"105 W Mercer St","lat":47.624524,"lng":-122.35830237,"neighborhood":"Lower Queen Anne","city_fetched":"Bremerton,US","state":"WA","country":"United States","canonicalUrl":"https://foursquare.com/v/ozzies/4137b400f964a520cf1a1fe3","categoryId":"4bf58dd8d48988d118941735","category":"Dive Bar","checkinsCount":8140,"usersCount":4099,"tipCount":35,"visitsCount":8852,"url":"http://www.ozziesinseattle.com","tier":2,"message":"Moderate","currency":"$","rating":6},{"name":"Bleacher's Sports Pub","phone":"2067839919","address":"8118 Greenwood Ave N","lat":47.68819034099579,"lng":-122.3550442,"neighborhood":"Greenwood","city_fetched":"Bremerton,US","state":"WA","country":"United States","canonicalUrl":"https://foursquare.com/v/bleachers-sports-pub/4aac38fef964a520fc5c20e3","categoryId":"4bf58dd8d48988d11d941735","category":"Sports Bar","checkinsCount":1126,"usersCount":586,"tipCount":14,"visitsCount":1339,"url":"http://www.bleacherspub.com","tier":"","message":"","currency":"","rating":5.9},{"name":"The Drift Inn","address":"204 1st St","lat":47.563642,"lng":-122.625815,"neighborhood":"West Bremerton","city_fetched":"Bremerton,US","state":"WA","country":"United States","canonicalUrl":"https://foursquare.com/v/the-drift-inn/4b75028ff964a520e3fa2de3","categoryId":"4bf58dd8d48988d116941735","category":"Bar","checkinsCount":2582,"usersCount":251,"tipCount":9,"visitsCount":2583,"tier":"","message":"","currency":"","rating":5.9},{"name":"Seattle's Best Karaoke","phone":"2063436599","address":"1818 Minor Ave","lat":47.61712797678197,"lng":-122.33166008975914,"neighborhood":"Belltown","city_fetched":"Bremerton,US","state":"WA","country":"United States","canonicalUrl":"https://foursquare.com/v/seattles-best-karaoke/44545b5ff964a520c1321fe3","categoryId":"4bf58dd8d48988d120941735","category":"Karaoke Bar","checkinsCount":965,"usersCount":634,"tipCount":3,"visitsCount":1045,"url":"http://www.sbkaraoke.com","tier":"","message":"","currency":"","rating":5.9},{"name":"WingMasters Sports Bar","phone":"2067069999","twitter":"wingmasterssb","address":"5811 24th Ave NW","lat":47.671411,"lng":-122.387811,"neighborhood":"Ballard","city_fetched":"Bremerton,US","state":"WA","country":"United States","canonicalUrl":"https://foursquare.com/v/wingmasters-sports-bar/4a313868f964a5209c991fe3","categoryId":"4bf58dd8d48988d11d941735","category":"Sports Bar","checkinsCount":1886,"usersCount":764,"tipCount":23,"visitsCount":1941,"url":"http://www.wingmasterssportsbar.com","tier":"","message":"","currency":"","rating":5.8},{"name":"Ravenna Alehouse","phone":"2067299083","address":"2258 NE 65th St","lat":47.675848,"lng":-122.30334214,"neighborhood":"Northeast Seattle","city_fetched":"Bremerton,US","state":"WA","country":"United States","canonicalUrl":"https://foursquare.com/v/ravenna-alehouse/4abeae9cf964a5204d8f20e3","categoryId":"4bf58dd8d48988d11b941735","category":"Pub","checkinsCount":922,"usersCount":518,"tipCount":10,"visitsCount":964,"tier":"","message":"","currency":"","rating":5.8},{"name":"Tarasco","phone":"2067821485","address":"1452 NW 70th St","lat":47.679718,"lng":-122.374771,"neighborhood":"Ballard","city_fetched":"Bremerton,US","state":"WA","country":"United States","canonicalUrl":"https://foursquare.com/v/tarasco/47127dc6f964a520a24b1fe3","categoryId":"4bf58dd8d48988d116941735","category":"Bar","checkinsCount":931,"usersCount":442,"tipCount":10,"visitsCount":951,"tier":"","message":"","currency":"","rating":5.8},{"name":"Sport Restaurant & Bar","phone":"2064047767","twitter":"sportrestaurant","address":"140 4th Ave N #130","lat":47.61961665,"lng":-122.34882,"neighborhood":"South Lake Union","city_fetched":"Bremerton,US","state":"WA","country":"United States","canonicalUrl":"https://foursquare.com/v/sport-restaurant--bar/42eeb780f964a520b5261fe3","categoryId":"4bf58dd8d48988d11d941735","category":"Sports Bar","checkinsCount":6347,"usersCount":3658,"tipCount":53,"visitsCount":6442,"url":"http://www.sportrestaurant.com","tier":2,"message":"Moderate","currency":"$","rating":5.8},{"name":"LTD Bar + Grill","phone":"2066327876","address":"309 N 36th St","lat":47.65217759297518,"lng":-122.35503673553467,"neighborhood":"Fremont","city_fetched":"Bremerton,US","state":"WA","country":"United States","canonicalUrl":"https://foursquare.com/v/ltd-bar--grill/4ae6255ef964a5200fa521e3","categoryId":"4bf58dd8d48988d11d941735","category":"Sports Bar","checkinsCount":3867,"usersCount":1858,"tipCount":22,"visitsCount":3925,"url":"http://www.ltdbarandgrill.com","tier":1,"message":"Cheap","currency":"$","rating":5.8},{"name":"Baranof Bar & Restaurant","phone":"2067829260","address":"8549 Greenwood Ave N","lat":47.69182574390167,"lng":-122.35565900802612,"neighborhood":"Greenwood","city_fetched":"Bremerton,US","state":"WA","country":"United States","canonicalUrl":"https://foursquare.com/v/baranof-bar--restaurant/49bfdfdaf964a52032551fe3","categoryId":"4bf58dd8d48988d120941735","category":"Karaoke Bar","checkinsCount":2455,"usersCount":1274,"tipCount":23,"visitsCount":2572,"tier":1,"message":"Cheap","currency":"$","rating":5.7},{"name":"Our Place","phone":"3606980340","address":"9322 Silverdale Way NW","lat":47.64811230365849,"lng":-122.6961165246895,"city_fetched":"Bremerton,US","state":"WA","country":"United States","canonicalUrl":"https://foursquare.com/v/our-place/4b8a2354f964a5208c6132e3","categoryId":"4bf58dd8d48988d120941735","category":"Karaoke Bar","checkinsCount":1057,"usersCount":317,"tipCount":6,"visitsCount":1067,"tier":"","message":"","currency":"","rating":5.7},{"name":"Emerald Grill","phone":"2067288665","address":"211 Dexter Ave N","lat":47.62010375683714,"lng":-122.34263648683067,"neighborhood":"South Lake Union","city_fetched":"Bremerton,US","state":"WA","country":"United States","canonicalUrl":"https://foursquare.com/v/emerald-grill/4b1b3122f964a52067f923e3","categoryId":"4bf58dd8d48988d1d5941735","category":"Hotel Bar","checkinsCount":754,"usersCount":481,"tipCount":9,"visitsCount":766,"url":"http://www.holidayinn.com/seattlewa","tier":"","message":"","currency":"","rating":5.7},{"name":"Orient Express","phone":"2066820683","address":"2963 4th Ave S","lat":47.57581846777726,"lng":-122.329386,"city_fetched":"Bremerton,US","state":"WA","country":"United States","canonicalUrl":"https://foursquare.com/v/orient-express/49e95085f964a520ed651fe3","categoryId":"4bf58dd8d48988d120941735","category":"Karaoke Bar","checkinsCount":1309,"usersCount":923,"tipCount":15,"visitsCount":1520,"tier":"","message":"","currency":"","rating":5.7},{"name":"Westin Lobby Bar","phone":"2062567694","address":"1900 5th Ave","lat":47.61350653430528,"lng":-122.33841829837895,"neighborhood":"Belltown","city_fetched":"Bremerton,US","state":"WA","country":"United States","canonicalUrl":"https://foursquare.com/v/westin-lobby-bar/4b5d0381f964a520f34e29e3","categoryId":"4bf58dd8d48988d1d5941735","category":"Hotel Bar","checkinsCount":1410,"usersCount":581,"tipCount":4,"visitsCount":1421,"url":"http://www.westinseattle.com/downtown-seattle-restaurant","tier":"","message":"","currency":"","rating":5.7},{"name":"Samuel Adams Brewhouse","phone":"3604766719","address":"1400 Farragut Ave Bldg 434","lat":47.56130123768977,"lng":-122.64912096529446,"neighborhood":"West Bremerton","city_fetched":"Bremerton,US","state":"WA","country":"United States","canonicalUrl":"https://foursquare.com/v/samuel-adams-brewhouse/4bd091bdb221c9b6cdf3d3d0","categoryId":"50327c8591d4c4b30a586d5d","category":"Brewery","checkinsCount":1083,"usersCount":286,"tipCount":3,"visitsCount":1276,"tier":"","message":"","currency":"","rating":5.7},{"name":"Tia Lou's","phone":"2067338226","address":"2218 1st Ave","lat":47.613131,"lng":-122.345826,"neighborhood":"Belltown","city_fetched":"Bremerton,US","state":"WA","country":"United States","canonicalUrl":"https://foursquare.com/v/tia-lous/40b13b00f964a5201ff71ee3","categoryId":"4bf58dd8d48988d11f941735","category":"Nightclub","checkinsCount":2058,"usersCount":1191,"tipCount":14,"visitsCount":2067,"tier":"","message":"","currency":"","rating":5.7},{"name":"The Stone Crow","phone":"3604795686","address":"1220 Sylvan Way","lat":47.59582579135895,"lng":-122.62830018997192,"neighborhood":"East Bremerton","city_fetched":"Bremerton,US","state":"WA","country":"United States","canonicalUrl":"https://foursquare.com/v/the-stone-crow/4b7cece8f964a52063a92fe3","categoryId":"4bf58dd8d48988d116941735","category":"Bar","checkinsCount":521,"usersCount":122,"tipCount":15,"visitsCount":521,"tier":"","message":"","currency":"","rating":5.6},{"name":"Citrus International Tapas And Grill Lounge","phone":"2069808769","address":"1001 Fairview Ave N Ste 2000","lat":47.62845892444476,"lng":-122.33175768767636,"neighborhood":"South Lake Union","city_fetched":"Bremerton,US","state":"WA","country":"United States","canonicalUrl":"https://foursquare.com/v/citrus-international-tapas-and-grill-lounge/4c19b65f4ff90f473e6f1049","categoryId":"4bf58dd8d48988d121941735","category":"Lounge","checkinsCount":2553,"usersCount":1367,"tipCount":29,"visitsCount":2560,"tier":"","message":"","currency":"","rating":5.6},{"name":"Earl's on the Ave","phone":"2065254493","twitter":"earlsontheave","address":"4333 University Way NE","lat":47.66085176666667,"lng":-122.313413,"neighborhood":"University District","city_fetched":"Bremerton,US","state":"WA","country":"United States","canonicalUrl":"https://foursquare.com/v/earls-on-the-ave/43987550f964a520af2b1fe3","categoryId":"4bf58dd8d48988d118941735","category":"Dive Bar","checkinsCount":4255,"usersCount":1995,"tipCount":32,"visitsCount":4396,"url":"http://www.earlsontheave.com","tier":1,"message":"Cheap","currency":"$","rating":5.4},{"name":"Tim's Tavern","phone":"2067899005","address":"602 N 105th St","lat":47.70509690377551,"lng":-122.35087786659673,"neighborhood":"Bitter Lake","city_fetched":"Bremerton,US","state":"WA","country":"United States","canonicalUrl":"https://foursquare.com/v/tims-tavern/4f014eb58231bcb705321316","categoryId":"4bf58dd8d48988d116941735","category":"Bar","checkinsCount":1195,"usersCount":330,"tipCount":9,"visitsCount":1382,"tier":"","message":"","currency":"","rating":5.4},{"name":"Spitfire","phone":"2064417966","address":"2219 4th Ave","lat":47.614966,"lng":-122.34357833862305,"neighborhood":"Belltown","city_fetched":"Bremerton,US","state":"WA","country":"United States","canonicalUrl":"https://foursquare.com/v/spitfire/44fd67d9f964a52091381fe3","categoryId":"4bf58dd8d48988d11d941735","category":"Sports Bar","checkinsCount":5933,"usersCount":3573,"tipCount":51,"visitsCount":6227,"url":"http://spitfireseattle.com","tier":2,"message":"Moderate","currency":"$","rating":5.3},{"name":"Enkore Karaoke","phone":"2063689838","address":"4337 University Way NE","lat":47.6609236962711,"lng":-122.31342929073139,"neighborhood":"University District","city_fetched":"Bremerton,US","state":"WA","country":"United States","canonicalUrl":"https://foursquare.com/v/enkore-karaoke/4a7406b6f964a520b5dd1fe3","categoryId":"4bf58dd8d48988d120941735","category":"Karaoke Bar","checkinsCount":679,"usersCount":360,"tipCount":4,"visitsCount":680,"tier":2,"message":"Moderate","currency":"$","rating":5.2},{"name":"BalMar","phone":"2062970500","twitter":"thebalmar","address":"5449 Ballard Ave NW","lat":47.66846338138674,"lng":-122.38622892572992,"neighborhood":"Ballard","city_fetched":"Bremerton,US","state":"WA","country":"United States","canonicalUrl":"https://foursquare.com/v/balmar/43c6b4a8f964a520782d1fe3","categoryId":"4bf58dd8d48988d121941735","category":"Lounge","checkinsCount":4718,"usersCount":2735,"tipCount":35,"visitsCount":4762,"url":"http://www.thebalmar.com","tier":2,"message":"Moderate","currency":"$","rating":5.1}]