[{"name":"BT Longhorn Saloon and Steakhouse","phone":"9794216700","address":"205 S Baylor St","lat":30.16652648925792,"lng":-96.39704704284668,"city_fetched":"Brenham","state":"TX","country":"United States","canonicalUrl":"https://foursquare.com/v/bt-longhorn-saloon-and-steakhouse/4b0d76f4f964a520de4823e3","category":"Steakhouse","checkinsCount":598,"usersCount":347,"tipCount":9,"visitsCount":675,"url":"http://www.btlonghornsteakhouse.com","tier":2,"message":"Moderate","currency":"$","rating":7.9},{"name":"Brazos Valley Brewing Company","phone":"9799871133","twitter":"bvbrewing","address":"201 W First St","lat":30.164419657356817,"lng":-96.39870772688589,"city_fetched":"Brenham","state":"TX","country":"United States","canonicalUrl":"https://foursquare.com/v/brazos-valley-brewing-company/50eb69ab5262d02373734066","category":"Brewery","checkinsCount":86,"usersCount":74,"tipCount":2,"visitsCount":131,"url":"http://www.brazosvalleybrewery.com","tier":"","message":"","currency":"","rating":7.5},{"name":"Legends Billiards And Grill","phone":"9792517665","address":"100 W Main St","lat":30.16751647149028,"lng":-96.39839581079923,"city_fetched":"Brenham","state":"TX","country":"United States","canonicalUrl":"https://foursquare.com/v/legends-billiards-and-grill/4cb51c9956fca1cd0fe84c18","category":"Bar","checkinsCount":198,"usersCount":50,"tipCount":1,"visitsCount":203,"url":"http://legendsbrenham.com","tier":"","message":"","currency":"","rating":7.2},{"name":"Hampton Inn Suites Brenham Tx","phone":"9793379898","twitter":"hampton","address":"2605 Schulte Blvd","lat":30.141926402149764,"lng":-96.40022054188023,"city_fetched":"Brenham","state":"TX","country":"United States","canonicalUrl":"https://foursquare.com/v/hampton-inn-suites-brenham-tx/4bdf32067ea362b5006443c4","category":"Hotel","checkinsCount":459,"usersCount":150,"tipCount":5,"visitsCount":512,"url":"http://www.hampton.com","tier":"","message":"","currency":"","rating":6.1}]