[{"name":"Oskar Blues Brewery","phone":"8288832337","twitter":"oskarblueswnc","address":"342 Mountain Industrial Dr","lat":35.25374393728502,"lng":-82.70708449101674,"city_fetched":"Brevard,US","state":"NC","country":"United States","canonicalUrl":"https://foursquare.com/oskarblueswnc","categoryId":"50327c8591d4c4b30a586d5d","category":"Brewery","checkinsCount":1560,"usersCount":1448,"tipCount":14,"visitsCount":2155,"url":"http://www.oskarblues.com/about-us/oskarbluesbrevard/","tier":1,"message":"Cheap","currency":"$","rating":9.2},{"name":"Brevard Brewing Co.","address":"63","lat":35.23335112148704,"lng":-82.73330491787699,"city_fetched":"Brevard,US","state":"NC","country":"United States","canonicalUrl":"https://foursquare.com/v/brevard-brewing-co/4f16ef7ae4b0380208238778","categoryId":"50327c8591d4c4b30a586d5d","category":"Brewery","checkinsCount":649,"usersCount":489,"tipCount":11,"visitsCount":737,"tier":"","message":"","currency":"","rating":7.3},{"name":"Dugan's Pub","phone":"8288626527","address":"29 W French Broad St","lat":35.23611949947274,"lng":-82.73259368589376,"city_fetched":"Brevard,US","state":"NC","country":"United States","canonicalUrl":"https://foursquare.com/v/dugans-pub/4b4bb5b1f964a520d4a426e3","categoryId":"4bf58dd8d48988d11b941735","category":"Pub","checkinsCount":793,"usersCount":577,"tipCount":14,"visitsCount":1034,"tier":"","message":"","currency":"","rating":6.9}]