[{"name":"Two Roads Brewing Company","phone":"2033352010","twitter":"2roadsbrewing","address":"1700 Stratford Ave","lat":41.18576811207013,"lng":-73.14214916976144,"city_fetched":"Bridgeport,US","state":"CT","country":"United States","canonicalUrl":"https://foursquare.com/v/two-roads-brewing-company/507d7a65e4b03d34a5f811be","categoryId":"50327c8591d4c4b30a586d5d","category":"Brewery","checkinsCount":5009,"usersCount":3067,"tipCount":67,"visitsCount":6751,"url":"http://tworoadsbrewing.com","tier":1,"message":"Cheap","currency":"$","rating":9.4},{"name":"Veracious Brewing","lat":41.3103639848739,"lng":-73.2569981779954,"city_fetched":"Bridgeport,US","state":"CT","country":"United States","canonicalUrl":"https://foursquare.com/v/veracious-brewing/557b6795498ee95399b18887","categoryId":"50327c8591d4c4b30a586d5d","category":"Brewery","checkinsCount":199,"usersCount":180,"tipCount":2,"visitsCount":297,"tier":"","message":"","currency":"","rating":8.9},{"name":"Artisan Restaurant, Tavern & Garden","phone":"2033074222","twitter":"artisan275","address":"275 Old Post Rd","lat":41.137829356470846,"lng":-73.28792810440063,"city_fetched":"Bridgeport,US","state":"CT","country":"United States","canonicalUrl":"https://foursquare.com/v/artisan-restaurant-tavern--garden/4e0d451ad164fff335a04521","categoryId":"4bf58dd8d48988d11e941735","category":"Cocktail Bar","checkinsCount":1324,"usersCount":722,"tipCount":10,"visitsCount":1437,"url":"http://artisansouthport.com","tier":3,"message":"Expensive","currency":"$","rating":8.8},{"name":"Barcelona Wine Bar - Fairfield","phone":"2032550800","twitter":"barcelonawineba","address":"4180 Black Rock Tpke","lat":41.20364699541816,"lng":-73.27114283104005,"city_fetched":"Bridgeport,US","state":"CT","country":"United States","canonicalUrl":"https://foursquare.com/v/barcelona-wine-bar--fairfield/4b527ac9f964a5203c7f27e3","categoryId":"4bf58dd8d48988d123941735","category":"Wine Bar","checkinsCount":2095,"usersCount":1449,"tipCount":20,"visitsCount":2744,"url":"http://www.barcelonawinebar.com/fairfield.htm","tier":2,"message":"Moderate","currency":"$","rating":8.7},{"name":"Bar 3 Thirty Three","phone":"2036932637","address":"333 Boston Post Rd","lat":41.224444,"lng":-73.071169,"neighborhood":"Downtown Milford - Harbor - Post Road South","city_fetched":"Bridgeport,US","state":"CT","country":"United States","canonicalUrl":"https://foursquare.com/v/bar-3-thirty-three/54516a12498e0f068e011361","categoryId":"4bf58dd8d48988d116941735","category":"Bar","checkinsCount":236,"usersCount":215,"tipCount":3,"visitsCount":599,"url":"http://www.bar3thirtythree.com","tier":"","message":"","currency":"","rating":8.4},{"name":"The Chelsea","phone":"2032548200","address":"12 Unquowa Pl","lat":41.142271808178734,"lng":-73.25612274636876,"city_fetched":"Bridgeport,US","state":"CT","country":"United States","canonicalUrl":"https://foursquare.com/v/the-chelsea/4ffb665ae4b0d7e0a907e3a3","categoryId":"4bf58dd8d48988d116941735","category":"Bar","checkinsCount":1301,"usersCount":765,"tipCount":17,"visitsCount":1448,"tier":"","message":"","currency":"","rating":8.3},{"name":"Geronimo","phone":"2039551643","address":"2070 Post Rd","lat":41.14082252658933,"lng":-73.26821146042799,"city_fetched":"Bridgeport,US","state":"CT","country":"United States","canonicalUrl":"https://foursquare.com/v/geronimo/52d71613498eb8e60486148a","categoryId":"4bf58dd8d48988d11e941735","category":"Cocktail Bar","checkinsCount":1005,"usersCount":870,"tipCount":12,"visitsCount":1763,"url":"http://geronimobarandgrill.com","tier":2,"message":"Moderate","currency":"$","rating":8.1},{"name":"SBC Restaurant & Brewery","phone":"2032562337","twitter":"sbcbrewery","address":"2600 Post Rd","lat":41.13983282290325,"lng":-73.2781860244448,"city_fetched":"Bridgeport,US","state":"CT","country":"United States","canonicalUrl":"https://foursquare.com/v/sbc-restaurant--brewery/4b1c410cf964a520130524e3","categoryId":"50327c8591d4c4b30a586d5d","category":"Brewery","checkinsCount":5018,"usersCount":2087,"tipCount":31,"visitsCount":5694,"url":"http://southportbrewing.com","tier":2,"message":"Moderate","currency":"$","rating":8},{"name":"Archie Moore's Bar & Restaurant","phone":"2032569295","address":"48 Sanford St","lat":41.141897,"lng":-73.25755,"city_fetched":"Bridgeport,US","state":"CT","country":"United States","canonicalUrl":"https://foursquare.com/v/archie-moores-bar--restaurant/49d0f03df964a520475b1fe3","categoryId":"4bf58dd8d48988d116941735","category":"Bar","checkinsCount":4228,"usersCount":1913,"tipCount":42,"visitsCount":4579,"url":"http://www.archiemoores.com","tier":"","message":"","currency":"","rating":8},{"name":"Brewport","address":"225 South Frontage Rd","lat":41.170814,"lng":-73.191774,"neighborhood":"Downtown Bridgeport","city_fetched":"Bridgeport,US","state":"CT","country":"United States","canonicalUrl":"https://foursquare.com/v/brewport/5787d0d2498ec9461f604d3f","categoryId":"50327c8591d4c4b30a586d5d","category":"Brewery","checkinsCount":115,"usersCount":142,"tipCount":3,"visitsCount":187,"tier":"","message":"","currency":"","rating":7.9},{"name":"Aspetuck Brew Lab","address":"3389","lat":41.15449437341296,"lng":-73.23587166838787,"neighborhood":"Black Rock","city_fetched":"Bridgeport,US","state":"CT","country":"United States","canonicalUrl":"https://foursquare.com/v/aspetuck-brew-lab/56623094498ee423e6c471bf","categoryId":"50327c8591d4c4b30a586d5d","category":"Brewery","checkinsCount":102,"usersCount":139,"tipCount":1,"visitsCount":227,"tier":"","message":"","currency":"","rating":7.9},{"name":"Archie Moore's","phone":"2038765088","twitter":"archiemooresct","address":"15 Factory Ln","lat":41.22178297991693,"lng":-73.056331,"neighborhood":"Downtown Milford - Harbor - Post Road South","city_fetched":"Bridgeport,US","state":"CT","country":"United States","canonicalUrl":"https://foursquare.com/v/archie-moores/4b393531f964a5202f5825e3","categoryId":"4bf58dd8d48988d116941735","category":"Bar","checkinsCount":4283,"usersCount":1843,"tipCount":28,"visitsCount":4548,"url":"http://www.archiemoores.com","tier":2,"message":"Moderate","currency":"$","rating":7.8},{"name":"Brennan's Shebeen Irish Bar & Grill","phone":"2038709981","twitter":"brennansshebeen","address":"2652 Fairfield Ave","lat":41.159545337115375,"lng":-73.22482109069824,"neighborhood":"Black Rock","city_fetched":"Bridgeport,US","state":"CT","country":"United States","canonicalUrl":"https://foursquare.com/brennansshebeen","categoryId":"4bf58dd8d48988d11b941735","category":"Pub","checkinsCount":3468,"usersCount":893,"tipCount":21,"visitsCount":3828,"url":"http://www.brennansshebeen.com","tier":"","message":"","currency":"","rating":7.8},{"name":"Gaelic American Club","phone":"2032540673","address":"74 Beach Rd","lat":41.143432253966175,"lng":-73.25250579490303,"city_fetched":"Bridgeport,US","state":"CT","country":"United States","canonicalUrl":"https://foursquare.com/v/gaelic-american-club/4b37bbaaf964a520314525e3","categoryId":"4bf58dd8d48988d1d4941735","category":"Speakeasy","checkinsCount":1175,"usersCount":416,"tipCount":12,"visitsCount":1367,"url":"http://www.gaconline.org","tier":1,"message":"Cheap","currency":"$","rating":7.8},{"name":"M. White Lounge","phone":"2032758999","twitter":"mwhitelounge","address":"2288 Fairfield Ave","lat":41.163766007677324,"lng":-73.22060726782851,"neighborhood":"Black Rock","city_fetched":"Bridgeport,US","state":"CT","country":"United States","canonicalUrl":"https://foursquare.com/v/m-white-lounge/51aac117498ec0f9f7bb6fe0","categoryId":"4bf58dd8d48988d116941735","category":"Bar","checkinsCount":169,"usersCount":75,"tipCount":2,"visitsCount":251,"url":"http://mwhitelounge.com","tier":"","message":"","currency":"","rating":7.7},{"name":"Horseshoe Caf√©","phone":"2032558624","address":"355 Pequot Ave","lat":41.13616639656643,"lng":-73.2839160121101,"city_fetched":"Bridgeport,US","state":"CT","country":"United States","canonicalUrl":"https://foursquare.com/v/horseshoe-caf%C3%A9/4b0885b0f964a5209f0d23e3","categoryId":"4bf58dd8d48988d116941735","category":"Bar","checkinsCount":1334,"usersCount":608,"tipCount":5,"visitsCount":1518,"tier":"","message":"","currency":"","rating":7.7},{"name":"Molto Wine Bar","phone":"2032928288","address":"1215 Post Rd","lat":41.14337662292814,"lng":-73.25415877206929,"city_fetched":"Bridgeport,US","state":"CT","country":"United States","canonicalUrl":"https://foursquare.com/v/molto-wine-bar/4b5cf0aaf964a520ba4b29e3","categoryId":"4bf58dd8d48988d123941735","category":"Wine Bar","checkinsCount":2461,"usersCount":1265,"tipCount":15,"visitsCount":2769,"url":"http://pizzeriamolto.com","tier":"","message":"","currency":"","rating":7.7},{"name":"Anna Liffey's","phone":"2032929520","address":"1494 Post Rd","lat":41.14126677711806,"lng":-73.2577756966109,"city_fetched":"Bridgeport,US","state":"CT","country":"United States","canonicalUrl":"https://foursquare.com/v/anna-liffeys/50244171e4b0b3d65bc7215e","categoryId":"4bf58dd8d48988d116941735","category":"Bar","checkinsCount":638,"usersCount":428,"tipCount":6,"visitsCount":893,"url":"http://annaliffeys.com","tier":2,"message":"Moderate","currency":"$","rating":7.6},{"name":"Crafty Monk","phone":"2039902000","address":"3001 Fairfield Ave","lat":41.15575777344627,"lng":-73.22875225138893,"neighborhood":"Black Rock","city_fetched":"Bridgeport,US","state":"CT","country":"United States","canonicalUrl":"https://foursquare.com/v/crafty-monk/54ad6761498e0c7919bd6134","categoryId":"4bf58dd8d48988d116941735","category":"Bar","checkinsCount":198,"usersCount":122,"tipCount":4,"visitsCount":279,"url":"http://thecraftymonkct.com","tier":"","message":"","currency":"","rating":7.5},{"name":"Fairfield Craft Ales","address":"724 Honeyspot Rd","lat":41.1757,"lng":-73.147106,"city_fetched":"Bridgeport,US","state":"CT","country":"United States","canonicalUrl":"https://foursquare.com/v/fairfield-craft-ales/5782915e498eb7aacc2f28b6","categoryId":"50327c8591d4c4b30a586d5d","category":"Brewery","checkinsCount":22,"usersCount":27,"tipCount":1,"visitsCount":37,"tier":"","message":"","currency":"","rating":7.4},{"name":"Seagrape Cafe","phone":"2032542669","address":"1144 Reef Rd","lat":41.12927186684107,"lng":-73.2440310716629,"city_fetched":"Bridgeport,US","state":"CT","country":"United States","canonicalUrl":"https://foursquare.com/v/seagrape-cafe/4b983c34f964a520303635e3","categoryId":"4bf58dd8d48988d116941735","category":"Bar","checkinsCount":1457,"usersCount":767,"tipCount":6,"visitsCount":1686,"tier":"","message":"","currency":"","rating":7.3},{"name":"O'Manel Restaurant","phone":"2033351676","address":"1909 Main St","lat":41.18961338954124,"lng":-73.1958594467817,"city_fetched":"Bridgeport,US","state":"CT","country":"United States","canonicalUrl":"https://foursquare.com/v/omanel-restaurant/4d4dee789aaab60ca2df3d29","categoryId":"4bf58dd8d48988d120941735","category":"Karaoke Bar","checkinsCount":213,"usersCount":119,"tipCount":2,"visitsCount":267,"url":"http://omanelrestaurant.com","tier":"","message":"","currency":"","rating":7.3},{"name":"SBC Restaurant & Brewery","phone":"2038742337","twitter":"sbcbrewery","address":"33 New Haven Ave","lat":41.22252099650261,"lng":-73.05586474598695,"neighborhood":"Downtown Milford - Harbor - Post Road South","city_fetched":"Bridgeport,US","state":"CT","country":"United States","canonicalUrl":"https://foursquare.com/v/sbc-restaurant--brewery/4b4cad9cf964a520f1b926e3","categoryId":"50327c8591d4c4b30a586d5d","category":"Brewery","checkinsCount":4393,"usersCount":1930,"tipCount":24,"visitsCount":4592,"url":"http://www.southportbrewing.com","tier":2,"message":"Moderate","currency":"$","rating":7},{"name":"Crush Sports Cafe","phone":"2038772200","twitter":"crushmilford","address":"1015 Bridgeport Ave","lat":41.21556497690565,"lng":-73.0712230265012,"neighborhood":"Devon - Walnut Beach","city_fetched":"Bridgeport,US","state":"CT","country":"United States","canonicalUrl":"https://foursquare.com/crushmilford","categoryId":"4bf58dd8d48988d11d941735","category":"Sports Bar","checkinsCount":1165,"usersCount":605,"tipCount":15,"visitsCount":1357,"url":"http://crushmilford.com","tier":"","message":"","currency":"","rating":6.9},{"name":"Chubby's","address":"2926 Fairfield Ave","lat":41.1542973917576,"lng":-73.23666654065109,"neighborhood":"Black Rock","city_fetched":"Bridgeport,US","state":"CT","country":"United States","canonicalUrl":"https://foursquare.com/v/chubbys/513febc8e4b0631e0f577f74","categoryId":"4bf58dd8d48988d116941735","category":"Bar","checkinsCount":434,"usersCount":252,"tipCount":14,"visitsCount":613,"url":"http://chubbyspub.com","tier":2,"message":"Moderate","currency":"$","rating":6.9},{"name":"Sitting Duck Tavern","address":"4244 Madison Ave","lat":41.233983279907434,"lng":-73.23090653260157,"city_fetched":"Bridgeport,US","state":"CT","country":"United States","canonicalUrl":"https://foursquare.com/v/sitting-duck-tavern/56341417498e8f8d6756404b","categoryId":"4bf58dd8d48988d116941735","category":"Bar","checkinsCount":214,"usersCount":153,"tipCount":0,"visitsCount":418,"tier":"","message":"","currency":"","rating":6.8},{"name":"Aroma Hookah Lounge","phone":"2033380316","address":"689 Kings Hwy E","lat":41.16944763331445,"lng":-73.23020696640015,"city_fetched":"Bridgeport,US","state":"CT","country":"United States","canonicalUrl":"https://foursquare.com/v/aroma-hookah-lounge/4ba56603f964a5203a0339e3","categoryId":"4bf58dd8d48988d119941735","category":"Hookah Bar","checkinsCount":807,"usersCount":301,"tipCount":9,"visitsCount":826,"tier":"","message":"","currency":"","rating":6.8},{"name":"Black Rock Yacht & Athletic Club","phone":"2035224777","address":"3074 Fairfield Ave","lat":41.155747,"lng":-73.230076,"neighborhood":"Black Rock","city_fetched":"Bridgeport,US","state":"CT","country":"United States","canonicalUrl":"https://foursquare.com/v/black-rock-yacht--athletic-club/4f498f57e4b092e0ca2102ae","categoryId":"4bf58dd8d48988d116941735","category":"Bar","checkinsCount":247,"usersCount":99,"tipCount":5,"visitsCount":247,"tier":"","message":"","currency":"","rating":6.7},{"name":"Scruples","phone":"2033358975","twitter":"scrupleslounge","address":"369 North Ave","lat":41.198570834165416,"lng":-73.19231641401483,"city_fetched":"Bridgeport,US","state":"CT","country":"United States","canonicalUrl":"https://foursquare.com/v/scruples/4bcb9b83b6c49c74869c9291","categoryId":"4bf58dd8d48988d1d6941735","category":"Strip Club","checkinsCount":441,"usersCount":193,"tipCount":5,"visitsCount":543,"tier":"","message":"","currency":"","rating":6.7},{"name":"Tiago's Restaurant and Bar","phone":"2038730282","address":"211 Main St","lat":41.176519066613686,"lng":-73.18979881048965,"neighborhood":"Downtown Bridgeport","city_fetched":"Bridgeport,US","state":"CT","country":"United States","canonicalUrl":"https://foursquare.com/v/tiagos-restaurant-and-bar/4bd74843f645c9b6139aa5e0","categoryId":"50327c8591d4c4b30a586d5d","category":"Brewery","checkinsCount":662,"usersCount":328,"tipCount":12,"visitsCount":725,"url":"http://www.fairfieldcafe.com","tier":"","message":"","currency":"","rating":6.6},{"name":"Tautog Tavern","phone":"2039157500","twitter":"tautogtavern","address":"2926 Fairfield Ave","lat":41.156669862302394,"lng":-73.22794007045648,"neighborhood":"Black Rock","city_fetched":"Bridgeport,US","state":"CT","country":"United States","canonicalUrl":"https://foursquare.com/v/tautog-tavern/4f483c10e4b0e4755ca5b95e","categoryId":"4bf58dd8d48988d11b941735","category":"Pub","checkinsCount":921,"usersCount":264,"tipCount":8,"visitsCount":926,"tier":"","message":"","currency":"","rating":6.6},{"name":"Vinny's Ale House","phone":"2032928730","twitter":"vinnysalehouse","address":"93 Post Rd","lat":41.152638690277314,"lng":-73.23829114437103,"city_fetched":"Bridgeport,US","state":"CT","country":"United States","canonicalUrl":"https://foursquare.com/v/vinnys-ale-house/4c38fb9fdfb0e21e5cadafa8","categoryId":"4bf58dd8d48988d116941735","category":"Bar","checkinsCount":1830,"usersCount":792,"tipCount":13,"visitsCount":2222,"url":"http://vinnysalehouse.com","tier":2,"message":"Moderate","currency":"$","rating":6.6},{"name":"Blue Martini","address":"1070 Main St","lat":41.178835,"lng":-73.18920923333333,"neighborhood":"Downtown Bridgeport","city_fetched":"Bridgeport,US","state":"CT","country":"United States","canonicalUrl":"https://foursquare.com/v/blue-martini/4b15daa9f964a52011b523e3","categoryId":"4bf58dd8d48988d11e941735","category":"Cocktail Bar","checkinsCount":235,"usersCount":150,"tipCount":5,"visitsCount":238,"tier":"","message":"","currency":"","rating":6.6},{"name":"Ray Kelly's Pub","phone":"2033336278","address":"2720 Fairfield Ave","lat":41.15882992744446,"lng":-73.225422,"neighborhood":"Black Rock","city_fetched":"Bridgeport,US","state":"CT","country":"United States","canonicalUrl":"https://foursquare.com/v/ray-kellys-pub/4bd2383f462cb7134ef0db07","categoryId":"4bf58dd8d48988d116941735","category":"Bar","checkinsCount":303,"usersCount":112,"tipCount":2,"visitsCount":330,"tier":"","message":"","currency":"","rating":6.5},{"name":"Murphy's Law","phone":"2033665297","address":"239 Fairfield Ave","lat":41.178710670274484,"lng":-73.19151562326981,"neighborhood":"Downtown Bridgeport","city_fetched":"Bridgeport,US","state":"CT","country":"United States","canonicalUrl":"https://foursquare.com/v/murphys-law/4b1744d4f964a52065c423e3","categoryId":"4bf58dd8d48988d116941735","category":"Bar","checkinsCount":856,"usersCount":263,"tipCount":7,"visitsCount":901,"url":"http://murphyslawpub.com","tier":"","message":"","currency":"","rating":6.5},{"name":"Tavern","phone":"2038805007","twitter":"tavernmonroect","address":"262 Main St","lat":41.31154919999999,"lng":-73.2579895,"city_fetched":"Bridgeport,US","state":"CT","country":"United States","canonicalUrl":"https://foursquare.com/v/tavern/4ddfde53814d4840097f4060","categoryId":"4bf58dd8d48988d116941735","category":"Bar","checkinsCount":1434,"usersCount":729,"tipCount":20,"visitsCount":1814,"url":"http://tavernmonroect.com","tier":"","message":"","currency":"","rating":6.4},{"name":"Fairfield University - The Levee","phone":"2032544000","twitter":"fairfieldu","address":"1073 N Benson Rd","lat":41.16104773934986,"lng":-73.25634241104126,"city_fetched":"Bridgeport,US","state":"CT","country":"United States","canonicalUrl":"https://foursquare.com/v/fairfield-university--the-levee/4bc92c7cb6c49c74cb1b8e91","categoryId":"4bf58dd8d48988d116941735","category":"Bar","checkinsCount":851,"usersCount":208,"tipCount":11,"visitsCount":901,"url":"http://www.fairfield.edu","tier":"","message":"","currency":"","rating":6.4},{"name":"Mystique","phone":"2036128026","address":"2458 Main St","lat":41.196452,"lng":-73.199872,"neighborhood":"Brooklawn - St. Vincent","city_fetched":"Bridgeport,US","state":"CT","country":"United States","canonicalUrl":"https://foursquare.com/v/mystique/4bafd53ef964a5206b243ce3","categoryId":"4bf58dd8d48988d1d6941735","category":"Strip Club","checkinsCount":501,"usersCount":145,"tipCount":5,"visitsCount":627,"tier":"","message":"","currency":"","rating":6.4},{"name":"Frog Pond","phone":"2033777868","address":"251 E Main St","lat":41.20349407196045,"lng":-73.11843477,"city_fetched":"Bridgeport,US","state":"CT","country":"United States","canonicalUrl":"https://foursquare.com/v/frog-pond/4bb6928e2f70c9b612ab8530","categoryId":"4bf58dd8d48988d118941735","category":"Dive Bar","checkinsCount":735,"usersCount":316,"tipCount":17,"visitsCount":933,"tier":2,"message":"Moderate","currency":"$","rating":6.3},{"name":"Trevi Lounge","address":"548 Kings Highway Cutoff","lat":41.15891713144944,"lng":-73.24284686377024,"city_fetched":"Bridgeport,US","state":"CT","country":"United States","canonicalUrl":"https://foursquare.com/v/trevi-lounge/50c9506ce4b08539fabf74e4","categoryId":"4bf58dd8d48988d1d8941735","category":"Gay Bar","checkinsCount":482,"usersCount":165,"tipCount":9,"visitsCount":691,"tier":"","message":"","currency":"","rating":6.2},{"name":"Anthony D's","address":"New Haven Ave","lat":41.223002,"lng":-73.04245006666666,"neighborhood":"Downtown Milford - Harbor - Post Road South","city_fetched":"Bridgeport,US","state":"CT","country":"United States","canonicalUrl":"https://foursquare.com/v/anthony-ds/4df43fd1d1649c8a28e61fbc","categoryId":"4bf58dd8d48988d118941735","category":"Dive Bar","checkinsCount":456,"usersCount":251,"tipCount":2,"visitsCount":551,"tier":"","message":"","currency":"","rating":6.1},{"name":"Hards Corner","phone":"2033751477","address":"1900 main st","lat":41.18663989925308,"lng":-73.12990960594715,"city_fetched":"Bridgeport,US","state":"CT","country":"United States","canonicalUrl":"https://foursquare.com/v/hards-corner/4bdf7d9b0ee3a593fd8c34b0","categoryId":"4bf58dd8d48988d118941735","category":"Dive Bar","checkinsCount":677,"usersCount":141,"tipCount":3,"visitsCount":705,"tier":"","message":"","currency":"","rating":6.1},{"name":"Kings Court Bar & Grill","phone":"2038768831","address":"229 Bridgeport Ave","lat":41.20221307531999,"lng":-73.10152530670166,"neighborhood":"Devon - Walnut Beach","city_fetched":"Bridgeport,US","state":"CT","country":"United States","canonicalUrl":"https://foursquare.com/v/kings-court-bar--grill/4b9c6ff2f964a520926836e3","categoryId":"4bf58dd8d48988d118941735","category":"Dive Bar","checkinsCount":1176,"usersCount":188,"tipCount":6,"visitsCount":1180,"tier":"","message":"","currency":"","rating":5.6},{"name":"Naughty Water Whiskey Bar and Grille","phone":"4752829900","twitter":"naughtywaterwb","address":"2931 Fairfield Ave","lat":41.1564383751424,"lng":-73.22767510298848,"neighborhood":"Black Rock","city_fetched":"Bridgeport,US","state":"CT","country":"United States","canonicalUrl":"https://foursquare.com/v/naughty-water-whiskey-bar-and-grille/52bd0657498e74792e459a81","categoryId":"4bf58dd8d48988d116941735","category":"Bar","checkinsCount":84,"usersCount":67,"tipCount":1,"visitsCount":86,"url":"http://www.naughtywaterwhiskeybar.com","tier":"","message":"","currency":"","rating":5.4}]