[{"name":"2SP Brewing Co.","address":"120 Concord Rd","lat":39.85585112473273,"lng":-75.40415013588344,"city_fetched":"Brookhaven,US","state":"PA","country":"United States","canonicalUrl":"https://foursquare.com/v/2sp-brewing-co/55ad82c1498eb936d6b59c77","categoryId":"50327c8591d4c4b30a586d5d","category":"Brewery","checkinsCount":242,"usersCount":228,"tipCount":3,"visitsCount":428,"tier":"","message":"","currency":"","rating":8.6},{"name":"Maggie May's Pub & Grub","phone":"6104900830","twitter":"maggiemayscp","address":"953 E 14th St","lat":39.86311851604667,"lng":-75.35038138971895,"city_fetched":"Brookhaven,US","state":"PA","country":"United States","canonicalUrl":"https://foursquare.com/v/maggie-mays-pub--grub/4c966ba558d4b60c57ea3a29","categoryId":"4bf58dd8d48988d11b941735","category":"Pub","checkinsCount":440,"usersCount":200,"tipCount":4,"visitsCount":532,"tier":"","message":"","currency":"","rating":7.7},{"name":"Hunt's Annex Lounge","phone":"6108332344","address":"1311 Macdade Blvd","lat":39.87741615,"lng":-75.34598708152771,"city_fetched":"Brookhaven,US","state":"PA","country":"United States","canonicalUrl":"https://foursquare.com/v/hunts-annex-lounge/4ce1e1b270bba1cd6f2974c4","categoryId":"4bf58dd8d48988d116941735","category":"Bar","checkinsCount":163,"usersCount":84,"tipCount":5,"visitsCount":165,"url":"http://huntsannexlounge.com","tier":"","message":"","currency":"","rating":7.6},{"name":"Slowdown Grillpub","lat":39.858981,"lng":-75.426589,"city_fetched":"Brookhaven,US","state":"PA","country":"United States","canonicalUrl":"https://foursquare.com/v/slowdown-grillpub/5154c35ee4b0b2f5b1c0f8aa","categoryId":"4bf58dd8d48988d116941735","category":"Bar","checkinsCount":323,"usersCount":136,"tipCount":7,"visitsCount":516,"tier":"","message":"","currency":"","rating":7.5},{"name":"Barnaby's of America","phone":"6105581929","twitter":"barnabysaston","address":"5501 Pennell Rd","lat":39.88395621705976,"lng":-75.43088436126709,"city_fetched":"Brookhaven,US","state":"PA","country":"United States","canonicalUrl":"https://foursquare.com/barnabysaston","categoryId":"4bf58dd8d48988d116941735","category":"Bar","checkinsCount":2804,"usersCount":1311,"tipCount":9,"visitsCount":3608,"url":"http://www.barnabysaston.com","tier":2,"message":"Moderate","currency":"$","rating":7.5},{"name":"Chickie's & Pete's","twitter":"chickiesnpetes","address":"PPL Park","lat":39.83268879918902,"lng":-75.3784236570988,"city_fetched":"Brookhaven,US","state":"PA","country":"United States","canonicalUrl":"https://foursquare.com/v/chickies--petes/4dbc6b106e810768bf5e6f07","categoryId":"4bf58dd8d48988d11d941735","category":"Sports Bar","checkinsCount":120,"usersCount":69,"tipCount":0,"visitsCount":120,"url":"http://www.chickiesandpetes.com","tier":"","message":"","currency":"","rating":7},{"name":"Diamond Lounge","address":"777 Harrahs Blvd","lat":39.850840701423955,"lng":-75.34859939858514,"neighborhood":"Downtown Chester","city_fetched":"Brookhaven,US","state":"PA","country":"United States","canonicalUrl":"https://foursquare.com/v/diamond-lounge/4ef3d55549010be35dbf9288","categoryId":"4bf58dd8d48988d121941735","category":"Lounge","checkinsCount":238,"usersCount":76,"tipCount":5,"visitsCount":239,"tier":"","message":"","currency":"","rating":6.6},{"name":"Tom & Jerry's","phone":"6105861008","address":"1006 Macdade Blvd","lat":39.880496792049385,"lng":-75.34094741759546,"city_fetched":"Brookhaven,US","state":"PA","country":"United States","canonicalUrl":"https://foursquare.com/v/tom--jerrys/4b7b5f9ef964a52087602fe3","categoryId":"4bf58dd8d48988d116941735","category":"Bar","checkinsCount":1066,"usersCount":615,"tipCount":12,"visitsCount":1234,"url":"http://tomnjerrys.com","tier":"","message":"","currency":"","rating":6.5},{"name":"The Venue","address":"1936 Macdade Blvd","lat":39.869817920457244,"lng":-75.3547366478977,"city_fetched":"Brookhaven,US","state":"PA","country":"United States","canonicalUrl":"https://foursquare.com/v/the-venue/52bcdc9a498ed795c2537b27","categoryId":"4bf58dd8d48988d11f941735","category":"Nightclub","checkinsCount":80,"usersCount":34,"tipCount":2,"visitsCount":100,"tier":"","message":"","currency":"","rating":5}]