[{"name":"El Hueso Del Fraile","phone":"9563721415","address":"837 E Elizabeth St","lat":25.90339058291854,"lng":-97.50043155803178,"neighborhood":"Downtown Brownsville","city_fetched":"Brownsville,US","state":"TX","country":"United States","canonicalUrl":"https://foursquare.com/v/el-hueso-del-fraile/4f70aa32e4b0463c969931e7","categoryId":"4bf58dd8d48988d117941735","category":"Beer Garden","checkinsCount":320,"usersCount":190,"tipCount":15,"visitsCount":474,"tier":"","message":"","currency":"","rating":8.8},{"name":"The Bar","address":"1900 N Expressway","lat":25.94342529773712,"lng":-97.50204205513,"city_fetched":"Brownsville,US","state":"TX","country":"United States","canonicalUrl":"https://foursquare.com/v/the-bar/4b875703f964a52029bc31e3","categoryId":"4bf58dd8d48988d116941735","category":"Bar","checkinsCount":620,"usersCount":384,"tipCount":10,"visitsCount":994,"tier":"","message":"","currency":"","rating":8.2},{"name":"Half Moon Saloon","address":"1101 E Adams St","lat":25.902952194213867,"lng":-97.49705505371094,"neighborhood":"Downtown Brownsville","city_fetched":"Brownsville,US","state":"TX","country":"United States","canonicalUrl":"https://foursquare.com/v/half-moon-saloon/5173722ae4b0bbda275236d2","categoryId":"4bf58dd8d48988d11f941735","category":"Nightclub","checkinsCount":86,"usersCount":65,"tipCount":5,"visitsCount":117,"tier":"","message":"","currency":"","rating":7.9},{"name":"Bigo's Bar & Grill","address":"464 Paredes Line Rd","lat":25.92858304,"lng":-97.488636,"city_fetched":"Brownsville,US","state":"TX","country":"United States","canonicalUrl":"https://foursquare.com/v/bigos-bar--grill/4bd76583e914a593002751fa","categoryId":"4bf58dd8d48988d116941735","category":"Bar","checkinsCount":187,"usersCount":179,"tipCount":3,"visitsCount":288,"tier":"","message":"","currency":"","rating":7.9},{"name":"Fajita house","address":"Calle #14","lat":25.86759,"lng":-97.51029,"city_fetched":"Brownsville,US","state":"Tamaulipas","country":"México","canonicalUrl":"https://foursquare.com/v/fajita-house/4e0eae57b61c3fe478068562","categoryId":"4bf58dd8d48988d120941735","category":"Karaoke Bar","checkinsCount":157,"usersCount":120,"tipCount":1,"visitsCount":319,"tier":"","message":"","currency":"","rating":7.8},{"name":"The Flying Pig Grill & Cantina","phone":"9563505555","address":"Burnias St, Brownsville, TX 78575","lat":26.017977457009984,"lng":-97.53115779101269,"city_fetched":"Brownsville,US","state":"TX","country":"United States","canonicalUrl":"https://foursquare.com/v/the-flying-pig-grill--cantina/4f7b30bee4b03c16c032232b","categoryId":"4bf58dd8d48988d1d4941735","category":"Speakeasy","checkinsCount":107,"usersCount":87,"tipCount":5,"visitsCount":149,"tier":"","message":"","currency":"","rating":7.6},{"name":"Studio 69","lat":25.936575449972057,"lng":-97.5048035673612,"city_fetched":"Brownsville,US","state":"TX","country":"United States","canonicalUrl":"https://foursquare.com/v/studio-69/4e0e86fcaeb7a5b33eeb746a","categoryId":"4bf58dd8d48988d1d8941735","category":"Gay Bar","checkinsCount":399,"usersCount":141,"tipCount":5,"visitsCount":467,"tier":"","message":"","currency":"","rating":7.6},{"name":"The Point","lat":26.190799995549288,"lng":-97.69529287694482,"city_fetched":"Brownsville,US","state":"TX","country":"United States","canonicalUrl":"https://foursquare.com/v/the-point/4fffb8d7e4b05edf0cd1ebdf","categoryId":"4bf58dd8d48988d11e941735","category":"Cocktail Bar","checkinsCount":269,"usersCount":157,"tipCount":4,"visitsCount":303,"tier":"","message":"","currency":"","rating":7.3},{"name":"Chuck's Ice House","address":"1002 Morgan Blvd","lat":26.20243441907866,"lng":-97.67636996883908,"city_fetched":"Brownsville,US","state":"TX","country":"United States","canonicalUrl":"https://foursquare.com/v/chucks-ice-house/4c4cc23ca34b2d7fd7412f98","categoryId":"4bf58dd8d48988d116941735","category":"Bar","checkinsCount":165,"usersCount":56,"tipCount":2,"visitsCount":173,"tier":"","message":"","currency":"","rating":6.9},{"name":"BUGATTI","address":"Division del Norte","lat":25.867597245015524,"lng":-97.47931553733629,"city_fetched":"Brownsville,US","state":"Tamaulipas","country":"México","canonicalUrl":"https://foursquare.com/v/bugatti/4eace29161af352e5ce7fc42","categoryId":"4bf58dd8d48988d116941735","category":"Bar","checkinsCount":132,"usersCount":100,"tipCount":7,"visitsCount":172,"tier":"","message":"","currency":"","rating":6.7},{"name":"Beef 'O' Brady's","lat":25.95119753269418,"lng":-97.50771134483983,"city_fetched":"Brownsville,US","state":"TX","country":"United States","canonicalUrl":"https://foursquare.com/v/beef-o-bradys/4e9a5d61d22d8be589131626","categoryId":"4bf58dd8d48988d11d941735","category":"Sports Bar","checkinsCount":315,"usersCount":160,"tipCount":8,"visitsCount":330,"tier":"","message":"","currency":"","rating":6.7},{"name":"La Cantinita","lat":25.875923,"lng":-97.504322,"city_fetched":"Brownsville,US","country":"México","canonicalUrl":"https://foursquare.com/v/la-cantinita/51bd4163498ec841c2b1a769","categoryId":"4bf58dd8d48988d11f941735","category":"Nightclub","checkinsCount":109,"usersCount":63,"tipCount":3,"visitsCount":110,"tier":"","message":"","currency":"","rating":6.7},{"name":"Baloo's","phone":"9564282300","address":"1900 S 77 Sunshine Strip","lat":26.174077011019723,"lng":-97.67515102107402,"city_fetched":"Brownsville,US","state":"TX","country":"United States","canonicalUrl":"https://foursquare.com/v/baloos/4baaa658f964a520c27c3ae3","categoryId":"4bf58dd8d48988d118941735","category":"Dive Bar","checkinsCount":426,"usersCount":208,"tipCount":6,"visitsCount":443,"tier":"","message":"","currency":"","rating":6.6},{"name":"Shenanigans Irish Pub Bar & Grill","phone":"9569862337","address":"2451 Pablo Kisel Blvd","lat":25.959018251444093,"lng":-97.50644776830235,"city_fetched":"Brownsville,US","state":"TX","country":"United States","canonicalUrl":"https://foursquare.com/v/shenanigans-irish-pub-bar--grill/4bb54e7df562ef3b53d72e97","categoryId":"4bf58dd8d48988d11b941735","category":"Pub","checkinsCount":801,"usersCount":392,"tipCount":11,"visitsCount":945,"tier":"","message":"","currency":"","rating":6.4},{"name":"Copz Lounge","phone":"9564409400","address":"401 S 77 Sunshine Strip","lat":26.18924448649474,"lng":-97.67943863125105,"city_fetched":"Brownsville,US","state":"TX","country":"United States","canonicalUrl":"https://foursquare.com/v/copz-lounge/4bef823e5e4aa593ad2659bb","categoryId":"4bf58dd8d48988d116941735","category":"Bar","checkinsCount":274,"usersCount":92,"tipCount":5,"visitsCount":280,"tier":"","message":"","currency":"","rating":5.9},{"name":"Medusa Lounge","lat":26.170345553806314,"lng":-97.67232102415306,"city_fetched":"Brownsville,US","state":"TX","country":"United States","canonicalUrl":"https://foursquare.com/v/medusa-lounge/4baaac41f964a520b77e3ae3","categoryId":"4bf58dd8d48988d121941735","category":"Lounge","checkinsCount":453,"usersCount":138,"tipCount":3,"visitsCount":489,"tier":"","message":"","currency":"","rating":5.7}]