[{"name":"Winking Lizard Tavern","phone":"3302209944","twitter":"winkinglizard","address":"3634 Center Rd","lat":41.23662011957674,"lng":-81.81717574596405,"city_fetched":"Brunswick","state":"OH","country":"United States","canonicalUrl":"https://foursquare.com/v/winking-lizard-tavern/4ad77c8ef964a520560b21e3","category":"Wings Joint","checkinsCount":5572,"usersCount":1699,"tipCount":23,"visitsCount":6604,"url":"http://winkinglizard.com","tier":2,"message":"Moderate","currency":"$","rating":8},{"name":"Sidelines Sports Bar & Grill","phone":"3302200888","address":"1165 Pearl Rd","lat":41.243680917829714,"lng":-81.84074795865213,"city_fetched":"Brunswick","state":"OH","country":"United States","canonicalUrl":"https://foursquare.com/v/sidelines-sports-bar--grill/4c116298d41e76b0a24f310d","category":"Sports Bar","checkinsCount":323,"usersCount":175,"tipCount":3,"visitsCount":337,"tier":"","message":"","currency":"","rating":7.8},{"name":"Wingz","phone":"3302209464","address":"1061 Pearl Rd","lat":41.24622668460552,"lng":-81.84033177238543,"city_fetched":"Brunswick","state":"OH","country":"United States","canonicalUrl":"https://foursquare.com/v/wingz/4be499592457a5937977aa15","category":"Bar","checkinsCount":829,"usersCount":280,"tipCount":5,"visitsCount":898,"url":"http://www.wingzsportsgrill.com","tier":"","message":"","currency":"","rating":7.2},{"name":"Panini's Bar and Grill","phone":"3304606120","address":"3520 Center Rd","lat":41.23787838668779,"lng":-81.81240453456134,"city_fetched":"Brunswick","state":"OH","country":"United States","canonicalUrl":"https://foursquare.com/v/paninis-bar-and-grill/4c374bc43849c9280769bdb1","category":"Sports Bar","checkinsCount":3109,"usersCount":1486,"tipCount":16,"visitsCount":3811,"url":"http://www.paninisgrill.com/locations/brunswick","tier":2,"message":"Moderate","currency":"$","rating":6.5},{"name":"The Red Onion","phone":"3302258482","twitter":"theredonionohio","address":"522 Pearl Rd","lat":41.26117320623234,"lng":-81.84167636563295,"city_fetched":"Brunswick","state":"OH","country":"United States","canonicalUrl":"https://foursquare.com/v/the-red-onion/4bf72f4e5317a593eeadfd7e","category":"Bar","checkinsCount":286,"usersCount":142,"tipCount":5,"visitsCount":318,"url":"http://www.the-redonion.com","tier":"","message":"","currency":"","rating":5.3}]