[{"name":"Hydraulic Hearth","phone":"7162482216","twitter":"hydraulichearth","address":"716 Swan St","lat":42.876666,"lng":-78.849598,"neighborhood":"Ellicott","city_fetched":"Buffalo","state":"NY","country":"United States","canonicalUrl":"https://foursquare.com/v/hydraulic-hearth/53ed4ef5e4b058c9be4af8a1","category":"Pizza Place","checkinsCount":760,"usersCount":524,"tipCount":7,"visitsCount":1017,"url":"http://www.hydraulichearth.com","tier":"","message":"","currency":"","rating":9.4},{"name":"Buffalo Proper","phone":"7167838699","address":"333 Franklin St","lat":42.89372662505847,"lng":-78.87393398208518,"neighborhood":"Allen","city_fetched":"Buffalo","state":"NY","country":"United States","canonicalUrl":"https://foursquare.com/v/buffalo-proper/53caada3498ed2f9f43cb689","category":"Cocktail Bar","checkinsCount":717,"usersCount":660,"tipCount":23,"visitsCount":1228,"url":"http://www.buffaloproper.com","tier":"","message":"","currency":"","rating":9.4},{"name":"Betty's Restaurant","phone":"7163620633","address":"370 Virginia St","lat":42.8967059,"lng":-78.878431,"neighborhood":"Allen","city_fetched":"Buffalo","state":"NY","country":"United States","canonicalUrl":"https://foursquare.com/v/bettys-restaurant/4b40d54ef964a520c9bb25e3","category":"Breakfast Spot","checkinsCount":3124,"usersCount":1885,"tipCount":51,"visitsCount":3877,"url":"http://bettysbuffalo.com","tier":2,"message":"Moderate","currency":"$","rating":9.1},{"name":"Flying Bison","phone":"7168731557","twitter":"flyingbison","address":"840 Seneca St","lat":42.875613552475144,"lng":-78.84611372590172,"neighborhood":"Ellicott","city_fetched":"Buffalo","state":"NY","country":"United States","canonicalUrl":"https://foursquare.com/v/flying-bison/4c26301cf1272d7ff50c86c5","category":"Brewery","checkinsCount":1421,"usersCount":893,"tipCount":18,"visitsCount":1821,"url":"http://www.flyingbisonbrewing.com","tier":2,"message":"Moderate","currency":"$","rating":9},{"name":"Gene McCarthy's Irish Pub","phone":"7168558948","twitter":"mccarthysbeer","address":"73 Hamburg St","lat":42.86583149083736,"lng":-78.85977605256333,"neighborhood":"First Ward","city_fetched":"Buffalo","state":"NY","country":"United States","canonicalUrl":"https://foursquare.com/v/gene-mccarthys-irish-pub/4bbdef3b593fef3b12060456","category":"Pub","checkinsCount":1457,"usersCount":758,"tipCount":17,"visitsCount":1962,"url":"http://www.genemccarthys.com","tier":2,"message":"Moderate","currency":"$","rating":9},{"name":"Allen Street Hardware Cafe","phone":"7168828843","twitter":"allensthardware","address":"245 Allen St","lat":42.899550381096404,"lng":-78.8790471384567,"neighborhood":"Allen","city_fetched":"Buffalo","state":"NY","country":"United States","canonicalUrl":"https://foursquare.com/allensthardware","category":"Bar","checkinsCount":6118,"usersCount":2077,"tipCount":55,"visitsCount":6437,"url":"http://www.allenstreethardware.com","tier":2,"message":"Moderate","currency":"$","rating":9},{"name":"Allen Burger Venture","phone":"7167680386","twitter":"abvbuffalo","address":"175 Allen St","lat":42.89958795534469,"lng":-78.87651546854796,"neighborhood":"Allen","city_fetched":"Buffalo","state":"NY","country":"United States","canonicalUrl":"https://foursquare.com/v/allen-burger-venture/550b4444498ef35223767796","category":"Burger Joint","checkinsCount":879,"usersCount":690,"tipCount":11,"visitsCount":1351,"url":"http://allenburgerventure.com","tier":2,"message":"Moderate","currency":"$","rating":8.9},{"name":"Founding Fathers","phone":"7168558944","address":"75 Edward St","lat":42.89581567560179,"lng":-78.8745752142138,"neighborhood":"Allen","city_fetched":"Buffalo","state":"NY","country":"United States","canonicalUrl":"https://foursquare.com/v/founding-fathers/4b5a363ff964a52091b428e3","category":"American Restaurant","checkinsCount":3747,"usersCount":1567,"tipCount":32,"visitsCount":4294,"tier":1,"message":"Cheap","currency":"$","rating":8.9},{"name":"Big Ditch Brewing Company","phone":"7168545050","twitter":"bigditchbrewing","address":"55 E Huron St","lat":42.888164073228836,"lng":-78.87093141674995,"neighborhood":"Central Business District","city_fetched":"Buffalo","state":"NY","country":"United States","canonicalUrl":"https://foursquare.com/bigditchbrewing","category":"Brewery","checkinsCount":1306,"usersCount":1307,"tipCount":16,"visitsCount":2283,"url":"http://www.bigditchbrewing.com","tier":2,"message":"Moderate","currency":"$","rating":8.9},{"name":"Pearl Street Grill & Brewery","phone":"7168562337","twitter":"psgbuffalo","address":"76 Pearl St","lat":42.88089658255675,"lng":-78.87719537761247,"neighborhood":"Central Business District","city_fetched":"Buffalo","state":"NY","country":"United States","canonicalUrl":"https://foursquare.com/v/pearl-street-grill--brewery/4b1afb2cf964a520caf523e3","category":"Brewery","checkinsCount":16826,"usersCount":9730,"tipCount":156,"visitsCount":19327,"url":"http://pearlstreetgrill.com","tier":2,"message":"Moderate","currency":"$","rating":8.9},{"name":"Conlon's Bar & Grill","phone":"7167256072","twitter":"conlonsbar","address":"386 Abbott Rd","lat":42.851869019599285,"lng":-78.8173770904541,"neighborhood":"Abbott McKinley","city_fetched":"Buffalo","state":"NY","country":"United States","canonicalUrl":"https://foursquare.com/v/conlons-bar--grill/4d76e790f371b1f79fcb00bd","category":"Bar","checkinsCount":1434,"usersCount":357,"tipCount":14,"visitsCount":1641,"url":"http://www.conlonsbarandgrill.com","tier":1,"message":"Cheap","currency":"$","rating":8.8},{"name":"Fat Bob's Smokehouse","phone":"7168872971","twitter":"fat_bobs","address":"41 Virginia Pl","lat":42.897991440416554,"lng":-78.87351939010617,"neighborhood":"Allen","city_fetched":"Buffalo","state":"NY","country":"United States","canonicalUrl":"https://foursquare.com/fat_bobs","category":"BBQ Joint","checkinsCount":4974,"usersCount":2295,"tipCount":54,"visitsCount":5509,"url":"http://www.fatbobs.com","tier":2,"message":"Moderate","currency":"$","rating":8.7},{"name":"Bacchus Wine Bar & Restaurant","phone":"7168549463","twitter":"bacchusbuffalo","address":"56 W Chippewa St","lat":42.89039726666667,"lng":-78.8750518,"neighborhood":"Central Business District","city_fetched":"Buffalo","state":"NY","country":"United States","canonicalUrl":"https://foursquare.com/v/bacchus-wine-bar--restaurant/4b6407d0f964a520099c2ae3","category":"Wine Bar","checkinsCount":921,"usersCount":615,"tipCount":19,"visitsCount":935,"url":"http://bacchusbuffalo-hub.com","tier":"","message":"","currency":"","rating":8.6},{"name":"MÃ©s Que","phone":"7168368800","twitter":"mes_que","address":"1420 Hertel Ave","lat":42.94772,"lng":-78.855424,"neighborhood":"North Park","city_fetched":"Buffalo","state":"NY","country":"United States","canonicalUrl":"https://foursquare.com/v/m%C3%A9s-que/4f5f75a7e4b0a7555b6b1574","category":"Bar","checkinsCount":2522,"usersCount":962,"tipCount":23,"visitsCount":3027,"url":"http://www.mesque.com","tier":2,"message":"Moderate","currency":"$","rating":8.6},{"name":"The Gypsy Parlor","phone":"7165510001","address":"376 Grant St","lat":42.92415422406005,"lng":-78.88978665855389,"neighborhood":"West Side","city_fetched":"Buffalo","state":"NY","country":"United States","canonicalUrl":"https://foursquare.com/v/the-gypsy-parlor/523b6ab0498e73ac7b3b4db7","category":"Romanian Restaurant","checkinsCount":446,"usersCount":423,"tipCount":10,"visitsCount":841,"url":"http://www.thegypsyparlor.com","tier":"","message":"","currency":"","rating":8.5},{"name":"Blackthorn Restaurant & Pub","phone":"7168259327","address":"2134 Seneca St","lat":42.854295034083165,"lng":-78.80846198187443,"neighborhood":"South Buffalo","city_fetched":"Buffalo","state":"NY","country":"United States","canonicalUrl":"https://foursquare.com/v/blackthorn-restaurant--pub/4ba3e164f964a5209c6938e3","category":"American Restaurant","checkinsCount":1343,"usersCount":966,"tipCount":20,"visitsCount":1958,"url":"http://www.blackthornrestaurant.com","tier":2,"message":"Moderate","currency":"$","rating":8.5},{"name":"Ballyhoo Links & Drinks","address":"211 S Park Ave","lat":42.87280698273699,"lng":-78.8717006925033,"neighborhood":"Buffalo River","city_fetched":"Buffalo","state":"NY","country":"United States","canonicalUrl":"https://foursquare.com/v/ballyhoo-links--drinks/542b2a6c498eabd819b6a5ae","category":"Bar","checkinsCount":508,"usersCount":382,"tipCount":9,"visitsCount":897,"url":"http://www.buffaloballyhoo.com","tier":"","message":"","currency":"","rating":8.5},{"name":"Marinaro's Larkin Tavern","phone":"7168455400","address":"131 Van Rensselaer St","lat":42.873230013318945,"lng":-78.85108457853345,"neighborhood":"Ellicott","city_fetched":"Buffalo","state":"NY","country":"United States","canonicalUrl":"https://foursquare.com/v/marinaros-larkin-tavern/4db1f64c415985f6ea040658","category":"Bar","checkinsCount":171,"usersCount":135,"tipCount":2,"visitsCount":248,"url":"http://www.marinaroslarkintavern.com","tier":"","message":"","currency":"","rating":8.4},{"name":"J's White Elephant - Banquet Center & Lounge","phone":"7165399998","twitter":"jwhiteelephant","address":"1404 Abbott Rd","lat":42.826470103242634,"lng":-78.8033506741344,"city_fetched":"Buffalo","state":"NY","country":"United States","canonicalUrl":"https://foursquare.com/jwhiteelephant","category":"Bar","checkinsCount":437,"usersCount":165,"tipCount":2,"visitsCount":540,"url":"http://jwhiteelephant.com","tier":"","message":"","currency":"","rating":8.4},{"name":"Hot Mama's Canteen","phone":"7167838222","twitter":"hotcanteen","address":"12 Military Rd","lat":42.93738227513416,"lng":-78.89343992621346,"neighborhood":"Black Rock","city_fetched":"Buffalo","state":"NY","country":"United States","canonicalUrl":"https://foursquare.com/v/hot-mamas-canteen/53a5c32e498e34ef9a515713","category":"Comfort Food Restaurant","checkinsCount":183,"usersCount":159,"tipCount":4,"visitsCount":347,"url":"http://hotmamascanteen.com","tier":"","message":"","currency":"","rating":8.4},{"name":"Resurgence Brewing Co.","phone":"7163819868","twitter":"resurgencebrew","address":"1250 Niagara St","lat":42.91791735915112,"lng":-78.89957998138327,"neighborhood":"West Side","city_fetched":"Buffalo","state":"NY","country":"United States","canonicalUrl":"https://foursquare.com/v/resurgence-brewing-co/5390f418498ec1ba1d9356fa","category":"Brewery","checkinsCount":1709,"usersCount":1481,"tipCount":28,"visitsCount":2736,"url":"http://www.resurgencebrewing.com","tier":"","message":"","currency":"","rating":8.4},{"name":"Wiechec's Lounge","phone":"7168232828","twitter":"wiechecs","address":"1748 Clinton St","lat":42.872047138641044,"lng":-78.81191362389481,"neighborhood":"Kaisertown","city_fetched":"Buffalo","state":"NY","country":"United States","canonicalUrl":"https://foursquare.com/v/wiechecs-lounge/4c867728d8086dcb6aaa9a52","category":"Bar","checkinsCount":583,"usersCount":308,"tipCount":4,"visitsCount":811,"tier":"","message":"","currency":"","rating":8.4},{"name":"The Public House","phone":"7165516208","twitter":"phbflo","address":"1206 Hertel Ave","lat":42.94794,"lng":-78.863532,"neighborhood":"North Park","city_fetched":"Buffalo","state":"NY","country":"United States","canonicalUrl":"https://foursquare.com/v/the-public-house/53c85232498eaf7d4021ae84","category":"Bar","checkinsCount":408,"usersCount":300,"tipCount":6,"visitsCount":619,"tier":"","message":"","currency":"","rating":8.4},{"name":"Vera Pizzeria","phone":"7165516262","twitter":"verapizzeria","address":"220 Lexington Ave","lat":42.913111,"lng":-78.8783,"neighborhood":"West Side","city_fetched":"Buffalo","state":"NY","country":"United States","canonicalUrl":"https://foursquare.com/v/vera-pizzeria/4e67cbe5a8098026757b8792","category":"Italian Restaurant","checkinsCount":3103,"usersCount":1128,"tipCount":42,"visitsCount":3357,"url":"http://www.verapizzeria.com","tier":2,"message":"Moderate","currency":"$","rating":8.3},{"name":"The Nine-Eleven Tavern","phone":"7168259939","address":"11 Bloomfield Ave","lat":42.84540978214442,"lng":-78.82353989817064,"neighborhood":"Abbott McKinley","city_fetched":"Buffalo","state":"NY","country":"United States","canonicalUrl":"https://foursquare.com/v/the-nineeleven-tavern/4c18003b2cddb7136c14831e","category":"Bar","checkinsCount":636,"usersCount":362,"tipCount":14,"visitsCount":848,"tier":2,"message":"Moderate","currency":"$","rating":8.3},{"name":"Kuni's Sushi Bar","phone":"7168813800","twitter":"kunisbuffalo","address":"226 Lexington Ave","lat":42.91321934015088,"lng":-78.87838382517634,"neighborhood":"West Side","city_fetched":"Buffalo","state":"NY","country":"United States","canonicalUrl":"https://foursquare.com/v/kunis-sushi-bar/4b50cbcbf964a520ee3227e3","category":"Sushi Restaurant","checkinsCount":1418,"usersCount":671,"tipCount":17,"visitsCount":1446,"url":"http://www.kunisbuffalo.com","tier":2,"message":"Moderate","currency":"$","rating":8.2},{"name":"Marble + Rye","phone":"7168531390","twitter":"marbleandrye","address":"112 Genesee St","lat":42.889826493074686,"lng":-78.87008650092375,"neighborhood":"Central Business District","city_fetched":"Buffalo","state":"NY","country":"United States","canonicalUrl":"https://foursquare.com/v/marble--rye/55afa55f498e98fe9fc9920f","category":"New American Restaurant","checkinsCount":148,"usersCount":147,"tipCount":5,"visitsCount":215,"url":"http://www.marbleandrye.net","tier":"","message":"","currency":"","rating":8.2},{"name":"O'Daniels Gin Mill & Grill","phone":"7168237052","address":"1305 Abbott Rd","lat":42.82925954480394,"lng":-78.80495490103817,"city_fetched":"Buffalo","state":"NY","country":"United States","canonicalUrl":"https://foursquare.com/v/odaniels-gin-mill--grill/4c0db0227189c9289d77d7b6","category":"Bar","checkinsCount":325,"usersCount":191,"tipCount":2,"visitsCount":349,"tier":"","message":"","currency":"","rating":8.2},{"name":"Oliver's","phone":"7168779662","twitter":"oliverscuisine","address":"2095 Delaware Ave","lat":42.94109841981781,"lng":-78.86770386120465,"neighborhood":"Park Meadow","city_fetched":"Buffalo","state":"NY","country":"United States","canonicalUrl":"https://foursquare.com/v/olivers/4c154e3ba1010f47ebd84d18","category":"American Restaurant","checkinsCount":682,"usersCount":441,"tipCount":18,"visitsCount":788,"url":"http://www.oliverscuisine.com","tier":3,"message":"Expensive","currency":"$","rating":8.2},{"name":"Sportsmen's Tavern","phone":"7168747734","twitter":"sportsmensmusic","address":"326 Amherst St","lat":42.93765090634724,"lng":-78.89153316970257,"neighborhood":"Black Rock","city_fetched":"Buffalo","state":"NY","country":"United States","canonicalUrl":"https://foursquare.com/v/sportsmens-tavern/4bc04944f8219c74ab66b110","category":"Bar","checkinsCount":1706,"usersCount":543,"tipCount":25,"visitsCount":1999,"url":"http://sportsmenstavern.com","tier":"","message":"","currency":"","rating":8.2},{"name":"Mother's Restaurant","phone":"7168822989","address":"33 Virginia Pl","lat":42.897730277904024,"lng":-78.8734641110427,"neighborhood":"Allen","city_fetched":"Buffalo","state":"NY","country":"United States","canonicalUrl":"https://foursquare.com/v/mothers-restaurant/4b0b0b1df964a520052c23e3","category":"American Restaurant","checkinsCount":2848,"usersCount":1404,"tipCount":38,"visitsCount":3032,"tier":3,"message":"Expensive","currency":"$","rating":8.1},{"name":"Anchor Bar","phone":"7168868920","twitter":"anchorbarwings","address":"1047 Main St","lat":42.90249005320541,"lng":-78.86853754520416,"neighborhood":"Medical Park","city_fetched":"Buffalo","state":"NY","country":"United States","canonicalUrl":"https://foursquare.com/v/anchor-bar/4b381717f964a520794b25e3","category":"Wings Joint","checkinsCount":11042,"usersCount":11090,"tipCount":194,"visitsCount":12934,"url":"http://www.anchorbar.com","tier":1,"message":"Cheap","currency":"$","rating":8.1},{"name":"Merge","phone":"7168420600","twitter":"mergebuffalo","address":"439 Delaware Ave","lat":42.89615872064669,"lng":-78.87495110695276,"neighborhood":"Allen","city_fetched":"Buffalo","state":"NY","country":"United States","canonicalUrl":"https://foursquare.com/v/merge/4b634a2df964a5200a702ae3","category":"Vegetarian / Vegan Restaurant","checkinsCount":1771,"usersCount":878,"tipCount":33,"visitsCount":1839,"url":"http://mergebuffalo.com","tier":2,"message":"Moderate","currency":"$","rating":8.1},{"name":"Community Beer Works","phone":"7167594677","twitter":"communitybeer","address":"15 Lafayette Ave","lat":42.91985131325766,"lng":-78.89797177750857,"neighborhood":"West Side","city_fetched":"Buffalo","state":"NY","country":"United States","canonicalUrl":"https://foursquare.com/v/community-beer-works/4d1a3b6f302da1cd4439d093","category":"Brewery","checkinsCount":488,"usersCount":269,"tipCount":6,"visitsCount":622,"url":"http://www.communitybeerworks.com","tier":"","message":"","currency":"","rating":8.1},{"name":"(716) Food and Sport","phone":"7168554716","twitter":"716foodandsport","address":"7 Scott St","lat":42.8771277976665,"lng":-78.87627224789561,"neighborhood":"Central Business District","city_fetched":"Buffalo","state":"NY","country":"United States","canonicalUrl":"https://foursquare.com/v/716-food-and-sport/5450fa5a498eb5ef0b6e6773","category":"Sports Bar","checkinsCount":2225,"usersCount":2273,"tipCount":31,"visitsCount":3875,"url":"http://716foodandsport.com","tier":2,"message":"Moderate","currency":"$","rating":8.1},{"name":"Sterling Tap & Wurst","phone":"7168331307","address":"1487 Hertel Ave","lat":42.947609,"lng":-78.852999,"neighborhood":"North Park","city_fetched":"Buffalo","state":"NY","country":"United States","canonicalUrl":"https://foursquare.com/v/sterling-tap--wurst/5595e107498e2bb70ea1bb60","category":"Gastropub","checkinsCount":208,"usersCount":156,"tipCount":5,"visitsCount":288,"url":"http://www.tapandwurst.com","tier":"","message":"","currency":"","rating":8.1},{"name":"Buffalo Iron Works","phone":"7162001893","twitter":"ironworksbflo","address":"49 Illinois St","lat":42.87469492230864,"lng":-78.87469129889053,"neighborhood":"Central Business District","city_fetched":"Buffalo","state":"NY","country":"United States","canonicalUrl":"https://foursquare.com/v/buffalo-iron-works/5246405a498eda64025c7da0","category":"Bar","checkinsCount":1209,"usersCount":950,"tipCount":13,"visitsCount":1575,"url":"http://buffaloironworks.com","tier":2,"message":"Moderate","currency":"$","rating":8},{"name":"Buffalo RiverWorks","phone":"8447492267","twitter":"riverworksbflo","address":"359 Ganson St","lat":42.87004934736702,"lng":-78.87192734055581,"neighborhood":"First Ward","city_fetched":"Buffalo","state":"NY","country":"United States","canonicalUrl":"https://foursquare.com/v/buffalo-riverworks/531265b3498e96f5b92da0d1","category":"Athletics & Sports","checkinsCount":970,"usersCount":1321,"tipCount":9,"visitsCount":2236,"url":"http://buffaloriverworks.com","tier":"","message":"","currency":"","rating":8},{"name":"Handlebar","phone":"7162599632","address":"149 Swan St","lat":42.8807687714102,"lng":-78.86991512970404,"neighborhood":"Central Business District","city_fetched":"Buffalo","state":"NY","country":"United States","canonicalUrl":"https://foursquare.com/v/handlebar/53dc1cff498e64aeea0c4125","category":"Bar","checkinsCount":200,"usersCount":201,"tipCount":3,"visitsCount":313,"url":"http://www.handlebarpub.com","tier":"","message":"","currency":"","rating":8},{"name":"Cole's","phone":"7168861449","twitter":"colesbuffalo","address":"1104 Elmwood Ave","lat":42.92731647420143,"lng":-78.87716221142648,"neighborhood":"West Side","city_fetched":"Buffalo","state":"NY","country":"United States","canonicalUrl":"https://foursquare.com/v/coles/4b1af2e6f964a52048f523e3","category":"Beer Bar","checkinsCount":10522,"usersCount":3927,"tipCount":67,"visitsCount":11655,"url":"http://www.colesbuffalo.com","tier":2,"message":"Moderate","currency":"$","rating":7.9},{"name":"Habibi Sheesha Lounge","phone":"7167683231","twitter":"habibisheeshaub","address":"3550 Main St","lat":42.958479736533405,"lng":-78.8166046142578,"city_fetched":"Buffalo","state":"NY","country":"United States","canonicalUrl":"https://foursquare.com/v/habibi-sheesha-lounge/519ebb448bbdc10ec0fea504","category":"Hookah Bar","checkinsCount":158,"usersCount":98,"tipCount":5,"visitsCount":160,"url":"http://www.habibisheesha.com","tier":"","message":"","currency":"","rating":7.9},{"name":"Gabriel's Gate","phone":"7168860602","address":"145 Allen St","lat":42.89950551992482,"lng":-78.87536644935608,"neighborhood":"Allen","city_fetched":"Buffalo","state":"NY","country":"United States","canonicalUrl":"https://foursquare.com/v/gabriels-gate/4b009c1ff964a520f13f22e3","category":"Bar","checkinsCount":4086,"usersCount":2549,"tipCount":67,"visitsCount":4518,"url":"http://gabrielsgate.page.tl","tier":2,"message":"Moderate","currency":"$","rating":7.9},{"name":"Washington Square Bar & Grill","phone":"7168490619","twitter":"washsquare716","address":"295 Washington St","lat":42.88200802312396,"lng":-78.87433916330338,"neighborhood":"Central Business District","city_fetched":"Buffalo","state":"NY","country":"United States","canonicalUrl":"https://foursquare.com/v/washington-square-bar--grill/4bb13670f964a520e6833ce3","category":"Bar","checkinsCount":1179,"usersCount":370,"tipCount":11,"visitsCount":1238,"tier":"","message":"","currency":"","rating":7.9},{"name":"Buffalo Irish Center","phone":"7168226275","address":"245 Abbott Rd","lat":42.8543544565346,"lng":-78.82089614868164,"neighborhood":"Abbott McKinley","city_fetched":"Buffalo","state":"NY","country":"United States","canonicalUrl":"https://foursquare.com/v/buffalo-irish-center/4b8af367f964a520dd8a32e3","category":"Event Space","checkinsCount":1284,"usersCount":523,"tipCount":5,"visitsCount":1623,"url":"http://www.buffaloirishcenter.com","tier":"","message":"","currency":"","rating":7.8},{"name":"Boomerang's Bar & Grill","phone":"7168830408","address":"995 Niagara St","lat":42.91031247,"lng":-78.89978001,"neighborhood":"West Side","city_fetched":"Buffalo","state":"NY","country":"United States","canonicalUrl":"https://foursquare.com/v/boomerangs-bar--grill/4c7d4fc1d6543704e4fdbfa2","category":"Bar","checkinsCount":658,"usersCount":281,"tipCount":9,"visitsCount":828,"tier":"","message":"","currency":"","rating":7.8},{"name":"Essex St Pub","phone":"7168832150","address":"530 Rhode Island St","lat":42.91321442821975,"lng":-78.88259578794772,"neighborhood":"West Side","city_fetched":"Buffalo","state":"NY","country":"United States","canonicalUrl":"https://foursquare.com/v/essex-st-pub/4b6cee7df964a520b75e2ce3","category":"Dive Bar","checkinsCount":2667,"usersCount":1036,"tipCount":28,"visitsCount":2992,"url":"http://www.essexstreetpub.com","tier":1,"message":"Cheap","currency":"$","rating":7.8},{"name":"Swannie House","phone":"7168472898","address":"170 Ohio St","lat":42.87219467,"lng":-78.8719207,"neighborhood":"Buffalo River","city_fetched":"Buffalo","state":"NY","country":"United States","canonicalUrl":"https://foursquare.com/v/swannie-house/4bd8b743f645c9b62ce4a8e0","category":"Bar","checkinsCount":1170,"usersCount":688,"tipCount":8,"visitsCount":1273,"tier":"","message":"","currency":"","rating":7.8},{"name":"Potter's Field Restaurant & Pub","phone":"7168241353","address":"425 Potters Rd","lat":42.838710399755165,"lng":-78.79872039675597,"city_fetched":"Buffalo","state":"NY","country":"United States","canonicalUrl":"https://foursquare.com/v/potters-field-restaurant--pub/4b526205f964a520987a27e3","category":"Pub","checkinsCount":923,"usersCount":460,"tipCount":18,"visitsCount":1141,"tier":2,"message":"Moderate","currency":"$","rating":7.8},{"name":"The Century Grill","phone":"7168536322","twitter":"thecenturygrill","address":"318 Pearl St","lat":42.888604,"lng":-78.874682,"neighborhood":"Central Business District","city_fetched":"Buffalo","state":"NY","country":"United States","canonicalUrl":"https://foursquare.com/v/the-century-grill/4b19ae67f964a520e0e123e3","category":"American Restaurant","checkinsCount":1948,"usersCount":943,"tipCount":22,"visitsCount":2063,"url":"http://www.thecenturygrill.com","tier":2,"message":"Moderate","currency":"$","rating":7.8},{"name":"Cafe 59 Food & Spirits","phone":"7168831880","twitter":"cafe59buffalo","address":"62 Allen St","lat":42.899479,"lng":-78.872563,"neighborhood":"Allen","city_fetched":"Buffalo","state":"NY","country":"United States","canonicalUrl":"https://foursquare.com/v/cafe-59-food--spirits/531b55d9498e75a623834f01","category":"Bar","checkinsCount":382,"usersCount":190,"tipCount":4,"visitsCount":478,"url":"http://cafe59.com","tier":"","message":"","currency":"","rating":7.8},{"name":"MT Pockets","phone":"7168384658","address":"1519 Hertel Ave","lat":42.94756293296814,"lng":-78.85182738304138,"neighborhood":"North Park","city_fetched":"Buffalo","state":"NY","country":"United States","canonicalUrl":"https://foursquare.com/v/mt-pockets/4bafe518f964a520a6293ce3","category":"Bar","checkinsCount":811,"usersCount":258,"tipCount":9,"visitsCount":882,"tier":"","message":"","currency":"","rating":7.7},{"name":"Rohall's Corner","phone":"7169392087","twitter":"rohallscorner","address":"540 Amherst St","lat":42.94022742274034,"lng":-78.88464090116348,"neighborhood":"Black Rock","city_fetched":"Buffalo","state":"NY","country":"United States","canonicalUrl":"https://foursquare.com/v/rohalls-corner/4d263a69d2668cfa7dd4c5db","category":"Pub","checkinsCount":1210,"usersCount":265,"tipCount":15,"visitsCount":1283,"url":"http://rohallscorner.com","tier":1,"message":"Cheap","currency":"$","rating":7.7},{"name":"Eddie Brady's","phone":"7168547017","address":"97 Genesee St","lat":42.889417702151604,"lng":-78.87031744417976,"neighborhood":"Central Business District","city_fetched":"Buffalo","state":"NY","country":"United States","canonicalUrl":"https://foursquare.com/v/eddie-bradys/4c4a0b29712ac928d08adf6a","category":"Bar","checkinsCount":460,"usersCount":290,"tipCount":3,"visitsCount":557,"tier":"","message":"","currency":"","rating":7.7},{"name":"200 Level Harbour Club","phone":"7168554100","address":"First Niagara Center","lat":42.87514609600056,"lng":-78.87657627361641,"neighborhood":"Central Business District","city_fetched":"Buffalo","state":"NY","country":"United States","canonicalUrl":"https://foursquare.com/v/200-level-harbour-club/4c9630ffc8a1bfb73fc228f3","category":"Sports Bar","checkinsCount":1264,"usersCount":377,"tipCount":5,"visitsCount":1269,"tier":"","message":"","currency":"","rating":7.7},{"name":"Mezza Restaurant","phone":"7168854400","twitter":"mezzabuffalo","address":"929 Elmwood Ave","lat":42.922513,"lng":-78.87686266,"neighborhood":"Albright","city_fetched":"Buffalo","state":"NY","country":"United States","canonicalUrl":"https://foursquare.com/v/mezza-restaurant/4c099cdc7e3fc9287055f282","category":"Middle Eastern Restaurant","checkinsCount":1946,"usersCount":932,"tipCount":18,"visitsCount":1968,"url":"http://www.mezzabuffalo.com","tier":2,"message":"Moderate","currency":"$","rating":7.6},{"name":"Brunners Tavern","phone":"7168369718","address":"3989 Main St","lat":42.963755969839475,"lng":-78.80242109298706,"city_fetched":"Buffalo","state":"NY","country":"United States","canonicalUrl":"https://foursquare.com/v/brunners-tavern/4b6ce5c7f964a5205d5c2ce3","category":"Bar","checkinsCount":1142,"usersCount":370,"tipCount":8,"visitsCount":1286,"tier":"","message":"","currency":"","rating":7.6},{"name":"The Oakk Room","phone":"7167712773","address":"1435 Main St","lat":42.91258358570623,"lng":-78.86527140807637,"neighborhood":"Masten","city_fetched":"Buffalo","state":"NY","country":"United States","canonicalUrl":"https://foursquare.com/v/the-oakk-room/4d8e73071d06b1f7fd8e493b","category":"American Restaurant","checkinsCount":167,"usersCount":142,"tipCount":6,"visitsCount":232,"url":"http://www.theoakkroom.com","tier":2,"message":"Moderate","currency":"$","rating":7.6},{"name":"Fugazi","phone":"7168813588","address":"503 Franklin St","lat":42.899941,"lng":-78.87200156,"neighborhood":"Allen","city_fetched":"Buffalo","state":"NY","country":"United States","canonicalUrl":"https://foursquare.com/v/fugazi/4b36e365f964a520d73d25e3","category":"Gay Bar","checkinsCount":6384,"usersCount":859,"tipCount":19,"visitsCount":6914,"tier":2,"message":"Moderate","currency":"$","rating":7.6},{"name":"The Chocolate Bar","phone":"7163320484","twitter":"chocolatebarny","address":"114 W Chippewa St","lat":42.890723,"lng":-78.877132,"neighborhood":"Central Business District","city_fetched":"Buffalo","state":"NY","country":"United States","canonicalUrl":"https://foursquare.com/v/the-chocolate-bar/4b787f20f964a52041d22ee3","category":"Cocktail Bar","checkinsCount":3049,"usersCount":1919,"tipCount":41,"visitsCount":3070,"url":"http://thechocolatebar-hub.com","tier":2,"message":"Moderate","currency":"$","rating":7.6},{"name":"The Wellington Pub","phone":"7168339899","address":"1541 Hertel Ave","lat":42.947533250225675,"lng":-78.85106563568115,"neighborhood":"North Park","city_fetched":"Buffalo","state":"NY","country":"United States","canonicalUrl":"https://foursquare.com/v/the-wellington-pub/4bb65a9c6edc76b0facd301c","category":"Sports Bar","checkinsCount":1822,"usersCount":736,"tipCount":18,"visitsCount":1907,"url":"http://www.wellingtonpub.com","tier":"","message":"","currency":"","rating":7.6},{"name":"Pizza Plant Italian Pub","phone":"7166265566","twitter":"podguy","address":"125 Main St #110","lat":42.87835967221666,"lng":-78.87617274836325,"neighborhood":"Central Business District","city_fetched":"Buffalo","state":"NY","country":"United States","canonicalUrl":"https://foursquare.com/v/pizza-plant-italian-pub/5640f144498e52bc136c1d33","category":"Italian Restaurant","checkinsCount":259,"usersCount":205,"tipCount":2,"visitsCount":333,"url":"http://www.pizzaplant.com","tier":2,"message":"Moderate","currency":"$","rating":7.5},{"name":"Q Bar","phone":"7163322223","address":"44 Allen St","lat":42.89938777788101,"lng":-78.87171174851805,"neighborhood":"Allen","city_fetched":"Buffalo","state":"NY","country":"United States","canonicalUrl":"https://foursquare.com/v/q-bar/4bac2e98f964a5209ee93ae3","category":"Bar","checkinsCount":5580,"usersCount":763,"tipCount":25,"visitsCount":5909,"tier":"","message":"","currency":"","rating":7.5},{"name":"Vizzi's Bar & Restaurant","phone":"7168711965","address":"967 Kenmore Ave","lat":42.958805,"lng":-78.853682,"city_fetched":"Buffalo","state":"NY","country":"United States","canonicalUrl":"https://foursquare.com/v/vizzis-bar--restaurant/4b7c1afcf964a520337d2fe3","category":"Bar","checkinsCount":980,"usersCount":615,"tipCount":23,"visitsCount":1203,"tier":1,"message":"Cheap","currency":"$","rating":7.5},{"name":"Papaya","phone":"7168562444","address":"118 W Chippewa St","lat":42.890757006841774,"lng":-78.87728934841162,"neighborhood":"Central Business District","city_fetched":"Buffalo","state":"NY","country":"United States","canonicalUrl":"https://foursquare.com/v/papaya/4b56316ef964a520990428e3","category":"Asian Restaurant","checkinsCount":1719,"usersCount":975,"tipCount":22,"visitsCount":1730,"url":"http://www.papayarestaurant.biz","tier":3,"message":"Expensive","currency":"$","rating":7.4},{"name":"Mister Goodbar","phone":"7168824000","address":"1110 Elmwood Ave","lat":42.92748644923929,"lng":-78.87711246212635,"neighborhood":"West Side","city_fetched":"Buffalo","state":"NY","country":"United States","canonicalUrl":"https://foursquare.com/v/mister-goodbar/4b108e2cf964a520bf7223e3","category":"Bar","checkinsCount":4891,"usersCount":1987,"tipCount":36,"visitsCount":5114,"url":"http://www.mrgoodbarbuffalo.com","tier":1,"message":"Cheap","currency":"$","rating":7.4},{"name":"Salumeria Belsito","phone":"7162409273","twitter":"belsitobuffalo","address":"1368 Hertel Ave","lat":42.94792175292969,"lng":-78.85720825195312,"neighborhood":"North Park","city_fetched":"Buffalo","state":"NY","country":"United States","canonicalUrl":"https://foursquare.com/v/salumeria-belsito/527ea480498e8d519764b4c8","category":"Sandwich Place","checkinsCount":152,"usersCount":103,"tipCount":6,"visitsCount":181,"url":"http://belsitobuffalo.com","tier":"","message":"","currency":"","rating":7.4},{"name":"Tralf Music Hall","phone":"7168522860","twitter":"tralfbuffalo","address":"622 Main St","lat":42.89100954497804,"lng":-78.87301634947562,"neighborhood":"Central Business District","city_fetched":"Buffalo","state":"NY","country":"United States","canonicalUrl":"https://foursquare.com/v/tralf-music-hall/4b857097f964a520055e31e3","category":"Music Venue","checkinsCount":1292,"usersCount":781,"tipCount":5,"visitsCount":1342,"url":"http://www.tralfmusichall.com","tier":"","message":"","currency":"","rating":7.3},{"name":"The Lodge Bar + Grill","phone":"7162561940","twitter":"thelodgebuffalo","address":"79 W Chippewa St","lat":42.89072328956642,"lng":-78.8758687213862,"neighborhood":"Central Business District","city_fetched":"Buffalo","state":"NY","country":"United States","canonicalUrl":"https://foursquare.com/thelodgebuffalo","category":"New American Restaurant","checkinsCount":1766,"usersCount":1227,"tipCount":22,"visitsCount":2085,"url":"http://thelodgebuffalo.com","tier":3,"message":"Expensive","currency":"$","rating":7.3},{"name":"Bada Bing","phone":"7168532464","twitter":"badabingbuffalo","address":"42 W Chippewa St","lat":42.89037104385894,"lng":-78.87458626990325,"neighborhood":"Central Business District","city_fetched":"Buffalo","state":"NY","country":"United States","canonicalUrl":"https://foursquare.com/v/bada-bing/4ba57251f964a520fb0739e3","category":"Bar","checkinsCount":2685,"usersCount":1639,"tipCount":18,"visitsCount":2844,"url":"http://www.badabingbuffalo.com","tier":2,"message":"Moderate","currency":"$","rating":7.3},{"name":"Rendezvous the Niteclub","phone":"7168533300","twitter":"statlercity","address":"107 Delaware Ave","lat":42.887162397080665,"lng":-78.87769839671901,"neighborhood":"Central Business District","city_fetched":"Buffalo","state":"NY","country":"United States","canonicalUrl":"https://foursquare.com/v/rendezvous-the-niteclub/4ecc5f6602d5579950c16a03","category":"Nightclub","checkinsCount":434,"usersCount":276,"tipCount":3,"visitsCount":439,"url":"http://rendezvousniteclub.com","tier":"","message":"","currency":"","rating":7.3},{"name":"Templeton Landing","phone":"7168527337","twitter":"templeton_ny","address":"2 Templeton Ter","lat":42.8795499847784,"lng":-78.88500570063756,"neighborhood":"Waterfront","city_fetched":"Buffalo","state":"NY","country":"United States","canonicalUrl":"https://foursquare.com/v/templeton-landing/4d28f0e08292236ab64a1ebb","category":"Seafood Restaurant","checkinsCount":2976,"usersCount":2007,"tipCount":29,"visitsCount":3401,"url":"http://www.therustypelican.com/rustypelicanmiami/default.aspx","tier":4,"message":"Very Expensive","currency":"$","rating":7.2},{"name":"The Old Pink","phone":"7168844338","twitter":"thepink223allen","address":"223 Allen St","lat":42.899534,"lng":-78.878169,"neighborhood":"Allen","city_fetched":"Buffalo","state":"NY","country":"United States","canonicalUrl":"https://foursquare.com/v/the-old-pink/4aa41dfcf964a520624520e3","category":"Dive Bar","checkinsCount":5363,"usersCount":1528,"tipCount":33,"visitsCount":5518,"tier":1,"message":"Cheap","currency":"$","rating":7.2},{"name":"The Firehouse Sports Bar","phone":"7168264259","address":"2141 Clinton St","lat":42.87159321677614,"lng":-78.79728756669138,"neighborhood":"Sloan","city_fetched":"Buffalo","state":"NY","country":"United States","canonicalUrl":"https://foursquare.com/v/the-firehouse-sports-bar/4bccfb5f0687ef3b0154e0cc","category":"Sports Bar","checkinsCount":814,"usersCount":236,"tipCount":7,"visitsCount":976,"tier":"","message":"","currency":"","rating":7.2},{"name":"The Phoenix","phone":"7164471100","address":"269 Amherst St","lat":42.93686050826419,"lng":-78.89340676554933,"neighborhood":"Black Rock","city_fetched":"Buffalo","state":"NY","country":"United States","canonicalUrl":"https://foursquare.com/v/the-phoenix/512fef3de4b04a7c5b82839a","category":"Gastropub","checkinsCount":170,"usersCount":117,"tipCount":13,"visitsCount":175,"url":"http://thephoenixbuffalo.com","tier":"","message":"","currency":"","rating":7.2},{"name":"Savoy","phone":"7167683100","twitter":"savoybuffalo","address":"149 Elmwood Ave","lat":42.90106465173286,"lng":-78.87692452009716,"neighborhood":"Allen","city_fetched":"Buffalo","state":"NY","country":"United States","canonicalUrl":"https://foursquare.com/v/savoy/50f9e228e4b0e6d77862c2a9","category":"Cocktail Bar","checkinsCount":516,"usersCount":429,"tipCount":7,"visitsCount":753,"url":"http://www.savoy-buffalo.com","tier":2,"message":"Moderate","currency":"$","rating":7.2},{"name":"Cecelia's Ristorante & Martini Bar","phone":"7168838066","twitter":"cecelias716","address":"716 Elmwood Ave","lat":42.91666451043508,"lng":-78.87728382072007,"neighborhood":"West Side","city_fetched":"Buffalo","state":"NY","country":"United States","canonicalUrl":"https://foursquare.com/v/cecelias-ristorante--martini-bar/4bb136def964a5200e843ce3","category":"Italian Restaurant","checkinsCount":3079,"usersCount":1423,"tipCount":30,"visitsCount":3164,"url":"http://www.ceceliasristorante.com","tier":2,"message":"Moderate","currency":"$","rating":7.1},{"name":"TGI Fridays","phone":"7168546000","twitter":"tgifridays","address":"601 Main St","lat":42.89016589,"lng":-78.8727808,"neighborhood":"Central Business District","city_fetched":"Buffalo","state":"NY","country":"United States","canonicalUrl":"https://foursquare.com/v/tgi-fridays/4bddfed8ffdec928d64ae7a1","category":"American Restaurant","checkinsCount":2250,"usersCount":1481,"tipCount":17,"visitsCount":2537,"url":"http://tgifridays.com","tier":2,"message":"Moderate","currency":"$","rating":7.1},{"name":"Nietzsche's","phone":"7168868539","address":"248 Allen St","lat":42.899507390557176,"lng":-78.879268241882,"neighborhood":"Allen","city_fetched":"Buffalo","state":"NY","country":"United States","canonicalUrl":"https://foursquare.com/v/nietzsches/4b49286df964a5202d6826e3","category":"Dive Bar","checkinsCount":2405,"usersCount":1059,"tipCount":13,"visitsCount":2415,"url":"http://www.nietzsches.com","tier":1,"message":"Cheap","currency":"$","rating":7.1},{"name":"Duke's Bohemian Grove Bar (DBGB)","phone":"7168844357","twitter":"dukes_fsoat","address":"253 Allen St","lat":42.899692977200566,"lng":-78.8794782896722,"neighborhood":"Allen","city_fetched":"Buffalo","state":"NY","country":"United States","canonicalUrl":"https://foursquare.com/v/dukes-bohemian-grove-bar-dbgb/4b51089cf964a520b83e27e3","category":"Dive Bar","checkinsCount":4171,"usersCount":1408,"tipCount":36,"visitsCount":4285,"url":"http://dukesbohemiangrovebar.com","tier":"","message":"","currency":"","rating":7.1},{"name":"The Colored Musicians Club","phone":"7168559383","address":"145 Broadway St","lat":42.8866088679862,"lng":-78.86792600154877,"neighborhood":"Central Business District","city_fetched":"Buffalo","state":"NY","country":"United States","canonicalUrl":"https://foursquare.com/v/the-colored-musicians-club/4c37c76293db0f47497d2092","category":"Jazz Club","checkinsCount":179,"usersCount":109,"tipCount":3,"visitsCount":188,"url":"http://www.coloredmusiciansclub.org","tier":"","message":"","currency":"","rating":7},{"name":"Hamlin House","phone":"7168858084","address":"432 Franklin St","lat":42.8973913967927,"lng":-78.87341988776937,"neighborhood":"Allen","city_fetched":"Buffalo","state":"NY","country":"United States","canonicalUrl":"https://foursquare.com/v/hamlin-house/4b93b7d7f964a520594e34e3","category":"Event Space","checkinsCount":595,"usersCount":361,"tipCount":5,"visitsCount":646,"url":"http://www.hamlinhouse.com","tier":"","message":"","currency":"","rating":7},{"name":"Pour Man's Aud Club","address":"First Niagara Center","lat":42.8752093077727,"lng":-78.87641787528992,"neighborhood":"Central Business District","city_fetched":"Buffalo","state":"NY","country":"United States","canonicalUrl":"https://foursquare.com/v/pour-mans-aud-club/4c95833d15829521892b24a8","category":"Beer Garden","checkinsCount":509,"usersCount":140,"tipCount":3,"visitsCount":512,"tier":"","message":"","currency":"","rating":7},{"name":"Underground Nightclub","phone":"7168530092","address":"274 Delaware Ave","lat":42.8919365211331,"lng":-78.87627777564444,"neighborhood":"Central Business District","city_fetched":"Buffalo","state":"NY","country":"United States","canonicalUrl":"https://foursquare.com/v/underground-nightclub/4baefc0ff964a52055e53be3","category":"Gay Bar","checkinsCount":2172,"usersCount":460,"tipCount":11,"visitsCount":2273,"tier":2,"message":"Moderate","currency":"$","rating":7},{"name":"Cabaret","phone":"7168424181","address":"490 Pearl St","lat":42.892518639564514,"lng":-78.8737388,"neighborhood":"Central Business District","city_fetched":"Buffalo","state":"NY","country":"United States","canonicalUrl":"https://foursquare.com/v/cabaret/4b2c0c32f964a5205ec024e3","category":"Bar","checkinsCount":786,"usersCount":514,"tipCount":7,"visitsCount":791,"url":"http://www.cabaretrestaurant.com","tier":2,"message":"Moderate","currency":"$","rating":7},{"name":"Kelly's Korner","phone":"7168779466","address":"2526 Delaware Ave","lat":42.95313907,"lng":-78.86916926,"neighborhood":"North Delaware","city_fetched":"Buffalo","state":"NY","country":"United States","canonicalUrl":"https://foursquare.com/v/kellys-korner/4b5b6b34f964a52080fc28e3","category":"Bar","checkinsCount":630,"usersCount":230,"tipCount":14,"visitsCount":710,"tier":1,"message":"Cheap","currency":"$","rating":6.9}]