[{"name":"Quarry Brewing Company","phone":"4067230245","address":"124 W Broadway St","lat":46.013197481706584,"lng":-112.53868682020801,"neighborhood":"Butte","city_fetched":"Butte,US","state":"MT","country":"United States","canonicalUrl":"https://foursquare.com/v/quarry-brewing-company/4c02c157f423a593f243cf16","categoryId":"50327c8591d4c4b30a586d5d","category":"Brewery","checkinsCount":366,"usersCount":186,"tipCount":8,"visitsCount":426,"url":"http://wedig.beer","tier":"","message":"","currency":"","rating":8.2},{"name":"Metals Sports Bar And Grill","phone":"4067825534","address":"8 W Park St","lat":46.0127164,"lng":-112.53569905,"neighborhood":"Butte","city_fetched":"Butte,US","state":"MT","country":"United States","canonicalUrl":"https://foursquare.com/v/metals-sports-bar-and-grill/4c180629838020a15f96e361","categoryId":"4bf58dd8d48988d11d941735","category":"Sports Bar","checkinsCount":408,"usersCount":313,"tipCount":4,"visitsCount":459,"url":"http://metalsportsbar.com","tier":"","message":"","currency":"","rating":6.8},{"name":"M&M Cigar Store","phone":"4067237612","address":"9 N Main St","lat":46.01295231840253,"lng":-112.53580681287826,"neighborhood":"Butte","city_fetched":"Butte,US","state":"MT","country":"United States","canonicalUrl":"https://foursquare.com/v/mm-cigar-store/4e10a09262e1d997a6986bec","categoryId":"4bf58dd8d48988d116941735","category":"Bar","checkinsCount":280,"usersCount":176,"tipCount":5,"visitsCount":281,"tier":"","message":"","currency":"","rating":6.8},{"name":"Maloney's Bar","phone":"4067238016","address":"112 N Main St","lat":46.01397624770748,"lng":-112.53563094940166,"neighborhood":"Butte","city_fetched":"Butte,US","state":"MT","country":"United States","canonicalUrl":"https://foursquare.com/v/maloneys-bar/4c4a61d5712ac9288fce5c6b","categoryId":"4bf58dd8d48988d11b941735","category":"Pub","checkinsCount":115,"usersCount":70,"tipCount":1,"visitsCount":116,"tier":"","message":"","currency":"","rating":5.9}]