[{"name":"Clam Lake Beer Company","address":"106 S Mitchell St","lat":44.24992157201981,"lng":-85.39958624602822,"city_fetched":"Cadillac","state":"MI","country":"United States","canonicalUrl":"https://foursquare.com/v/clam-lake-beer-company/5245ff8d11d23bcf61eaff19","category":"Brewery","checkinsCount":899,"usersCount":596,"tipCount":11,"visitsCount":1297,"url":"http://clamlakebeerco.com","tier":2,"message":"Moderate","currency":"$","rating":9.3},{"name":"The Party Lounge","phone":"2317759073","address":"516 N Mitchell St","lat":44.25457910162023,"lng":-85.402585400096,"city_fetched":"Cadillac","state":"MI","country":"United States","canonicalUrl":"https://foursquare.com/v/the-party-lounge/4ae0a626f964a520428121e3","category":"Sports Bar","checkinsCount":326,"usersCount":187,"tipCount":3,"visitsCount":408,"url":"http://www.cadillacpartylounge.com","tier":"","message":"","currency":"","rating":6.8},{"name":"Roaring 20's Saloon","phone":"2317758411","address":"210 S Mitchell St","lat":44.24877373333333,"lng":-85.3984946,"city_fetched":"Cadillac","state":"MI","country":"United States","canonicalUrl":"https://foursquare.com/v/roaring-20s-saloon/4ae0a56df964a5203d8121e3","category":"Bar","checkinsCount":191,"usersCount":92,"tipCount":1,"visitsCount":192,"tier":"","message":"","currency":"","rating":6.6},{"name":"The Pines Sports Bar & Bowling Center","phone":"2317757752","address":"5992 E M55","lat":44.233269578657925,"lng":-85.4568099975586,"city_fetched":"Cadillac","state":"MI","country":"United States","canonicalUrl":"https://foursquare.com/v/the-pines-sports-bar--bowling-center/4b6e30baf964a520a7b02ce3","category":"Sports Bar","checkinsCount":461,"usersCount":292,"tipCount":3,"visitsCount":576,"url":"http://www.pinesparagon.com","tier":"","message":"","currency":"","rating":6.6},{"name":"Maggie's Tavern","phone":"2317751810","address":"523 N Mitchell St","lat":44.25463469,"lng":-85.40338123,"city_fetched":"Cadillac","state":"MI","country":"United States","canonicalUrl":"https://foursquare.com/v/maggies-tavern/4e72383445dd2c5c1a8d572b","category":"Bar","checkinsCount":258,"usersCount":198,"tipCount":4,"visitsCount":290,"url":"http://www.maggiestaverncadillac.com","tier":"","message":"","currency":"","rating":6.5},{"name":"Cadillac Sands Resort","phone":"2317752407","address":"6319 E M 115","lat":44.23511833333333,"lng":-85.45068,"city_fetched":"Cadillac","state":"MI","country":"United States","canonicalUrl":"https://foursquare.com/v/cadillac-sands-resort/4ae0a5f3f964a520418121e3","category":"Nightclub","checkinsCount":216,"usersCount":157,"tipCount":5,"visitsCount":217,"tier":"","message":"","currency":"","rating":5.8}]