[{"name":"VFW Post #2632","phone":"3018623247","address":"23282 Three Notch Rd.","lat":38.30818791280673,"lng":-76.52686654596023,"city_fetched":"California","state":"MD","country":"United States","canonicalUrl":"https://foursquare.com/v/vfw-post-2632/4bda2eb22a3a0f47f338aab6","category":"Lounge","checkinsCount":365,"usersCount":101,"tipCount":6,"visitsCount":610,"url":"http://vfwpost2632.com","tier":"","message":"","currency":"","rating":8.4},{"name":"The Lounge @ Bollywood","phone":"3018623166","address":"22575 MacArthur Blvd.","lat":38.28725103538468,"lng":-76.48403775361689,"city_fetched":"California","state":"MD","country":"United States","canonicalUrl":"https://foursquare.com/v/the-lounge--bollywood/4e28ab01d164bfc24f254d36","category":"Lounge","checkinsCount":667,"usersCount":151,"tipCount":9,"visitsCount":708,"url":"http://www.theloungeatbollywood.com","tier":"","message":"","currency":"","rating":7.6},{"name":"ABC Lounge","phone":"3018627770","address":"22741b Three Notch Rd","lat":38.29128814064895,"lng":-76.49545177817345,"city_fetched":"California","state":"MD","country":"United States","canonicalUrl":"https://foursquare.com/v/abc-lounge/4b356d59f964a5200e2d25e3","category":"Dive Bar","checkinsCount":814,"usersCount":221,"tipCount":8,"visitsCount":862,"url":"http://www.abcliquors-lounge.com","tier":"","message":"","currency":"","rating":6.7}]