[{"name":"Yards Brewing Company","phone":"2156342600","twitter":"yardsbrew","address":"901 N Delaware Ave","lat":39.96238803853491,"lng":-75.13588231735324,"neighborhood":"Northern Liberties - Fishtown","city_fetched":"Camden","state":"PA","country":"United States","canonicalUrl":"https://foursquare.com/v/yards-brewing-company/49f73908f964a520716c1fe3","category":"Brewery","checkinsCount":8327,"usersCount":5962,"tipCount":63,"visitsCount":9524,"url":"http://www.yardsbrewing.com","tier":1,"message":"Cheap","currency":"$","rating":9.4},{"name":"Frankford Hall","phone":"2156343338","twitter":"starrrestaurant","address":"1210 Frankford Ave","lat":39.969448991172705,"lng":-75.13469874858856,"neighborhood":"Northern Liberties - Fishtown","city_fetched":"Camden","state":"PA","country":"United States","canonicalUrl":"https://foursquare.com/v/frankford-hall/4dc81f4c315170a4221e250a","category":"Beer Garden","checkinsCount":24359,"usersCount":12114,"tipCount":125,"visitsCount":25735,"url":"http://frankfordhall.com","tier":2,"message":"Moderate","currency":"$","rating":9.3},{"name":"Johnny Brenda's","phone":"2157399684","twitter":"johnnybrendas","address":"1201 Frankford Ave","lat":39.969042304214696,"lng":-75.13415487340761,"neighborhood":"Northern Liberties - Fishtown","city_fetched":"Camden","state":"PA","country":"United States","canonicalUrl":"https://foursquare.com/v/johnny-brendas/40b28c80f964a520b8f91ee3","category":"Bar","checkinsCount":19842,"usersCount":7616,"tipCount":126,"visitsCount":20999,"url":"http://www.johnnybrendas.com","tier":2,"message":"Moderate","currency":"$","rating":9.2},{"name":"Barcade","phone":"2156344400","twitter":"barcadephilly","address":"1114 Frankford Ave","lat":39.967473535052584,"lng":-75.13466227639574,"neighborhood":"Northern Liberties - Fishtown","city_fetched":"Camden","state":"PA","country":"United States","canonicalUrl":"https://foursquare.com/v/barcade/4e8d9e16cc217a2e5c192a69","category":"Bar","checkinsCount":15489,"usersCount":7829,"tipCount":114,"visitsCount":17149,"url":"http://barcade.com","tier":2,"message":"Moderate","currency":"$","rating":8.9},{"name":"Sancho Pistola's","phone":"2673243530","twitter":"sancho_pistolas","address":"19 W Girard Ave","lat":39.968851116369855,"lng":-75.1353692171652,"neighborhood":"Northern Liberties - Fishtown","city_fetched":"Camden","state":"PA","country":"United States","canonicalUrl":"https://foursquare.com/v/sancho-pistolas/52e6e03a498e610c8071539b","category":"Mexican Restaurant","checkinsCount":1663,"usersCount":1083,"tipCount":29,"visitsCount":2121,"url":"http://www.sanchopistolas.com","tier":2,"message":"Moderate","currency":"$","rating":8.7},{"name":"ROOT restaurant + wine bar","twitter":"rootrestaurant","address":"1206 Frankford Ave","lat":39.969132,"lng":-75.134629,"neighborhood":"Northern Liberties - Fishtown","city_fetched":"Camden","state":"PA","country":"United States","canonicalUrl":"https://foursquare.com/v/root-restaurant--wine-bar/56f1c8eb498ef3b39f808693","category":"Wine Bar","checkinsCount":147,"usersCount":110,"tipCount":4,"visitsCount":150,"url":"http://rootrestaurant.com","tier":"","message":"","currency":"","rating":8.3},{"name":"The Barbary","phone":"2156347400","twitter":"thebarbary","address":"951 Frankford Ave","lat":39.96554401468633,"lng":-75.13438862105423,"neighborhood":"Northern Liberties - Fishtown","city_fetched":"Camden","state":"PA","country":"United States","canonicalUrl":"https://foursquare.com/v/the-barbary/4a3ab58cf964a52022a01fe3","category":"Nightclub","checkinsCount":20900,"usersCount":4984,"tipCount":73,"visitsCount":21840,"url":"http://thebarbary.org","tier":1,"message":"Cheap","currency":"$","rating":8.1},{"name":"Barbarella (Barbary Upstairs)","address":"951 Frankford Ave","lat":39.96560568521328,"lng":-75.1342232873888,"neighborhood":"Northern Liberties - Fishtown","city_fetched":"Camden","state":"PA","country":"United States","canonicalUrl":"https://foursquare.com/v/barbarella-barbary-upstairs/4bb7d81298c7ef3bc7763002","category":"Bar","checkinsCount":6459,"usersCount":878,"tipCount":18,"visitsCount":6493,"tier":"","message":"","currency":"","rating":7.8},{"name":"Saint Lazarus Bar","twitter":"saintlazarusbar","address":"102 W Girard Ave","lat":39.969015457052414,"lng":-75.1362129810348,"neighborhood":"Northern Liberties - Fishtown","city_fetched":"Camden","state":"PA","country":"United States","canonicalUrl":"https://foursquare.com/v/saint-lazarus-bar/51f8695b498ecf9150c149d4","category":"Bar","checkinsCount":1608,"usersCount":787,"tipCount":16,"visitsCount":2231,"url":"http://www.saintlazarusbar.com","tier":1,"message":"Cheap","currency":"$","rating":7.8},{"name":"The Handle Bar","address":"1102 Frankford Ave","lat":39.96705963924576,"lng":-75.13458246030348,"neighborhood":"Northern Liberties - Fishtown","city_fetched":"Camden","state":"PA","country":"United States","canonicalUrl":"https://foursquare.com/v/the-handle-bar/4a67ef39f964a52042ca1fe3","category":"Bar","checkinsCount":2409,"usersCount":817,"tipCount":19,"visitsCount":2596,"tier":1,"message":"Cheap","currency":"$","rating":7.6},{"name":"Krystal's Lounge","phone":"8565418570","address":"789 Chestnut St","lat":39.93277093227353,"lng":-75.11323020758809,"city_fetched":"Camden","state":"NJ","country":"United States","canonicalUrl":"https://foursquare.com/v/krystals-lounge/4c1bca2cb4e62d7f65fbd993","category":"Bar","checkinsCount":365,"usersCount":90,"tipCount":2,"visitsCount":458,"tier":"","message":"","currency":"","rating":7.5},{"name":"Murph's Bar","phone":"2154251847","address":"202 E Girard Ave","lat":39.96897208791225,"lng":-75.1335346698761,"neighborhood":"North Philadelphia","city_fetched":"Camden","state":"PA","country":"United States","canonicalUrl":"https://foursquare.com/v/murphs-bar/4a62598ff964a520d3c31fe3","category":"Bar","checkinsCount":2493,"usersCount":858,"tipCount":17,"visitsCount":2549,"tier":1,"message":"Cheap","currency":"$","rating":7.4},{"name":"Connie Mac's Irish Pub","phone":"8569101490","address":"8000 S Crescent Blvd","lat":39.92898498857883,"lng":-75.08318964355523,"city_fetched":"Camden","state":"NJ","country":"United States","canonicalUrl":"https://foursquare.com/v/connie-macs-irish-pub/4b08806cf964a520310d23e3","category":"Pub","checkinsCount":4034,"usersCount":1401,"tipCount":38,"visitsCount":4413,"url":"http://www.conniemacs.com","tier":2,"message":"Moderate","currency":"$","rating":7.3},{"name":"The Victor's Pub","phone":"8566350600","address":"1 Market St","lat":39.9475401812253,"lng":-75.12812862559318,"neighborhood":"Cooper Grant","city_fetched":"Camden","state":"NJ","country":"United States","canonicalUrl":"https://foursquare.com/v/the-victors-pub/4a01fb71f964a5201b711fe3","category":"Bar","checkinsCount":3117,"usersCount":1903,"tipCount":35,"visitsCount":4019,"url":"http://victorspub.com","tier":2,"message":"Moderate","currency":"$","rating":7.1}]