[{"name":"George's Lounge","phone":"3304520029","twitter":"georgeslounge","address":"229 Cleveland Ave NW","lat":40.800020061741726,"lng":-81.37633323669432,"neighborhood":"Downtown Canton","city_fetched":"Canton","state":"OH","country":"United States","canonicalUrl":"https://foursquare.com/georgeslounge","category":"Bar","checkinsCount":1139,"usersCount":442,"tipCount":11,"visitsCount":1312,"url":"http://www.georgescanton.com","tier":2,"message":"Moderate","currency":"$","rating":8.9},{"name":"Gervasi Vineyard Crush House","phone":"3304971000","twitter":"gervasivineyard","address":"1700 55th St NE","lat":40.855391244378204,"lng":-81.34967139803753,"city_fetched":"Canton","state":"OH","country":"United States","canonicalUrl":"https://foursquare.com/v/gervasi-vineyard-crush-house/52503c32498e2d73ab83fed8","category":"Wine Bar","checkinsCount":466,"usersCount":478,"tipCount":5,"visitsCount":711,"url":"http://www.gervasivineyard.com/Dine/Crush-House-Dining","tier":"","message":"","currency":"","rating":8.8},{"name":"Table Six Kitchen + Bar","phone":"3303051666","address":"6113 Whipple Ave NW","lat":40.870101976826135,"lng":-81.42275011717214,"city_fetched":"Canton","state":"OH","country":"United States","canonicalUrl":"https://foursquare.com/v/table-six-kitchen--bar/52a0b98911d20f922dba5ec4","category":"New American Restaurant","checkinsCount":836,"usersCount":709,"tipCount":22,"visitsCount":1380,"url":"http://www.table6canton.com","tier":2,"message":"Moderate","currency":"$","rating":8.6},{"name":"The Barrel Room","phone":"3302441535","address":"7901 Cleveland Ave NW","lat":40.900873,"lng":-81.40652731666667,"city_fetched":"Canton","state":"OH","country":"United States","canonicalUrl":"https://foursquare.com/v/the-barrel-room/4b92fa12f964a520dc2b34e3","category":"Wine Bar","checkinsCount":1158,"usersCount":598,"tipCount":7,"visitsCount":1394,"url":"http://barrelroomwinebar.com","tier":"","message":"","currency":"","rating":8.5},{"name":"The Canton Brewing Company","phone":"3304090343","twitter":"cantonbeer","address":"120 3rd St NW","lat":40.80008631872361,"lng":-81.37469021302003,"neighborhood":"Downtown Canton","city_fetched":"Canton","state":"OH","country":"United States","canonicalUrl":"https://foursquare.com/v/the-canton-brewing-company/54ed1ff0498edf8b7492a41b","category":"Brewery","checkinsCount":278,"usersCount":293,"tipCount":4,"visitsCount":460,"url":"http://www.drinkcantonbeer.com","tier":"","message":"","currency":"","rating":8.4},{"name":"Picciano's","phone":"3304543800","address":"410 Market Ave N","lat":40.80060577978257,"lng":-81.37389021042388,"neighborhood":"Downtown Canton","city_fetched":"Canton","state":"OH","country":"United States","canonicalUrl":"https://foursquare.com/v/piccianos/4bc12221461576b04f867b32","category":"Cocktail Bar","checkinsCount":850,"usersCount":274,"tipCount":15,"visitsCount":903,"url":"http://piccianos.com","tier":"","message":"","currency":"","rating":8.2},{"name":"Bender's Tavern","phone":"3304538424","address":"137 Court Ave SW","lat":40.79799976474044,"lng":-81.37591749429703,"city_fetched":"Canton","state":"OH","country":"United States","canonicalUrl":"https://foursquare.com/v/benders-tavern/4b59e246f964a520279e28e3","category":"Seafood Restaurant","checkinsCount":645,"usersCount":445,"tipCount":8,"visitsCount":722,"url":"http://www.bendersrestaurant.com","tier":3,"message":"Expensive","currency":"$","rating":8.1},{"name":"Conestoga Grill","phone":"3304555757","address":"217 2nd St NW","lat":40.79961397682979,"lng":-81.37568950653076,"neighborhood":"Downtown Canton","city_fetched":"Canton","state":"OH","country":"United States","canonicalUrl":"https://foursquare.com/v/conestoga-grill/4bda46682a3a0f472ba5aab6","category":"Bar","checkinsCount":1006,"usersCount":267,"tipCount":5,"visitsCount":1093,"tier":1,"message":"Cheap","currency":"$","rating":8.1},{"name":"The Auricle","phone":"3303538694","twitter":"theauricleoh","address":"601 Cleveland Ave NW","lat":40.802635,"lng":-81.375936,"neighborhood":"Downtown Canton","city_fetched":"Canton","state":"OH","country":"United States","canonicalUrl":"https://foursquare.com/theauricleoh","category":"Performing Arts Venue","checkinsCount":2011,"usersCount":640,"tipCount":11,"visitsCount":2318,"url":"http://www.theauricle.net","tier":"","message":"","currency":"","rating":8},{"name":"Nathan's Patio Bar and Grille","phone":"3304300061","address":"725 30th St NE","lat":40.83139472021466,"lng":-81.36461708497735,"city_fetched":"Canton","state":"OH","country":"United States","canonicalUrl":"https://foursquare.com/v/nathans-patio-bar-and-grille/4bb51e7c46d4a593e095c4c0","category":"Bar","checkinsCount":994,"usersCount":451,"tipCount":8,"visitsCount":1160,"url":"http://nathansfamous.comâ€Ž","tier":"","message":"","currency":"","rating":7.8},{"name":"Buzzbin Art & Music Shop","phone":"3303131087","twitter":"buzzbin","address":"339 Cleveland Ave NW","lat":40.80094604756934,"lng":-81.3759734211358,"neighborhood":"Downtown Canton","city_fetched":"Canton","state":"OH","country":"United States","canonicalUrl":"https://foursquare.com/v/buzzbin-art--music-shop/4c807e38f9b79c7464ae0c45","category":"Pub","checkinsCount":946,"usersCount":402,"tipCount":9,"visitsCount":1062,"url":"http://buzzbinshop.com","tier":1,"message":"Cheap","currency":"$","rating":7.8},{"name":"Michael D's","address":"1411 Whipple Ave.","lat":40.81367055,"lng":-81.42582255,"city_fetched":"Canton","state":"OH","country":"United States","canonicalUrl":"https://foursquare.com/v/michael-ds/4bf844fab182c9b69c30775a","category":"Bar","checkinsCount":546,"usersCount":295,"tipCount":5,"visitsCount":921,"tier":"","message":"","currency":"","rating":7.8},{"name":"Eadies Fish House Grill & Pub","phone":"3304944000","twitter":"eadiesfish","address":"6616 Wise Ave NW","lat":40.87833982240289,"lng":-81.42144799232483,"city_fetched":"Canton","state":"OH","country":"United States","canonicalUrl":"https://foursquare.com/v/eadies-fish-house-grill--pub/4b807a1cf964a520ff7530e3","category":"Seafood Restaurant","checkinsCount":738,"usersCount":348,"tipCount":23,"visitsCount":827,"url":"http://www.eadiesfishhouse.com","tier":2,"message":"Moderate","currency":"$","rating":7.8},{"name":"TD's Tailgate Grille","phone":"3304512140","twitter":"tdsgrill","address":"2234 Tuscarawas St W","lat":40.79936251042026,"lng":-81.39894939040755,"city_fetched":"Canton","state":"OH","country":"United States","canonicalUrl":"https://foursquare.com/v/tds-tailgate-grille/4f6552dae4b04b24447d0186","category":"Bar","checkinsCount":796,"usersCount":500,"tipCount":9,"visitsCount":1199,"url":"http://www.tdstailgategrill.com","tier":2,"message":"Moderate","currency":"$","rating":7.7},{"name":"Buds Corner","phone":"3304540235","address":"5750 Columbus Rd","lat":40.85861,"lng":-81.291992,"city_fetched":"Canton","state":"OH","country":"United States","canonicalUrl":"https://foursquare.com/v/buds-corner/4af10f7ef964a520a9e021e3","category":"Bar","checkinsCount":222,"usersCount":179,"tipCount":2,"visitsCount":272,"tier":"","message":"","currency":"","rating":7.7},{"name":"Grapes In A Glass","address":"575 Market Ave N","lat":40.80179685830795,"lng":-81.37381504196347,"neighborhood":"Downtown Canton","city_fetched":"Canton","state":"OH","country":"United States","canonicalUrl":"https://foursquare.com/v/grapes-in-a-glass/51f4866d498ecfa0a6e961f8","category":"Wine Bar","checkinsCount":390,"usersCount":79,"tipCount":6,"visitsCount":408,"tier":2,"message":"Moderate","currency":"$","rating":7.5},{"name":"The Irish Exchange","phone":"3304781005","address":"3824 Tuscarawas St W","lat":40.796638,"lng":-81.419009,"city_fetched":"Canton","state":"OH","country":"United States","canonicalUrl":"https://foursquare.com/v/the-irish-exchange/4beddc72946c0f473c10a363","category":"Pub","checkinsCount":463,"usersCount":262,"tipCount":7,"visitsCount":609,"url":"http://irishexchangecanton.com","tier":"","message":"","currency":"","rating":7.5},{"name":"Mulligan's Restaurant & Pub","phone":"3304938239","address":"4118 Belden Village St NW","lat":40.854701927875304,"lng":-81.42516465598975,"city_fetched":"Canton","state":"OH","country":"United States","canonicalUrl":"https://foursquare.com/v/mulligans-restaurant--pub/4b516d86f964a5200f4d27e3","category":"Pub","checkinsCount":1121,"usersCount":858,"tipCount":17,"visitsCount":1260,"url":"http://mulliganscanton.com","tier":"","message":"","currency":"","rating":7.5},{"name":"Imperial Room","address":"420 Court Ave NW","lat":40.801045717718544,"lng":-81.37501772844055,"neighborhood":"Downtown Canton","city_fetched":"Canton","state":"OH","country":"United States","canonicalUrl":"https://foursquare.com/v/imperial-room/4b2c4188f964a520b6c424e3","category":"Bar","checkinsCount":1069,"usersCount":214,"tipCount":2,"visitsCount":1094,"tier":"","message":"","currency":"","rating":7.4},{"name":"Walther's Cafe","phone":"3304520785","address":"1836 Maple Ave NE","lat":40.818100694555405,"lng":-81.35310331094111,"city_fetched":"Canton","state":"OH","country":"United States","canonicalUrl":"https://foursquare.com/v/walthers-cafe/4ce9bea99f776ea87a756522","category":"Lounge","checkinsCount":500,"usersCount":187,"tipCount":7,"visitsCount":640,"tier":"","message":"","currency":"","rating":7.4},{"name":"Tim's Tavern","phone":"3304556306","address":"3323 Parkway St NW","lat":40.81378519535065,"lng":-81.412051,"city_fetched":"Canton","state":"OH","country":"United States","canonicalUrl":"https://foursquare.com/v/tims-tavern/4b524cf1f964a520d47527e3","category":"Seafood Restaurant","checkinsCount":677,"usersCount":393,"tipCount":11,"visitsCount":862,"url":"http://www.timstavern.com","tier":2,"message":"Moderate","currency":"$","rating":7.4},{"name":"Harmon's Pub","phone":"3304532144","address":"2329 Tuscarawas St W","lat":40.79967875743836,"lng":-81.4005005553332,"city_fetched":"Canton","state":"OH","country":"United States","canonicalUrl":"https://foursquare.com/v/harmons-pub/4b317b22f964a520b30725e3","category":"Bar","checkinsCount":1017,"usersCount":451,"tipCount":18,"visitsCount":1255,"url":"http://www.harmonspub.com","tier":1,"message":"Cheap","currency":"$","rating":7.2},{"name":"Crew Night Club","phone":"3304522739","address":"304 Cherry Ave NE","lat":40.79917134144601,"lng":-81.37041091918945,"city_fetched":"Canton","state":"OH","country":"United States","canonicalUrl":"https://foursquare.com/v/crew-night-club/4c16ea9acd4bc9b6cd3a4feb","category":"Gay Bar","checkinsCount":4055,"usersCount":443,"tipCount":19,"visitsCount":4320,"tier":2,"message":"Moderate","currency":"$","rating":7.2}]