[{"name":"First Round Draft","phone":"2396738614","address":"1217 Del Prado Blvd S","lat":26.62937054560479,"lng":-81.9404840814246,"neighborhood":"Hancock","city_fetched":"Cape Coral","state":"FL","country":"United States","canonicalUrl":"https://foursquare.com/v/first-round-draft/4ba3b5d2f964a520145738e3","category":"American Restaurant","checkinsCount":1195,"usersCount":383,"tipCount":15,"visitsCount":1355,"url":"http://frdcape.com","tier":1,"message":"Cheap","currency":"$","rating":8.8},{"name":"Blu Sushi","phone":"2394891500","address":"13451 McGregor Blvd","lat":26.546302835628953,"lng":-81.91345873048215,"city_fetched":"Cape Coral","state":"FL","country":"United States","canonicalUrl":"https://foursquare.com/v/blu-sushi/4c6492b5c74c1b8d28f3b183","category":"Sushi Restaurant","checkinsCount":2206,"usersCount":1036,"tipCount":39,"visitsCount":2415,"url":"http://blusushi.com","tier":"","message":"","currency":"","rating":8.7},{"name":"Tubby's City Hangout","phone":"2395413540","address":"4810 Vincennes St","lat":26.562083,"lng":-81.950377,"city_fetched":"Cape Coral","state":"FL","country":"United States","canonicalUrl":"https://foursquare.com/v/tubbys-city-hangout/501991a4e4b05ddf54018165","category":"Gay Bar","checkinsCount":613,"usersCount":204,"tipCount":14,"visitsCount":794,"url":"http://mygayswfl.com/tubbysch/","tier":"","message":"","currency":"","rating":8.6},{"name":"Blue Dog Bar & Grill","lat":26.629290340608783,"lng":-82.07065135307845,"city_fetched":"Cape Coral","state":"FL","country":"United States","canonicalUrl":"https://foursquare.com/v/blue-dog-bar--grill/54a854a2498e34745927c4d1","category":"Bar","checkinsCount":65,"usersCount":81,"tipCount":4,"visitsCount":100,"tier":"","message":"","currency":"","rating":8.5},{"name":"The Dek Bar","phone":"2395423745","twitter":"thedekbar","address":"4704 SE 15th Ave","lat":26.564454778623723,"lng":-81.94578564538058,"city_fetched":"Cape Coral","state":"FL","country":"United States","canonicalUrl":"https://foursquare.com/v/the-dek-bar/4bc507a80191c9b67507ebb1","category":"Bar","checkinsCount":1744,"usersCount":716,"tipCount":16,"visitsCount":2378,"url":"http://www.thedekbar.com","tier":"","message":"","currency":"","rating":8.1},{"name":"cape coral brewing company","lat":26.56103355171054,"lng":-81.95595610217967,"city_fetched":"Cape Coral","state":"FL","country":"United States","canonicalUrl":"https://foursquare.com/v/cape-coral-brewing-company/558f3382498e40e25d9581b8","category":"Beer Garden","checkinsCount":135,"usersCount":116,"tipCount":1,"visitsCount":243,"tier":"","message":"","currency":"","rating":8},{"name":"BackStreets Sports Bar","phone":"2399457555","twitter":"backstreetsswfl","address":"915 SE 47th Ter","lat":26.56380200793658,"lng":-81.95334036947801,"city_fetched":"Cape Coral","state":"FL","country":"United States","canonicalUrl":"https://foursquare.com/v/backstreets-sports-bar/4b89d093f964a520564e32e3","category":"Sports Bar","checkinsCount":3258,"usersCount":828,"tipCount":34,"visitsCount":4138,"url":"http://www.backstreetssportsbar.com","tier":1,"message":"Cheap","currency":"$","rating":8},{"name":"The Nauti Mermaid Dockside Bar & Grill","phone":"2395415600","twitter":"marker92","address":"5951 Silver King Blvd","lat":26.539306,"lng":-81.99872613333334,"city_fetched":"Cape Coral","state":"FL","country":"United States","canonicalUrl":"https://foursquare.com/v/the-nauti-mermaid-dockside-bar--grill/4b632404f964a520f1652ae3","category":"Bar","checkinsCount":1146,"usersCount":712,"tipCount":20,"visitsCount":1251,"url":"http://thenautibar.com","tier":2,"message":"Moderate","currency":"$","rating":7.7},{"name":"Cork Soakers Deck & Wine Bar","lat":26.56393725348518,"lng":-81.95606264733262,"city_fetched":"Cape Coral","state":"FL","country":"United States","canonicalUrl":"https://foursquare.com/v/cork-soakers-deck--wine-bar/549e153f498ea7de501d0cfc","category":"Wine Bar","checkinsCount":174,"usersCount":157,"tipCount":5,"visitsCount":321,"tier":"","message":"","currency":"","rating":7.6},{"name":"Bubba's Roadhouse & Saloon","phone":"2392825520","twitter":"bubbasroadhouse","address":"2121 SW Pine Island Rd","lat":26.63802248905528,"lng":-82.01830387115479,"neighborhood":"Mariner","city_fetched":"Cape Coral","state":"FL","country":"United States","canonicalUrl":"https://foursquare.com/v/bubbas-roadhouse--saloon/4b5f57d4f964a52026b529e3","category":"Steakhouse","checkinsCount":1591,"usersCount":655,"tipCount":20,"visitsCount":1693,"url":"http://www.bubbasroadhouse.net","tier":2,"message":"Moderate","currency":"$","rating":7.6},{"name":"Diamond Billiards: Sports Bar & Grill","phone":"2395737665","address":"1242 SW Pine Island Rd","lat":26.639583685756378,"lng":-82.00193704693224,"city_fetched":"Cape Coral","state":"FL","country":"United States","canonicalUrl":"https://foursquare.com/v/diamond-billiards-sports-bar--grill/4bd2705441b9ef3b333cfee5","category":"Pool Hall","checkinsCount":1095,"usersCount":399,"tipCount":8,"visitsCount":1207,"tier":"","message":"","currency":"","rating":7.5},{"name":"The Dog Bar & Grille","phone":"2395418304","address":"3522 Del Prado Blvd S","lat":26.586012654862618,"lng":-81.94252482985857,"city_fetched":"Cape Coral","state":"FL","country":"United States","canonicalUrl":"https://foursquare.com/v/the-dog-bar--grille/4d178b7025cda14300cf77d6","category":"Sports Bar","checkinsCount":1451,"usersCount":354,"tipCount":20,"visitsCount":1529,"tier":"","message":"","currency":"","rating":7.4},{"name":"Wicked Dolphin World Headquarters","phone":"2392425244","address":"131 SW 3rd Pl","lat":26.64766213625532,"lng":-81.98087273839415,"neighborhood":"Hancock","city_fetched":"Cape Coral","state":"FL","country":"United States","canonicalUrl":"https://foursquare.com/v/wicked-dolphin-world-headquarters/4ddcf34b1838306b8211b0f8","category":"Brewery","checkinsCount":247,"usersCount":144,"tipCount":2,"visitsCount":284,"url":"http://wickeddolphin.com","tier":"","message":"","currency":"","rating":7.3},{"name":"Ceno Grille","phone":"2395492366","twitter":"cenogrille","address":"1715 Cape Coral Pkwy W","lat":26.56309970524433,"lng":-82.00969934463501,"city_fetched":"Cape Coral","state":"FL","country":"United States","canonicalUrl":"https://foursquare.com/v/ceno-grille/517af917e4b0e311c722dec4","category":"Italian Restaurant","checkinsCount":70,"usersCount":44,"tipCount":4,"visitsCount":72,"url":"http://www.cenogrille.com","tier":"","message":"","currency":"","rating":7.2},{"name":"Hooters","phone":"2399454700","address":"3120 Del Prado Blvd S","lat":26.59331099582266,"lng":-81.94212521001735,"city_fetched":"Cape Coral","state":"FL","country":"United States","canonicalUrl":"https://foursquare.com/v/hooters/4ba6d103f964a520597139e3","category":"Wings Joint","checkinsCount":1503,"usersCount":832,"tipCount":9,"visitsCount":2033,"url":"http://www.hooters.com","tier":2,"message":"Moderate","currency":"$","rating":7.1},{"name":"Dublin Ale House Pub","phone":"2395412663","address":"1708 Cape Coral Pkwy W","lat":26.561794597461468,"lng":-82.00914144515991,"city_fetched":"Cape Coral","state":"FL","country":"United States","canonicalUrl":"https://foursquare.com/v/dublin-ale-house-pub/4e5fb0bb81dc26b326dca901","category":"Brewery","checkinsCount":958,"usersCount":269,"tipCount":12,"visitsCount":1033,"url":"http://dublinalehousepub.com","tier":2,"message":"Moderate","currency":"$","rating":7.1},{"name":"Dixie Roadhouse","phone":"2395417900","twitter":"dixie_roadhouse","address":"1023 SE 47th Ter","lat":26.564020948848484,"lng":-81.9516134262085,"city_fetched":"Cape Coral","state":"FL","country":"United States","canonicalUrl":"https://foursquare.com/v/dixie-roadhouse/4e29af7d1fc7f0a6e14a1d04","category":"Nightclub","checkinsCount":2424,"usersCount":1161,"tipCount":11,"visitsCount":2994,"url":"http://thedixie.com","tier":"","message":"","currency":"","rating":7}]