[{"name":"Cup 'n Cork","phone":"5736515282","twitter":"cupncork","address":"46 N Main St","lat":37.304696008598526,"lng":-89.51842546463013,"city_fetched":"Cape Girardeau","state":"MO","country":"United States","canonicalUrl":"https://foursquare.com/cupncork","category":"Caf√©","checkinsCount":856,"usersCount":281,"tipCount":19,"visitsCount":871,"url":"http://www.cupncork.com","tier":"","message":"","currency":"","rating":8.4},{"name":"Broadway Biergarten","phone":"5733352337","twitter":"bbiergarten","address":"818 Broadway St","lat":37.30697399601585,"lng":-89.52888316822909,"city_fetched":"Cape Girardeau","state":"MO","country":"United States","canonicalUrl":"https://foursquare.com/v/broadway-biergarten/51e20716498ec07b5b60df5a","category":"Beer Garden","checkinsCount":831,"usersCount":243,"tipCount":13,"visitsCount":1100,"tier":2,"message":"Moderate","currency":"$","rating":8.2},{"name":"HotShots Sports Bar and Grill Cape Girardeau","phone":"5733359449","twitter":"hotshots_bar","address":"15 N Main St","lat":37.30379435224959,"lng":-89.5186314952796,"city_fetched":"Cape Girardeau","state":"MO","country":"United States","canonicalUrl":"https://foursquare.com/v/hotshots-sports-bar-and-grill-cape-girardeau/4e821f8c46903274fe04752c","category":"Sports Bar","checkinsCount":1281,"usersCount":427,"tipCount":12,"visitsCount":1468,"url":"http://t.co/JofZIqVbEY","tier":"","message":"","currency":"","rating":8.1},{"name":"The Bar","lat":37.30472628563978,"lng":-89.51940138482873,"city_fetched":"Cape Girardeau","state":"MO","country":"United States","canonicalUrl":"https://foursquare.com/v/the-bar/525899fa11d236eed9f20a0d","category":"Dive Bar","checkinsCount":98,"usersCount":109,"tipCount":3,"visitsCount":157,"tier":"","message":"","currency":"","rating":8},{"name":"LoDo","twitter":"capelodo","address":"127 N Water St","lat":37.304399676150965,"lng":-89.51859461396754,"city_fetched":"Cape Girardeau","state":"MO","country":"United States","canonicalUrl":"https://foursquare.com/v/lodo/4c05ceee5753c9283c163af1","category":"Bar","checkinsCount":726,"usersCount":168,"tipCount":14,"visitsCount":737,"tier":1,"message":"Cheap","currency":"$","rating":8},{"name":"Beef 'O' Brady's","phone":"5733353555","twitter":"beefobrady","address":"1812 Carondalet Dr Ste 101","lat":37.33504349469753,"lng":-89.57506109807652,"city_fetched":"Cape Girardeau","state":"MO","country":"United States","canonicalUrl":"https://foursquare.com/v/beef-o-bradys/4ba26a77f964a520cef637e3","category":"American Restaurant","checkinsCount":1432,"usersCount":485,"tipCount":15,"visitsCount":1730,"url":"http://www.beefobradys.com","tier":"","message":"","currency":"","rating":7.8},{"name":"Rude Dog Pub","address":"123 N Main St","lat":37.30550493235309,"lng":-89.51839176613737,"city_fetched":"Cape Girardeau","state":"MO","country":"United States","canonicalUrl":"https://foursquare.com/v/rude-dog-pub/4e055dfda809495e618be931","category":"Bar","checkinsCount":348,"usersCount":121,"tipCount":6,"visitsCount":350,"tier":"","message":"","currency":"","rating":7.6},{"name":"Katy O'Ferrell's Publick House","lat":37.30621,"lng":-89.521009,"city_fetched":"Cape Girardeau","state":"MO","country":"United States","canonicalUrl":"https://foursquare.com/v/katy-oferrells-publick-house/531bf87311d212fff69758cf","category":"Pub","checkinsCount":115,"usersCount":77,"tipCount":1,"visitsCount":165,"tier":"","message":"","currency":"","rating":7.5},{"name":"Mixing 10","lat":37.303509,"lng":-89.518626,"city_fetched":"Cape Girardeau","state":"MO","country":"United States","canonicalUrl":"https://foursquare.com/v/mixing-10/4bf75bf8b182c9b60fbb755a","category":"Bar","checkinsCount":390,"usersCount":148,"tipCount":2,"visitsCount":393,"tier":"","message":"","currency":"","rating":7.4},{"name":"The Library","phone":"5733352806","address":"10 S Spanish St","lat":37.30323939924182,"lng":-89.51953968675504,"city_fetched":"Cape Girardeau","state":"MO","country":"United States","canonicalUrl":"https://foursquare.com/v/the-library/4b8614bdf964a520757f31e3","category":"Bar","checkinsCount":2305,"usersCount":625,"tipCount":13,"visitsCount":2599,"tier":2,"message":"Moderate","currency":"$","rating":7.2},{"name":"Minglewood Brewery","phone":"5738030524","address":"121 Broadway St","lat":37.30595851060792,"lng":-89.51890349389562,"city_fetched":"Cape Girardeau","state":"MO","country":"United States","canonicalUrl":"https://foursquare.com/v/minglewood-brewery/5441c1dd498e15117b83ff8c","category":"Brewery","checkinsCount":260,"usersCount":153,"tipCount":3,"visitsCount":403,"url":"http://www.minglewoodbrewery.com","tier":"","message":"","currency":"","rating":7.1},{"name":"Pour house","phone":"5736513477","address":"113 Broadway St","lat":37.30584241294458,"lng":-89.51882512160459,"city_fetched":"Cape Girardeau","state":"MO","country":"United States","canonicalUrl":"https://foursquare.com/v/pour-house/4c54ed3006901b8d45ba924c","category":"Bar","checkinsCount":1183,"usersCount":291,"tipCount":1,"visitsCount":1201,"url":"http://www.pour-house.com","tier":"","message":"","currency":"","rating":7},{"name":"Bel Air Grill","phone":"5733350377","address":"24 S Spanish St","lat":37.30282565,"lng":-89.519537,"city_fetched":"Cape Girardeau","state":"MO","country":"United States","canonicalUrl":"https://foursquare.com/v/bel-air-grill/4ba549b9f964a52073f638e3","category":"Burger Joint","checkinsCount":1657,"usersCount":415,"tipCount":13,"visitsCount":1685,"tier":"","message":"","currency":"","rating":6.9},{"name":"D'Ladium","phone":"5733359830","address":"1127 Broadway St","lat":37.308680832566324,"lng":-89.53275451236915,"city_fetched":"Cape Girardeau","state":"MO","country":"United States","canonicalUrl":"https://foursquare.com/v/dladium/4ba548c2f964a52006f638e3","category":"Sports Bar","checkinsCount":1453,"usersCount":294,"tipCount":4,"visitsCount":1487,"tier":"","message":"","currency":"","rating":6.2},{"name":"Rhymer's","lat":37.30600334121318,"lng":-89.54670203590152,"city_fetched":"Cape Girardeau","state":"MO","country":"United States","canonicalUrl":"https://foursquare.com/v/rhymers/4cb7a95bc7228cfa6ce201ce","category":"Bar","checkinsCount":141,"usersCount":90,"tipCount":2,"visitsCount":161,"tier":"","message":"","currency":"","rating":6.1},{"name":"Mixing Ten","address":"1-15 N Main St","lat":37.303479,"lng":-89.51859,"city_fetched":"Cape Girardeau","state":"MO","country":"United States","canonicalUrl":"https://foursquare.com/v/mixing-ten/4d97ea42a2c65481ab19e653","category":"Karaoke Bar","checkinsCount":1414,"usersCount":253,"tipCount":2,"visitsCount":1416,"tier":"","message":"","currency":"","rating":5.9}]