[{"name":"Pinch Penny Pub","phone":"6185493348","twitter":"pinchpennypub","address":"700 E Grand Ave","lat":37.71791986706578,"lng":-89.2065341770649,"city_fetched":"Carbondale,US","state":"IL","country":"United States","canonicalUrl":"https://foursquare.com/v/pinch-penny-pub/4b523a1af964a520167127e3","categoryId":"4bf58dd8d48988d116941735","category":"Bar","checkinsCount":5346,"usersCount":1314,"tipCount":23,"visitsCount":5851,"url":"http://pinchpennypub.com","tier":2,"message":"Moderate","currency":"$","rating":8.5},{"name":"Big Muddy Brewing","phone":"6186848833","address":"1430 N 7th St","lat":37.78377936540069,"lng":-89.3312304770221,"city_fetched":"Carbondale,US","state":"IL","country":"United States","canonicalUrl":"https://foursquare.com/v/big-muddy-brewing/4f464b26e4b0288c75c9d919","categoryId":"50327c8591d4c4b30a586d5d","category":"Brewery","checkinsCount":588,"usersCount":156,"tipCount":3,"visitsCount":667,"tier":"","message":"","currency":"","rating":8.2},{"name":"The Cellar","phone":"6185493838","address":"101 W Monroe St","lat":37.72614692138851,"lng":-89.2165537313723,"city_fetched":"Carbondale,US","state":"IL","country":"United States","canonicalUrl":"https://foursquare.com/v/the-cellar/4b4d2cc9f964a5205ccd26e3","categoryId":"4bf58dd8d48988d116941735","category":"Bar","checkinsCount":1718,"usersCount":539,"tipCount":11,"visitsCount":1838,"tier":"","message":"","currency":"","rating":8},{"name":"Brews Brothers Taproom","phone":"6186871111","twitter":"brewsbrostap","address":"1105 Chestnut St","lat":37.763687307067606,"lng":-89.33539894327888,"city_fetched":"Carbondale,US","state":"IL","country":"United States","canonicalUrl":"https://foursquare.com/v/brews-brothers-taproom/522a76c311d26a5cf45d4145","categoryId":"4bf58dd8d48988d116941735","category":"Bar","checkinsCount":128,"usersCount":68,"tipCount":4,"visitsCount":135,"url":"http://www.brewsbrotherstaproom.com","tier":"","message":"","currency":"","rating":7.8},{"name":"Speakeasy","lat":37.78736059846628,"lng":-89.02817052862602,"city_fetched":"Carbondale,US","state":"IL","country":"United States","canonicalUrl":"https://foursquare.com/v/speakeasy/509d913ae4b00baa8c1f4912","categoryId":"4bf58dd8d48988d1d4941735","category":"Speakeasy","checkinsCount":197,"usersCount":59,"tipCount":3,"visitsCount":232,"tier":"","message":"","currency":"","rating":7.4},{"name":"PK's","phone":"6185291124","address":"308 S Illinois Ave","lat":37.72486801319303,"lng":-89.21686494866135,"city_fetched":"Carbondale,US","state":"IL","country":"United States","canonicalUrl":"https://foursquare.com/v/pks/4b5a6d9af964a52090c428e3","categoryId":"4bf58dd8d48988d118941735","category":"Dive Bar","checkinsCount":2045,"usersCount":386,"tipCount":20,"visitsCount":2131,"tier":"","message":"","currency":"","rating":7.4},{"name":"Hangar 9","phone":"6185490511","twitter":"thehangar9","address":"511 S Illinois Ave","lat":37.722807848232456,"lng":-89.21627038220969,"city_fetched":"Carbondale,US","state":"IL","country":"United States","canonicalUrl":"https://foursquare.com/thehangar9","categoryId":"4bf58dd8d48988d116941735","category":"Bar","checkinsCount":2176,"usersCount":790,"tipCount":16,"visitsCount":2362,"url":"http://www.thehangar9.com","tier":1,"message":"Cheap","currency":"$","rating":7.3},{"name":"Blue Martin","phone":"6185494326","address":"215 E Main St","lat":37.72720536666667,"lng":-89.21446801666667,"city_fetched":"Carbondale,US","state":"IL","country":"United States","canonicalUrl":"https://foursquare.com/v/blue-martin/4b848ceff964a520473b31e3","categoryId":"4bf58dd8d48988d121941735","category":"Lounge","checkinsCount":898,"usersCount":391,"tipCount":12,"visitsCount":918,"tier":"","message":"","currency":"","rating":7.2},{"name":"Abbey Ridge Brewery","address":"24 Brewster Vly","lat":37.6264667272393,"lng":-89.32335552732556,"city_fetched":"Carbondale,US","state":"IL","country":"United States","canonicalUrl":"https://foursquare.com/v/abbey-ridge-brewery/5467e019498eab2977634f78","categoryId":"50327c8591d4c4b30a586d5d","category":"Brewery","checkinsCount":27,"usersCount":44,"tipCount":2,"visitsCount":50,"tier":"","message":"","currency":"","rating":7.2},{"name":"Cali's","address":"702 E Grand","lat":37.719055861155,"lng":-89.20666320914569,"city_fetched":"Carbondale,US","state":"IL","country":"United States","canonicalUrl":"https://foursquare.com/v/calis/4bd1157bb221c9b6121ed5d0","categoryId":"4bf58dd8d48988d11f941735","category":"Nightclub","checkinsCount":516,"usersCount":239,"tipCount":3,"visitsCount":517,"tier":"","message":"","currency":"","rating":6.8},{"name":"Sidetracks","phone":"6184575950","address":"101 W College St","lat":37.72163439143987,"lng":-89.21572690368171,"city_fetched":"Carbondale,US","state":"IL","country":"United States","canonicalUrl":"https://foursquare.com/v/sidetracks/4b68bf98f964a520ad8a2be3","categoryId":"4bf58dd8d48988d116941735","category":"Bar","checkinsCount":3256,"usersCount":388,"tipCount":6,"visitsCount":3311,"tier":1,"message":"Cheap","currency":"$","rating":6.7},{"name":"The Old Rome","phone":"6185651522","address":"803 N 9th St","lat":37.77333338557719,"lng":-89.33471812334665,"city_fetched":"Carbondale,US","state":"IL","country":"United States","canonicalUrl":"https://foursquare.com/v/the-old-rome/4caead7a75ebb60cf979b6ad","categoryId":"4bf58dd8d48988d116941735","category":"Bar","checkinsCount":1004,"usersCount":257,"tipCount":7,"visitsCount":1079,"tier":"","message":"","currency":"","rating":6.4},{"name":"Saluki Bar","address":"760 B E Grand Ave.","lat":37.719143801633614,"lng":-89.20673754804336,"city_fetched":"Carbondale,US","state":"IL","country":"United States","canonicalUrl":"https://foursquare.com/v/saluki-bar/4edbcbf40aaf49e02b4160f0","categoryId":"4bf58dd8d48988d116941735","category":"Bar","checkinsCount":1143,"usersCount":407,"tipCount":9,"visitsCount":1304,"tier":1,"message":"Cheap","currency":"$","rating":6.4},{"name":"Stix Bar and Billiards","address":"517 S Illinois Ave","lat":37.722280331555744,"lng":-89.21609851371957,"city_fetched":"Carbondale,US","state":"IL","country":"United States","canonicalUrl":"https://foursquare.com/v/stix-bar-and-billiards/4bb421e09af3b713ec0a8c28","categoryId":"4bf58dd8d48988d116941735","category":"Bar","checkinsCount":1299,"usersCount":395,"tipCount":6,"visitsCount":1358,"tier":"","message":"","currency":"","rating":6.3},{"name":"Callahan's Irish Pub","phone":"6185295494","address":"760 E Grand Ave","lat":37.71901695,"lng":-89.2066695,"city_fetched":"Carbondale,US","state":"IL","country":"United States","canonicalUrl":"https://foursquare.com/v/callahans-irish-pub/4b555186f964a52080e127e3","categoryId":"4bf58dd8d48988d116941735","category":"Bar","checkinsCount":809,"usersCount":202,"tipCount":9,"visitsCount":809,"url":"http://www.carboz.net","tier":"","message":"","currency":"","rating":6},{"name":"VFW Post 7190","phone":"6186842311","address":"108 S 10th St","lat":37.76334235181919,"lng":-89.33429665760539,"city_fetched":"Carbondale,US","state":"IL","country":"United States","canonicalUrl":"https://foursquare.com/v/vfw-post-7190/4caeac7bb4b0a35db02b3bce","categoryId":"4bf58dd8d48988d116941735","category":"Bar","checkinsCount":3020,"usersCount":66,"tipCount":11,"visitsCount":3054,"tier":"","message":"","currency":"","rating":5.6}]