[{"name":"Belching Beaver Brewery","phone":"7605995832","twitter":"belchingbeaver","address":"980 Park Center Dr","lat":33.1450070415915,"lng":-117.22889445218505,"city_fetched":"Carlsbad","state":"CA","country":"United States","canonicalUrl":"https://foursquare.com/belchingbeaver","category":"Brewery","checkinsCount":1714,"usersCount":1464,"tipCount":30,"visitsCount":2549,"url":"http://www.belchingbeaver.com","tier":1,"message":"Cheap","currency":"$","rating":9},{"name":"Pizza Port","phone":"7607207007","twitter":"pizzaportcbad","address":"571 Carlsbad Village Dr","lat":33.15991152810859,"lng":-117.34778434038161,"city_fetched":"Carlsbad","state":"CA","country":"United States","canonicalUrl":"https://foursquare.com/v/pizza-port/40e0b100f964a520a1021fe3","category":"Pizza Place","checkinsCount":10652,"usersCount":6837,"tipCount":118,"visitsCount":12135,"url":"http://pizzaport.com","tier":1,"message":"Cheap","currency":"$","rating":9},{"name":"Iron Fist Brewing","phone":"7602166500","twitter":"ironfistbrewing","address":"1305 Hot Springs Way","lat":33.145537520373104,"lng":-117.23881959915161,"city_fetched":"Carlsbad","state":"CA","country":"United States","canonicalUrl":"https://foursquare.com/v/iron-fist-brewing/4c75bcdb66be6dcbfb6ec10f","category":"Brewery","checkinsCount":4568,"usersCount":1832,"tipCount":42,"visitsCount":5207,"url":"http://ironfistbrewing.com","tier":2,"message":"Moderate","currency":"$","rating":8.9},{"name":"Yu Me Ya Sake House","phone":"7606334288","address":"1246 N Coast Highway 101","lat":33.07055389232809,"lng":-117.3044960483165,"city_fetched":"Carlsbad","state":"CA","country":"United States","canonicalUrl":"https://foursquare.com/v/yu-me-ya-sake-house/4b2eedfcf964a52069e824e3","category":"Sake Bar","checkinsCount":571,"usersCount":368,"tipCount":15,"visitsCount":665,"url":"http://sakehouseyumeya.com","tier":"","message":"","currency":"","rating":8.8},{"name":"West Steak and Seafood","phone":"7609309100","twitter":"weststeak","address":"4980 Avenida Encinas","lat":33.13513211148031,"lng":-117.331006391059,"city_fetched":"Carlsbad","state":"CA","country":"United States","canonicalUrl":"https://foursquare.com/v/west-steak-and-seafood/4c9801d9b6ee236a71d8a4a7","category":"Steakhouse","checkinsCount":859,"usersCount":584,"tipCount":17,"visitsCount":999,"url":"http://www.weststeakandseafood.com","tier":3,"message":"Expensive","currency":"$","rating":8.8},{"name":"Pizza Port","phone":"7607071655","twitter":"pizzaportbressi","address":"2730 Gateway Rd","lat":33.128450024887385,"lng":-117.25023239850998,"neighborhood":"Bressi Ranch","city_fetched":"Carlsbad","state":"CA","country":"United States","canonicalUrl":"https://foursquare.com/v/pizza-port/4faf4677e4b0afbb674480bc","category":"Pizza Place","checkinsCount":3083,"usersCount":2053,"tipCount":56,"visitsCount":4832,"url":"http://pizzaport.com","tier":2,"message":"Moderate","currency":"$","rating":8.7},{"name":"Arcana Brewing Company","phone":"9095292337","twitter":"arcanabrewing","address":"5621 Palmer Way Ste C","lat":33.1402557437399,"lng":-117.27383746041512,"city_fetched":"Carlsbad","state":"CA","country":"United States","canonicalUrl":"https://foursquare.com/v/arcana-brewing-company/505d1c9ae4b038a3e45dcb1b","category":"Brewery","checkinsCount":868,"usersCount":321,"tipCount":11,"visitsCount":1021,"url":"http://www.arcanabrewing.com","tier":1,"message":"Cheap","currency":"$","rating":8.5},{"name":"Karl Strauss Brewery & Restaurant","phone":"7604312739","address":"5801 Armada Dr","lat":33.124461397909485,"lng":-117.3140697941635,"city_fetched":"Carlsbad","state":"CA","country":"United States","canonicalUrl":"https://foursquare.com/v/karl-strauss-brewery--restaurant/44ae8459f964a52025351fe3","category":"Brewery","checkinsCount":6112,"usersCount":4154,"tipCount":52,"visitsCount":7233,"url":"http://karlstrauss.com","tier":2,"message":"Moderate","currency":"$","rating":8.5},{"name":"Hilton Garden Inn Carlsbad Beach","phone":"7604760800","twitter":"hgicarlsbad","address":"6450 Carlsbad Blvd","lat":33.121257255612,"lng":-117.32634050541294,"city_fetched":"Carlsbad","state":"CA","country":"United States","canonicalUrl":"https://foursquare.com/hgicarlsbad","category":"Hotel","checkinsCount":1935,"usersCount":1247,"tipCount":26,"visitsCount":2533,"url":"http://hiltongardeninncarlsbad.com","tier":"","message":"","currency":"","rating":8.4},{"name":"BJ's Restaurant and Brewhouse","phone":"7605794440","twitter":"bjsrestaurants","address":"5613 Paseo del Norte","lat":33.12720112,"lng":-117.3240227,"city_fetched":"Carlsbad","state":"CA","country":"United States","canonicalUrl":"https://foursquare.com/v/bjs-restaurant-and-brewhouse/4ae201d8f964a520ba8921e3","category":"American Restaurant","checkinsCount":7256,"usersCount":5014,"tipCount":68,"visitsCount":8890,"url":"http://t.co/bl46gcjDLN","tier":2,"message":"Moderate","currency":"$","rating":8.3},{"name":"Toolbox Brewing Co.","phone":"7605981477","twitter":"toolboxbrewing","address":"1495 Poinsettia Ave Ste 148","lat":33.136698808696636,"lng":-117.22681011215775,"city_fetched":"Carlsbad","state":"CA","country":"United States","canonicalUrl":"https://foursquare.com/v/toolbox-brewing-co/53c31be4498ee80b1caab810","category":"Brewery","checkinsCount":632,"usersCount":599,"tipCount":2,"visitsCount":1015,"url":"http://www.toolboxbrewing.com","tier":"","message":"","currency":"","rating":8.2},{"name":"Latitude 33Â° Brewing","phone":"8555982337","twitter":"lat33brew","address":"1430 Vantage Ct","lat":33.136379407537525,"lng":-117.22463387747916,"city_fetched":"Carlsbad","state":"CA","country":"United States","canonicalUrl":"https://foursquare.com/v/latitude-33-brewing/4f172646e4b06c58903d598b","category":"Brewery","checkinsCount":1093,"usersCount":724,"tipCount":16,"visitsCount":1424,"url":"http://www.lat33brew.com","tier":1,"message":"Cheap","currency":"$","rating":8.2},{"name":"The Compass","phone":"7604341900","address":"300 Carlsbad Village Dr","lat":33.159384242355806,"lng":-117.35099442349674,"city_fetched":"Carlsbad","state":"CA","country":"United States","canonicalUrl":"https://foursquare.com/v/the-compass/4ee796279a52df46f967407b","category":"Bar","checkinsCount":2138,"usersCount":1305,"tipCount":27,"visitsCount":2371,"url":"http://thecompasscarlsbad.com","tier":2,"message":"Moderate","currency":"$","rating":8.2},{"name":"Board & Brew Carlsbad","phone":"7604344466","twitter":"boardnbrew","address":"201 Oak Ave","lat":33.156635,"lng":-117.350364,"city_fetched":"Carlsbad","state":"CA","country":"United States","canonicalUrl":"https://foursquare.com/v/board--brew-carlsbad/5120087fe4b0c66bd270cc2b","category":"American Restaurant","checkinsCount":683,"usersCount":457,"tipCount":12,"visitsCount":840,"url":"http://www.boardandbrew.com","tier":2,"message":"Moderate","currency":"$","rating":8.1},{"name":"Booze Brothers Brewery","address":"2545 Progress St Ste D","lat":33.148225687915314,"lng":-117.21832323883848,"city_fetched":"Carlsbad","state":"CA","country":"United States","canonicalUrl":"https://foursquare.com/v/booze-brothers-brewery/51f0b29a498ea8aef36fcdc8","category":"Brewery","checkinsCount":846,"usersCount":663,"tipCount":11,"visitsCount":1374,"url":"http://boozebrothersbrewery.com","tier":1,"message":"Cheap","currency":"$","rating":8.1},{"name":"Carlsbad Chocolate Bar","phone":"7604344479","address":"2963 State St","lat":33.15974,"lng":-117.348708,"city_fetched":"Carlsbad","state":"CA","country":"United States","canonicalUrl":"https://foursquare.com/v/carlsbad-chocolate-bar/4b8dc2b7f964a520750c33e3","category":"Wine Bar","checkinsCount":1061,"usersCount":796,"tipCount":18,"visitsCount":1138,"url":"http://www.carlsbadchocolatebar.com","tier":"","message":"","currency":"","rating":8},{"name":"Luna Grill","phone":"7604385862","twitter":"lunagrill","address":"2681 Gateway Road","lat":33.12735078003918,"lng":-117.25267622520157,"neighborhood":"Bressi Ranch","city_fetched":"Carlsbad","state":"CA","country":"United States","canonicalUrl":"https://foursquare.com/v/luna-grill/4cbcc6b84c60a093743d53ca","category":"Greek Restaurant","checkinsCount":1307,"usersCount":609,"tipCount":12,"visitsCount":1416,"url":"http://www.lunagrill.com","tier":2,"message":"Moderate","currency":"$","rating":8},{"name":"Mother Earth Brew Co.","phone":"7605994225","twitter":"motherearthbrco","address":"2055 Thibodo Rd Ste H","lat":33.167682916666664,"lng":-117.22037,"city_fetched":"Carlsbad","state":"CA","country":"United States","canonicalUrl":"https://foursquare.com/v/mother-earth-brew-co/4bc8bb93af07a5938b88812d","category":"Brewery","checkinsCount":1598,"usersCount":713,"tipCount":14,"visitsCount":1801,"url":"http://motherearthbrewco.com","tier":2,"message":"Moderate","currency":"$","rating":7.9},{"name":"The Regal Seagull","phone":"7604792337","twitter":"regalseagullsd","address":"996 N Coast Highway 101","lat":33.0660314877855,"lng":-117.30295777772119,"city_fetched":"Carlsbad","state":"CA","country":"United States","canonicalUrl":"https://foursquare.com/v/the-regal-seagull/514e8aeae4b0ab0307ee2d01","category":"Pub","checkinsCount":1138,"usersCount":621,"tipCount":18,"visitsCount":1432,"url":"http://www.regalseagull.com","tier":2,"message":"Moderate","currency":"$","rating":7.9},{"name":"The Landings at Carlsbad","phone":"7609290200","address":"2198 Palomar Airport Rd","lat":33.126249870883846,"lng":-117.27626000980003,"city_fetched":"Carlsbad","state":"CA","country":"United States","canonicalUrl":"https://foursquare.com/v/the-landings-at-carlsbad/4bf1e5e53fa220a1a4de1820","category":"American Restaurant","checkinsCount":1336,"usersCount":616,"tipCount":26,"visitsCount":1438,"url":"http://www.carlsbadlandings.com","tier":2,"message":"Moderate","currency":"$","rating":7.9},{"name":"Paon Restaurant and Wine Bar","phone":"7607297377","address":"560 Carlsbad Village Dr","lat":33.16037142608042,"lng":-117.34802762214579,"city_fetched":"Carlsbad","state":"CA","country":"United States","canonicalUrl":"https://foursquare.com/v/paon-restaurant-and-wine-bar/4a974a1ff964a520402920e3","category":"Wine Bar","checkinsCount":977,"usersCount":488,"tipCount":19,"visitsCount":1005,"url":"http://www.paoncarlsbad.com","tier":"","message":"","currency":"","rating":7.8},{"name":"La Costa Wine Co.","phone":"7604318455","address":"6986 El Camino Real","lat":33.10493010584969,"lng":-117.26597258431408,"city_fetched":"Carlsbad","state":"CA","country":"United States","canonicalUrl":"https://foursquare.com/v/la-costa-wine-co/4c09b05f6071a5934172de32","category":"Winery","checkinsCount":279,"usersCount":89,"tipCount":7,"visitsCount":280,"url":"http://lacostawineco.com","tier":"","message":"","currency":"","rating":7.8},{"name":"Aztec Brewing Co.","phone":"7605987720","twitter":"aztecbrewery","address":"2330 La Mirada Dr Ste 300","lat":33.14983542284044,"lng":-117.22977871116177,"city_fetched":"Carlsbad","state":"CA","country":"United States","canonicalUrl":"https://foursquare.com/v/aztec-brewing-co/4e50469a31510f6fa1a77df1","category":"Brewery","checkinsCount":1217,"usersCount":737,"tipCount":18,"visitsCount":1513,"url":"http://www.aztecbrewery.com","tier":"","message":"","currency":"","rating":7.7},{"name":"Stumblefoot Brewing","phone":"7605229624","twitter":"stumblefootbrew","address":"1784 La Costa Meadows Dr","lat":33.104863621953115,"lng":-117.21925348182234,"city_fetched":"Carlsbad","state":"CA","country":"United States","canonicalUrl":"https://foursquare.com/v/stumblefoot-brewing/4f4849fce4b0dd9bf425e678","category":"Brewery","checkinsCount":459,"usersCount":362,"tipCount":11,"visitsCount":591,"url":"http://www.stumblefoot.com","tier":"","message":"","currency":"","rating":7.7},{"name":"Grand Avenue Bar & Grill","phone":"7607294449","address":"752 Grand Ave","lat":33.16226279896677,"lng":-117.34720127110906,"city_fetched":"Carlsbad","state":"CA","country":"United States","canonicalUrl":"https://foursquare.com/v/grand-avenue-bar--grill/40e0b100f964a5202f021fe3","category":"Dive Bar","checkinsCount":1086,"usersCount":481,"tipCount":10,"visitsCount":1262,"tier":1,"message":"Cheap","currency":"$","rating":7.7},{"name":"Mas Fina Cantina","phone":"7604343497","twitter":"masfinacantina","address":"2780 State St","lat":33.16163726989882,"lng":-117.35020251568655,"city_fetched":"Carlsbad","state":"CA","country":"United States","canonicalUrl":"https://foursquare.com/v/mas-fina-cantina/4ae0fc7ef964a5204d8421e3","category":"Bar","checkinsCount":1691,"usersCount":803,"tipCount":16,"visitsCount":1963,"url":"http://www.masfinacantina.com","tier":1,"message":"Cheap","currency":"$","rating":7.6},{"name":"The Stag & Lion Pub & Grille","phone":"7604342660","address":"850 Tamarack Ave","lat":33.1522075305635,"lng":-117.33737661146304,"city_fetched":"Carlsbad","state":"CA","country":"United States","canonicalUrl":"https://foursquare.com/v/the-stag--lion-pub--grille/516d8c70e4b0e3810fa28d73","category":"Pub","checkinsCount":364,"usersCount":213,"tipCount":9,"visitsCount":456,"tier":"","message":"","currency":"","rating":7.6},{"name":"O'Sullivan's Irish Pub of Carlsbad","phone":"7607297234","address":"640 Grand Ave Ste A","lat":33.16167415240353,"lng":-117.3483020067215,"city_fetched":"Carlsbad","state":"CA","country":"United States","canonicalUrl":"https://foursquare.com/v/osullivans-irish-pub-of-carlsbad/4b5112bbf964a520f44027e3","category":"Pub","checkinsCount":2898,"usersCount":1513,"tipCount":32,"visitsCount":3303,"url":"http://osullivanscarlsbad.com","tier":2,"message":"Moderate","currency":"$","rating":7.5},{"name":"El Torito","phone":"7604395407","twitter":"eltorito","address":"2693 Vista Way","lat":33.18198240533273,"lng":-117.32882554793501,"neighborhood":"Fire Mountain","city_fetched":"Carlsbad","state":"CA","country":"United States","canonicalUrl":"https://foursquare.com/v/el-torito/4a8f33bdf964a520641420e3","category":"Mexican Restaurant","checkinsCount":1374,"usersCount":916,"tipCount":10,"visitsCount":1528,"url":"http://www.eltorito.com","tier":2,"message":"Moderate","currency":"$","rating":7.5},{"name":"Ignite Bistro & Wine Spot","phone":"7604387800","twitter":"ignite_carlsbad","address":"6994 El Camino Real","lat":33.10338613793685,"lng":-117.26594387982259,"city_fetched":"Carlsbad","state":"CA","country":"United States","canonicalUrl":"https://foursquare.com/v/ignite-bistro--wine-spot/4e10d56818a84f0f030e55d9","category":"American Restaurant","checkinsCount":1992,"usersCount":1219,"tipCount":28,"visitsCount":2514,"url":"http://ignitecarlsbad.com","tier":2,"message":"Moderate","currency":"$","rating":7.5},{"name":"Bar Leucadian","phone":"7607532094","address":"1542 N Coast Highway 101","lat":33.074550307703376,"lng":-117.30592176318169,"city_fetched":"Carlsbad","state":"CA","country":"United States","canonicalUrl":"https://foursquare.com/v/bar-leucadian/40e0b100f964a52061021fe3","category":"Bar","checkinsCount":1364,"usersCount":600,"tipCount":10,"visitsCount":1478,"tier":"","message":"","currency":"","rating":7.4},{"name":"Indian Joe Brewing","phone":"7602953945","address":"2379 La Mirada Dr","lat":33.152370664281655,"lng":-117.22806186714702,"city_fetched":"Carlsbad","state":"CA","country":"United States","canonicalUrl":"https://foursquare.com/v/indian-joe-brewing/505e3a51e4b0e433188458d4","category":"Brewery","checkinsCount":849,"usersCount":520,"tipCount":21,"visitsCount":966,"url":"http://indianjoebrewing.com","tier":1,"message":"Cheap","currency":"$","rating":7.4},{"name":"83 Degrees","phone":"7607297904","twitter":"83degreescbad","address":"660 Carlsbad Village Dr","lat":33.16064007101,"lng":-117.34724717959044,"city_fetched":"Carlsbad","state":"CA","country":"United States","canonicalUrl":"https://foursquare.com/v/83-degrees/5137f3ace4b078a87f8b77b8","category":"American Restaurant","checkinsCount":2296,"usersCount":1153,"tipCount":28,"visitsCount":2965,"url":"http://83degrees.net","tier":2,"message":"Moderate","currency":"$","rating":7.4},{"name":"Relm Wine Bistro","phone":"7604349463","twitter":"relmwine","address":"2917 State St","lat":33.1603274,"lng":-117.34945765,"city_fetched":"Carlsbad","state":"CA","country":"United States","canonicalUrl":"https://foursquare.com/v/relm-wine-bistro/4bfc432de9d8c928d144b2c7","category":"Wine Bar","checkinsCount":846,"usersCount":501,"tipCount":16,"visitsCount":856,"url":"http://www.thewinerelm.com","tier":"","message":"","currency":"","rating":7.4},{"name":"Coyote Bar & Grill","phone":"7607254965","twitter":"coyotecarlsbad1","address":"300 Carlsbad Village Dr","lat":33.159680542976474,"lng":-117.35050636,"city_fetched":"Carlsbad","state":"CA","country":"United States","canonicalUrl":"https://foursquare.com/coyotecarlsbad1","category":"Bar","checkinsCount":3002,"usersCount":1985,"tipCount":26,"visitsCount":3157,"url":"http://www.coyotecarlsbad.com","tier":2,"message":"Moderate","currency":"$","rating":7.3},{"name":"The Wine Loft","phone":"7609441412","twitter":"wineloftbill","address":"1911 Calle Barcelona #151","lat":33.07139575481415,"lng":-117.266439,"city_fetched":"Carlsbad","state":"CA","country":"United States","canonicalUrl":"https://foursquare.com/v/the-wine-loft/4c6dcec806ed6dcb771da522","category":"Wine Bar","checkinsCount":355,"usersCount":199,"tipCount":8,"visitsCount":356,"url":"https://www.thewineloft-carlsbad.com","tier":"","message":"","currency":"","rating":7.2},{"name":"Barrel Harbor Brewing","phone":"7607343949","address":"2575 Pioneer Ave Ste 104","lat":33.14862954897837,"lng":-117.22106801757187,"city_fetched":"Carlsbad","state":"CA","country":"United States","canonicalUrl":"https://foursquare.com/v/barrel-harbor-brewing/5210eaea7e48ca0dbeef4631","category":"Brewery","checkinsCount":680,"usersCount":389,"tipCount":7,"visitsCount":860,"tier":"","message":"","currency":"","rating":7},{"name":"Chandler's Carlsbad","phone":"7606835500","twitter":"chandlers_ca","address":"1 Ponto Rd","lat":33.09762722257016,"lng":-117.31606139694014,"city_fetched":"Carlsbad","state":"CA","country":"United States","canonicalUrl":"https://foursquare.com/v/chandlers-carlsbad/4fe675ede4b098960993a699","category":"American Restaurant","checkinsCount":863,"usersCount":484,"tipCount":9,"visitsCount":915,"url":"http://chandlerscarlsbad.com","tier":3,"message":"Expensive","currency":"$","rating":7}]