[{"name":"Alibi Ale Works","address":"204 E Enterprise St","lat":39.24759543947893,"lng":-119.95381997961421,"city_fetched":"Carson City","state":"NV","country":"United States","canonicalUrl":"https://foursquare.com/v/alibi-ale-works/53f9075a498ea66a499f417c","category":"Brewery","checkinsCount":297,"usersCount":213,"tipCount":6,"visitsCount":470,"tier":"","message":"","currency":"","rating":8.8},{"name":"Adele's","phone":"7758823353","address":"1112 N Carson St","lat":39.170936,"lng":-119.76722898333334,"city_fetched":"Carson City","state":"NV","country":"United States","canonicalUrl":"https://foursquare.com/v/adeles/4bb7e454b35776b0855bc801","category":"Lounge","checkinsCount":462,"usersCount":373,"tipCount":10,"visitsCount":655,"url":"http://www.adelesrestaurantandlounge.com","tier":"","message":"","currency":"","rating":8.8},{"name":"Village Pub","phone":"7758327212","address":"848 Tanager St #A","lat":39.247509439464004,"lng":-119.95671272277832,"city_fetched":"Carson City","state":"NV","country":"United States","canonicalUrl":"https://foursquare.com/v/village-pub/4b5a7a38f964a52077c728e3","category":"Dive Bar","checkinsCount":324,"usersCount":137,"tipCount":6,"visitsCount":408,"tier":"","message":"","currency":"","rating":8.1},{"name":"Bully's Sports Bar","phone":"7758842309","address":"3530 N Carson St","lat":39.19010637,"lng":-119.77367058,"city_fetched":"Carson City","state":"NV","country":"United States","canonicalUrl":"https://foursquare.com/v/bullys-sports-bar/4b51274ef964a520044527e3","category":"Bar","checkinsCount":462,"usersCount":294,"tipCount":6,"visitsCount":595,"url":"http://bullyssportsbar.com","tier":"","message":"","currency":"","rating":8},{"name":"Crosby's Grill Pub & Casino","phone":"7758331030","address":"868 Tahoe Blvd #4","lat":39.25013907054139,"lng":-119.95558083057404,"city_fetched":"Carson City","state":"NV","country":"United States","canonicalUrl":"https://foursquare.com/v/crosbys-grill-pub--casino/4b639654f964a52033852ae3","category":"Bar","checkinsCount":818,"usersCount":367,"tipCount":16,"visitsCount":894,"url":"http://crosbyspub.com","tier":2,"message":"Moderate","currency":"$","rating":8},{"name":"Snowflake Lodge","lat":39.24758655,"lng":-119.922212,"city_fetched":"Carson City","state":"Nevada","country":"United States","canonicalUrl":"https://foursquare.com/v/snowflake-lodge/4b7743f0f964a520058d2ee3","category":"Ski Lodge","checkinsCount":183,"usersCount":142,"tipCount":6,"visitsCount":199,"tier":"","message":"","currency":"","rating":7.6},{"name":"Pier 111 Bar Hyatt Regency","phone":"7758321234","address":"111 Country Club Dr","lat":39.23690683037632,"lng":-119.94455695152283,"city_fetched":"Carson City","state":"NV","country":"United States","canonicalUrl":"https://foursquare.com/v/pier-111-bar-hyatt-regency/4c410c06d691c9b65a3c8c0a","category":"Bar","checkinsCount":345,"usersCount":293,"tipCount":7,"visitsCount":367,"tier":"","message":"","currency":"","rating":7.3},{"name":"Di Maggio's at the Lake","phone":"7752982424","address":"800 Tahoe Blvd","lat":39.250550330940186,"lng":-119.96126174926758,"city_fetched":"Carson City","state":"NV","country":"United States","canonicalUrl":"https://foursquare.com/v/di-maggios-at-the-lake/4f5a4648e4b09c8f911a0d1e","category":"Deli / Bodega","checkinsCount":220,"usersCount":73,"tipCount":2,"visitsCount":221,"tier":"","message":"","currency":"","rating":7},{"name":"Lake Tahoe Brewing Co.","phone":"7753866655","address":"302 N Carson St","lat":39.165313,"lng":-119.767408,"city_fetched":"Carson City","state":"NV","country":"United States","canonicalUrl":"https://foursquare.com/v/lake-tahoe-brewing-co/54d2cc25498e826e4600f8cb","category":"Brewery","checkinsCount":138,"usersCount":93,"tipCount":2,"visitsCount":164,"tier":"","message":"","currency":"","rating":6.8},{"name":"The Firkin & Fox","phone":"7758831369","twitter":"firkinfox","address":"310 S Carson St","lat":39.162522022607995,"lng":-119.76726756224684,"city_fetched":"Carson City","state":"NV","country":"United States","canonicalUrl":"https://foursquare.com/v/the-firkin--fox/4be7262ebcef2d7f97ed05e5","category":"American Restaurant","checkinsCount":1162,"usersCount":561,"tipCount":18,"visitsCount":1308,"url":"http://thefirkinandfox.com","tier":2,"message":"Moderate","currency":"$","rating":6.2},{"name":"Rookies Sports Bar and Grill","phone":"7758319008","address":"930 Tahoe Blvd #1000","lat":39.24986074142824,"lng":-119.94944930076599,"city_fetched":"Carson City","state":"NV","country":"United States","canonicalUrl":"https://foursquare.com/v/rookies-sports-bar-and-grill/4b6396e8f964a5205b852ae3","category":"Sports Bar","checkinsCount":1041,"usersCount":624,"tipCount":14,"visitsCount":1157,"url":"http://www.rookieslaketahoe.com","tier":1,"message":"Cheap","currency":"$","rating":5.8},{"name":"Cutthroat's Saloon","address":"111 Country Club Dr","lat":39.24033412450976,"lng":-119.94306824040575,"city_fetched":"Carson City","state":"NV","country":"United States","canonicalUrl":"https://foursquare.com/v/cutthroats-saloon/49f3b165f964a520d36a1fe3","category":"American Restaurant","checkinsCount":662,"usersCount":476,"tipCount":10,"visitsCount":671,"tier":"","message":"","currency":"","rating":5.4}]