[{"name":"Vintage","address":"1016 S Poplar St","lat":42.840246,"lng":-106.33751108,"city_fetched":"Casper,US","state":"WY","country":"United States","canonicalUrl":"https://foursquare.com/v/vintage/4be4a24c910020a1d803d214","categoryId":"4bf58dd8d48988d123941735","category":"Wine Bar","checkinsCount":196,"usersCount":80,"tipCount":2,"visitsCount":198,"tier":"","message":"","currency":"","rating":7.9},{"name":"Wonder Bar","phone":"3072344110","address":"256 s center","lat":42.84763233666127,"lng":-106.32526234051117,"city_fetched":"Casper,US","state":"WY","country":"United States","canonicalUrl":"https://foursquare.com/v/wonder-bar/4ba135e4f964a52074a237e3","categoryId":"4bf58dd8d48988d116941735","category":"Bar","checkinsCount":1424,"usersCount":531,"tipCount":13,"visitsCount":1704,"url":"http://thewonderbar.com","tier":"","message":"","currency":"","rating":7.8},{"name":"Keg & Cork","lat":42.84521683738844,"lng":-106.24832716129572,"city_fetched":"Casper,US","state":"WY","country":"United States","canonicalUrl":"https://foursquare.com/v/keg--cork/5126b4e8e4b004c7d7fdc83a","categoryId":"4bf58dd8d48988d11b941735","category":"Pub","checkinsCount":335,"usersCount":191,"tipCount":5,"visitsCount":548,"tier":"","message":"","currency":"","rating":7.3},{"name":"Fireside","address":"2377-2473 Cy Ave","lat":42.830244,"lng":-106.34718674,"city_fetched":"Casper,US","state":"WY","country":"United States","canonicalUrl":"https://foursquare.com/v/fireside/4cd372db558a3704597cc1a6","categoryId":"4bf58dd8d48988d116941735","category":"Bar","checkinsCount":137,"usersCount":71,"tipCount":1,"visitsCount":142,"tier":"","message":"","currency":"","rating":5.9},{"name":"Galloway's Pub","address":"2800 Cy Ave","lat":42.828671400198175,"lng":-106.35625268295323,"city_fetched":"Casper,US","state":"WY","country":"United States","canonicalUrl":"https://foursquare.com/v/galloways-pub/4d4b9d24b496b60ce2fdc600","categoryId":"4bf58dd8d48988d116941735","category":"Bar","checkinsCount":392,"usersCount":174,"tipCount":2,"visitsCount":452,"tier":"","message":"","currency":"","rating":5.4}]