[{"name":"Lion Bridge Brewing Company","phone":"3192004460","twitter":"lionbridgebrew","address":"59 16th Ave SW","lat":41.965272,"lng":-91.660506,"neighborhood":"Southwest Area","city_fetched":"Cedar Rapids","state":"IA","country":"United States","canonicalUrl":"https://foursquare.com/v/lion-bridge-brewing-company/530969b811d250af13b8447a","category":"Brewery","checkinsCount":1334,"usersCount":593,"tipCount":15,"visitsCount":1821,"url":"http://lionbridgebrewing.com","tier":2,"message":"Moderate","currency":"$","rating":8.8},{"name":"Sag Wagon Deli & Brew","phone":"3193663265","address":"827 Shaver Rd NE","lat":41.993443279990096,"lng":-91.66675317685194,"city_fetched":"Cedar Rapids","state":"IA","country":"United States","canonicalUrl":"https://foursquare.com/v/sag-wagon-deli--brew/51cb7b4e498e66b4acb89472","category":"Bar","checkinsCount":3982,"usersCount":524,"tipCount":17,"visitsCount":4949,"url":"http://www.sagwagoncr.com","tier":2,"message":"Moderate","currency":"$","rating":8.7},{"name":"Irish Democrat","phone":"3193649896","twitter":"irishdemocrat_","address":"3207 1st Ave SE","lat":42.01008280470977,"lng":-91.6347949370453,"neighborhood":"Kenwood Park","city_fetched":"Cedar Rapids","state":"IA","country":"United States","canonicalUrl":"https://foursquare.com/v/irish-democrat/4b6c8b28f964a520f2412ce3","category":"Pub","checkinsCount":4570,"usersCount":1555,"tipCount":37,"visitsCount":5139,"url":"http://www.irishdemocrat.net","tier":2,"message":"Moderate","currency":"$","rating":8.7},{"name":"Belle's Basix","phone":"3193633194","lat":42.01880956484884,"lng":-91.63362404183196,"neighborhood":"Kenwood Park","city_fetched":"Cedar Rapids","state":"Iowa","country":"United States","canonicalUrl":"https://foursquare.com/v/belles-basix/4f5ae545e4b05cfda42b3ff9","category":"Gay Bar","checkinsCount":1244,"usersCount":210,"tipCount":8,"visitsCount":1323,"tier":"","message":"","currency":"","rating":8.5},{"name":"Sauce Bar & Bistro","phone":"3193640892","twitter":"saucebarbistro","address":"1507 C Street SW","lat":41.964542,"lng":-91.662073,"neighborhood":"Southwest Area","city_fetched":"Cedar Rapids","state":"IA","country":"United States","canonicalUrl":"https://foursquare.com/v/sauce-bar--bistro/558d8a03498e44df6ed84468","category":"American Restaurant","checkinsCount":107,"usersCount":98,"tipCount":5,"visitsCount":166,"url":"http://www.crsauce.com","tier":"","message":"","currency":"","rating":8.5},{"name":"Cobble Hill Restaurant","phone":"3193663177","address":"219 2nd St SE","lat":41.977122,"lng":-91.667559,"city_fetched":"Cedar Rapids","state":"IA","country":"United States","canonicalUrl":"https://foursquare.com/v/cobble-hill-restaurant/51001fe3e4b08a881eccc8f1","category":"Bar","checkinsCount":327,"usersCount":200,"tipCount":12,"visitsCount":334,"url":"http://cobblehillrestaurant.com","tier":3,"message":"Expensive","currency":"$","rating":8.4},{"name":"Third Base Brewing Company","phone":"3193789090","twitter":"3rdbasebrewery","address":"500 Blairs Ferry Rd NE","lat":42.03506216202605,"lng":-91.63978457450867,"city_fetched":"Cedar Rapids","state":"IA","country":"United States","canonicalUrl":"https://foursquare.com/v/third-base-brewing-company/4b60e1acf964a52089ff29e3","category":"Sports Bar","checkinsCount":5958,"usersCount":1321,"tipCount":31,"visitsCount":6907,"url":"http://3rdbasebrewery.com","tier":2,"message":"Moderate","currency":"$","rating":8.3},{"name":"Wrigleyville","phone":"3193773885","address":"1899 7th Ave","lat":42.03316106,"lng":-91.59116685390472,"city_fetched":"Cedar Rapids","state":"IA","country":"United States","canonicalUrl":"https://foursquare.com/v/wrigleyville/4bbe8ee8ba9776b0d1f7fdc8","category":"Sports Bar","checkinsCount":1027,"usersCount":270,"tipCount":4,"visitsCount":1231,"tier":"","message":"","currency":"","rating":8.2},{"name":"R.G. Books","phone":"3193637550","address":"3611 1st Ave SE","lat":42.01534019978653,"lng":-91.63426400087167,"neighborhood":"Kenwood Park","city_fetched":"Cedar Rapids","state":"IA","country":"United States","canonicalUrl":"https://foursquare.com/v/rg-books/4baeb9b8f964a52089d23be3","category":"Lounge","checkinsCount":740,"usersCount":183,"tipCount":4,"visitsCount":790,"tier":"","message":"","currency":"","rating":8.1},{"name":"Tic Toc","phone":"3193649685","address":"600 17th St NE","lat":41.99478193,"lng":-91.6528492,"city_fetched":"Cedar Rapids","state":"IA","country":"United States","canonicalUrl":"https://foursquare.com/v/tic-toc/4b7b43acf964a520855b2fe3","category":"Bar","checkinsCount":705,"usersCount":402,"tipCount":13,"visitsCount":914,"tier":"","message":"","currency":"","rating":8.1},{"name":"White Star Ale House","phone":"3193622000","twitter":"whitestarcr","address":"305 2nd Ave SE","lat":41.97858091262525,"lng":-91.66641635180419,"city_fetched":"Cedar Rapids","state":"IA","country":"United States","canonicalUrl":"https://foursquare.com/v/white-star-ale-house/4e936a9c93adf0b000b77905","category":"American Restaurant","checkinsCount":3950,"usersCount":1309,"tipCount":34,"visitsCount":4229,"url":"http://whitestaralehouse.com","tier":3,"message":"Expensive","currency":"$","rating":8},{"name":"Odie's Bar & Grill","phone":"3198483292","address":"1650 Dows St","lat":41.87337439610268,"lng":-91.58524691638769,"city_fetched":"Cedar Rapids","state":"IA","country":"United States","canonicalUrl":"https://foursquare.com/v/odies-bar--grill/4c799ef8bd346dcbc02ef6ef","category":"Dive Bar","checkinsCount":1046,"usersCount":310,"tipCount":2,"visitsCount":1250,"tier":1,"message":"Cheap","currency":"$","rating":8},{"name":"Brick's Bar and Grill","phone":"3193627425","twitter":"bricksbar","address":"320 2nd Ave SE","lat":41.97886401873603,"lng":-91.66598939423984,"city_fetched":"Cedar Rapids","state":"IA","country":"United States","canonicalUrl":"https://foursquare.com/v/bricks-bar-and-grill/4bdcf3b2edf50f4768d7c834","category":"Bar","checkinsCount":3869,"usersCount":1055,"tipCount":29,"visitsCount":4707,"tier":2,"message":"Moderate","currency":"$","rating":7.9},{"name":"Tailgators Sports Bar","phone":"3193936621","twitter":"tailgatorslive","address":"3969 Center Point Rd NE","lat":42.02001618814144,"lng":-91.66577591703566,"city_fetched":"Cedar Rapids","state":"IA","country":"United States","canonicalUrl":"https://foursquare.com/v/tailgators-sports-bar/4b7779bcf964a520d59c2ee3","category":"Sports Bar","checkinsCount":2248,"usersCount":549,"tipCount":8,"visitsCount":2614,"url":"http://www.tailgatorslive.com","tier":"","message":"","currency":"","rating":7.9},{"name":"Parlor City Pub and Eatery","phone":"3192470000","twitter":"parlorcitypub","address":"1125 3rd St SE","lat":41.970233789512804,"lng":-91.6584187124408,"city_fetched":"Cedar Rapids","state":"IA","country":"United States","canonicalUrl":"https://foursquare.com/v/parlor-city-pub-and-eatery/4ae54dfaf964a520a2a021e3","category":"Pub","checkinsCount":7451,"usersCount":2041,"tipCount":51,"visitsCount":8666,"url":"http://parlorcitypub.com","tier":2,"message":"Moderate","currency":"$","rating":7.9},{"name":"Stadium Bar & Grill","phone":"3193634635","address":"957 Rockford Rd SW","lat":41.966918546017624,"lng":-91.68538225407424,"city_fetched":"Cedar Rapids","state":"IA","country":"United States","canonicalUrl":"https://foursquare.com/v/stadium-bar--grill/4bc8e73ccc8cd13a688cbacf","category":"Bar","checkinsCount":831,"usersCount":321,"tipCount":4,"visitsCount":1109,"url":"http://stadiumbar.net","tier":1,"message":"Cheap","currency":"$","rating":7.8},{"name":"Zeppelins Bar & Grill","phone":"3193933047","twitter":"zeppelins","address":"5300 Edgewood Rd NE Ste 500","lat":42.03254019812023,"lng":-91.70068628874691,"city_fetched":"Cedar Rapids","state":"IA","country":"United States","canonicalUrl":"https://foursquare.com/v/zeppelins-bar--grill/4acf6c54f964a52095d320e3","category":"American Restaurant","checkinsCount":2998,"usersCount":1414,"tipCount":33,"visitsCount":3792,"url":"http://zeppelinscr.com","tier":2,"message":"Moderate","currency":"$","rating":7.8},{"name":"Naso's","phone":"3193779066","address":"453 7th Ave","lat":42.033091866666666,"lng":-91.60547375679016,"city_fetched":"Cedar Rapids","state":"IA","country":"United States","canonicalUrl":"https://foursquare.com/v/nasos/4ba0246af964a520435d37e3","category":"American Restaurant","checkinsCount":398,"usersCount":180,"tipCount":8,"visitsCount":446,"tier":"","message":"","currency":"","rating":7.8},{"name":"Rock Bar American Grill","phone":"3192007625","address":"219 2nd Ave SE","lat":41.978241320391014,"lng":-91.66721335051622,"city_fetched":"Cedar Rapids","state":"IA","country":"United States","canonicalUrl":"https://foursquare.com/v/rock-bar-american-grill/538fcb98498e0368466471b3","category":"Bar","checkinsCount":636,"usersCount":304,"tipCount":7,"visitsCount":739,"url":"http://rockbarcr.com","tier":"","message":"","currency":"","rating":7.7},{"name":"Broken Spoke","lat":42.03054059627561,"lng":-91.66867455290193,"city_fetched":"Cedar Rapids","state":"IA","country":"United States","canonicalUrl":"https://foursquare.com/v/broken-spoke/540463ed498eae218081f109","category":"Bar","checkinsCount":624,"usersCount":318,"tipCount":3,"visitsCount":1064,"tier":"","message":"","currency":"","rating":7.7},{"name":"Red's Public House","phone":"3193630275","address":"112 2nd St SE","lat":41.97834535378105,"lng":-91.66832822450407,"city_fetched":"Cedar Rapids","state":"IA","country":"United States","canonicalUrl":"https://foursquare.com/v/reds-public-house/4c4a435946240f47f2598ef1","category":"Bar","checkinsCount":8050,"usersCount":1484,"tipCount":39,"visitsCount":9030,"url":"http://redscr.com","tier":2,"message":"Moderate","currency":"$","rating":7.5},{"name":"The New Chrome Horse Saloon","address":"1140 Blairs Ferry Rd NE","lat":42.03556188266917,"lng":-91.6538276154189,"city_fetched":"Cedar Rapids","state":"IA","country":"United States","canonicalUrl":"https://foursquare.com/v/the-new-chrome-horse-saloon/562bca81498e1e1da8e536e2","category":"Sports Bar","checkinsCount":167,"usersCount":191,"tipCount":0,"visitsCount":329,"tier":"","message":"","currency":"","rating":7.5},{"name":"Pub 217","address":"217 3rd St SE","lat":41.977873031695005,"lng":-91.66630724002636,"city_fetched":"Cedar Rapids","state":"IA","country":"United States","canonicalUrl":"https://foursquare.com/v/pub-217/560f0a80498e53f284eec373","category":"Pub","checkinsCount":630,"usersCount":229,"tipCount":2,"visitsCount":868,"tier":"","message":"","currency":"","rating":7.5},{"name":"Bushwood Sports Bar & Grill","phone":"3193907140","address":"350 Edgewood Rd NW","lat":41.97580233,"lng":-91.71646426,"neighborhood":"Cedar Hills","city_fetched":"Cedar Rapids","state":"IA","country":"United States","canonicalUrl":"https://foursquare.com/v/bushwood-sports-bar--grill/4c478966699476b00bf0b121","category":"Sports Bar","checkinsCount":2079,"usersCount":874,"tipCount":6,"visitsCount":2675,"url":"http://bushwoodsportsbar.com","tier":"","message":"","currency":"","rating":7.5},{"name":"Little Bohemia","phone":"3193649396","address":"1317 3rd St SE","lat":41.968852272291166,"lng":-91.65713334591155,"city_fetched":"Cedar Rapids","state":"IA","country":"United States","canonicalUrl":"https://foursquare.com/v/little-bohemia/4d5c8940775f8cfac872b7e0","category":"Bar","checkinsCount":577,"usersCount":236,"tipCount":8,"visitsCount":613,"tier":"","message":"","currency":"","rating":7.4},{"name":"Shack Tavern","address":"2545 Old River Rd SW","lat":41.94313575,"lng":-91.63296639919281,"city_fetched":"Cedar Rapids","state":"IA","country":"United States","canonicalUrl":"https://foursquare.com/v/shack-tavern/4c0d89f6b1b676b09dc7e086","category":"Bar","checkinsCount":1149,"usersCount":299,"tipCount":5,"visitsCount":1277,"tier":1,"message":"Cheap","currency":"$","rating":7.3},{"name":"Granite City Food & Brewery","phone":"3193957500","address":"4755 1st Ave SE","lat":42.02517159122194,"lng":-91.62130075385166,"city_fetched":"Cedar Rapids","state":"IA","country":"United States","canonicalUrl":"https://foursquare.com/v/granite-city-food--brewery/4b4fb639f964a520131227e3","category":"Brewery","checkinsCount":4972,"usersCount":2569,"tipCount":34,"visitsCount":5997,"url":"http://gcfb.net","tier":2,"message":"Moderate","currency":"$","rating":7.3},{"name":"Papa's Sports Bar","phone":"3193939378","address":"89 N Center Point Rd","lat":42.039392626883995,"lng":-91.67331941630292,"city_fetched":"Cedar Rapids","state":"IA","country":"United States","canonicalUrl":"https://foursquare.com/v/papas-sports-bar/4c8e6c0edaa93704cd8d4cb1","category":"Bar","checkinsCount":1040,"usersCount":238,"tipCount":0,"visitsCount":1217,"tier":"","message":"","currency":"","rating":7.3},{"name":"Cocktails","phone":"3193771140","address":"1625 Blairs Ferry Rd","lat":42.03279686918993,"lng":-91.6291730333955,"city_fetched":"Cedar Rapids","state":"IA","country":"United States","canonicalUrl":"https://foursquare.com/v/cocktails/4c8c5cd08018a1cdd65eecd2","category":"Bar","checkinsCount":2059,"usersCount":696,"tipCount":11,"visitsCount":2460,"url":"http://www.cocktails-company.com","tier":"","message":"","currency":"","rating":7.3},{"name":"Big Shots","lat":42.03210398308658,"lng":-91.59149002849873,"city_fetched":"Cedar Rapids","state":"IA","country":"United States","canonicalUrl":"https://foursquare.com/v/big-shots/4edaeded0e61d46ad8bb9d81","category":"Bar","checkinsCount":414,"usersCount":97,"tipCount":2,"visitsCount":441,"tier":"","message":"","currency":"","rating":7.3},{"name":"Stella's","phone":"3193642707","address":"416 3rd St SE","lat":41.976350600804274,"lng":-91.66430058111736,"city_fetched":"Cedar Rapids","state":"IA","country":"United States","canonicalUrl":"https://foursquare.com/v/stellas/4f5a91c3e4b0ea8597d4a6f4","category":"Bar","checkinsCount":1732,"usersCount":477,"tipCount":13,"visitsCount":2069,"tier":2,"message":"Moderate","currency":"$","rating":7.3},{"name":"Moose McDuffys","phone":"3193693917","address":"834 1st Ave NE","lat":41.983270828787994,"lng":-91.66113186227538,"city_fetched":"Cedar Rapids","state":"IA","country":"United States","canonicalUrl":"https://foursquare.com/v/moose-mcduffys/4bd13b5aa8b3a593f284655f","category":"Beer Garden","checkinsCount":2639,"usersCount":512,"tipCount":14,"visitsCount":2720,"url":"http://moosemcduffyscr.com","tier":"","message":"","currency":"","rating":7.3},{"name":"Vernon Bar And Grill","lat":41.976494,"lng":-91.62239,"city_fetched":"Cedar Rapids","state":"IA","country":"United States","canonicalUrl":"https://foursquare.com/v/vernon-bar-and-grill/4ee173080e01e3534fb8046f","category":"Bar","checkinsCount":442,"usersCount":151,"tipCount":6,"visitsCount":543,"tier":"","message":"","currency":"","rating":7.2},{"name":"The Quarter Barrel Arcade & Brewery","phone":"3196211836","address":"616 2nd Ave SE","lat":41.98089598539962,"lng":-91.66297234739244,"city_fetched":"Cedar Rapids","state":"IA","country":"United States","canonicalUrl":"https://foursquare.com/v/the-quarter-barrel-arcade--brewery/56329959498e7a76485ff662","category":"Brewery","checkinsCount":321,"usersCount":219,"tipCount":3,"visitsCount":480,"tier":"","message":"","currency":"","rating":7.2},{"name":"Deanoz Sports Bar & Grill","phone":"3198620772","address":"3707 1st Ave SE","lat":42.01614169001891,"lng":-91.63430213928223,"city_fetched":"Cedar Rapids","state":"IA","country":"United States","canonicalUrl":"https://foursquare.com/v/deanoz-sports-bar--grill/4c22a94811de20a1274a85ce","category":"Sports Bar","checkinsCount":1200,"usersCount":357,"tipCount":6,"visitsCount":1200,"tier":"","message":"","currency":"","rating":7.1},{"name":"Union Station Sports Bar & Grill","phone":"3193649236","address":"1730 16th Ave SW","lat":41.96271319113266,"lng":-91.69554233551025,"city_fetched":"Cedar Rapids","state":"IA","country":"United States","canonicalUrl":"https://foursquare.com/v/union-station-sports-bar--grill/4b8894b7f964a520400232e3","category":"Sports Bar","checkinsCount":1046,"usersCount":469,"tipCount":3,"visitsCount":1369,"tier":"","message":"","currency":"","rating":7.1},{"name":"Tornado Grub and Pub","phone":"3193649378","address":"1400 3rd St SE","lat":41.969013747657854,"lng":-91.65660687838691,"city_fetched":"Cedar Rapids","state":"IA","country":"United States","canonicalUrl":"https://foursquare.com/v/tornado-grub-and-pub/4b8a1032f964a520395e32e3","category":"Bar","checkinsCount":1270,"usersCount":404,"tipCount":13,"visitsCount":1314,"tier":"","message":"","currency":"","rating":7.1},{"name":"Bulicek's Deli & Brew","phone":"3193620788","address":"1616 6th St SW","lat":41.96120766037171,"lng":-91.67742856638515,"neighborhood":"Southwest Area","city_fetched":"Cedar Rapids","state":"IA","country":"United States","canonicalUrl":"https://foursquare.com/v/buliceks-deli--brew/4c42513d520fa593fb15cbac","category":"Bar","checkinsCount":365,"usersCount":147,"tipCount":5,"visitsCount":395,"tier":"","message":"","currency":"","rating":7.1},{"name":"Pitchers","address":"620 Lindale Dr","lat":42.03390649357489,"lng":-91.62249975014483,"city_fetched":"Cedar Rapids","state":"IA","country":"United States","canonicalUrl":"https://foursquare.com/v/pitchers/4c4c7e7b46240f476face0f4","category":"Bar","checkinsCount":406,"usersCount":156,"tipCount":6,"visitsCount":463,"tier":"","message":"","currency":"","rating":7.1}]