[{"name":"Roy Pitz Brewing Company","phone":"7174968753","twitter":"roypitz","address":"140 N 3rd St","lat":39.93944334351501,"lng":-77.65633333943536,"city_fetched":"Chambersburg","state":"PA","country":"United States","canonicalUrl":"https://foursquare.com/v/roy-pitz-brewing-company/4ca1f6b07ada199c76b1b3bc","category":"Brewery","checkinsCount":798,"usersCount":340,"tipCount":18,"visitsCount":1018,"url":"http://roypitz.com","tier":"","message":"","currency":"","rating":9},{"name":"Good Ta Go","phone":"7174460138","address":"1640 Orchard Dr Unit 1","lat":39.913283077429654,"lng":-77.66552737959611,"city_fetched":"Chambersburg","state":"PA","country":"United States","canonicalUrl":"https://foursquare.com/v/good-ta-go/4bf703145efe2d7f4c336834","category":"Beer Garden","checkinsCount":1834,"usersCount":437,"tipCount":13,"visitsCount":2464,"url":"http://good-ta-go.com","tier":"","message":"","currency":"","rating":8.1},{"name":"Bistro 71","phone":"7172610007","twitter":"bistro71","address":"71 N Main St","lat":39.938869233333335,"lng":-77.660916,"city_fetched":"Chambersburg","state":"PA","country":"United States","canonicalUrl":"https://foursquare.com/v/bistro-71/4b4cc1eaf964a52085bd26e3","category":"American Restaurant","checkinsCount":287,"usersCount":129,"tipCount":10,"visitsCount":341,"url":"http://bistro71.net","tier":3,"message":"Expensive","currency":"$","rating":7.4},{"name":"EJ's Grill","phone":"7172631137","address":"346 Lincoln Way E","lat":39.93618718183906,"lng":-77.65557832086347,"city_fetched":"Chambersburg","state":"PA","country":"United States","canonicalUrl":"https://foursquare.com/v/ejs-grill/4b4cc4f9f964a52021be26e3","category":"American Restaurant","checkinsCount":208,"usersCount":104,"tipCount":5,"visitsCount":233,"url":"http://www.ejsgrill.com","tier":3,"message":"Expensive","currency":"$","rating":7.2},{"name":"TGI Fridays","phone":"7172621062","twitter":"tgifridays","address":"983 Norland Ave","lat":39.94025309,"lng":-77.62613297,"city_fetched":"Chambersburg","state":"PA","country":"United States","canonicalUrl":"https://foursquare.com/v/tgi-fridays/4b5cf950f964a520464d29e3","category":"American Restaurant","checkinsCount":843,"usersCount":628,"tipCount":7,"visitsCount":1105,"url":"http://tgifridays.com","tier":2,"message":"Moderate","currency":"$","rating":7.1},{"name":"The Norland Pub","phone":"7172649115","address":"454 Norland Ave","lat":39.94795215058186,"lng":-77.64354586601257,"city_fetched":"Chambersburg","state":"PA","country":"United States","canonicalUrl":"https://foursquare.com/v/the-norland-pub/4b63b71ef964a520cd8d2ae3","category":"Bar","checkinsCount":1180,"usersCount":467,"tipCount":11,"visitsCount":1472,"url":"http://norlandpub.com","tier":2,"message":"Moderate","currency":"$","rating":6.3},{"name":"The Orchards Restaurant","address":"1580 Orchard Dr","lat":39.913052,"lng":-77.66211586666667,"city_fetched":"Chambersburg","state":"PA","country":"United States","canonicalUrl":"https://foursquare.com/v/the-orchards-restaurant/4b5bab00f964a520d80e29e3","category":"Lounge","checkinsCount":351,"usersCount":246,"tipCount":3,"visitsCount":373,"tier":"","message":"","currency":"","rating":6.3}]