[{"name":"Jarlingâ€™s","phone":"2173522273","twitter":"jarlingscu","address":"309 W Kirby Ave","lat":40.097742317960765,"lng":-88.24775576591492,"city_fetched":"Champaign","state":"IL","country":"United States","canonicalUrl":"https://foursquare.com/v/jarlings/4b91ae19f964a5206ccf33e3","category":"Ice Cream Shop","checkinsCount":4552,"usersCount":2090,"tipCount":33,"visitsCount":4956,"url":"http://www.jarlings.com","tier":1,"message":"Cheap","currency":"$","rating":9.3},{"name":"Seven Saints","phone":"2173517775","address":"32 E Chester St","lat":40.1164494826872,"lng":-88.24195637633522,"city_fetched":"Champaign","state":"IL","country":"United States","canonicalUrl":"https://foursquare.com/v/seven-saints/4b302dfaf964a5205df724e3","category":"American Restaurant","checkinsCount":6792,"usersCount":2199,"tipCount":67,"visitsCount":6995,"url":"http://sevensaintsbar.com","tier":2,"message":"Moderate","currency":"$","rating":8.8},{"name":"Triptych Brewing","address":"1703 Woodfield Dr","lat":40.07684568565677,"lng":-88.24905352979077,"city_fetched":"Champaign","state":"IL","country":"United States","canonicalUrl":"https://foursquare.com/v/triptych-brewing/4f497993e4b0c132f1ea7638","category":"Brewery","checkinsCount":1319,"usersCount":466,"tipCount":6,"visitsCount":1944,"url":"http://triptychbrewing.com","tier":1,"message":"Cheap","currency":"$","rating":8.7},{"name":"Farren's Pub and Eatery","phone":"2173596977","address":"308 N Randolph St","lat":40.11866281835221,"lng":-88.24489116668701,"city_fetched":"Champaign","state":"IL","country":"United States","canonicalUrl":"https://foursquare.com/v/farrens-pub-and-eatery/4b548d28f964a520a4bf27e3","category":"Burger Joint","checkinsCount":3040,"usersCount":1076,"tipCount":52,"visitsCount":3199,"tier":2,"message":"Moderate","currency":"$","rating":8.5},{"name":"Bacaro Wine Lounge","phone":"2173986982","twitter":"bacarocu","address":"113 N Walnut St","lat":40.116877,"lng":-88.242393,"city_fetched":"Champaign","state":"IL","country":"United States","canonicalUrl":"https://foursquare.com/v/bacaro-wine-lounge/4b51ff0bf964a5201b6027e3","category":"Italian Restaurant","checkinsCount":1822,"usersCount":429,"tipCount":19,"visitsCount":1851,"url":"http://www.bacarowinelounge.com","tier":2,"message":"Moderate","currency":"$","rating":8.5},{"name":"Billy Barooz","phone":"2173558030","twitter":"billybaroozpub","address":"2521 Village Green Pl","lat":40.08141188824164,"lng":-88.29667863244597,"city_fetched":"Champaign","state":"IL","country":"United States","canonicalUrl":"https://foursquare.com/v/billy-barooz/4b69f0f6f964a52058bd2be3","category":"Sports Bar","checkinsCount":3592,"usersCount":966,"tipCount":23,"visitsCount":4125,"url":"http://www.billybarooz.com","tier":2,"message":"Moderate","currency":"$","rating":8.3},{"name":"Destihl Restaurant & Brew Works","phone":"2173560301","address":"301 N Neil St","lat":40.118396172721155,"lng":-88.24374854564667,"city_fetched":"Champaign","state":"IL","country":"United States","canonicalUrl":"https://foursquare.com/v/destihl-restaurant--brew-works/4d496891f2cc6a3134d4b588","category":"Brewery","checkinsCount":6259,"usersCount":2595,"tipCount":83,"visitsCount":6743,"url":"http://destihl.com","tier":2,"message":"Moderate","currency":"$","rating":8.2},{"name":"The Blind Pig","phone":"2173981532","address":"120 N Walnut St","lat":40.11706823221573,"lng":-88.2424080045649,"city_fetched":"Champaign","state":"IL","country":"United States","canonicalUrl":"https://foursquare.com/v/the-blind-pig/56217c7e498e8dfc362e4e58","category":"Pub","checkinsCount":195,"usersCount":82,"tipCount":1,"visitsCount":206,"tier":"","message":"","currency":"","rating":8.2},{"name":"Esquire Lounge","phone":"2173985858","address":"106 N Walnut St","lat":40.11655834054769,"lng":-88.2424744963646,"city_fetched":"Champaign","state":"IL","country":"United States","canonicalUrl":"https://foursquare.com/v/esquire-lounge/4b43c1cbf964a520b6e825e3","category":"Bar","checkinsCount":8978,"usersCount":1692,"tipCount":34,"visitsCount":9191,"url":"http://www.esquirelounge.com","tier":1,"message":"Cheap","currency":"$","rating":8.1},{"name":"Radio Maria","phone":"2173987729","twitter":"rmrestaurant","address":"119 N Walnut St","lat":40.117042417233414,"lng":-88.24251741170883,"city_fetched":"Champaign","state":"IL","country":"United States","canonicalUrl":"https://foursquare.com/v/radio-maria/4b51fc8bf964a520885f27e3","category":"Tapas Restaurant","checkinsCount":5071,"usersCount":1676,"tipCount":56,"visitsCount":5211,"url":"http://www.radiomariarestaurant.com","tier":2,"message":"Moderate","currency":"$","rating":8.1},{"name":"Big Grove Tavern","phone":"2172393505","twitter":"biggrovetavern","address":"1 E Main St","lat":40.11816536825691,"lng":-88.24351566242534,"city_fetched":"Champaign","state":"IL","country":"United States","canonicalUrl":"https://foursquare.com/v/big-grove-tavern/4fbc28cde4b0742d2e1f1eb7","category":"American Restaurant","checkinsCount":2532,"usersCount":991,"tipCount":26,"visitsCount":2647,"url":"http://www.biggrovetavern.com","tier":3,"message":"Expensive","currency":"$","rating":7.9},{"name":"KoFusion","phone":"2175311166","address":"1 E Main St","lat":40.11859691670767,"lng":-88.24349664707705,"city_fetched":"Champaign","state":"IL","country":"United States","canonicalUrl":"https://foursquare.com/v/kofusion/4b19d357f964a520e5e423e3","category":"Sushi Restaurant","checkinsCount":4340,"usersCount":1734,"tipCount":50,"visitsCount":4437,"url":"http://kofusion.com","tier":3,"message":"Expensive","currency":"$","rating":7.9},{"name":"Barrelhouse 34","address":"34 E Main St","lat":40.11746356297264,"lng":-88.24197063835081,"city_fetched":"Champaign","state":"IL","country":"United States","canonicalUrl":"https://foursquare.com/v/barrelhouse-34/56819815498e791cae79938c","category":"Bar","checkinsCount":383,"usersCount":226,"tipCount":6,"visitsCount":586,"tier":"","message":"","currency":"","rating":7.8},{"name":"The Canopy Club","phone":"2173673140","address":"708 S Goodwin Ave","lat":40.106703759342764,"lng":-88.22364270687103,"city_fetched":"Champaign","state":"IL","country":"United States","canonicalUrl":"https://foursquare.com/v/the-canopy-club/4b591e8df964a520847d28e3","category":"Music Venue","checkinsCount":4231,"usersCount":1414,"tipCount":13,"visitsCount":4313,"tier":"","message":"","currency":"","rating":7.8},{"name":"Joe's Brewery","phone":"2173841790","twitter":"joesbrewery","address":"706 S 5th St","lat":40.109701239447226,"lng":-88.23184343379354,"city_fetched":"Champaign","state":"IL","country":"United States","canonicalUrl":"https://foursquare.com/joesbrewery","category":"Bar","checkinsCount":6040,"usersCount":1889,"tipCount":30,"visitsCount":6423,"url":"http://www.joesbrewery.com","tier":1,"message":"Cheap","currency":"$","rating":7.7},{"name":"Murphy's Pub","phone":"2173444372","address":"604 E Green St","lat":40.110435213407825,"lng":-88.23022191192663,"city_fetched":"Champaign","state":"IL","country":"United States","canonicalUrl":"https://foursquare.com/v/murphys-pub/4ad0b23ff964a5202ed920e3","category":"Pub","checkinsCount":9623,"usersCount":3020,"tipCount":45,"visitsCount":9997,"tier":2,"message":"Moderate","currency":"$","rating":7.7},{"name":"Legends","phone":"2173557674","address":"522 E Green St","lat":40.110507091222935,"lng":-88.2310938835144,"city_fetched":"Champaign","state":"IL","country":"United States","canonicalUrl":"https://foursquare.com/v/legends/4b51fa56f964a520cb5e27e3","category":"Sports Bar","checkinsCount":7735,"usersCount":2287,"tipCount":35,"visitsCount":8052,"url":"http://www.legendsongreen.com","tier":2,"message":"Moderate","currency":"$","rating":7.6},{"name":"Bentley's Pub","phone":"2173597977","address":"419 N Neil St","lat":40.1199688669038,"lng":-88.24366778491324,"city_fetched":"Champaign","state":"IL","country":"United States","canonicalUrl":"https://foursquare.com/v/bentleys-pub/4b73843ff964a52031b22de3","category":"Pub","checkinsCount":1517,"usersCount":346,"tipCount":2,"visitsCount":1609,"tier":"","message":"","currency":"","rating":7.5},{"name":"Jupiter's at the Crossing","phone":"2173668300","twitter":"jupiters2","address":"2511 Village Green Pl","lat":40.082011806526445,"lng":-88.29673290252686,"city_fetched":"Champaign","state":"IL","country":"United States","canonicalUrl":"https://foursquare.com/v/jupiters-at-the-crossing/4b49523ff964a5205e6d26e3","category":"Pizza Place","checkinsCount":6401,"usersCount":1873,"tipCount":27,"visitsCount":6916,"url":"http://jupiterspizza.net/crossing","tier":2,"message":"Moderate","currency":"$","rating":7.4},{"name":"Mike N Molly's","phone":"2173551236","address":"105 N Market St","lat":40.11660002806285,"lng":-88.24194211431497,"city_fetched":"Champaign","state":"IL","country":"United States","canonicalUrl":"https://foursquare.com/v/mike-n-mollys/4b51fe22f964a520e25f27e3","category":"Bar","checkinsCount":3617,"usersCount":662,"tipCount":19,"visitsCount":3647,"url":"http://www.mikenmollys.com","tier":1,"message":"Cheap","currency":"$","rating":7.4},{"name":"Huber's","lat":40.118513,"lng":-88.268483,"city_fetched":"Champaign","state":"IL","country":"United States","canonicalUrl":"https://foursquare.com/v/hubers/4ba19295f964a5206ac137e3","category":"Bar","checkinsCount":474,"usersCount":211,"tipCount":4,"visitsCount":539,"tier":"","message":"","currency":"","rating":7.4},{"name":"Cowboy Monkey","phone":"2173982688","address":"6 E Taylor St","lat":40.11743897421119,"lng":-88.24320666198841,"city_fetched":"Champaign","state":"IL","country":"United States","canonicalUrl":"https://foursquare.com/v/cowboy-monkey/4b51fcdff964a5209d5f27e3","category":"Bar","checkinsCount":5091,"usersCount":1433,"tipCount":23,"visitsCount":5222,"url":"http://cowboy-monkey.com","tier":2,"message":"Moderate","currency":"$","rating":7.3},{"name":"Star Karaoke","phone":"2173563333","address":"1503 Lyndhurst Aly","lat":40.073451289911326,"lng":-88.25091200404106,"city_fetched":"Champaign","state":"IL","country":"United States","canonicalUrl":"https://foursquare.com/v/star-karaoke/4cfc28ed34c1a09315ef490e","category":"Korean Restaurant","checkinsCount":607,"usersCount":219,"tipCount":2,"visitsCount":647,"url":"http://www.karaokestar.com","tier":2,"message":"Moderate","currency":"$","rating":7.2},{"name":"Tumble Inn","phone":"2173560012","address":"302 S Neil St","lat":40.113723551120394,"lng":-88.24313163757324,"city_fetched":"Champaign","state":"IL","country":"United States","canonicalUrl":"https://foursquare.com/v/tumble-inn/4ba1612ef964a520ddb137e3","category":"Bar","checkinsCount":2083,"usersCount":596,"tipCount":10,"visitsCount":2302,"tier":"","message":"","currency":"","rating":7.1},{"name":"White Horse Inn","address":"510 E John St","lat":40.1091613842969,"lng":-88.2307505607605,"city_fetched":"Champaign","state":"IL","country":"United States","canonicalUrl":"https://foursquare.com/v/white-horse-inn/4d3264df5c2db60c09d6c16c","category":"Bar","checkinsCount":1790,"usersCount":720,"tipCount":14,"visitsCount":1883,"tier":1,"message":"Cheap","currency":"$","rating":7.1},{"name":"Dublin O'Neil's","phone":"2175311152","address":"301 N Neil St","lat":40.11886215641075,"lng":-88.24386269107552,"city_fetched":"Champaign","state":"IL","country":"United States","canonicalUrl":"https://foursquare.com/v/dublin-oneils/4e7e8a58e5e871fe30626eeb","category":"Pub","checkinsCount":2352,"usersCount":847,"tipCount":36,"visitsCount":2443,"url":"http://www.dublinoneils.com","tier":2,"message":"Moderate","currency":"$","rating":7.1},{"name":"Guido's Bar & Grill","phone":"2173593148","twitter":"guidosbargrill","address":"2 E Main St","lat":40.11799041242841,"lng":-88.24342058560097,"city_fetched":"Champaign","state":"IL","country":"United States","canonicalUrl":"https://foursquare.com/v/guidos-bar--grill/4b5a8202f964a520cac828e3","category":"Sports Bar","checkinsCount":5142,"usersCount":1802,"tipCount":16,"visitsCount":5272,"url":"http://www.guidosbar.com","tier":2,"message":"Moderate","currency":"$","rating":7},{"name":"The Office II","phone":"2173986332","address":"302 S Country Fair Dr","lat":40.11369306848775,"lng":-88.28248444178175,"city_fetched":"Champaign","state":"IL","country":"United States","canonicalUrl":"https://foursquare.com/v/the-office-ii/4c12e907a5eb76b0dd20bfb7","category":"Bar","checkinsCount":1405,"usersCount":196,"tipCount":3,"visitsCount":1545,"tier":1,"message":"Cheap","currency":"$","rating":7},{"name":"Jupiter's Pizzeria & Billiards","phone":"2173985988","address":"39 E Main St","lat":40.117793139514546,"lng":-88.24137210845947,"city_fetched":"Champaign","state":"IL","country":"United States","canonicalUrl":"https://foursquare.com/v/jupiters-pizzeria--billiards/4b54c0aef964a5208fca27e3","category":"Bar","checkinsCount":2799,"usersCount":1085,"tipCount":19,"visitsCount":2976,"url":"http://www.jupiterspizza.com","tier":2,"message":"Moderate","currency":"$","rating":7}]