[{"name":"Beer Run","phone":"4349842337","twitter":"beerrunva","address":"156 Carlton Rd Ste 203","lat":38.02454022149463,"lng":-78.46846461296082,"city_fetched":"Charlottesville,US","state":"VA","country":"United States","canonicalUrl":"https://foursquare.com/v/beer-run/4b0eb431f964a520df5923e3","categoryId":"4bf58dd8d48988d116941735","category":"Bar","checkinsCount":6309,"usersCount":2195,"tipCount":75,"visitsCount":7326,"url":"http://www.beerrun.com","tier":2,"message":"Moderate","currency":"$","rating":8.8},{"name":"Champion Brewery","phone":"4342952739","address":"324 6th St SE","lat":38.02783494237724,"lng":-78.47842727905211,"city_fetched":"Charlottesville,US","state":"VA","country":"United States","canonicalUrl":"https://foursquare.com/v/champion-brewery/50b0116ce4b042e780e57226","categoryId":"50327c8591d4c4b30a586d5d","category":"Brewery","checkinsCount":1823,"usersCount":923,"tipCount":16,"visitsCount":2573,"url":"http://championbrewingcompany.com","tier":2,"message":"Moderate","currency":"$","rating":8.8},{"name":"Kardinal Hall","twitter":"kardinalhallva","address":"722 Preston Ave Ste 101","lat":38.036098415347965,"lng":-78.48783381228888,"city_fetched":"Charlottesville,US","state":"VA","country":"United States","canonicalUrl":"https://foursquare.com/v/kardinal-hall/55f08302498e0d5e669fa985","categoryId":"4bf58dd8d48988d117941735","category":"Beer Garden","checkinsCount":417,"usersCount":398,"tipCount":3,"visitsCount":787,"url":"http://kardinalhall.com","tier":"","message":"","currency":"","rating":8.6},{"name":"Three Notch'd Brewing Company","phone":"4342930610","twitter":"threenotchdbeer","address":"946 Grady Ave","lat":38.038110810251844,"lng":-78.49075271333987,"city_fetched":"Charlottesville,US","state":"VA","country":"United States","canonicalUrl":"https://foursquare.com/v/three-notchd-brewing-company/51a10ebd498e8482eebb0cc6","categoryId":"50327c8591d4c4b30a586d5d","category":"Brewery","checkinsCount":1142,"usersCount":679,"tipCount":12,"visitsCount":1322,"url":"http://threenotchdbrewing.com","tier":2,"message":"Moderate","currency":"$","rating":8.4},{"name":"Boylan Heights","phone":"4349845707","twitter":"boylanheights","address":"102 14th St NW","lat":38.0340814659391,"lng":-78.49936366081238,"city_fetched":"Charlottesville,US","state":"VA","country":"United States","canonicalUrl":"https://foursquare.com/v/boylan-heights/4b57a8f6f964a5203e3a28e3","categoryId":"4bf58dd8d48988d116941735","category":"Bar","checkinsCount":8651,"usersCount":3139,"tipCount":43,"visitsCount":9130,"url":"http://www.boylan-heights.com","tier":2,"message":"Moderate","currency":"$","rating":8.4},{"name":"The Alley Light","phone":"4342965003","address":"108 2nd St SW","lat":38.030477,"lng":-78.482293,"city_fetched":"Charlottesville,US","state":"VA","country":"United States","canonicalUrl":"https://foursquare.com/v/the-alley-light/52f1654c11d21fc7673a8964","categoryId":"4bf58dd8d48988d1d4941735","category":"Speakeasy","checkinsCount":519,"usersCount":296,"tipCount":14,"visitsCount":531,"url":"http://alleylight.com","tier":3,"message":"Expensive","currency":"$","rating":8.2},{"name":"South Street Brewery","phone":"4342936550","twitter":"southstbrewery","address":"106 W South St","lat":38.02948147884999,"lng":-78.48263951541172,"city_fetched":"Charlottesville,US","state":"VA","country":"United States","canonicalUrl":"https://foursquare.com/v/south-street-brewery/4b10a244f964a520187423e3","categoryId":"50327c8591d4c4b30a586d5d","category":"Brewery","checkinsCount":4824,"usersCount":2352,"tipCount":43,"visitsCount":5341,"url":"http://www.southstreetbrewery.com","tier":2,"message":"Moderate","currency":"$","rating":8},{"name":"Bang!","phone":"4349842264","address":"213 2nd St SW","lat":38.02977953,"lng":-78.482951,"city_fetched":"Charlottesville,US","state":"VA","country":"United States","canonicalUrl":"https://foursquare.com/v/bang/4b1857f0f964a5202dd123e3","categoryId":"4bf58dd8d48988d121941735","category":"Lounge","checkinsCount":1464,"usersCount":826,"tipCount":24,"visitsCount":1528,"url":"http://bangrestaurant.net","tier":2,"message":"Moderate","currency":"$","rating":7.9},{"name":"Sedona Taphouse","phone":"4342962337","twitter":"sedonataphouse","address":"1035 Millmont St","lat":38.05098613722642,"lng":-78.50552351098081,"neighborhood":"Barracks Road","city_fetched":"Charlottesville,US","state":"VA","country":"United States","canonicalUrl":"https://foursquare.com/v/sedona-taphouse/51ca2747498e46c04b3c2356","categoryId":"4bf58dd8d48988d116941735","category":"Bar","checkinsCount":1293,"usersCount":957,"tipCount":24,"visitsCount":2080,"url":"http://www.sedonataphouse.com","tier":2,"message":"Moderate","currency":"$","rating":7.5},{"name":"World of Beer","phone":"4349701088","twitter":"wobcville","address":"852 W Main St","lat":38.03208896,"lng":-78.49255618,"city_fetched":"Charlottesville,US","state":"VA","country":"United States","canonicalUrl":"https://foursquare.com/v/world-of-beer/542ee172498e8e357f2f8f53","categoryId":"4bf58dd8d48988d116941735","category":"Bar","checkinsCount":670,"usersCount":445,"tipCount":10,"visitsCount":971,"url":"http://worldofbeer.com/Locations/Charlottesville","tier":"","message":"","currency":"","rating":7.2},{"name":"Miller's Downtown","phone":"4349718511","address":"109 W Main St","lat":38.03090456666666,"lng":-78.481841,"city_fetched":"Charlottesville,US","state":"VA","country":"United States","canonicalUrl":"https://foursquare.com/v/millers-downtown/4b7a13f2f964a52005222fe3","categoryId":"4bf58dd8d48988d116941735","category":"Bar","checkinsCount":5051,"usersCount":2647,"tipCount":58,"visitsCount":5285,"url":"http://www.millersdowntown.com","tier":2,"message":"Moderate","currency":"$","rating":6.9},{"name":"Tempo","twitter":"tempocville","address":"117 5th St SE","lat":38.029316,"lng":-78.478889,"city_fetched":"Charlottesville,US","state":"VA","country":"United States","canonicalUrl":"https://foursquare.com/v/tempo/4e61c01de4cdf1e2bf022ba0","categoryId":"4d4b7105d754a06376d81259","category":"Nightlife Spot","checkinsCount":348,"usersCount":213,"tipCount":4,"visitsCount":348,"tier":"","message":"","currency":"","rating":6.6},{"name":"McGrady's Irish Pub","phone":"4342933473","address":"946 Grady Ave","lat":38.037996,"lng":-78.490802,"city_fetched":"Charlottesville,US","state":"VA","country":"United States","canonicalUrl":"https://foursquare.com/v/mcgradys-irish-pub/4b22c97bf964a5208b4d24e3","categoryId":"4bf58dd8d48988d11b941735","category":"Pub","checkinsCount":2880,"usersCount":893,"tipCount":23,"visitsCount":2909,"url":"http://www.mcgradysirishpub.com","tier":2,"message":"Moderate","currency":"$","rating":6.3},{"name":"Lazy Parrot Grill","phone":"4349771020","address":"532 Pantops Ctr","lat":38.03097161311965,"lng":-78.45748901367188,"city_fetched":"Charlottesville,US","state":"VA","country":"United States","canonicalUrl":"https://foursquare.com/v/lazy-parrot-grill/4be32d3d660ec928915acb3b","categoryId":"4bf58dd8d48988d116941735","category":"Bar","checkinsCount":917,"usersCount":295,"tipCount":15,"visitsCount":976,"url":"http://www.lazyparrotgrill.com","tier":2,"message":"Moderate","currency":"$","rating":5.9},{"name":"Trinity Irish Pub","phone":"4342957100","address":"1505 University Ave","lat":38.03479029212209,"lng":-78.50038560292359,"city_fetched":"Charlottesville,US","state":"VA","country":"United States","canonicalUrl":"https://foursquare.com/v/trinity-irish-pub/4b11e4baf964a5209e8623e3","categoryId":"4bf58dd8d48988d11b941735","category":"Pub","checkinsCount":3211,"usersCount":1592,"tipCount":8,"visitsCount":3231,"url":"http://trinityonthecorner.com","tier":"","message":"","currency":"","rating":5.7},{"name":"Court Square Tavern","phone":"4342966111","address":"500 Court Sq #305","lat":38.031199786157025,"lng":-78.47789525985718,"city_fetched":"Charlottesville,US","state":"VA","country":"United States","canonicalUrl":"https://foursquare.com/v/court-square-tavern/4b50f20af964a520ea3927e3","categoryId":"4bf58dd8d48988d11b941735","category":"Pub","checkinsCount":783,"usersCount":199,"tipCount":10,"visitsCount":794,"url":"http://www.tastingsofcville.com","tier":2,"message":"Moderate","currency":"$","rating":5.2},{"name":"C'ville-ian Brewing Co.","twitter":"cvillebrewco","address":"705 W Main St","lat":38.031452,"lng":-78.490009,"city_fetched":"Charlottesville,US","state":"VA","country":"United States","canonicalUrl":"https://foursquare.com/v/cvilleian-brewing-co/53571e49498e2a60af278e48","categoryId":"50327c8591d4c4b30a586d5d","category":"Brewery","checkinsCount":142,"usersCount":108,"tipCount":4,"visitsCount":143,"url":"http://www.cvilleianbrewingcompany.com","tier":"","message":"","currency":"","rating":5}]