[{"name":"Salud Beer Shop","phone":"7049007767","twitter":"saludnoda","address":"3306B N Davidson St","lat":35.24787826045548,"lng":-80.8040403253098,"neighborhood":"North Charlotte","city_fetched":"Charlotte,US","state":"NC","country":"United States","canonicalUrl":"https://foursquare.com/v/salud-beer-shop/4f39c9f66d86b0b274d7b780","categoryId":"4bf58dd8d48988d116941735","category":"Bar","checkinsCount":3251,"usersCount":872,"tipCount":24,"visitsCount":3452,"url":"http://www.saludbeershop.com","tier":2,"message":"Moderate","currency":"$","rating":9.5},{"name":"NoDa Brewing Company","phone":"7049006851","twitter":"nodabrewing","address":"2229 N Davidson St","lat":35.240384109691334,"lng":-80.81470495788524,"neighborhood":"Optimist Park","city_fetched":"Charlotte,US","state":"NC","country":"United States","canonicalUrl":"https://foursquare.com/nodabrewing","categoryId":"50327c8591d4c4b30a586d5d","category":"Brewery","checkinsCount":7683,"usersCount":3935,"tipCount":50,"visitsCount":9267,"url":"http://www.nodabrewing.com","tier":2,"message":"Moderate","currency":"$","rating":9.4},{"name":"VBGB Beer Hall & Garden/Restaurant","phone":"7043334111","twitter":"vbgbuptown","address":"920 Hamilton St","lat":35.2406070256685,"lng":-80.84519147872925,"neighborhood":"Fourth Ward","city_fetched":"Charlotte,US","state":"NC","country":"United States","canonicalUrl":"https://foursquare.com/v/vbgb-beer-hall--gardenrestaurant/4d890fbb1508a143cec9051e","categoryId":"4bf58dd8d48988d117941735","category":"Beer Garden","checkinsCount":11811,"usersCount":5821,"tipCount":82,"visitsCount":14370,"url":"http://www.vbgbuptown.com","tier":2,"message":"Moderate","currency":"$","rating":9.2},{"name":"Olde Mecklenburg Brewery","phone":"7045255644","twitter":"oldemeckbrew","address":"4150 Yancey Rd","lat":35.186962013455755,"lng":-80.88136911392212,"city_fetched":"Charlotte,US","state":"NC","country":"United States","canonicalUrl":"https://foursquare.com/v/olde-mecklenburg-brewery/4b2188d5f964a5206f3d24e3","categoryId":"50327c8591d4c4b30a586d5d","category":"Brewery","checkinsCount":7166,"usersCount":5153,"tipCount":69,"visitsCount":10899,"url":"http://oldemeckbrew.com","tier":2,"message":"Moderate","currency":"$","rating":9.2},{"name":"Legion Brewery","address":"1906 Commonwealth Ave","lat":35.218591,"lng":-80.813012,"city_fetched":"Charlotte,US","state":"NC","country":"United States","canonicalUrl":"https://foursquare.com/v/legion-brewery/5670d3f6498e49f081713c5f","categoryId":"50327c8591d4c4b30a586d5d","category":"Brewery","checkinsCount":664,"usersCount":563,"tipCount":11,"visitsCount":1015,"tier":1,"message":"Cheap","currency":"$","rating":9.1},{"name":"Sycamore Brewing","phone":"7049103821","address":"2161 Hawkins St","lat":35.20885250463034,"lng":-80.86261882714145,"city_fetched":"Charlotte,US","state":"NC","country":"United States","canonicalUrl":"https://foursquare.com/v/sycamore-brewing/545524a1498eb4041c09bf9d","categoryId":"50327c8591d4c4b30a586d5d","category":"Brewery","checkinsCount":2378,"usersCount":2341,"tipCount":15,"visitsCount":5285,"url":"http://sycamorebrew.com","tier":"","message":"","currency":"","rating":9.1},{"name":"Flying Saucer","phone":"7047178179","twitter":"flyingsaucercha","address":"9605 N Tryon St Ste A","lat":35.3166659800561,"lng":-80.74052095413208,"neighborhood":"University City North","city_fetched":"Charlotte,US","state":"NC","country":"United States","canonicalUrl":"https://foursquare.com/v/flying-saucer/4b0ca3b5f964a520764023e3","categoryId":"4bf58dd8d48988d116941735","category":"Bar","checkinsCount":15260,"usersCount":4567,"tipCount":79,"visitsCount":17513,"url":"http://www.beerknurd.com","tier":2,"message":"Moderate","currency":"$","rating":9.1},{"name":"Birdsong Brewing Co.","phone":"7043321810","twitter":"birdsongbrewing","address":"1016 N Davidson St","lat":35.23090070234179,"lng":-80.82644955836227,"neighborhood":"Optimist Park","city_fetched":"Charlotte,US","state":"NC","country":"United States","canonicalUrl":"https://foursquare.com/v/birdsong-brewing-co/4eb596bb7ee5024d7f16f978","categoryId":"50327c8591d4c4b30a586d5d","category":"Brewery","checkinsCount":4224,"usersCount":2750,"tipCount":54,"visitsCount":5431,"url":"http://www.birdsongbrewing.com","tier":1,"message":"Cheap","currency":"$","rating":9.1},{"name":"Triple C Brewery","phone":"7046182697","twitter":"triplecbrew","address":"2900 Griffith St","lat":35.201140841822046,"lng":-80.86923899104337,"city_fetched":"Charlotte,US","state":"NC","country":"United States","canonicalUrl":"https://foursquare.com/v/triple-c-brewery/4f6f6460e4b0600334241a90","categoryId":"50327c8591d4c4b30a586d5d","category":"Brewery","checkinsCount":4065,"usersCount":2631,"tipCount":40,"visitsCount":5703,"url":"http://www.triplecbrewing.com","tier":1,"message":"Cheap","currency":"$","rating":9},{"name":"Sugar Creek Brewery","phone":"7045213333","twitter":"sugarcreekbrew","address":"215 Southside Dr","lat":35.18566236825748,"lng":-80.88089455112333,"city_fetched":"Charlotte,US","state":"NC","country":"United States","canonicalUrl":"https://foursquare.com/v/sugar-creek-brewery/53c12b08498efef74bd87bcf","categoryId":"50327c8591d4c4b30a586d5d","category":"Brewery","checkinsCount":1032,"usersCount":1008,"tipCount":8,"visitsCount":1583,"url":"http://sugarcreekbrewing.com","tier":"","message":"","currency":"","rating":9},{"name":"Red Clay Ciderworks","phone":"9804980676","twitter":"redclaycider","address":"245 Clanton Rd","lat":35.19465387673986,"lng":-80.87479950509253,"city_fetched":"Charlotte,US","state":"NC","country":"United States","canonicalUrl":"https://foursquare.com/v/red-clay-ciderworks/55860cee498e012f02abde0a","categoryId":"50327c8591d4c4b30a586d5d","category":"Brewery","checkinsCount":446,"usersCount":489,"tipCount":8,"visitsCount":730,"url":"http://www.redclayciderworks.com","tier":"","message":"","currency":"","rating":8.9},{"name":"The Brass Tap - South End","address":"1440 S Tryon St","lat":35.216592,"lng":-80.856612,"neighborhood":"South End","city_fetched":"Charlotte,US","state":"NC","country":"United States","canonicalUrl":"https://foursquare.com/v/the-brass-tap--south-end/5579c6c8498e898936bd9b1d","categoryId":"4bf58dd8d48988d117941735","category":"Beer Garden","checkinsCount":531,"usersCount":581,"tipCount":5,"visitsCount":962,"tier":"","message":"","currency":"","rating":8.9},{"name":"JackBeagle's","phone":"7043345140","twitter":"jackbeaglesnoda","address":"3213 N Davidson St","lat":35.24740732899562,"lng":-80.80531669459472,"neighborhood":"North Charlotte","city_fetched":"Charlotte,US","state":"NC","country":"United States","canonicalUrl":"https://foursquare.com/jackbeaglesnoda","categoryId":"4bf58dd8d48988d11d941735","category":"Sports Bar","checkinsCount":8629,"usersCount":2483,"tipCount":59,"visitsCount":8999,"url":"http://www.jackbeagles.com","tier":1,"message":"Cheap","currency":"$","rating":8.9},{"name":"Wooden Robot Brewery","phone":"+988197875","address":"1440 S Tryon St Ste 110","lat":35.21703653473588,"lng":-80.8572088006794,"neighborhood":"South End","city_fetched":"Charlotte,US","state":"NC","country":"United States","canonicalUrl":"https://foursquare.com/v/wooden-robot-brewery/558eea9e498ed2929de8df51","categoryId":"50327c8591d4c4b30a586d5d","category":"Brewery","checkinsCount":1122,"usersCount":1168,"tipCount":13,"visitsCount":1923,"url":"http://woodenrobotbrewery.com","tier":"","message":"","currency":"","rating":8.8},{"name":"NoDa Brewing Company North End","lat":35.251881830082894,"lng":-80.81260134674147,"neighborhood":"Tryon Hills","city_fetched":"Charlotte,US","state":"NC","country":"United States","canonicalUrl":"https://foursquare.com/v/noda-brewing-company-north-end/55f832eb498e5ed456f09b03","categoryId":"50327c8591d4c4b30a586d5d","category":"Brewery","checkinsCount":731,"usersCount":727,"tipCount":8,"visitsCount":1297,"tier":2,"message":"Moderate","currency":"$","rating":8.8},{"name":"Sir Edmund Halley's","phone":"7045252555","address":"4151 Park Rd","lat":35.17515229858967,"lng":-80.84875524004282,"city_fetched":"Charlotte,US","state":"NC","country":"United States","canonicalUrl":"https://foursquare.com/v/sir-edmund-halleys/4b400fe2f964a52016b525e3","categoryId":"4bf58dd8d48988d11b941735","category":"Pub","checkinsCount":3869,"usersCount":1379,"tipCount":47,"visitsCount":4358,"url":"http://halleyspub.com","tier":2,"message":"Moderate","currency":"$","rating":8.7},{"name":"Petra's Piano Bar","phone":"7043326608","address":"1919 Commonwealth Ave","lat":35.21900421666667,"lng":-80.81256354,"city_fetched":"Charlotte,US","state":"NC","country":"United States","canonicalUrl":"https://foursquare.com/v/petras-piano-bar/4b0970bcf964a520501723e3","categoryId":"4bf58dd8d48988d120941735","category":"Karaoke Bar","checkinsCount":2697,"usersCount":912,"tipCount":21,"visitsCount":2834,"url":"http://petraspianobar.com","tier":"","message":"","currency":"","rating":8.7},{"name":"Laurel Market","phone":"7043474989","twitter":"laurelmarket","address":"114 Cherokee Rd","lat":35.202303,"lng":-80.824294,"neighborhood":"Eastover","city_fetched":"Charlotte,US","state":"NC","country":"United States","canonicalUrl":"https://foursquare.com/v/laurel-market/4b1d3433f964a520ed0c24e3","categoryId":"4bf58dd8d48988d123941735","category":"Wine Bar","checkinsCount":1541,"usersCount":463,"tipCount":15,"visitsCount":1610,"url":"http://www.laurelmarketsouth.com","tier":2,"message":"Moderate","currency":"$","rating":8.7},{"name":"Smokey Joe's Cafe","phone":"7043389380","address":"510 Briar Creek Rd","lat":35.204098605266154,"lng":-80.8015524286612,"city_fetched":"Charlotte,US","state":"NC","country":"United States","canonicalUrl":"https://foursquare.com/v/smokey-joes-cafe/4b05863bf964a520875922e3","categoryId":"4bf58dd8d48988d116941735","category":"Bar","checkinsCount":902,"usersCount":590,"tipCount":16,"visitsCount":1322,"url":"http://smokeyjoescharlotte.com","tier":1,"message":"Cheap","currency":"$","rating":8.6},{"name":"Duckworth's Grill & Taphouse","phone":"7047527284","twitter":"duckworthsbally","address":"14015 Conlan Cir","lat":35.05586848103948,"lng":-80.85312806922705,"neighborhood":"Ballantyne West","city_fetched":"Charlotte,US","state":"NC","country":"United States","canonicalUrl":"https://foursquare.com/v/duckworths-grill--taphouse/4e5acec445dd705592a9738b","categoryId":"4bf58dd8d48988d11b941735","category":"Pub","checkinsCount":5834,"usersCount":3048,"tipCount":47,"visitsCount":7728,"url":"http://duckworthsgrillandbar.com","tier":2,"message":"Moderate","currency":"$","rating":8.6},{"name":"Courtyard Hooligans","phone":"7043762238","twitter":"hooligansclt","address":"140 Brevard Ct","lat":35.22599522958797,"lng":-80.8467930647979,"neighborhood":"Third Ward","city_fetched":"Charlotte,US","state":"NC","country":"United States","canonicalUrl":"https://foursquare.com/v/courtyard-hooligans/4b50eb53f964a520b73827e3","categoryId":"4bf58dd8d48988d11d941735","category":"Sports Bar","checkinsCount":3761,"usersCount":1260,"tipCount":20,"visitsCount":3925,"url":"http://courtyardhooligans.com","tier":1,"message":"Cheap","currency":"$","rating":8.6},{"name":"The Wine Shop at Foxcroft","phone":"7043656550","address":"7824 Fairview Rd","lat":35.147099,"lng":-80.808771,"neighborhood":"Governor's Square","city_fetched":"Charlotte,US","state":"NC","country":"United States","canonicalUrl":"https://foursquare.com/v/the-wine-shop-at-foxcroft/4b19ad68f964a520cae123e3","categoryId":"4bf58dd8d48988d123941735","category":"Wine Bar","checkinsCount":624,"usersCount":311,"tipCount":6,"visitsCount":682,"url":"http://www.thewineshopatfoxcroft.com","tier":"","message":"","currency":"","rating":8.5},{"name":"Charlotte PGC","twitter":"charlottepgc","address":"210 E Trade St","lat":36.960517158641146,"lng":-81.03692626015795,"neighborhood":"Second Ward","city_fetched":"Charlotte,US","state":"NC","country":"United States","canonicalUrl":"https://foursquare.com/v/charlotte-pgc/4da5fd97316ab1e742e802ef","categoryId":"4bf58dd8d48988d11f941735","category":"Nightclub","checkinsCount":177,"usersCount":65,"tipCount":1,"visitsCount":177,"tier":"","message":"","currency":"","rating":8.5},{"name":"The Belfast Mill","twitter":"belfastmillclt","address":"144 Brevard Ct","lat":35.226047,"lng":-80.84678416666667,"neighborhood":"Third Ward","city_fetched":"Charlotte,US","state":"NC","country":"United States","canonicalUrl":"https://foursquare.com/v/the-belfast-mill/4d98ad0979b788bfd078736a","categoryId":"4bf58dd8d48988d11b941735","category":"Pub","checkinsCount":1597,"usersCount":714,"tipCount":23,"visitsCount":1630,"tier":1,"message":"Cheap","currency":"$","rating":8.5},{"name":"Thirsty Beaver Saloon","phone":"7043323612","address":"1225 Central Ave","lat":35.22128905,"lng":-80.817323,"neighborhood":"Plaza Midwood","city_fetched":"Charlotte,US","state":"NC","country":"United States","canonicalUrl":"https://foursquare.com/v/thirsty-beaver-saloon/4b104c38f964a520416d23e3","categoryId":"4bf58dd8d48988d118941735","category":"Dive Bar","checkinsCount":2802,"usersCount":1236,"tipCount":22,"visitsCount":2889,"tier":1,"message":"Cheap","currency":"$","rating":8.5},{"name":"Crave Dessert Bar","phone":"7043350588","twitter":"cravedessertbar","address":"500 W 5th St","lat":35.23181776219909,"lng":-80.8454741100744,"neighborhood":"Fourth Ward","city_fetched":"Charlotte,US","state":"NC","country":"United States","canonicalUrl":"https://foursquare.com/cravedessertbar","categoryId":"4bf58dd8d48988d121941735","category":"Lounge","checkinsCount":5586,"usersCount":3297,"tipCount":77,"visitsCount":6307,"url":"http://www.cravedessertbar.com","tier":3,"message":"Expensive","currency":"$","rating":8.5},{"name":"Thomas Street Tavern","phone":"7043761622","address":"1228 Thomas Ave","lat":35.219486342045045,"lng":-80.81188917160034,"city_fetched":"Charlotte,US","state":"NC","country":"United States","canonicalUrl":"https://foursquare.com/v/thomas-street-tavern/4b05863ef964a520ed5922e3","categoryId":"4bf58dd8d48988d116941735","category":"Bar","checkinsCount":10635,"usersCount":4185,"tipCount":48,"visitsCount":11718,"url":"http://www.thomas-street-tavern.com","tier":1,"message":"Cheap","currency":"$","rating":8.5},{"name":"The Punch Room","phone":"7045472244","twitter":"thepunchroom","address":"201 E Trade St","lat":35.226218839745634,"lng":-80.84171713233631,"neighborhood":"First Ward","city_fetched":"Charlotte,US","state":"NC","country":"United States","canonicalUrl":"https://foursquare.com/v/the-punch-room/549af5b3498e3a660685323b","categoryId":"4bf58dd8d48988d1d5941735","category":"Hotel Bar","checkinsCount":150,"usersCount":104,"tipCount":1,"visitsCount":152,"url":"http://www.ritzcarlton.com/en/Properties/Charlotte/Dining/PunchRoom/Default.htm#","tier":"","message":"","currency":"","rating":8.4},{"name":"Unknown Brewing Co.","twitter":"unknownbrewing","address":"1327 S Mint St","lat":35.22067128294585,"lng":-80.85781413649924,"neighborhood":"South End","city_fetched":"Charlotte,US","state":"NC","country":"United States","canonicalUrl":"https://foursquare.com/v/unknown-brewing-co/5113bb89e4b010ed94f6c1e1","categoryId":"50327c8591d4c4b30a586d5d","category":"Brewery","checkinsCount":1618,"usersCount":1644,"tipCount":25,"visitsCount":2726,"url":"http://www.unknownbrewing.com","tier":1,"message":"Cheap","currency":"$","rating":8.4},{"name":"The Wine Vault","phone":"7045489463","address":"9009 J M Keynes Dr","lat":35.31039443308517,"lng":-80.74916437003877,"neighborhood":"University City North","city_fetched":"Charlotte,US","state":"NC","country":"United States","canonicalUrl":"https://foursquare.com/v/the-wine-vault/4b05863bf964a5206b5922e3","categoryId":"4bf58dd8d48988d123941735","category":"Wine Bar","checkinsCount":4306,"usersCount":1592,"tipCount":19,"visitsCount":4373,"url":"http://www.headwino.com","tier":2,"message":"Moderate","currency":"$","rating":8.4},{"name":"The Broken Spoke","lat":35.18614668702354,"lng":-80.88097559913369,"city_fetched":"Charlotte,US","state":"NC","country":"United States","canonicalUrl":"https://foursquare.com/v/the-broken-spoke/569aa3e4498e55968fe62601","categoryId":"4bf58dd8d48988d121941735","category":"Lounge","checkinsCount":216,"usersCount":193,"tipCount":2,"visitsCount":235,"tier":"","message":"","currency":"","rating":8.4},{"name":"Twenty-Two","phone":"7043340122","address":"1500 Central Ave","lat":35.220239,"lng":-80.813407,"city_fetched":"Charlotte,US","state":"NC","country":"United States","canonicalUrl":"https://foursquare.com/v/twentytwo/4b1889aaf964a520f3d323e3","categoryId":"4bf58dd8d48988d116941735","category":"Bar","checkinsCount":3812,"usersCount":1188,"tipCount":28,"visitsCount":3873,"tier":2,"message":"Moderate","currency":"$","rating":8.4},{"name":"Duckworth's Grill & Taphouse","phone":"7045275783","twitter":"duckworthspark","address":"4435 Park Rd","lat":35.17078348260196,"lng":-80.85061466754082,"neighborhood":"Madison Park","city_fetched":"Charlotte,US","state":"NC","country":"United States","canonicalUrl":"https://foursquare.com/v/duckworths-grill--taphouse/4c256b8df1272d7f16e284c5","categoryId":"4bf58dd8d48988d11b941735","category":"Pub","checkinsCount":9733,"usersCount":3710,"tipCount":72,"visitsCount":10360,"url":"http://www.duckworths.com","tier":2,"message":"Moderate","currency":"$","rating":8.3},{"name":"Picasso's Sports Cafe","phone":"7045959553","address":"230 E W T Harris Blvd","lat":35.30356126350507,"lng":-80.74876928805114,"neighborhood":"University City South","city_fetched":"Charlotte,US","state":"NC","country":"United States","canonicalUrl":"https://foursquare.com/v/picassos-sports-cafe/4b0c369af964a520013923e3","categoryId":"4bf58dd8d48988d116941735","category":"Bar","checkinsCount":3734,"usersCount":1283,"tipCount":24,"visitsCount":4010,"url":"http://picassossportscafe.com","tier":1,"message":"Cheap","currency":"$","rating":8.3},{"name":"Eastfield Bar & Grill","phone":"7044641164","address":"8709 Arbor Creek Dr","lat":35.383780924358724,"lng":-80.78494645328637,"neighborhood":"Highland Creek","city_fetched":"Charlotte,US","state":"NC","country":"United States","canonicalUrl":"https://foursquare.com/v/eastfield-bar--grill/4b0896ebf964a520010f23e3","categoryId":"4bf58dd8d48988d116941735","category":"Bar","checkinsCount":2898,"usersCount":823,"tipCount":37,"visitsCount":3398,"url":"http://eastfieldcharlotte.com","tier":2,"message":"Moderate","currency":"$","rating":8.3},{"name":"Char Bar No 7","phone":"7045404722","address":"6300 Carmel Rd","lat":35.09166835525474,"lng":-80.84553897720784,"neighborhood":"Carmel","city_fetched":"Charlotte,US","state":"NC","country":"United States","canonicalUrl":"https://foursquare.com/v/char-bar-no-7/4de6eed3d22d215df549face","categoryId":"4bf58dd8d48988d11d941735","category":"Sports Bar","checkinsCount":2050,"usersCount":1055,"tipCount":28,"visitsCount":2659,"url":"http://charbar7.com","tier":2,"message":"Moderate","currency":"$","rating":8.3},{"name":"Tyber Creek Pub","phone":"7044342727","twitter":"tybercreek","address":"1933 South Blvd","lat":35.2098268367234,"lng":-80.8594822883606,"neighborhood":"Dilworth","city_fetched":"Charlotte,US","state":"NC","country":"United States","canonicalUrl":"https://foursquare.com/v/tyber-creek-pub/4b05863bf964a5206f5922e3","categoryId":"4bf58dd8d48988d116941735","category":"Bar","checkinsCount":7636,"usersCount":3023,"tipCount":29,"visitsCount":9146,"url":"http://www.tybercreek.com","tier":1,"message":"Cheap","currency":"$","rating":8.3},{"name":"Hickory Tavern","phone":"7042959009","address":"12210 Copper Way Ste 212","lat":35.07071498668397,"lng":-80.84422588348389,"city_fetched":"Charlotte,US","state":"NC","country":"United States","canonicalUrl":"https://foursquare.com/v/hickory-tavern/4bb8fc3a53649c74309447fb","categoryId":"4bf58dd8d48988d11d941735","category":"Sports Bar","checkinsCount":6189,"usersCount":2480,"tipCount":38,"visitsCount":7074,"url":"http://www.thehickorytavern.com","tier":2,"message":"Moderate","currency":"$","rating":8.3},{"name":"Ed's Tavern","phone":"7043350033","twitter":"edstavernclt","address":"2200 Park Rd","lat":35.20042919151353,"lng":-80.85244417190552,"neighborhood":"Dilworth","city_fetched":"Charlotte,US","state":"NC","country":"United States","canonicalUrl":"https://foursquare.com/v/eds-tavern/4b0930b3f964a520a11423e3","categoryId":"4bf58dd8d48988d116941735","category":"Bar","checkinsCount":8156,"usersCount":2591,"tipCount":33,"visitsCount":9713,"url":"http://www.edstavern.com","tier":1,"message":"Cheap","currency":"$","rating":8.3},{"name":"Barreled At The Lift","phone":"7046268850","twitter":"barreledclt","address":"1600 E Woodlawn Rd Ste 130","lat":35.172173471311915,"lng":-80.84935523444719,"neighborhood":"Madison Park","city_fetched":"Charlotte,US","state":"NC","country":"United States","canonicalUrl":"https://foursquare.com/v/barreled-at-the-lift/5081c3d6e4b091f169bd44ae","categoryId":"4bf58dd8d48988d1d4941735","category":"Speakeasy","checkinsCount":515,"usersCount":272,"tipCount":14,"visitsCount":522,"url":"http://barreledcharlotte.com","tier":"","message":"","currency":"","rating":8.2},{"name":"Rock Bottom Restaurant & Brewery","phone":"7043342739","address":"401 N Tryon St","lat":35.229653051886785,"lng":-80.83955476313844,"neighborhood":"Fourth Ward","city_fetched":"Charlotte,US","state":"NC","country":"United States","canonicalUrl":"https://foursquare.com/v/rock-bottom-restaurant--brewery/4b0bf502f964a520163523e3","categoryId":"50327c8591d4c4b30a586d5d","category":"Brewery","checkinsCount":6757,"usersCount":4770,"tipCount":66,"visitsCount":7345,"url":"http://rockbottom.com/locations/charlotte/","tier":2,"message":"Moderate","currency":"$","rating":8.2},{"name":"Label Charlotte","phone":"7049100526","twitter":"labelcharlotte","address":"900 NC Music Factory Blvd Ste B6","lat":35.23926240227175,"lng":-80.84459839863308,"neighborhood":"Fourth Ward","city_fetched":"Charlotte,US","state":"NC","country":"United States","canonicalUrl":"https://foursquare.com/v/label-charlotte/5078b180e4b069ffd726a21a","categoryId":"4bf58dd8d48988d11f941735","category":"Nightclub","checkinsCount":4032,"usersCount":1711,"tipCount":24,"visitsCount":4653,"url":"http://labelcharlotte.com","tier":2,"message":"Moderate","currency":"$","rating":8.2},{"name":"Omegas of Charlotte","address":"3301 Statesville Ave","lat":35.264431,"lng":-80.8377189,"city_fetched":"Charlotte,US","state":"NC","country":"United States","canonicalUrl":"https://foursquare.com/v/omegas-of-charlotte/4b8a441ff964a520546632e3","categoryId":"4bf58dd8d48988d1d4941735","category":"Speakeasy","checkinsCount":141,"usersCount":96,"tipCount":3,"visitsCount":184,"tier":"","message":"","currency":"","rating":8.2},{"name":"Beef & Bottle Restaurant","phone":"7045239977","address":"4538 South Blvd","lat":35.17932110391479,"lng":-80.87617741522493,"city_fetched":"Charlotte,US","state":"NC","country":"United States","canonicalUrl":"https://foursquare.com/v/beef--bottle-restaurant/4b05863af964a520505922e3","categoryId":"4bf58dd8d48988d116941735","category":"Bar","checkinsCount":1193,"usersCount":978,"tipCount":19,"visitsCount":1344,"url":"http://www.beefandbottle.com","tier":2,"message":"Moderate","currency":"$","rating":8.2},{"name":"Comet Grill","phone":"7043714300","address":"2224 Park Rd","lat":35.199990841964436,"lng":-80.85263729095459,"neighborhood":"Dilworth","city_fetched":"Charlotte,US","state":"NC","country":"United States","canonicalUrl":"https://foursquare.com/v/comet-grill/4b0aca14f964a520d92723e3","categoryId":"4bf58dd8d48988d116941735","category":"Bar","checkinsCount":3179,"usersCount":741,"tipCount":18,"visitsCount":3486,"url":"http://cometgrillcharlotte.com","tier":1,"message":"Cheap","currency":"$","rating":8.1},{"name":"Tempo Night Club-Charlotte's Premier Nightlife and Entertainment Venue","phone":"7043918909","twitter":"tempocharlotte","address":"4809 Wilkinson Blvd","lat":35.22947772414499,"lng":-80.91836214065552,"city_fetched":"Charlotte,US","state":"NC","country":"United States","canonicalUrl":"https://foursquare.com/v/tempo-night-clubcharlottes-premier-nightlife-and-entertainment-venue/4e4fcb1781308c328c68a170","categoryId":"4bf58dd8d48988d11f941735","category":"Nightclub","checkinsCount":342,"usersCount":154,"tipCount":8,"visitsCount":391,"tier":"","message":"","currency":"","rating":8.1},{"name":"Heist Brewery","phone":"7043758260","twitter":"heistbrewery","address":"2909 N Davidson St Ste 200","lat":35.24526308880031,"lng":-80.8094431227767,"neighborhood":"North Charlotte","city_fetched":"Charlotte,US","state":"NC","country":"United States","canonicalUrl":"https://foursquare.com/v/heist-brewery/4fc77edee4b0ab1440db69bb","categoryId":"50327c8591d4c4b30a586d5d","category":"Brewery","checkinsCount":6598,"usersCount":4350,"tipCount":82,"visitsCount":8451,"url":"http://www.heistbrewery.com","tier":2,"message":"Moderate","currency":"$","rating":8.1},{"name":"Kanvas","phone":"7042091133","address":"525 E 6th St Unit 117","lat":35.224613000000005,"lng":-80.835726,"neighborhood":"First Ward","city_fetched":"Charlotte,US","state":"NC","country":"United States","canonicalUrl":"https://foursquare.com/v/kanvas/4df24e7f22718759f81b4ad1","categoryId":"4bf58dd8d48988d11e941735","category":"Cocktail Bar","checkinsCount":398,"usersCount":204,"tipCount":9,"visitsCount":432,"url":"http://kanvasgallery.com","tier":"","message":"","currency":"","rating":8.1},{"name":"Angry Ale's","phone":"7045253663","address":"1518 Montford Dr","lat":35.17042029503764,"lng":-80.85011738302029,"neighborhood":"Madison Park","city_fetched":"Charlotte,US","state":"NC","country":"United States","canonicalUrl":"https://foursquare.com/v/angry-ales/4b241e73f964a520826124e3","categoryId":"4bf58dd8d48988d11d941735","category":"Sports Bar","checkinsCount":12130,"usersCount":3816,"tipCount":32,"visitsCount":12863,"url":"http://angryales.com","tier":2,"message":"Moderate","currency":"$","rating":8.1},{"name":"The Bar At 316","phone":"7049101478","twitter":"barat316","address":"316 Rensselaer Ave","lat":35.21368595675254,"lng":-80.85430734386148,"neighborhood":"Dilworth","city_fetched":"Charlotte,US","state":"NC","country":"United States","canonicalUrl":"https://foursquare.com/v/the-bar-at-316/4b344ddef964a520e32625e3","categoryId":"4bf58dd8d48988d1d8941735","category":"Gay Bar","checkinsCount":5165,"usersCount":1432,"tipCount":24,"visitsCount":6009,"url":"http://thebarat316.com","tier":2,"message":"Moderate","currency":"$","rating":8.1},{"name":"Providence Road Sundries","phone":"7043625355","address":"1522 Providence Rd","lat":35.1865909,"lng":-80.82199993333333,"neighborhood":"Myers Park","city_fetched":"Charlotte,US","state":"NC","country":"United States","canonicalUrl":"https://foursquare.com/v/providence-road-sundries/4b0db62ff964a520734e23e3","categoryId":"4bf58dd8d48988d11b941735","category":"Pub","checkinsCount":2094,"usersCount":963,"tipCount":17,"visitsCount":2514,"url":"http://providenceroadsundries.com","tier":"","message":"","currency":"","rating":8},{"name":"Hickory Tavern - Harris","phone":"7049214466","address":"9010 Harris Corners Pkwy","lat":35.34499026471029,"lng":-80.84220886230469,"city_fetched":"Charlotte,US","state":"NC","country":"United States","canonicalUrl":"https://foursquare.com/v/hickory-tavern--harris/4b0d9b1ef964a5200b4c23e3","categoryId":"4bf58dd8d48988d11d941735","category":"Sports Bar","checkinsCount":3053,"usersCount":1818,"tipCount":20,"visitsCount":3638,"url":"http://www.thehickorytavern.com","tier":2,"message":"Moderate","currency":"$","rating":8},{"name":"Hickory Tavern","phone":"7044947360","address":"13545 Steelecroft Pkwy","lat":35.101934057246055,"lng":-80.9912109375,"city_fetched":"Charlotte,US","state":"NC","country":"United States","canonicalUrl":"https://foursquare.com/v/hickory-tavern/4bd25afe77b29c7442b18e82","categoryId":"4bf58dd8d48988d11d941735","category":"Sports Bar","checkinsCount":4667,"usersCount":1744,"tipCount":33,"visitsCount":5377,"url":"http://www.thehickorytavern.com","tier":2,"message":"Moderate","currency":"$","rating":8},{"name":"Foxcroft Wine Co.","phone":"7046022133","address":"1235 East Blvd Suite I","lat":35.20283544172699,"lng":-80.84524166908169,"neighborhood":"Dilworth","city_fetched":"Charlotte,US","state":"NC","country":"United States","canonicalUrl":"https://foursquare.com/v/foxcroft-wine-co/564156e838fa319442c891c2","categoryId":"4bf58dd8d48988d123941735","category":"Wine Bar","checkinsCount":114,"usersCount":84,"tipCount":3,"visitsCount":126,"url":"http://www.foxcroftwine.com","tier":"","message":"","currency":"","rating":8},{"name":"Brazwell's","phone":"7045233500","address":"1627 Montford Dr","lat":35.17099763704606,"lng":-80.84866875399229,"neighborhood":"Madison Park","city_fetched":"Charlotte,US","state":"NC","country":"United States","canonicalUrl":"https://foursquare.com/v/brazwells/4b116f58f964a5207f7c23e3","categoryId":"4bf58dd8d48988d11b941735","category":"Pub","checkinsCount":9534,"usersCount":4126,"tipCount":34,"visitsCount":10528,"url":"http://brazwellspub.com","tier":1,"message":"Cheap","currency":"$","rating":8},{"name":"Bar Cocoa at The Ritz-Carlton","twitter":"barcocoaclt","address":"201 E Trade St","lat":35.22640910663744,"lng":-80.84200364187828,"neighborhood":"First Ward","city_fetched":"Charlotte,US","state":"NC","country":"United States","canonicalUrl":"https://foursquare.com/v/bar-cocoa-at-the-ritzcarlton/4e84b7815503e18a129b1cb4","categoryId":"4bf58dd8d48988d1d5941735","category":"Hotel Bar","checkinsCount":802,"usersCount":606,"tipCount":14,"visitsCount":804,"tier":"","message":"","currency":"","rating":8},{"name":"East Blvd Bar & Grill","phone":"7043322414","twitter":"ebbandg","address":"1315 East Blvd","lat":35.20159183333334,"lng":-80.84412623,"neighborhood":"Dilworth","city_fetched":"Charlotte,US","state":"NC","country":"United States","canonicalUrl":"https://foursquare.com/v/east-blvd-bar--grill/4b09c09bf964a520f41c23e3","categoryId":"4bf58dd8d48988d116941735","category":"Bar","checkinsCount":4743,"usersCount":1280,"tipCount":35,"visitsCount":5053,"url":"http://ebbandg.com","tier":1,"message":"Cheap","currency":"$","rating":8},{"name":"Apostrophe Lounge","phone":"7043717079","address":"1440 S Tryon St Ste 101","lat":35.21635860375473,"lng":-80.8561548568535,"neighborhood":"South End","city_fetched":"Charlotte,US","state":"NC","country":"United States","canonicalUrl":"https://foursquare.com/v/apostrophe-lounge/4b1210caf964a520c58823e3","categoryId":"4bf58dd8d48988d121941735","category":"Lounge","checkinsCount":947,"usersCount":497,"tipCount":13,"visitsCount":1005,"url":"http://www.apostrophelounge.com","tier":"","message":"","currency":"","rating":7.9},{"name":"Whiskey Warehouse","phone":"7043347005","address":"1221 The Plaza","lat":35.219172242156894,"lng":-80.8111953034516,"city_fetched":"Charlotte,US","state":"NC","country":"United States","canonicalUrl":"https://foursquare.com/v/whiskey-warehouse/4b32694ef964a520f60a25e3","categoryId":"4bf58dd8d48988d116941735","category":"Bar","checkinsCount":9502,"usersCount":4290,"tipCount":61,"visitsCount":10658,"url":"http://whiskeywarehouse.com","tier":2,"message":"Moderate","currency":"$","rating":7.9},{"name":"Lenny Boy Brewing Co.","twitter":"lennyboytea","address":"2224","lat":35.208459954420874,"lng":-80.86516968172619,"city_fetched":"Charlotte,US","state":"NC","country":"United States","canonicalUrl":"https://foursquare.com/v/lenny-boy-brewing-co/5053e7474c7fc6b1eec24d66","categoryId":"50327c8591d4c4b30a586d5d","category":"Brewery","checkinsCount":518,"usersCount":429,"tipCount":9,"visitsCount":710,"url":"http://www.discoverlennyboy.com","tier":1,"message":"Cheap","currency":"$","rating":7.8},{"name":"Sports Bar One","lat":35.229951,"lng":-80.837372,"neighborhood":"First Ward","city_fetched":"Charlotte,US","state":"NC","country":"United States","canonicalUrl":"https://foursquare.com/v/sports-bar-one/53e4367b498ed822e02e1e2a","categoryId":"4bf58dd8d48988d11e941735","category":"Cocktail Bar","checkinsCount":417,"usersCount":595,"tipCount":13,"visitsCount":1046,"tier":"","message":"","currency":"","rating":7.8},{"name":"The Wooden Vine","phone":"7043768463","address":"231 N Tryon St","lat":35.22862,"lng":-80.841012,"neighborhood":"First Ward","city_fetched":"Charlotte,US","state":"NC","country":"United States","canonicalUrl":"https://foursquare.com/v/the-wooden-vine/4b775c60f964a52006952ee3","categoryId":"4bf58dd8d48988d123941735","category":"Wine Bar","checkinsCount":1660,"usersCount":932,"tipCount":30,"visitsCount":1685,"url":"http://www.thewoodenvine.com","tier":2,"message":"Moderate","currency":"$","rating":7.8},{"name":"Bulldog Beer & Wine","address":"1434 Winnifred St","lat":35.21753096939701,"lng":-80.8571871814583,"neighborhood":"South End","city_fetched":"Charlotte,US","state":"NC","country":"United States","canonicalUrl":"https://foursquare.com/v/bulldog-beer--wine/566b8c90498ec5ed8c0dbdf4","categoryId":"4bf58dd8d48988d117941735","category":"Beer Garden","checkinsCount":314,"usersCount":167,"tipCount":2,"visitsCount":397,"tier":"","message":"","currency":"","rating":7.8},{"name":"Coyote Joe's","phone":"7043994946","address":"4621 Wilkinson Blvd","lat":35.22779505120292,"lng":-80.91600179672241,"city_fetched":"Charlotte,US","state":"NC","country":"United States","canonicalUrl":"https://foursquare.com/v/coyote-joes/4b05863af964a520495922e3","categoryId":"4bf58dd8d48988d11f941735","category":"Nightclub","checkinsCount":3707,"usersCount":2190,"tipCount":17,"visitsCount":4210,"url":"http://www.coyote-joes.com","tier":2,"message":"Moderate","currency":"$","rating":7.8},{"name":"Sanctuary","phone":"7043319797","address":"501 E 36th St","lat":35.24756221323081,"lng":-80.80441350317058,"neighborhood":"North Charlotte","city_fetched":"Charlotte,US","state":"NC","country":"United States","canonicalUrl":"https://foursquare.com/v/sanctuary/4b2440f2f964a520c36424e3","categoryId":"4bf58dd8d48988d116941735","category":"Bar","checkinsCount":3027,"usersCount":799,"tipCount":18,"visitsCount":3057,"tier":"","message":"","currency":"","rating":7.8},{"name":"Steamers","phone":"7045689273","address":"1513 Pierson Drive","lat":35.19959104812208,"lng":-80.7644466073136,"neighborhood":"North Sharon Amity","city_fetched":"Charlotte,US","state":"NC","country":"United States","canonicalUrl":"https://foursquare.com/v/steamers/4ba154adf964a5204ead37e3","categoryId":"4bf58dd8d48988d120941735","category":"Karaoke Bar","checkinsCount":2813,"usersCount":467,"tipCount":21,"visitsCount":3348,"url":"http://steamerssportspub.com","tier":2,"message":"Moderate","currency":"$","rating":7.8},{"name":"Club Onyx","phone":"7045257050","twitter":"onyxcharlotte","address":"5300 Old Pineville Rd","lat":35.1697783291154,"lng":-80.87874404720255,"city_fetched":"Charlotte,US","state":"NC","country":"United States","canonicalUrl":"https://foursquare.com/v/club-onyx/4b81eb62f964a52009c430e3","categoryId":"4bf58dd8d48988d1d6941735","category":"Strip Club","checkinsCount":949,"usersCount":821,"tipCount":13,"visitsCount":1356,"url":"http://onyxclubs.com","tier":"","message":"","currency":"","rating":7.8},{"name":"The Blind Pig","phone":"9808199942","address":"453 E 36th St","lat":35.24790842992487,"lng":-80.80451626198764,"neighborhood":"North Charlotte","city_fetched":"Charlotte,US","state":"NC","country":"United States","canonicalUrl":"https://foursquare.com/v/the-blind-pig/4e4d4f9e18388d498173bc76","categoryId":"4bf58dd8d48988d116941735","category":"Bar","checkinsCount":5630,"usersCount":2218,"tipCount":31,"visitsCount":5778,"url":"http://theblindpignoda.com/home/","tier":1,"message":"Cheap","currency":"$","rating":7.8},{"name":"Boardwalk Billy's Raw Bar & Ribs","phone":"7045037427","twitter":"billysuncc","address":"9005 J M Keynes Dr","lat":35.31060770650628,"lng":-80.74964046478271,"neighborhood":"University City North","city_fetched":"Charlotte,US","state":"NC","country":"United States","canonicalUrl":"https://foursquare.com/v/boardwalk-billys-raw-bar--ribs/4b05863ef964a5200d5a22e3","categoryId":"4bf58dd8d48988d116941735","category":"Bar","checkinsCount":10619,"usersCount":4141,"tipCount":62,"visitsCount":11098,"url":"http://www.boardwalkbillys.com","tier":2,"message":"Moderate","currency":"$","rating":7.8},{"name":"Solstice Tavern","phone":"7043422556","address":"3221 N Davidson St","lat":35.24756023,"lng":-80.805164,"neighborhood":"North Charlotte","city_fetched":"Charlotte,US","state":"NC","country":"United States","canonicalUrl":"https://foursquare.com/v/solstice-tavern/4b0f6a70f964a520266223e3","categoryId":"4bf58dd8d48988d116941735","category":"Bar","checkinsCount":9087,"usersCount":3095,"tipCount":37,"visitsCount":9198,"url":"http://www.solsticetavern.com","tier":2,"message":"Moderate","currency":"$","rating":7.8},{"name":"Mortimer's Cafe & Pub","phone":"7046880366","twitter":"mortimerspub","address":"210 E Trade St","lat":35.22528850492729,"lng":-80.84225177764893,"neighborhood":"Second Ward","city_fetched":"Charlotte,US","state":"NC","country":"United States","canonicalUrl":"https://foursquare.com/mortimerspub","categoryId":"4bf58dd8d48988d11b941735","category":"Pub","checkinsCount":8374,"usersCount":3989,"tipCount":51,"visitsCount":8446,"url":"http://www.mortimerspub.com","tier":2,"message":"Moderate","currency":"$","rating":7.8},{"name":"Sidelines Sports Bar","phone":"7045252608","address":"4544 South Blvd Ste C","lat":35.17893734006586,"lng":-80.87652323991958,"city_fetched":"Charlotte,US","state":"NC","country":"United States","canonicalUrl":"https://foursquare.com/v/sidelines-sports-bar/4b3c1463f964a520788125e3","categoryId":"4bf58dd8d48988d11d941735","category":"Sports Bar","checkinsCount":2219,"usersCount":607,"tipCount":10,"visitsCount":2405,"url":"http://www.thesidelinesbar.com","tier":1,"message":"Cheap","currency":"$","rating":7.7},{"name":"BlackFinn American Saloon","phone":"7049714440","address":"210 E Trade St","lat":35.22571795366681,"lng":-80.84225177764893,"neighborhood":"Second Ward","city_fetched":"Charlotte,US","state":"NC","country":"United States","canonicalUrl":"https://foursquare.com/v/blackfinn-american-saloon/4b11c4c8f964a520488423e3","categoryId":"4bf58dd8d48988d116941735","category":"Bar","checkinsCount":15582,"usersCount":7596,"tipCount":59,"visitsCount":15809,"url":"http://blackfinncharlotte.com/index.php","tier":2,"message":"Moderate","currency":"$","rating":7.7},{"name":"Worlds Largest Pub Crawl","lat":35.22757845043518,"lng":-80.83688415667999,"neighborhood":"First Ward","city_fetched":"Charlotte,US","state":"NC","country":"United States","canonicalUrl":"https://foursquare.com/v/worlds-largest-pub-crawl/5144a800e4b021dacf74ac72","categoryId":"4bf58dd8d48988d11b941735","category":"Pub","checkinsCount":117,"usersCount":130,"tipCount":0,"visitsCount":140,"tier":"","message":"","currency":"","rating":7.7},{"name":"Tavern on the Tracks","phone":"7043720782","twitter":"taverntracks","address":"1411 S Tryon St","lat":35.21697163742295,"lng":-80.85465769227785,"neighborhood":"South End","city_fetched":"Charlotte,US","state":"NC","country":"United States","canonicalUrl":"https://foursquare.com/v/tavern-on-the-tracks/4b0cae9ef964a520f44023e3","categoryId":"4bf58dd8d48988d11d941735","category":"Sports Bar","checkinsCount":5950,"usersCount":2639,"tipCount":52,"visitsCount":6247,"url":"http://tavernonthetracks.com","tier":2,"message":"Moderate","currency":"$","rating":7.7},{"name":"All American Pub","phone":"7043702000","twitter":"allamericanpub","address":"200 E Bland St","lat":35.21660238942509,"lng":-80.85450635278407,"neighborhood":"South End","city_fetched":"Charlotte,US","state":"NC","country":"United States","canonicalUrl":"https://foursquare.com/allamericanpub","categoryId":"4bf58dd8d48988d11d941735","category":"Sports Bar","checkinsCount":8424,"usersCount":3448,"tipCount":36,"visitsCount":10285,"url":"http://allamericanpubclt.com","tier":2,"message":"Moderate","currency":"$","rating":7.7},{"name":"Double Door Inn","address":"1218 Charlottetowne Ave","lat":35.21592070509215,"lng":-80.82820136810001,"neighborhood":"Elizabeth","city_fetched":"Charlotte,US","state":"NC","country":"United States","canonicalUrl":"https://foursquare.com/v/double-door-inn/4b05863cf964a520905922e3","categoryId":"4bf58dd8d48988d11f941735","category":"Nightclub","checkinsCount":1003,"usersCount":707,"tipCount":10,"visitsCount":1083,"url":"http://doubledoorinn.com","tier":"","message":"","currency":"","rating":7.7},{"name":"Uptown Cabaret","phone":"7043440802","twitter":"uptowncabaret","address":"108 E Morehead St","lat":35.22042861691041,"lng":-80.85123626884905,"neighborhood":"South End","city_fetched":"Charlotte,US","state":"NC","country":"United States","canonicalUrl":"https://foursquare.com/v/uptown-cabaret/4b147d0cf964a520c8a323e3","categoryId":"4bf58dd8d48988d1d6941735","category":"Strip Club","checkinsCount":3209,"usersCount":1799,"tipCount":20,"visitsCount":3733,"url":"http://www.uptowncabaretclubs.com","tier":"","message":"","currency":"","rating":7.7},{"name":"The Rabbit Hole","address":"1801 Commonwealth Ave","lat":35.21916490724867,"lng":-80.8136666785472,"city_fetched":"Charlotte,US","state":"NC","country":"United States","canonicalUrl":"https://foursquare.com/v/the-rabbit-hole/54d57b33498e52c0dd1cb8b0","categoryId":"4bf58dd8d48988d116941735","category":"Bar","checkinsCount":231,"usersCount":212,"tipCount":1,"visitsCount":261,"tier":"","message":"","currency":"","rating":7.6},{"name":"Kennedy's Premium Bar & Grill","phone":"7043750218","twitter":"kennedys_clt","address":"366 N Caswell Rd","lat":35.21213551571343,"lng":-80.8184037189917,"neighborhood":"Elizabeth","city_fetched":"Charlotte,US","state":"NC","country":"United States","canonicalUrl":"https://foursquare.com/v/kennedys-premium-bar--grill/4cb366ce562d224beba82d88","categoryId":"4bf58dd8d48988d116941735","category":"Bar","checkinsCount":9795,"usersCount":2846,"tipCount":49,"visitsCount":9963,"url":"http://www.kennedyscharlotte.com","tier":2,"message":"Moderate","currency":"$","rating":7.6},{"name":"Lucky Lou's Tavern","phone":"7049191282","address":"5124 Park Rd","lat":35.160259317738934,"lng":-80.84951739432547,"neighborhood":"Madison Park","city_fetched":"Charlotte,US","state":"NC","country":"United States","canonicalUrl":"https://foursquare.com/v/lucky-lous-tavern/4b1f28a7f964a520842424e3","categoryId":"4bf58dd8d48988d116941735","category":"Bar","checkinsCount":3492,"usersCount":954,"tipCount":23,"visitsCount":3756,"url":"http://www.luckyloustavern.com","tier":1,"message":"Cheap","currency":"$","rating":7.6},{"name":"Jackalope Jack's","phone":"7043471918","address":"1936 E 7th St","lat":35.212974372037266,"lng":-80.81890120018262,"neighborhood":"Elizabeth","city_fetched":"Charlotte,US","state":"NC","country":"United States","canonicalUrl":"https://foursquare.com/v/jackalope-jacks/4b05863bf964a520615922e3","categoryId":"4bf58dd8d48988d11d941735","category":"Sports Bar","checkinsCount":11780,"usersCount":4333,"tipCount":59,"visitsCount":12466,"url":"http://jackalopejacks.com","tier":2,"message":"Moderate","currency":"$","rating":7.6},{"name":"Valhalla Pub & Eatery","phone":"7043323273","address":"317 S Church St","lat":35.22620874944327,"lng":-80.84688663482666,"neighborhood":"Third Ward","city_fetched":"Charlotte,US","state":"NC","country":"United States","canonicalUrl":"https://foursquare.com/v/valhalla-pub--eatery/4d964f5961a3a1cd96d89842","categoryId":"4bf58dd8d48988d11b941735","category":"Pub","checkinsCount":2639,"usersCount":1387,"tipCount":28,"visitsCount":2708,"url":"http://valhallapub.com","tier":"","message":"","currency":"","rating":7.6},{"name":"Midwood Country Club","lat":35.21984042215693,"lng":-80.80470555420172,"neighborhood":"Plaza Midwood","city_fetched":"Charlotte,US","state":"NC","country":"United States","canonicalUrl":"https://foursquare.com/v/midwood-country-club/545aff9c498e0c4b50b47dfd","categoryId":"4bf58dd8d48988d116941735","category":"Bar","checkinsCount":359,"usersCount":170,"tipCount":1,"visitsCount":620,"tier":"","message":"","currency":"","rating":7.6},{"name":"The Men's Club","phone":"7045258525","address":"444 Tyvola Rd","lat":35.16042444101067,"lng":-80.886390209198,"city_fetched":"Charlotte,US","state":"NC","country":"United States","canonicalUrl":"https://foursquare.com/v/the-mens-club/4b05863bf964a520645922e3","categoryId":"4bf58dd8d48988d1d6941735","category":"Strip Club","checkinsCount":2578,"usersCount":1332,"tipCount":17,"visitsCount":3179,"tier":"","message":"","currency":"","rating":7.5},{"name":"Vault Charlotte","phone":"7042724713","twitter":"vaultnc","address":"210 E Trade St","lat":35.22554475287058,"lng":-80.84189011935209,"neighborhood":"Second Ward","city_fetched":"Charlotte,US","state":"NC","country":"United States","canonicalUrl":"https://foursquare.com/v/vault-charlotte/52cf5ad911d2c97e92971537","categoryId":"4bf58dd8d48988d11f941735","category":"Nightclub","checkinsCount":360,"usersCount":198,"tipCount":3,"visitsCount":363,"tier":"","message":"","currency":"","rating":7.5},{"name":"The Wine Loft Charlotte","phone":"7049190222","address":"2201 South Blvd.","lat":35.20661843460166,"lng":-80.86085557937622,"neighborhood":"Dilworth","city_fetched":"Charlotte,US","state":"NC","country":"United States","canonicalUrl":"https://foursquare.com/v/the-wine-loft-charlotte/4b3006ddf964a520acf424e3","categoryId":"4bf58dd8d48988d123941735","category":"Wine Bar","checkinsCount":1227,"usersCount":761,"tipCount":19,"visitsCount":1253,"url":"http://wineloftcharlotte.com","tier":"","message":"","currency":"","rating":7.5},{"name":"Cru Wine Shop","phone":"7045419463","address":"12206 Copper Way","lat":35.07038056772184,"lng":-80.84424162456123,"city_fetched":"Charlotte,US","state":"NC","country":"United States","canonicalUrl":"https://foursquare.com/v/cru-wine-shop/4b85c4c8f964a520ec7131e3","categoryId":"4bf58dd8d48988d123941735","category":"Wine Bar","checkinsCount":559,"usersCount":285,"tipCount":11,"visitsCount":580,"tier":"","message":"","currency":"","rating":7.5},{"name":"5400 Bar And Grill","address":"5400 NIVEN ROAD","lat":35.30015563964844,"lng":-80.80762481689453,"neighborhood":"Derita - Statesville","city_fetched":"Charlotte,US","state":"NC","country":"United States","canonicalUrl":"https://foursquare.com/v/5400-bar-and-grill/51f0852f498ea6409d56762f","categoryId":"4bf58dd8d48988d116941735","category":"Bar","checkinsCount":99,"usersCount":178,"tipCount":2,"visitsCount":429,"tier":"","message":"","currency":"","rating":7.5},{"name":"the Dog Bar","phone":"7043703595","twitter":"dogbarcharlotte","address":"3307 N Davidson St","lat":35.24801246441263,"lng":-80.80427288562923,"neighborhood":"North Charlotte","city_fetched":"Charlotte,US","state":"NC","country":"United States","canonicalUrl":"https://foursquare.com/v/the-dog-bar/4b05863ff964a5202a5a22e3","categoryId":"4bf58dd8d48988d116941735","category":"Bar","checkinsCount":2157,"usersCount":820,"tipCount":14,"visitsCount":2180,"url":"http://www.dogbarcharlotte.com","tier":2,"message":"Moderate","currency":"$","rating":7.5},{"name":"Hickory Tavern","phone":"7048474408","address":"11504 Providence Rd","lat":35.053511,"lng":-80.770713,"city_fetched":"Charlotte,US","state":"NC","country":"United States","canonicalUrl":"https://foursquare.com/v/hickory-tavern/4bb69d846edc76b02d43311c","categoryId":"4bf58dd8d48988d11d941735","category":"Sports Bar","checkinsCount":2654,"usersCount":1495,"tipCount":20,"visitsCount":3082,"url":"http://www.thehickorytavern.com","tier":2,"message":"Moderate","currency":"$","rating":7.5},{"name":"The Yellow Rose","phone":"7045561992","address":"7631 Sharon Lakes Rd","lat":35.12768943775699,"lng":-80.87502105303082,"city_fetched":"Charlotte,US","state":"NC","country":"United States","canonicalUrl":"https://foursquare.com/v/the-yellow-rose/4cfc4b75feec6dcbdeb94b36","categoryId":"4bf58dd8d48988d118941735","category":"Dive Bar","checkinsCount":369,"usersCount":122,"tipCount":3,"visitsCount":378,"tier":"","message":"","currency":"","rating":7.5},{"name":"Carolina Ale House","phone":"7049403600","twitter":"carolinalehouse","address":"201 S College St Ste 100","lat":35.22527614953954,"lng":-80.84314966980388,"neighborhood":"Second Ward","city_fetched":"Charlotte,US","state":"NC","country":"United States","canonicalUrl":"https://foursquare.com/v/carolina-ale-house/4e77c37ab993adb6bd7e6f46","categoryId":"4bf58dd8d48988d11d941735","category":"Sports Bar","checkinsCount":8868,"usersCount":5241,"tipCount":55,"visitsCount":9628,"url":"http://www.carolinaalehouse.com","tier":2,"message":"Moderate","currency":"$","rating":7.4},{"name":"Hattie's Tap & Tavern","phone":"9809386228","twitter":"hattiesclt","address":"2918 The Plaza","lat":35.237035,"lng":-80.800533,"city_fetched":"Charlotte,US","state":"NC","country":"United States","canonicalUrl":"https://foursquare.com/v/hatties-tap--tavern/5403e06a498ebbf2f012b892","categoryId":"4bf58dd8d48988d118941735","category":"Dive Bar","checkinsCount":600,"usersCount":234,"tipCount":2,"visitsCount":885,"tier":"","message":"","currency":"","rating":7.4},{"name":"Moo & Brew","address":"1300 Central Ave","lat":35.22082,"lng":-80.816895,"neighborhood":"Elizabeth","city_fetched":"Charlotte,US","state":"NC","country":"United States","canonicalUrl":"https://foursquare.com/v/moo--brew/574771ca498e5212c54c7919","categoryId":"56aa371ce4b08b9a8d57356c","category":"Beer Bar","checkinsCount":142,"usersCount":141,"tipCount":5,"visitsCount":188,"tier":"","message":"","currency":"","rating":7.4},{"name":"Free Range Brewing","address":"2320 N Davidson St","lat":35.24072283092856,"lng":-80.81324487373422,"neighborhood":"Villa Heights","city_fetched":"Charlotte,US","state":"NC","country":"United States","canonicalUrl":"https://foursquare.com/v/free-range-brewing/5595d908498e69837393da4e","categoryId":"50327c8591d4c4b30a586d5d","category":"Brewery","checkinsCount":657,"usersCount":653,"tipCount":4,"visitsCount":1086,"tier":"","message":"","currency":"","rating":7.4},{"name":"Stache House Bar & Lounge","phone":"9803350530","twitter":"stachehouseclt","address":"1520 South Blvd","lat":35.214035601174174,"lng":-80.85531709673293,"neighborhood":"Dilworth","city_fetched":"Charlotte,US","state":"NC","country":"United States","canonicalUrl":"https://foursquare.com/v/stache-house-bar--lounge/50b7669ae4b00e4ad9d64e7c","categoryId":"4bf58dd8d48988d116941735","category":"Bar","checkinsCount":1746,"usersCount":955,"tipCount":15,"visitsCount":1935,"url":"http://stachehouseclt.com","tier":"","message":"","currency":"","rating":7.3},{"name":"Jeff's Bucket Shop","phone":"7045250425","address":"1601 Montford Dr","lat":35.17082324434524,"lng":-80.84962550072859,"neighborhood":"Madison Park","city_fetched":"Charlotte,US","state":"NC","country":"United States","canonicalUrl":"https://foursquare.com/v/jeffs-bucket-shop/4b32f6d0f964a520791625e3","categoryId":"4bf58dd8d48988d116941735","category":"Bar","checkinsCount":1693,"usersCount":801,"tipCount":5,"visitsCount":1736,"url":"http://jeffsbucketshop.com","tier":2,"message":"Moderate","currency":"$","rating":7.3},{"name":"Tilt on Trade","phone":"7043474870","twitter":"tiltontrade","address":"127 W Trade St","lat":35.22789725278758,"lng":-80.84397134011593,"neighborhood":"Third Ward","city_fetched":"Charlotte,US","state":"NC","country":"United States","canonicalUrl":"https://foursquare.com/v/tilt-on-trade/4b1b2203f964a520aaf823e3","categoryId":"4bf58dd8d48988d116941735","category":"Bar","checkinsCount":6593,"usersCount":1846,"tipCount":24,"visitsCount":6817,"url":"http://tiltontradenc.com","tier":2,"message":"Moderate","currency":"$","rating":7.3},{"name":"The Corner Pub","phone":"7043762720","address":"335 N Graham St","lat":35.232965653784305,"lng":-80.84398984909058,"neighborhood":"Fourth Ward","city_fetched":"Charlotte,US","state":"NC","country":"United States","canonicalUrl":"https://foursquare.com/v/the-corner-pub/4b15d067f964a520a0b423e3","categoryId":"4bf58dd8d48988d11b941735","category":"Pub","checkinsCount":3314,"usersCount":1264,"tipCount":16,"visitsCount":3899,"url":"http://www.cornerpubcharlotte.com","tier":1,"message":"Cheap","currency":"$","rating":7.3},{"name":"Big Ben British Pub & Restaurant","phone":"7048179697","address":"2000 South Blvd","lat":35.20972164522138,"lng":-80.86064100265503,"neighborhood":"Dilworth","city_fetched":"Charlotte,US","state":"NC","country":"United States","canonicalUrl":"https://foursquare.com/v/big-ben-british-pub--restaurant/4d0eb76bb4abb60c69c2427a","categoryId":"4bf58dd8d48988d11b941735","category":"Pub","checkinsCount":3075,"usersCount":1770,"tipCount":30,"visitsCount":3502,"url":"http://bigbenpub.com","tier":1,"message":"Cheap","currency":"$","rating":7.3},{"name":"Tempo","address":"4809 Wilkinson Blvd","lat":35.229565,"lng":-80.919112,"city_fetched":"Charlotte,US","state":"NC","country":"United States","canonicalUrl":"https://foursquare.com/v/tempo/4b05863bf964a520805922e3","categoryId":"4bf58dd8d48988d116941735","category":"Bar","checkinsCount":314,"usersCount":142,"tipCount":7,"visitsCount":317,"tier":"","message":"","currency":"","rating":7.3},{"name":"The Lodge","phone":"7045445226","address":"7725 Colony Rd","lat":35.106374,"lng":-80.80743608,"city_fetched":"Charlotte,US","state":"NC","country":"United States","canonicalUrl":"https://foursquare.com/v/the-lodge/4b0c0336f964a520b13523e3","categoryId":"4bf58dd8d48988d116941735","category":"Bar","checkinsCount":1644,"usersCount":572,"tipCount":20,"visitsCount":1718,"tier":"","message":"","currency":"","rating":7.3},{"name":"The Trap","phone":"7049105640","address":"1923 Westinghouse Blvd","lat":35.12805967378314,"lng":-80.93852049316328,"city_fetched":"Charlotte,US","state":"NC","country":"United States","canonicalUrl":"https://foursquare.com/v/the-trap/4c257a75c11dc9b6f1682724","categoryId":"4bf58dd8d48988d118941735","category":"Dive Bar","checkinsCount":1217,"usersCount":281,"tipCount":17,"visitsCount":1266,"tier":"","message":"","currency":"","rating":7.2},{"name":"Roxbury","phone":"7043758090","address":"116 W 5th St","lat":35.22851893668177,"lng":-80.84231177363883,"neighborhood":"Fourth Ward","city_fetched":"Charlotte,US","state":"NC","country":"United States","canonicalUrl":"https://foursquare.com/v/roxbury/5078624de4b08ed646e7dc2b","categoryId":"4bf58dd8d48988d11f941735","category":"Nightclub","checkinsCount":1697,"usersCount":1093,"tipCount":18,"visitsCount":1738,"url":"http://roxburynightclub.com","tier":2,"message":"Moderate","currency":"$","rating":7.2},{"name":"Red @ 28th","twitter":"red28th","address":"9539 Pinnacle Dr Ste 203","lat":35.32880742498018,"lng":-80.7386863231659,"neighborhood":"University City North","city_fetched":"Charlotte,US","state":"NC","country":"United States","canonicalUrl":"https://foursquare.com/v/red--28th/53095442498e01747243f0f3","categoryId":"4bf58dd8d48988d119941735","category":"Hookah Bar","checkinsCount":127,"usersCount":70,"tipCount":5,"visitsCount":162,"url":"http://www.redat28th.com","tier":"","message":"","currency":"","rating":7.2},{"name":"Prohibition","phone":"7043584244","address":"200 N Tryon St","lat":35.22795441515583,"lng":-80.84181443757862,"neighborhood":"First Ward","city_fetched":"Charlotte,US","state":"NC","country":"United States","canonicalUrl":"https://foursquare.com/v/prohibition/4d5c58e1775f8cfad0bdb4e0","categoryId":"4bf58dd8d48988d116941735","category":"Bar","checkinsCount":10240,"usersCount":3826,"tipCount":26,"visitsCount":10358,"url":"http://prohibitionclt.com","tier":1,"message":"Cheap","currency":"$","rating":7.2},{"name":"Wet Willie's","phone":"7047165650","twitter":"wetwillies","address":"900 Seaboard St.","lat":35.23927548333333,"lng":-80.84515352,"neighborhood":"Fourth Ward","city_fetched":"Charlotte,US","state":"NC","country":"United States","canonicalUrl":"https://foursquare.com/v/wet-willies/4be21308b02ec9b63d2a4cc0","categoryId":"4bf58dd8d48988d116941735","category":"Bar","checkinsCount":4961,"usersCount":2874,"tipCount":45,"visitsCount":5003,"url":"http://www.wetwillies.com","tier":2,"message":"Moderate","currency":"$","rating":7.2},{"name":"Small Bar","phone":"7046413773","address":"1000 Hamilton St.","lat":35.239187467449185,"lng":-80.84604978561401,"neighborhood":"Fourth Ward","city_fetched":"Charlotte,US","state":"NC","country":"United States","canonicalUrl":"https://foursquare.com/v/small-bar/4e67df7c1838501628849e21","categoryId":"4bf58dd8d48988d116941735","category":"Bar","checkinsCount":1459,"usersCount":740,"tipCount":13,"visitsCount":1473,"tier":1,"message":"Cheap","currency":"$","rating":7.2},{"name":"P.J. O'Reilly's Irish Pub","phone":"7043946224","address":"16640 Hawfield Way Dr","lat":35.02262675857369,"lng":-80.84726874805872,"neighborhood":"Ballantyne West","city_fetched":"Charlotte,US","state":"NC","country":"United States","canonicalUrl":"https://foursquare.com/v/pj-oreillys-irish-pub/4b50b523f964a520912e27e3","categoryId":"4bf58dd8d48988d11b941735","category":"Pub","checkinsCount":1951,"usersCount":669,"tipCount":21,"visitsCount":2078,"url":"http://pjoreillysirishpubandgrill.com","tier":2,"message":"Moderate","currency":"$","rating":7.2},{"name":"On The Roxx","twitter":"southendroxx","address":"1520 South Blvd","lat":35.21408697802359,"lng":-80.85546970367432,"neighborhood":"Dilworth","city_fetched":"Charlotte,US","state":"NC","country":"United States","canonicalUrl":"https://foursquare.com/v/on-the-roxx/4b591664f964a520e97b28e3","categoryId":"4bf58dd8d48988d11e941735","category":"Cocktail Bar","checkinsCount":325,"usersCount":191,"tipCount":13,"visitsCount":325,"tier":"","message":"","currency":"","rating":7.1},{"name":"Nikki's","address":"3001 Little Rock Rd","lat":35.23618778701777,"lng":-80.94210014511016,"city_fetched":"Charlotte,US","state":"NC","country":"United States","canonicalUrl":"https://foursquare.com/v/nikkis/4bcdf328fb84c9b601e7223e","categoryId":"4bf58dd8d48988d1d6941735","category":"Strip Club","checkinsCount":251,"usersCount":146,"tipCount":2,"visitsCount":252,"tier":"","message":"","currency":"","rating":7.1},{"name":"Rooftop 210","address":"210 East Trade St SuiteB320","lat":35.22567085392106,"lng":-80.84237123752642,"neighborhood":"Second Ward","city_fetched":"Charlotte,US","state":"NC","country":"United States","canonicalUrl":"https://foursquare.com/v/rooftop-210/5348a6d2498ed70ddb2bdd17","categoryId":"4bf58dd8d48988d116941735","category":"Bar","checkinsCount":879,"usersCount":592,"tipCount":6,"visitsCount":905,"tier":"","message":"","currency":"","rating":7.1},{"name":"Daisy Dooks","phone":"7043990809","address":"3049 Scott Futrell Dr","lat":35.23855119235618,"lng":-80.9178763070739,"city_fetched":"Charlotte,US","state":"NC","country":"United States","canonicalUrl":"https://foursquare.com/v/daisy-dooks/4eaa1ed993ad72a2da4d3ee6","categoryId":"4bf58dd8d48988d1d6941735","category":"Strip Club","checkinsCount":842,"usersCount":335,"tipCount":7,"visitsCount":842,"tier":"","message":"","currency":"","rating":7.1},{"name":"Beaudevin Wine Bar","phone":"7043594318","twitter":"hmshost","address":"Charlotte Douglas International Airport","lat":35.22016319804162,"lng":-80.94410856692818,"city_fetched":"Charlotte,US","state":"NC","country":"United States","canonicalUrl":"https://foursquare.com/v/beaudevin-wine-bar/501bf62ee4b002c1881d55cd","categoryId":"4bf58dd8d48988d123941735","category":"Wine Bar","checkinsCount":1418,"usersCount":1027,"tipCount":58,"visitsCount":1419,"tier":3,"message":"Expensive","currency":"$","rating":7.1},{"name":"Fox & Hound","phone":"7045092853","twitter":"the_foxandhound","address":"9325 Center Lake Drive","lat":35.34911839,"lng":-80.85508582,"city_fetched":"Charlotte,US","state":"NC","country":"United States","canonicalUrl":"https://foursquare.com/v/fox--hound/4b189eedf964a520b2d423e3","categoryId":"4bf58dd8d48988d11b941735","category":"Pub","checkinsCount":6455,"usersCount":2495,"tipCount":40,"visitsCount":7195,"url":"http://t.co/6Wlr3nrgdg","tier":2,"message":"Moderate","currency":"$","rating":7.1},{"name":"Infused","address":"312 N Myers St","lat":35.223147109088416,"lng":-80.83309433777015,"neighborhood":"First Ward","city_fetched":"Charlotte,US","state":"NC","country":"United States","canonicalUrl":"https://foursquare.com/v/infused/509f3a44e4b0383a0e781a55","categoryId":"4bf58dd8d48988d116941735","category":"Bar","checkinsCount":346,"usersCount":163,"tipCount":5,"visitsCount":437,"tier":"","message":"","currency":"","rating":7.1},{"name":"The Big Chill","phone":"7043474447","address":"911 E Morehead St","lat":35.21346144088524,"lng":-80.84354428883418,"neighborhood":"Dilworth","city_fetched":"Charlotte,US","state":"NC","country":"United States","canonicalUrl":"https://foursquare.com/v/the-big-chill/4b05863af964a520545922e3","categoryId":"4bf58dd8d48988d116941735","category":"Bar","checkinsCount":359,"usersCount":278,"tipCount":3,"visitsCount":361,"tier":"","message":"","currency":"","rating":7.1},{"name":"Coastal Kitchen & Bar","phone":"7043314360","twitter":"coastalclt","address":"222 E 3rd St","lat":35.22403129773568,"lng":-80.84388484890087,"neighborhood":"Second Ward","city_fetched":"Charlotte,US","state":"NC","country":"United States","canonicalUrl":"https://foursquare.com/v/coastal-kitchen--bar/4b62167ef964a520b1342ae3","categoryId":"4bf58dd8d48988d116941735","category":"Bar","checkinsCount":469,"usersCount":338,"tipCount":5,"visitsCount":469,"tier":2,"message":"Moderate","currency":"$","rating":7.1},{"name":"Hilton Executive Lounge","lat":35.30919158001958,"lng":-80.75075009064686,"neighborhood":"University City North","city_fetched":"Charlotte,US","state":"North Carolina","country":"United States","canonicalUrl":"https://foursquare.com/v/hilton-executive-lounge/4d9b982f95d8b1f7f4b600cf","categoryId":"4bf58dd8d48988d1d5941735","category":"Hotel Bar","checkinsCount":465,"usersCount":134,"tipCount":4,"visitsCount":468,"tier":"","message":"","currency":"","rating":7.1},{"name":"Sports Page","phone":"7043994417","address":"8400 Bellhaven Blvd","lat":35.30377686023712,"lng":-80.93702393333334,"city_fetched":"Charlotte,US","state":"NC","country":"United States","canonicalUrl":"https://foursquare.com/v/sports-page/4e4ce815bd413c4cc66d1fb8","categoryId":"4bf58dd8d48988d11d941735","category":"Sports Bar","checkinsCount":146,"usersCount":82,"tipCount":4,"visitsCount":147,"url":"http://sportspagenc.com","tier":"","message":"","currency":"","rating":7.1},{"name":"Sydney's Martini and Wine Bar","phone":"7045039060","twitter":"sydneysmandwbar","address":"401 N Tryon St Ste 104","lat":35.23009462405561,"lng":-80.8389763194893,"neighborhood":"Fourth Ward","city_fetched":"Charlotte,US","state":"NC","country":"United States","canonicalUrl":"https://foursquare.com/v/sydneys-martini-and-wine-bar/53322dde498efe70210d4817","categoryId":"4bf58dd8d48988d123941735","category":"Wine Bar","checkinsCount":247,"usersCount":158,"tipCount":12,"visitsCount":254,"url":"http://www.sydneysmartiniandwinebar.com","tier":"","message":"","currency":"","rating":7.1},{"name":"Locker Room Sports Lounge","phone":"7045231050","address":"4809 S Tryon St","lat":35.17937697108991,"lng":-80.89021453298113,"city_fetched":"Charlotte,US","state":"NC","country":"United States","canonicalUrl":"https://foursquare.com/v/locker-room-sports-lounge/4e6a9c25814dfddc50172ae0","categoryId":"4bf58dd8d48988d11d941735","category":"Sports Bar","checkinsCount":456,"usersCount":246,"tipCount":5,"visitsCount":513,"tier":"","message":"","currency":"","rating":7.1},{"name":"Whisky River","phone":"7047491097","twitter":"whiskyriverclt","address":"210 E Trade St","lat":35.225713017694474,"lng":-80.84193796945435,"neighborhood":"Second Ward","city_fetched":"Charlotte,US","state":"NC","country":"United States","canonicalUrl":"https://foursquare.com/v/whisky-river/4b230630f964a5204c5224e3","categoryId":"4bf58dd8d48988d116941735","category":"Bar","checkinsCount":12798,"usersCount":6313,"tipCount":80,"visitsCount":12875,"url":"http://whiskyrivercharlotte.com","tier":2,"message":"Moderate","currency":"$","rating":7},{"name":"Lakefront Restaurant","phone":"7045477444","address":"8629 J M Keynes Dr","lat":35.30911398200289,"lng":-80.75044702017023,"neighborhood":"University City North","city_fetched":"Charlotte,US","state":"NC","country":"United States","canonicalUrl":"https://foursquare.com/v/lakefront-restaurant/4b797ebaf964a520b2fc2ee3","categoryId":"4bf58dd8d48988d1d5941735","category":"Hotel Bar","checkinsCount":264,"usersCount":84,"tipCount":3,"visitsCount":264,"url":"http://lakefrontrestaurantcharlotte.com","tier":"","message":"","currency":"","rating":7},{"name":"Southside Charlotte","lat":35.17040672946507,"lng":-80.84966333793521,"neighborhood":"Madison Park","city_fetched":"Charlotte,US","state":"NC","country":"United States","canonicalUrl":"https://foursquare.com/v/southside-charlotte/5274528b11d2970f7e2daf02","categoryId":"4bf58dd8d48988d116941735","category":"Bar","checkinsCount":418,"usersCount":222,"tipCount":3,"visitsCount":452,"tier":"","message":"","currency":"","rating":7},{"name":"Hickory Tavern - Mallard","phone":"7042959001","address":"2005 E Arbors Dr","lat":35.33667606822023,"lng":-80.75589537620544,"city_fetched":"Charlotte,US","state":"NC","country":"United States","canonicalUrl":"https://foursquare.com/v/hickory-tavern--mallard/4b1de5f8f964a520331624e3","categoryId":"4bf58dd8d48988d11d941735","category":"Sports Bar","checkinsCount":3836,"usersCount":1921,"tipCount":34,"visitsCount":4326,"url":"http://www.thehickorytavern.com","tier":2,"message":"Moderate","currency":"$","rating":7},{"name":"Crystals","lat":35.23821941684792,"lng":-80.79884269717594,"neighborhood":"Shamrock","city_fetched":"Charlotte,US","state":"NC","country":"United States","canonicalUrl":"https://foursquare.com/v/crystals/4be66f70910020a1945ad414","categoryId":"4bf58dd8d48988d11f941735","category":"Nightclub","checkinsCount":221,"usersCount":132,"tipCount":4,"visitsCount":248,"tier":"","message":"","currency":"","rating":6.9},{"name":"The Fat Parrot","lat":35.33562,"lng":-80.922903,"neighborhood":"Mountain Island","city_fetched":"Charlotte,US","state":"NC","country":"United States","canonicalUrl":"https://foursquare.com/v/the-fat-parrot/4cd1e3e706b54688b544e394","categoryId":"4bf58dd8d48988d116941735","category":"Bar","checkinsCount":260,"usersCount":115,"tipCount":3,"visitsCount":280,"tier":"","message":"","currency":"","rating":6.9},{"name":"NoDa 101","phone":"7049097298","address":"3205 N Davidson St Unit 101","lat":35.2471724766409,"lng":-80.8052355700311,"neighborhood":"North Charlotte","city_fetched":"Charlotte,US","state":"NC","country":"United States","canonicalUrl":"https://foursquare.com/v/noda-101/4e376700aeb7c8fe3171a70d","categoryId":"4bf58dd8d48988d11d941735","category":"Sports Bar","checkinsCount":2233,"usersCount":806,"tipCount":16,"visitsCount":2261,"url":"http://noda101.com","tier":"","message":"","currency":"","rating":6.9},{"name":"Pavillion at EpiCentre","phone":"7049711249","twitter":"pavilionrocks","address":"210 E Trade St","lat":35.22570445406594,"lng":-80.84234961429968,"neighborhood":"Second Ward","city_fetched":"Charlotte,US","state":"NC","country":"United States","canonicalUrl":"https://foursquare.com/v/pavillion-at-epicentre/4bad51a2f964a520bd453be3","categoryId":"4bf58dd8d48988d116941735","category":"Bar","checkinsCount":411,"usersCount":298,"tipCount":5,"visitsCount":413,"url":"http://pavilionatepicentre.com","tier":"","message":"","currency":"","rating":6.9},{"name":"Tin Roof","phone":"7049101330","twitter":"tinroofclt","address":"210 E Trade St","lat":35.225577050690674,"lng":-80.84189011935209,"neighborhood":"Second Ward","city_fetched":"Charlotte,US","state":"NC","country":"United States","canonicalUrl":"https://foursquare.com/v/tin-roof/52183eb311d2a62ff00caa77","categoryId":"4bf58dd8d48988d11a941735","category":"Other Nightlife","checkinsCount":1675,"usersCount":1205,"tipCount":19,"visitsCount":1696,"url":"http://www.tinroofbars.com/Home/Charlotte","tier":"","message":"","currency":"","rating":6.9},{"name":"Coastal Bar","phone":"7043771500","twitter":"hiltonhotels","address":"222 E 3rd St","lat":35.224116442942105,"lng":-80.84385782037702,"neighborhood":"Second Ward","city_fetched":"Charlotte,US","state":"NC","country":"United States","canonicalUrl":"https://foursquare.com/v/coastal-bar/50ca02c1245f2d4aa8c2b79a","categoryId":"4bf58dd8d48988d1d5941735","category":"Hotel Bar","checkinsCount":40,"usersCount":29,"tipCount":0,"visitsCount":40,"url":"http://www.hilton.com","tier":"","message":"","currency":"","rating":6.8},{"name":"Istanbul Hookah Cafe","address":"138 Brevard Ct","lat":35.22596285261429,"lng":-80.84669576560113,"neighborhood":"Third Ward","city_fetched":"Charlotte,US","state":"NC","country":"United States","canonicalUrl":"https://foursquare.com/v/istanbul-hookah-cafe/4c007dfc8c1076b0634c2071","categoryId":"4bf58dd8d48988d119941735","category":"Hookah Bar","checkinsCount":846,"usersCount":540,"tipCount":8,"visitsCount":854,"url":"http://hookahistanbul.com","tier":2,"message":"Moderate","currency":"$","rating":6.8},{"name":"Sip","phone":"7043343324","address":"200 N Tryon St","lat":35.228017473544114,"lng":-80.84192255437597,"neighborhood":"First Ward","city_fetched":"Charlotte,US","state":"NC","country":"United States","canonicalUrl":"https://foursquare.com/v/sip/4b29486ff964a520409c24e3","categoryId":"4bf58dd8d48988d116941735","category":"Bar","checkinsCount":7122,"usersCount":2336,"tipCount":25,"visitsCount":7142,"url":"http://sipcharlotte.com","tier":"","message":"","currency":"","rating":6.8},{"name":"Tommy's Pub","phone":"7043770022","twitter":"tommys_pub","address":"2007 Central Ave","lat":35.220164346149296,"lng":-80.80678233094987,"neighborhood":"Plaza Midwood","city_fetched":"Charlotte,US","state":"NC","country":"United States","canonicalUrl":"https://foursquare.com/v/tommys-pub/4b22d4c6f964a520624e24e3","categoryId":"4bf58dd8d48988d118941735","category":"Dive Bar","checkinsCount":308,"usersCount":189,"tipCount":4,"visitsCount":329,"tier":"","message":"","currency":"","rating":6.8},{"name":"Paper Doll Lounge","phone":"7043929647","twitter":"thepdl","address":"3221 Wilkinson Blvd","lat":35.22410241673132,"lng":-80.89359106937765,"city_fetched":"Charlotte,US","state":"NC","country":"United States","canonicalUrl":"https://foursquare.com/thepdl","categoryId":"4bf58dd8d48988d1d6941735","category":"Strip Club","checkinsCount":814,"usersCount":171,"tipCount":6,"visitsCount":871,"tier":"","message":"","currency":"","rating":6.8},{"name":"The Gin Mill","phone":"7043730782","twitter":"theginmill","address":"1411 S Tryon St","lat":35.217074,"lng":-80.85498,"neighborhood":"South End","city_fetched":"Charlotte,US","state":"NC","country":"United States","canonicalUrl":"https://foursquare.com/v/the-gin-mill/4b11c77ef964a520778423e3","categoryId":"4bf58dd8d48988d116941735","category":"Bar","checkinsCount":4098,"usersCount":1680,"tipCount":26,"visitsCount":4223,"url":"http://ginmill.biz","tier":1,"message":"Cheap","currency":"$","rating":6.8},{"name":"French Quarter","phone":"7043777415","address":"321 S Church St","lat":35.225996,"lng":-80.847022,"neighborhood":"Third Ward","city_fetched":"Charlotte,US","state":"NC","country":"United States","canonicalUrl":"https://foursquare.com/v/french-quarter/4b05863bf964a520735922e3","categoryId":"4bf58dd8d48988d11b941735","category":"Pub","checkinsCount":2005,"usersCount":1124,"tipCount":16,"visitsCount":2026,"url":"http://frenchquartercharlotte.com","tier":1,"message":"Cheap","currency":"$","rating":6.7},{"name":"Latorre's","phone":"7043774448","twitter":"lemeridienist","address":"118 W 5th St","lat":35.228660583757,"lng":-80.84231177363883,"neighborhood":"Fourth Ward","city_fetched":"Charlotte,US","state":"NC","country":"United States","canonicalUrl":"https://foursquare.com/v/latorres/4c30177f3896e21e2c27e590","categoryId":"4bf58dd8d48988d11f941735","category":"Nightclub","checkinsCount":173,"usersCount":127,"tipCount":3,"visitsCount":179,"tier":"","message":"","currency":"","rating":6.7},{"name":"Taco Mac","phone":"7049720503","twitter":"tmacrestaurants","address":"4626 Piedmont Row Drive","lat":35.15235458573165,"lng":-80.83972775482087,"city_fetched":"Charlotte,US","state":"NC","country":"United States","canonicalUrl":"https://foursquare.com/v/taco-mac/4c740e872db5236a1b3cb979","categoryId":"4bf58dd8d48988d11d941735","category":"Sports Bar","checkinsCount":11193,"usersCount":4918,"tipCount":98,"visitsCount":11709,"url":"http://www.tacomac.com","tier":2,"message":"Moderate","currency":"$","rating":6.7},{"name":"Tavern 51 Bar & Grill","phone":"7045435177","address":"8700 Pineville Matthews Rd Ste 310","lat":35.08954006088171,"lng":-80.86662341626855,"city_fetched":"Charlotte,US","state":"NC","country":"United States","canonicalUrl":"https://foursquare.com/v/tavern-51-bar--grill/4c5df4ac94fd0f473f10cd45","categoryId":"4bf58dd8d48988d118941735","category":"Dive Bar","checkinsCount":813,"usersCount":198,"tipCount":4,"visitsCount":816,"tier":"","message":"","currency":"","rating":6.7},{"name":"Helles & Dunkel","address":"222 E Bland St","lat":35.2155670684836,"lng":-80.85326860118587,"neighborhood":"South End","city_fetched":"Charlotte,US","state":"NC","country":"United States","canonicalUrl":"https://foursquare.com/v/helles--dunkel/54f27b76498ee0f30af0a38d","categoryId":"4bf58dd8d48988d116941735","category":"Bar","checkinsCount":228,"usersCount":196,"tipCount":2,"visitsCount":375,"tier":"","message":"","currency":"","rating":6.6},{"name":"Woodshed Lounge","phone":"7043941712","address":"4000 Queen City Dr","lat":35.242223,"lng":-80.934054,"city_fetched":"Charlotte,US","state":"NC","country":"United States","canonicalUrl":"https://foursquare.com/v/woodshed-lounge/4c01e786b58376b05efa443c","categoryId":"4bf58dd8d48988d116941735","category":"Bar","checkinsCount":1394,"usersCount":513,"tipCount":9,"visitsCount":1769,"url":"http://www.woodshedlounge.com","tier":1,"message":"Cheap","currency":"$","rating":6.6},{"name":"Vanity","phone":"7042770855","twitter":"vanitycharlotte","address":"500 W 5th St","lat":35.23149907930063,"lng":-80.84592277333935,"neighborhood":"Fourth Ward","city_fetched":"Charlotte,US","state":"NC","country":"United States","canonicalUrl":"https://foursquare.com/v/vanity/526341d911d2f51f5b8b6efa","categoryId":"4bf58dd8d48988d11f941735","category":"Nightclub","checkinsCount":247,"usersCount":131,"tipCount":3,"visitsCount":255,"url":"http://www.vanitycharlotte.com","tier":"","message":"","currency":"","rating":6.6},{"name":"Fox & Hound","phone":"7045410794","twitter":"the_foxandhound","address":"8500 Pineville-Mathews Road","lat":35.08812538709609,"lng":-80.86284040883811,"city_fetched":"Charlotte,US","state":"NC","country":"United States","canonicalUrl":"https://foursquare.com/v/fox--hound/4b1b39a1f964a520d6f923e3","categoryId":"4bf58dd8d48988d11d941735","category":"Sports Bar","checkinsCount":4520,"usersCount":1266,"tipCount":34,"visitsCount":4968,"url":"http://t.co/6Wlr3nrgdg","tier":2,"message":"Moderate","currency":"$","rating":6.6},{"name":"Rack Em Pub & Billiards","phone":"7048477665","address":"1898 Windsor Square Drive","lat":35.134359,"lng":-80.70891985,"city_fetched":"Charlotte,US","state":"NC","country":"United States","canonicalUrl":"https://foursquare.com/v/rack-em-pub--billiards/4b53cee5f964a52001ac27e3","categoryId":"4bf58dd8d48988d116941735","category":"Bar","checkinsCount":1279,"usersCount":494,"tipCount":8,"visitsCount":1577,"url":"http://rackempubandbilliards.com","tier":2,"message":"Moderate","currency":"$","rating":6.5},{"name":"Bar Charlotte","phone":"7043422557","twitter":"barcharlotte","address":"300 N College St","lat":35.22787152199259,"lng":-80.83927905687297,"neighborhood":"First Ward","city_fetched":"Charlotte,US","state":"NC","country":"United States","canonicalUrl":"https://foursquare.com/barcharlotte","categoryId":"4bf58dd8d48988d116941735","category":"Bar","checkinsCount":2083,"usersCount":974,"tipCount":16,"visitsCount":2108,"url":"http://www.barcharlotte.com","tier":"","message":"","currency":"","rating":6.5},{"name":"Cosmo's Cafe","phone":"7043723553","twitter":"cosmos_cafe","address":"300 N College St","lat":35.227765566547745,"lng":-80.83960341708685,"neighborhood":"First Ward","city_fetched":"Charlotte,US","state":"NC","country":"United States","canonicalUrl":"https://foursquare.com/v/cosmos-cafe/4b05863af964a520435922e3","categoryId":"4bf58dd8d48988d116941735","category":"Bar","checkinsCount":3344,"usersCount":1791,"tipCount":23,"visitsCount":3446,"url":"http://cosmoscafe.com","tier":2,"message":"Moderate","currency":"$","rating":6.5},{"name":"L4 Lounge","phone":"7045672158","twitter":"l4lounge","address":"2906 Central Ave","lat":35.218061295287896,"lng":-80.79537562224536,"neighborhood":"Briarcreek - Woodland","city_fetched":"Charlotte,US","state":"NC","country":"United States","canonicalUrl":"https://foursquare.com/v/l4-lounge/4e3cace745dd68e3272fd3cd","categoryId":"4bf58dd8d48988d11f941735","category":"Nightclub","checkinsCount":867,"usersCount":203,"tipCount":8,"visitsCount":901,"url":"http://l4lounge.com","tier":"","message":"","currency":"","rating":6.5},{"name":"Pub At Gateway","phone":"7043339818","twitter":"thepubatgateway","address":"710 W Trade St","lat":35.23219829237018,"lng":-80.84889037430983,"neighborhood":"Fourth Ward","city_fetched":"Charlotte,US","state":"NC","country":"United States","canonicalUrl":"https://foursquare.com/v/pub-at-gateway/4b25d6d6f964a520c57624e3","categoryId":"4bf58dd8d48988d11b941735","category":"Pub","checkinsCount":2916,"usersCount":980,"tipCount":36,"visitsCount":3206,"url":"http://www.thepubatgateway.com","tier":"","message":"","currency":"","rating":6.5},{"name":"SUITE","phone":"7049717878","address":"210 E Trade St","lat":35.22586694555561,"lng":-80.84227323532104,"neighborhood":"Second Ward","city_fetched":"Charlotte,US","state":"NC","country":"United States","canonicalUrl":"https://foursquare.com/v/suite/4b11f2b6f964a5205c8723e3","categoryId":"4bf58dd8d48988d11f941735","category":"Nightclub","checkinsCount":9607,"usersCount":3437,"tipCount":21,"visitsCount":9682,"tier":3,"message":"Expensive","currency":"$","rating":6.4},{"name":"Privilege","address":"229 S Brevard St","lat":35.223004090591296,"lng":-80.84181443757863,"neighborhood":"Second Ward","city_fetched":"Charlotte,US","state":"NC","country":"United States","canonicalUrl":"https://foursquare.com/v/privilege/4e6d0564ae603c15efe20bed","categoryId":"4bf58dd8d48988d121941735","category":"Lounge","checkinsCount":886,"usersCount":365,"tipCount":3,"visitsCount":943,"tier":"","message":"","currency":"","rating":6.4},{"name":"Bubble Lounge","address":"210 E Trade St","lat":35.22615451309772,"lng":-80.84204688851263,"neighborhood":"Second Ward","city_fetched":"Charlotte,US","state":"NC","country":"United States","canonicalUrl":"https://foursquare.com/v/bubble-lounge/4e72980f45dd53858e95b905","categoryId":"4bf58dd8d48988d11e941735","category":"Cocktail Bar","checkinsCount":2400,"usersCount":1323,"tipCount":15,"visitsCount":2461,"tier":3,"message":"Expensive","currency":"$","rating":6.4},{"name":"Sammy's","lat":35.06867899192592,"lng":-80.87821037703668,"city_fetched":"Charlotte,US","state":"NC","country":"United States","canonicalUrl":"https://foursquare.com/v/sammys/4c1d8701b9f876b01adb7d46","categoryId":"4bf58dd8d48988d120941735","category":"Karaoke Bar","checkinsCount":335,"usersCount":164,"tipCount":8,"visitsCount":341,"tier":"","message":"","currency":"","rating":6.4},{"name":"Stadium Sports Tavern","phone":"7048410683","address":"8155 Ardery Kell Rd","lat":35.03867268562317,"lng":-80.793364,"city_fetched":"Charlotte,US","state":"NC","country":"United States","canonicalUrl":"https://foursquare.com/v/stadium-sports-tavern/4bb2a372eb3e95215c58ca0a","categoryId":"4bf58dd8d48988d11d941735","category":"Sports Bar","checkinsCount":955,"usersCount":385,"tipCount":14,"visitsCount":955,"url":"http://stadiumsportstavern.com","tier":"","message":"","currency":"","rating":6.4},{"name":"935 Night Club","phone":"7043344935","twitter":"club935","address":"935 S Summit Ave","lat":35.2270762371012,"lng":-80.86400775593418,"neighborhood":"Wesley Heights","city_fetched":"Charlotte,US","state":"NC","country":"United States","canonicalUrl":"https://foursquare.com/v/935-night-club/4cb14f1faef16dcbeccbb854","categoryId":"4bf58dd8d48988d11f941735","category":"Nightclub","checkinsCount":531,"usersCount":332,"tipCount":2,"visitsCount":550,"url":"http://www.club935.net","tier":"","message":"","currency":"","rating":6.3},{"name":"Phoenix","phone":"7043758765","twitter":"phoenix_clt","address":"300 N College St","lat":35.22772454884107,"lng":-80.83920337263423,"neighborhood":"First Ward","city_fetched":"Charlotte,US","state":"NC","country":"United States","canonicalUrl":"https://foursquare.com/v/phoenix/4d6f1c8d3a6cf04d94c05b79","categoryId":"4bf58dd8d48988d11f941735","category":"Nightclub","checkinsCount":5457,"usersCount":2113,"tipCount":15,"visitsCount":5497,"url":"http://www.phoenixcharlotte.com","tier":2,"message":"Moderate","currency":"$","rating":6.3},{"name":"Blue Blaze Brewing Co","address":"528 S Turner Ave","lat":35.2408447265625,"lng":-80.86756896972656,"city_fetched":"Charlotte,US","state":"NC","country":"United States","canonicalUrl":"https://foursquare.com/v/blue-blaze-brewing-co/561be258498e522fe0b52ce8","categoryId":"50327c8591d4c4b30a586d5d","category":"Brewery","checkinsCount":115,"usersCount":153,"tipCount":1,"visitsCount":199,"url":"http://www.blueblazebrewing.com","tier":"","message":"","currency":"","rating":6.2},{"name":"Cathode Azure","phone":"8779543269","twitter":"cathodeazure","address":"1820 South Blvd Ste 106","lat":35.2114357708089,"lng":-80.85878698804557,"neighborhood":"Dilworth","city_fetched":"Charlotte,US","state":"NC","country":"United States","canonicalUrl":"https://foursquare.com/v/cathode-azure/5031a5c9e4b08362168aede4","categoryId":"4bf58dd8d48988d1d8941735","category":"Gay Bar","checkinsCount":1396,"usersCount":526,"tipCount":9,"visitsCount":1527,"tier":2,"message":"Moderate","currency":"$","rating":6.2},{"name":"The Tavern","twitter":"tavernclt","address":"300 E Morehead St","lat":35.21910630578256,"lng":-80.84950658367713,"neighborhood":"South End","city_fetched":"Charlotte,US","state":"NC","country":"United States","canonicalUrl":"https://foursquare.com/v/the-tavern/51df8174498e89f76c54c6d0","categoryId":"4bf58dd8d48988d116941735","category":"Bar","checkinsCount":373,"usersCount":186,"tipCount":15,"visitsCount":403,"tier":"","message":"","currency":"","rating":6.2},{"name":"The Rainbow In","phone":"8038310093","address":"4376 Charlotte Hwy","lat":35.11594188059677,"lng":-81.05360984802246,"city_fetched":"Charlotte,US","state":"SC","country":"United States","canonicalUrl":"https://foursquare.com/v/the-rainbow-in/4bbfc8df4cdfc9b64fef9121","categoryId":"4bf58dd8d48988d1d8941735","category":"Gay Bar","checkinsCount":520,"usersCount":140,"tipCount":8,"visitsCount":523,"url":"http://www.therainbowin.com","tier":"","message":"","currency":"","rating":6.2},{"name":"Central Station","address":"Central Ave","lat":35.21999470522184,"lng":-80.80459356307983,"neighborhood":"Plaza Midwood","city_fetched":"Charlotte,US","state":"NC","country":"United States","canonicalUrl":"https://foursquare.com/v/central-station/4bdefd33ea279c747976e22b","categoryId":"4bf58dd8d48988d1d8941735","category":"Gay Bar","checkinsCount":996,"usersCount":237,"tipCount":7,"visitsCount":1022,"tier":"","message":"","currency":"","rating":6.2},{"name":"NC Tavern","lat":35.29508895029772,"lng":-80.74665854335818,"neighborhood":"University City South","city_fetched":"Charlotte,US","state":"NC","country":"United States","canonicalUrl":"https://foursquare.com/v/nc-tavern/52b737f5498e046af0c0af2b","categoryId":"4bf58dd8d48988d116941735","category":"Bar","checkinsCount":269,"usersCount":207,"tipCount":6,"visitsCount":425,"tier":2,"message":"Moderate","currency":"$","rating":6.1},{"name":"Chasers","phone":"7043390500","address":"3217 The Plaza","lat":35.24072190006317,"lng":-80.79732823663733,"neighborhood":"North Charlotte","city_fetched":"Charlotte,US","state":"NC","country":"United States","canonicalUrl":"https://foursquare.com/v/chasers/4b9c2ed9f964a520745236e3","categoryId":"4bf58dd8d48988d1d8941735","category":"Gay Bar","checkinsCount":899,"usersCount":370,"tipCount":10,"visitsCount":1284,"tier":1,"message":"Cheap","currency":"$","rating":6},{"name":"Scorpio's","phone":"7043739124","address":"2301 Freedom Dr","lat":35.233561566462186,"lng":-80.87903022766113,"city_fetched":"Charlotte,US","state":"NC","country":"United States","canonicalUrl":"https://foursquare.com/v/scorpios/4b247d6df964a520126824e3","categoryId":"4bf58dd8d48988d1d8941735","category":"Gay Bar","checkinsCount":4136,"usersCount":1561,"tipCount":29,"visitsCount":4894,"tier":"","message":"","currency":"","rating":6},{"name":"Tanner's Bistro","address":"505 E 6th St","lat":35.225438876524166,"lng":-80.83680306399926,"neighborhood":"First Ward","city_fetched":"Charlotte,US","state":"NC","country":"United States","canonicalUrl":"https://foursquare.com/v/tanners-bistro/528bf34311d2561eed0baa91","categoryId":"4bf58dd8d48988d121941735","category":"Lounge","checkinsCount":191,"usersCount":123,"tipCount":2,"visitsCount":201,"tier":"","message":"","currency":"","rating":6},{"name":"McBonies Southern Food Bar & Grill","phone":"7045632999","address":"4800 Monroe Rd","lat":35.19267376939558,"lng":-80.78091614822932,"neighborhood":"Oakhurst","city_fetched":"Charlotte,US","state":"NC","country":"United States","canonicalUrl":"https://foursquare.com/v/mcbonies-southern-food-bar--grill/4b94372cf964a520246f34e3","categoryId":"4bf58dd8d48988d120941735","category":"Karaoke Bar","checkinsCount":199,"usersCount":134,"tipCount":6,"visitsCount":203,"url":"http://www.mcbonies.com","tier":"","message":"","currency":"","rating":5.9},{"name":"WXYZ Bar","address":"210 E Trade St","lat":35.225533904485346,"lng":-80.84250926971436,"neighborhood":"Second Ward","city_fetched":"Charlotte,US","state":"NC","country":"United States","canonicalUrl":"https://foursquare.com/v/wxyz-bar/4b0e34c4f964a520e35523e3","categoryId":"4bf58dd8d48988d1d5941735","category":"Hotel Bar","checkinsCount":404,"usersCount":223,"tipCount":8,"visitsCount":404,"tier":"","message":"","currency":"","rating":5.9},{"name":"King Tut hookah lounge","address":"University city Blvd.","lat":35.30642889742197,"lng":-80.7221482255735,"city_fetched":"Charlotte,US","state":"NC","country":"United States","canonicalUrl":"https://foursquare.com/v/king-tut-hookah-lounge/4cf43fcb94feb1f78a0227ba","categoryId":"4bf58dd8d48988d119941735","category":"Hookah Bar","checkinsCount":276,"usersCount":199,"tipCount":6,"visitsCount":288,"url":"http://kingtutlounge.com","tier":"","message":"","currency":"","rating":5.9},{"name":"Taco Mac","phone":"7047177083","twitter":"tmacrestaurants","address":"517 University Center Blvd","lat":35.3079026,"lng":-80.7558586,"city_fetched":"Charlotte,US","state":"NC","country":"United States","canonicalUrl":"https://foursquare.com/v/taco-mac/4dd1a27dd4c0febf0fd40cfa","categoryId":"4bf58dd8d48988d11d941735","category":"Sports Bar","checkinsCount":6291,"usersCount":3622,"tipCount":78,"visitsCount":7379,"url":"http://www.tacomac.com","tier":2,"message":"Moderate","currency":"$","rating":5.9},{"name":"Oak Room","address":"200 E Bland St","lat":35.21643051313435,"lng":-80.85465228730087,"neighborhood":"South End","city_fetched":"Charlotte,US","state":"NC","country":"United States","canonicalUrl":"https://foursquare.com/v/oak-room/5130d227e4b0ee8b2637e07f","categoryId":"4bf58dd8d48988d116941735","category":"Bar","checkinsCount":1152,"usersCount":719,"tipCount":9,"visitsCount":1210,"tier":2,"message":"Moderate","currency":"$","rating":5.8},{"name":"Amber Karaoke Bar","address":"5917 Albemarle Rd.","lat":35.2037239074707,"lng":-80.74491119384766,"neighborhood":"Eastland - Wilora Lake","city_fetched":"Charlotte,US","state":"North Carolina","country":"United States","canonicalUrl":"https://foursquare.com/v/amber-karaoke-bar/4e7556a91f6e072f13a45c08","categoryId":"4bf58dd8d48988d120941735","category":"Karaoke Bar","checkinsCount":245,"usersCount":81,"tipCount":2,"visitsCount":246,"tier":"","message":"","currency":"","rating":5.7},{"name":"Westin Lobby Bar","address":"601 S College St","lat":35.222045655356105,"lng":-80.847487449646,"neighborhood":"Second Ward","city_fetched":"Charlotte,US","state":"NC","country":"United States","canonicalUrl":"https://foursquare.com/v/westin-lobby-bar/4be9b28161aca59335df8200","categoryId":"4bf58dd8d48988d1d5941735","category":"Hotel Bar","checkinsCount":1070,"usersCount":754,"tipCount":11,"visitsCount":1078,"tier":"","message":"","currency":"","rating":5.7},{"name":"North Tryon St","lat":35.29075359860294,"lng":-80.75697901963824,"city_fetched":"Charlotte,US","state":"NC","country":"United States","canonicalUrl":"https://foursquare.com/v/north-tryon-st/4dc6ed4a18387d1bd5641099","categoryId":"4bf58dd8d48988d11f941735","category":"Nightclub","checkinsCount":1436,"usersCount":474,"tipCount":9,"visitsCount":1603,"tier":"","message":"","currency":"","rating":5.6},{"name":"RE:PUBLIC Nightclub","twitter":"republic_of_clt","address":"314 N College St","lat":35.22812370100421,"lng":-80.8390760421753,"neighborhood":"First Ward","city_fetched":"Charlotte,US","state":"NC","country":"United States","canonicalUrl":"https://foursquare.com/v/republic-nightclub/4d389818bb0d721e4c9755e3","categoryId":"4bf58dd8d48988d11e941735","category":"Cocktail Bar","checkinsCount":3742,"usersCount":1319,"tipCount":15,"visitsCount":3777,"url":"http://www.republicofcharlotte.com","tier":"","message":"","currency":"","rating":5.6},{"name":"Carolina Beer Company","phone":"7043594521","twitter":"hmshost","address":"Gate D7, Concourse D","lat":35.22064843854645,"lng":-80.94019965617623,"city_fetched":"Charlotte,US","state":"NC","country":"United States","canonicalUrl":"https://foursquare.com/v/carolina-beer-company/4bafbc5df964a520781c3ce3","categoryId":"4bf58dd8d48988d116941735","category":"Bar","checkinsCount":2815,"usersCount":2568,"tipCount":35,"visitsCount":2819,"tier":"","message":"","currency":"","rating":5.5},{"name":"Tilted Kilt Pub and Eatery","phone":"7049105353","twitter":"tiltedkiltpub","address":"13230 Carowinds Blvd","lat":35.116441659135376,"lng":-80.9579069940304,"city_fetched":"Charlotte,US","state":"NC","country":"United States","canonicalUrl":"https://foursquare.com/v/tilted-kilt-pub-and-eatery/4b099ce1f964a5205b1a23e3","categoryId":"4bf58dd8d48988d11b941735","category":"Pub","checkinsCount":3559,"usersCount":1711,"tipCount":31,"visitsCount":3743,"url":"http://www.tiltedkilt.com","tier":2,"message":"Moderate","currency":"$","rating":5.5},{"name":"Russell's","phone":"7048147837","address":"1609 Sardis Rd N","lat":35.140159233168404,"lng":-80.73945994851017,"city_fetched":"Charlotte,US","state":"NC","country":"United States","canonicalUrl":"https://foursquare.com/v/russells/51aaa7e1498e5d776f23b8a3","categoryId":"4bf58dd8d48988d116941735","category":"Bar","checkinsCount":145,"usersCount":87,"tipCount":7,"visitsCount":174,"tier":"","message":"","currency":"","rating":5.4},{"name":"Stock Car Cafe","twitter":"hmshost","address":"Concourse B","lat":35.21857040380189,"lng":-80.94511449337006,"city_fetched":"Charlotte,US","state":"NC","country":"United States","canonicalUrl":"https://foursquare.com/v/stock-car-cafe/4c7c571348c6236a72906111","categoryId":"4bf58dd8d48988d116941735","category":"Bar","checkinsCount":2985,"usersCount":2400,"tipCount":45,"visitsCount":2985,"tier":2,"message":"Moderate","currency":"$","rating":5.1},{"name":"Fox Sports Skybox","twitter":"hmshost","address":"Concourse E","lat":35.22314999165278,"lng":-80.9403133392334,"city_fetched":"Charlotte,US","state":"NC","country":"United States","canonicalUrl":"https://foursquare.com/v/fox-sports-skybox/4b86fa3ef964a5203fa931e3","categoryId":"4bf58dd8d48988d11d941735","category":"Sports Bar","checkinsCount":3881,"usersCount":2779,"tipCount":66,"visitsCount":3881,"tier":"","message":"","currency":"","rating":5}]