[{"name":"The Royal American","phone":"8438176925","twitter":"theroyalamericn","address":"970 Morrison Dr","lat":32.80668781329811,"lng":-79.94208383948676,"city_fetched":"Charleston,US","state":"SC","country":"United States","canonicalUrl":"https://foursquare.com/v/the-royal-american/4eebc2d3f9ab8c5affaf7d9a","categoryId":"4bf58dd8d48988d116941735","category":"Bar","checkinsCount":3435,"usersCount":1399,"tipCount":31,"visitsCount":4224,"url":"http://theroyalamerican.com","tier":1,"message":"Cheap","currency":"$","rating":9.4},{"name":"Bin 152","phone":"8435777359","twitter":"bin152winebar","address":"152 King St","lat":32.77787737331714,"lng":-79.93286509429475,"neighborhood":"Downtown Charleston","city_fetched":"Charleston,US","state":"SC","country":"United States","canonicalUrl":"https://foursquare.com/v/bin-152/4b68b70ff964a520c4882be3","categoryId":"4bf58dd8d48988d123941735","category":"Wine Bar","checkinsCount":1505,"usersCount":880,"tipCount":27,"visitsCount":1597,"url":"http://bin152.com","tier":2,"message":"Moderate","currency":"$","rating":9.2},{"name":"Belmont","phone":"7602137356","address":"511 King St","lat":32.7903852257019,"lng":-79.93944454694538,"city_fetched":"Charleston,US","state":"SC","country":"United States","canonicalUrl":"https://foursquare.com/v/belmont/4cec864ff368b1f7450a76f7","categoryId":"4bf58dd8d48988d122941735","category":"Whisky Bar","checkinsCount":2555,"usersCount":1582,"tipCount":40,"visitsCount":2628,"tier":"","message":"","currency":"","rating":9.1},{"name":"Closed For Business","phone":"8438538466","twitter":"closedforbiz","address":"453 King St","lat":32.78860941653907,"lng":-79.93836879730225,"neighborhood":"Radcliffeborough","city_fetched":"Charleston,US","state":"SC","country":"United States","canonicalUrl":"https://foursquare.com/v/closed-for-business/4b3d5752f964a520bb9225e3","categoryId":"4bf58dd8d48988d11b941735","category":"Pub","checkinsCount":9404,"usersCount":4919,"tipCount":88,"visitsCount":9733,"url":"http://www.closed4business.com","tier":2,"message":"Moderate","currency":"$","rating":9},{"name":"Warehouse","phone":"8432020712","twitter":"team_warehouse","address":"45 1/2 Spring St","lat":32.79238732629771,"lng":-79.94244448197232,"neighborhood":"Cannonborough - Elliottborough","city_fetched":"Charleston,US","state":"SC","country":"United States","canonicalUrl":"https://foursquare.com/v/warehouse/51d21162498eee491109d20e","categoryId":"4bf58dd8d48988d116941735","category":"Bar","checkinsCount":1617,"usersCount":1149,"tipCount":29,"visitsCount":2292,"url":"http://wearewarehouse.com","tier":2,"message":"Moderate","currency":"$","rating":9},{"name":"The Bar at Husk","phone":"8435772500","twitter":"huskrestaurant","address":"76 Queen St","lat":32.77792553695406,"lng":-79.93199071119561,"neighborhood":"Downtown Charleston","city_fetched":"Charleston,US","state":"SC","country":"United States","canonicalUrl":"https://foursquare.com/v/the-bar-at-husk/4f94487e4fc66f95d9eeba38","categoryId":"4bf58dd8d48988d11e941735","category":"Cocktail Bar","checkinsCount":2399,"usersCount":1943,"tipCount":45,"visitsCount":2429,"url":"http://www.huskrestaurant.com/about/bar/","tier":3,"message":"Expensive","currency":"$","rating":9},{"name":"The Griffon Pub","phone":"8437231700","twitter":"thegriffonpub","address":"18 Vendue Range","lat":32.77890464364594,"lng":-79.92630700821292,"neighborhood":"French Quarter","city_fetched":"Charleston,US","state":"SC","country":"United States","canonicalUrl":"https://foursquare.com/v/the-griffon-pub/4baa50f5f964a520395e3ae3","categoryId":"4bf58dd8d48988d11b941735","category":"Pub","checkinsCount":4481,"usersCount":3064,"tipCount":57,"visitsCount":4711,"url":"http://www.griffoncharleston.com","tier":1,"message":"Cheap","currency":"$","rating":8.9},{"name":"The Gin Joint","phone":"8435135264","twitter":"gin_joint","address":"182 E Bay St","lat":32.77948125819906,"lng":-79.9272108078003,"neighborhood":"French Quarter","city_fetched":"Charleston,US","state":"SC","country":"United States","canonicalUrl":"https://foursquare.com/v/the-gin-joint/4c76f575947ca1cddbf94537","categoryId":"4bf58dd8d48988d11e941735","category":"Cocktail Bar","checkinsCount":3865,"usersCount":3124,"tipCount":77,"visitsCount":4015,"url":"http://theginjoint.com","tier":2,"message":"Moderate","currency":"$","rating":8.8},{"name":"Revelry Brewing","phone":"8438700010","twitter":"revelrybrewing","address":"10 Conroy St","lat":32.80686640950671,"lng":-79.9449416171691,"neighborhood":"East Central","city_fetched":"Charleston,US","state":"SC","country":"United States","canonicalUrl":"https://foursquare.com/v/revelry-brewing/53a376c5498e0b947ff5e769","categoryId":"50327c8591d4c4b30a586d5d","category":"Brewery","checkinsCount":693,"usersCount":604,"tipCount":9,"visitsCount":1028,"url":"http://www.revelrybrewingco.com","tier":"","message":"","currency":"","rating":8.8},{"name":"Gene's Haufbrau","phone":"8432254363","address":"817 Savannah Hwy","lat":32.78189253747295,"lng":-79.98590192604291,"city_fetched":"Charleston,US","state":"SC","country":"United States","canonicalUrl":"https://foursquare.com/v/genes-haufbrau/4b0e0d91f964a520685423e3","categoryId":"4bf58dd8d48988d116941735","category":"Bar","checkinsCount":3981,"usersCount":1535,"tipCount":33,"visitsCount":4098,"url":"http://geneshaufbrau.com","tier":2,"message":"Moderate","currency":"$","rating":8.7},{"name":"House of Brews","phone":"8434168094","twitter":"houseofbrewsmtp","address":"1537 Ben Sawyer Blvd Ste C","lat":32.7890819,"lng":-79.85263195,"city_fetched":"Charleston,US","state":"SC","country":"United States","canonicalUrl":"https://foursquare.com/v/house-of-brews/4e05042db61c60b04535863e","categoryId":"4bf58dd8d48988d117941735","category":"Beer Garden","checkinsCount":2003,"usersCount":470,"tipCount":16,"visitsCount":2534,"url":"http://www.houseofbrewsmtp.com","tier":1,"message":"Cheap","currency":"$","rating":8.7},{"name":"Windjammer","phone":"8438868948","twitter":"windjammeriop","address":"1008 Ocean Blvd","lat":32.784595667825315,"lng":-79.79008555412292,"city_fetched":"Charleston,US","state":"SC","country":"United States","canonicalUrl":"https://foursquare.com/windjammeriop","categoryId":"4bf58dd8d48988d116941735","category":"Bar","checkinsCount":4077,"usersCount":2584,"tipCount":32,"visitsCount":4582,"url":"http://www.the-windjammer.com","tier":2,"message":"Moderate","currency":"$","rating":8.7},{"name":"Elliotborough Mini Bar","lat":32.792669,"lng":-79.945178,"neighborhood":"Cannonborough - Elliottborough","city_fetched":"Charleston,US","state":"SC","country":"United States","canonicalUrl":"https://foursquare.com/v/elliotborough-mini-bar/4ffcd401e4b06453d627a951","categoryId":"4bf58dd8d48988d116941735","category":"Bar","checkinsCount":331,"usersCount":205,"tipCount":6,"visitsCount":404,"tier":"","message":"","currency":"","rating":8.6},{"name":"The Rooftop Bar at Vendue","phone":"8435777970","twitter":"venduerooftop","address":"19 Vendue Range","lat":32.77859,"lng":-79.92662,"neighborhood":"French Quarter","city_fetched":"Charleston,US","state":"SC","country":"United States","canonicalUrl":"https://foursquare.com/v/the-rooftop-bar-at-vendue/4b953c20f964a520e69634e3","categoryId":"4bf58dd8d48988d116941735","category":"Bar","checkinsCount":8407,"usersCount":6617,"tipCount":79,"visitsCount":8689,"url":"http://rooftopcharleston.com/#p3PMkg","tier":2,"message":"Moderate","currency":"$","rating":8.6},{"name":"Madra Rua Irish Pub","phone":"8435542522","address":"1034 E Montague Ave","lat":32.881734,"lng":-79.975198,"city_fetched":"Charleston,US","state":"SC","country":"United States","canonicalUrl":"https://foursquare.com/v/madra-rua-irish-pub/4b43f605f964a52015ef25e3","categoryId":"4bf58dd8d48988d11b941735","category":"Pub","checkinsCount":4748,"usersCount":1633,"tipCount":53,"visitsCount":5161,"url":"http://www.madraruapub.com","tier":2,"message":"Moderate","currency":"$","rating":8.6},{"name":"Thoroughbred Club","address":"in Charleston Place","lat":32.78087701123449,"lng":-79.93252080699182,"neighborhood":"Downtown Charleston","city_fetched":"Charleston,US","state":"SC","country":"United States","canonicalUrl":"https://foursquare.com/v/thoroughbred-club/4bccef818920b71332129fdc","categoryId":"4bf58dd8d48988d1d5941735","category":"Hotel Bar","checkinsCount":947,"usersCount":683,"tipCount":7,"visitsCount":953,"url":"http://charlestonplace.com","tier":"","message":"","currency":"","rating":8.5},{"name":"Charleston Sports Pub","address":"1124 Sam Rittenberg Blvd","lat":32.82015607930292,"lng":-79.99278320509191,"city_fetched":"Charleston,US","state":"SC","country":"United States","canonicalUrl":"https://foursquare.com/v/charleston-sports-pub/54f8b1fd498eb5e384396180","categoryId":"4bf58dd8d48988d11d941735","category":"Sports Bar","checkinsCount":207,"usersCount":274,"tipCount":3,"visitsCount":634,"tier":"","message":"","currency":"","rating":8.5},{"name":"The Rarebit","phone":"8439745483","twitter":"therarebitsc","address":"474 King St","lat":32.7899507422663,"lng":-79.93904017625005,"city_fetched":"Charleston,US","state":"SC","country":"United States","canonicalUrl":"https://foursquare.com/v/the-rarebit/50c12da5e4b0723643293650","categoryId":"4bf58dd8d48988d11e941735","category":"Cocktail Bar","checkinsCount":3578,"usersCount":2029,"tipCount":57,"visitsCount":3687,"url":"http://therarebit.com","tier":2,"message":"Moderate","currency":"$","rating":8.5},{"name":"Moe's Crosstown Tavern","phone":"8437223287","address":"714 Rutledge Ave","lat":32.802376,"lng":-79.9529466,"city_fetched":"Charleston,US","state":"SC","country":"United States","canonicalUrl":"https://foursquare.com/v/moes-crosstown-tavern/4b46367bf964a5203d1a26e3","categoryId":"4bf58dd8d48988d118941735","category":"Dive Bar","checkinsCount":3152,"usersCount":1185,"tipCount":26,"visitsCount":3812,"url":"http://www.moescrosstown.com","tier":1,"message":"Cheap","currency":"$","rating":8.4},{"name":"The Cocktail Club","phone":"8437249411","address":"479 King St","lat":32.789375,"lng":-79.93897909,"neighborhood":"Radcliffeborough","city_fetched":"Charleston,US","state":"SC","country":"United States","canonicalUrl":"https://foursquare.com/v/the-cocktail-club/4dee78b3c65bf34fc6ed9dc2","categoryId":"4bf58dd8d48988d11e941735","category":"Cocktail Bar","checkinsCount":4950,"usersCount":2488,"tipCount":46,"visitsCount":5011,"url":"http://www.thecocktailclubcharleston.com","tier":3,"message":"Expensive","currency":"$","rating":8.4},{"name":"Faculty Lounge","phone":"8437231353","twitter":"faculty391","address":"391 Huger St","lat":32.79909045962864,"lng":-79.95031267503214,"city_fetched":"Charleston,US","state":"SC","country":"United States","canonicalUrl":"https://foursquare.com/v/faculty-lounge/4e9a5d68e5e8dffcaec9df38","categoryId":"4bf58dd8d48988d116941735","category":"Bar","checkinsCount":545,"usersCount":292,"tipCount":7,"visitsCount":691,"tier":"","message":"","currency":"","rating":8.4},{"name":"Jack Of Cups","address":"34 Center Street","lat":32.656746,"lng":-79.941409,"neighborhood":"James Island","city_fetched":"Charleston,US","state":"SC","country":"United States","canonicalUrl":"https://foursquare.com/v/jack-of-cups/53373177498e6c25ed51df2f","categoryId":"52e81612bcbc57f1066b7a0d","category":"Beach Bar","checkinsCount":161,"usersCount":99,"tipCount":6,"visitsCount":168,"tier":"","message":"","currency":"","rating":8.4},{"name":"O'Hara and Flynn","phone":"8435341916","address":"225 Meeting St","lat":32.78194303488936,"lng":-79.93161363078899,"neighborhood":"Downtown Charleston","city_fetched":"Charleston,US","state":"SC","country":"United States","canonicalUrl":"https://foursquare.com/v/ohara-and-flynn/4b75ed8bf964a520892f2ee3","categoryId":"4bf58dd8d48988d123941735","category":"Wine Bar","checkinsCount":464,"usersCount":393,"tipCount":10,"visitsCount":469,"url":"http://oharaandflynn.com","tier":"","message":"","currency":"","rating":8.3},{"name":"The Surf Bar","phone":"8435882009","address":"103 W Cooper Ave","lat":32.655760459449255,"lng":-79.9413898717321,"neighborhood":"James Island","city_fetched":"Charleston,US","state":"SC","country":"United States","canonicalUrl":"https://foursquare.com/v/the-surf-bar/4b8afec6f964a520428d32e3","categoryId":"4bf58dd8d48988d116941735","category":"Bar","checkinsCount":2109,"usersCount":1289,"tipCount":27,"visitsCount":2159,"url":"http://surfbarfollybeach.com","tier":"","message":"","currency":"","rating":8.3},{"name":"Palmetto Brewing Company","phone":"8439370903","address":"289 Huger Street","lat":32.80125688876903,"lng":-79.94566834114892,"neighborhood":"East Central","city_fetched":"Charleston,US","state":"SC","country":"United States","canonicalUrl":"https://foursquare.com/v/palmetto-brewing-company/4dad9006cda1aece4a5b9f1e","categoryId":"50327c8591d4c4b30a586d5d","category":"Brewery","checkinsCount":1548,"usersCount":1022,"tipCount":13,"visitsCount":2155,"url":"http://palmettobrewery.com","tier":"","message":"","currency":"","rating":8.3},{"name":"Recovery Room","phone":"8437270999","twitter":"recoveryroom843","address":"685 King St","lat":32.79645493565153,"lng":-79.9446793393622,"city_fetched":"Charleston,US","state":"SC","country":"United States","canonicalUrl":"https://foursquare.com/v/recovery-room/4b592c15f964a5200c8028e3","categoryId":"4bf58dd8d48988d118941735","category":"Dive Bar","checkinsCount":4288,"usersCount":1526,"tipCount":23,"visitsCount":5115,"url":"http://recoveryroomtavern.com","tier":1,"message":"Cheap","currency":"$","rating":8.3},{"name":"Loggerheads Beach Grill","phone":"8435882365","address":"123 W Ashley Ave.","lat":32.65439613865347,"lng":-79.94273955199074,"neighborhood":"James Island","city_fetched":"Charleston,US","state":"SC","country":"United States","canonicalUrl":"https://foursquare.com/v/loggerheads-beach-grill/4bce57a8937ca593dc7bae92","categoryId":"4bf58dd8d48988d116941735","category":"Bar","checkinsCount":2328,"usersCount":1883,"tipCount":14,"visitsCount":2973,"url":"http://loggerheadsbg.com","tier":"","message":"","currency":"","rating":8.2},{"name":"Homegrown Brewhouse","phone":"8438734237","twitter":"hgbrewhouse","address":"117 S Main St","lat":33.01957010240029,"lng":-80.17510144371816,"city_fetched":"Charleston,US","state":"SC","country":"United States","canonicalUrl":"https://foursquare.com/v/homegrown-brewhouse/5154d5bbe4b0c7af42a92c80","categoryId":"4bf58dd8d48988d11b941735","category":"Pub","checkinsCount":593,"usersCount":270,"tipCount":10,"visitsCount":693,"url":"http://homegrownbrewhouse.com","tier":"","message":"","currency":"","rating":8.2},{"name":"Tommy Condonâ€™s Irish Pub & Seafood Restaurant","phone":"8435773818","twitter":"tommycondons","address":"160 Church St","lat":32.78022187818182,"lng":-79.929527,"neighborhood":"Downtown Charleston","city_fetched":"Charleston,US","state":"SC","country":"United States","canonicalUrl":"https://foursquare.com/tommycondons","categoryId":"4bf58dd8d48988d11b941735","category":"Pub","checkinsCount":4729,"usersCount":3852,"tipCount":50,"visitsCount":5187,"url":"http://www.tommycondons.com","tier":2,"message":"Moderate","currency":"$","rating":8.2},{"name":"Parson Jack's Cafe","phone":"8437697775","twitter":"parsonjackscafe","address":"3417 Shelby Ray Ct #G","lat":32.819874,"lng":-80.0650446,"city_fetched":"Charleston,US","state":"SC","country":"United States","canonicalUrl":"https://foursquare.com/v/parson-jacks-cafe/4b53b975f964a52048a927e3","categoryId":"4bf58dd8d48988d116941735","category":"Bar","checkinsCount":2025,"usersCount":727,"tipCount":27,"visitsCount":2307,"url":"http://parsonjackscafe.com","tier":"","message":"","currency":"","rating":8.2},{"name":"Craft Conundrum","phone":"8432772256","twitter":"craftconundrum","address":"630 Skylark Dr","lat":32.79189723279261,"lng":-80.0292558109731,"city_fetched":"Charleston,US","state":"SC","country":"United States","canonicalUrl":"https://foursquare.com/v/craft-conundrum/53adc5c7498ee1246594ed68","categoryId":"4bf58dd8d48988d116941735","category":"Bar","checkinsCount":320,"usersCount":231,"tipCount":5,"visitsCount":574,"tier":"","message":"","currency":"","rating":8.1},{"name":"The Barrel","twitter":"thebarrelchs","address":"1859 Folly Rd","lat":32.69155132107102,"lng":-79.96424965835583,"neighborhood":"James Island","city_fetched":"Charleston,US","state":"SC","country":"United States","canonicalUrl":"https://foursquare.com/v/the-barrel/53d82316498e842548d7fcd7","categoryId":"4bf58dd8d48988d117941735","category":"Beer Garden","checkinsCount":373,"usersCount":272,"tipCount":2,"visitsCount":604,"url":"http://thebarrelcharleston.com","tier":"","message":"","currency":"","rating":8.1},{"name":"Prohibition","phone":"8437932964","twitter":"prohibitionchs","address":"547 King St","lat":32.791163802744904,"lng":-79.94026421153947,"neighborhood":"Cannonborough - Elliottborough","city_fetched":"Charleston,US","state":"SC","country":"United States","canonicalUrl":"https://foursquare.com/v/prohibition/4ee00da577c804cac60b41cb","categoryId":"4bf58dd8d48988d11e941735","category":"Cocktail Bar","checkinsCount":3706,"usersCount":2859,"tipCount":46,"visitsCount":4544,"url":"http://prohibitioncharleston.com","tier":2,"message":"Moderate","currency":"$","rating":8.1},{"name":"Blu Restaurant & Bar","phone":"8435886658","twitter":"blufollybeach","address":"1 Center St","lat":32.654310202879536,"lng":-79.94083797218559,"neighborhood":"James Island","city_fetched":"Charleston,US","state":"SC","country":"United States","canonicalUrl":"https://foursquare.com/v/blu-restaurant--bar/4c27a63c905a0f4746436560","categoryId":"4bf58dd8d48988d116941735","category":"Bar","checkinsCount":2963,"usersCount":1624,"tipCount":34,"visitsCount":3110,"url":"http://www.blufollybeach.com","tier":2,"message":"Moderate","currency":"$","rating":8.1},{"name":"Montreux Bar & Grill","phone":"8432611200","address":"127 W Richardson Ave","lat":33.01957886979313,"lng":-80.17676899991173,"city_fetched":"Charleston,US","state":"SC","country":"United States","canonicalUrl":"https://foursquare.com/v/montreux-bar--grill/4bdb44aac79cc9282eea81e9","categoryId":"4bf58dd8d48988d11b941735","category":"Pub","checkinsCount":1921,"usersCount":886,"tipCount":20,"visitsCount":2140,"url":"http://montreuxbarandgrill.net","tier":2,"message":"Moderate","currency":"$","rating":8.1},{"name":"Stars Rooftop","phone":"8435770100","twitter":"starsrooftop","address":"495 King St","lat":32.789874,"lng":-79.939313,"neighborhood":"Radcliffeborough","city_fetched":"Charleston,US","state":"SC","country":"United States","canonicalUrl":"https://foursquare.com/v/stars-rooftop/506f703de4b0f9d493cd761d","categoryId":"4bf58dd8d48988d11e941735","category":"Cocktail Bar","checkinsCount":3324,"usersCount":2460,"tipCount":25,"visitsCount":3449,"url":"http://starsrestaurant.com","tier":2,"message":"Moderate","currency":"$","rating":8.1},{"name":"d.d. Peckers' Wing Shack","phone":"8434024567","twitter":"ddpeckers","address":"1660 Savannah Hwy","lat":32.78750326540334,"lng":-80.01545480580289,"city_fetched":"Charleston,US","state":"SC","country":"United States","canonicalUrl":"https://foursquare.com/ddpeckers","categoryId":"4bf58dd8d48988d11d941735","category":"Sports Bar","checkinsCount":4383,"usersCount":975,"tipCount":24,"visitsCount":4923,"url":"http://www.ddpeckerswingshack.com","tier":3,"message":"Expensive","currency":"$","rating":8.1},{"name":"Voodoo Tiki Bar & Lounge","phone":"8437690228","address":"15 Magnolia Dr","lat":32.78237965149468,"lng":-79.9860330031063,"city_fetched":"Charleston,US","state":"SC","country":"United States","canonicalUrl":"https://foursquare.com/v/voodoo-tiki-bar--lounge/4b4e2930f964a5208de326e3","categoryId":"4bf58dd8d48988d121941735","category":"Lounge","checkinsCount":4463,"usersCount":1516,"tipCount":39,"visitsCount":4579,"url":"http://www.voodootikibar.com","tier":2,"message":"Moderate","currency":"$","rating":8.1},{"name":"Craftsmen Kitchen & Tap House","phone":"8435779699","twitter":"craftsmentap","address":"12 Cumberland St","lat":32.780192984234034,"lng":-79.92762959510645,"neighborhood":"Downtown Charleston","city_fetched":"Charleston,US","state":"SC","country":"United States","canonicalUrl":"https://foursquare.com/v/craftsmen-kitchen--tap-house/517afe02e4b0a366bf8c55f2","categoryId":"4bf58dd8d48988d11b941735","category":"Pub","checkinsCount":1862,"usersCount":1537,"tipCount":39,"visitsCount":2101,"url":"http://www.craftsmentaphouse.com","tier":2,"message":"Moderate","currency":"$","rating":8},{"name":"Trio Lounge","phone":"8439655333","address":"139 Calhoun St","lat":32.78626432692696,"lng":-79.93515014648438,"neighborhood":"Downtown Charleston","city_fetched":"Charleston,US","state":"SC","country":"United States","canonicalUrl":"https://foursquare.com/v/trio-lounge/4b774db9f964a5206e902ee3","categoryId":"4bf58dd8d48988d11f941735","category":"Nightclub","checkinsCount":1452,"usersCount":1019,"tipCount":4,"visitsCount":1624,"url":"http://triocharleston.com","tier":2,"message":"Moderate","currency":"$","rating":8},{"name":"Local 616","phone":"8434147850","twitter":"local616","address":"616 Meeting St","lat":32.80444860127263,"lng":-79.94521482238135,"neighborhood":"East Central","city_fetched":"Charleston,US","state":"SC","country":"United States","canonicalUrl":"https://foursquare.com/local616","categoryId":"4bf58dd8d48988d11b941735","category":"Pub","checkinsCount":430,"usersCount":174,"tipCount":7,"visitsCount":468,"url":"http://local616.com","tier":1,"message":"Cheap","currency":"$","rating":8},{"name":"Market Pavilion Rooftop Bar","phone":"8437230500","address":"225 E Bay St","lat":32.780879626375665,"lng":-79.92755854755777,"neighborhood":"Downtown Charleston","city_fetched":"Charleston,US","state":"SC","country":"United States","canonicalUrl":"https://foursquare.com/v/market-pavilion-rooftop-bar/4b9c50d9f964a520c75e36e3","categoryId":"4bf58dd8d48988d1d5941735","category":"Hotel Bar","checkinsCount":5232,"usersCount":4345,"tipCount":35,"visitsCount":5382,"url":"http://marketpavilion.com","tier":3,"message":"Expensive","currency":"$","rating":8},{"name":"Charleston Beer Works","phone":"8435775885","twitter":"chasbeerworks","address":"480 King St","lat":32.79011025843108,"lng":-79.93910028552571,"city_fetched":"Charleston,US","state":"SC","country":"United States","canonicalUrl":"https://foursquare.com/chasbeerworks","categoryId":"4bf58dd8d48988d11d941735","category":"Sports Bar","checkinsCount":4636,"usersCount":2566,"tipCount":47,"visitsCount":4778,"url":"http://www.charlestonbeerworks.com","tier":2,"message":"Moderate","currency":"$","rating":8},{"name":"Fish","phone":"8437223474","twitter":"fishcharleston","address":"442 King St","lat":32.78870838021756,"lng":-79.93821503565476,"city_fetched":"Charleston,US","state":"SC","country":"United States","canonicalUrl":"https://foursquare.com/v/fish/4b6e5aa0f964a520d5b92ce3","categoryId":"4bf58dd8d48988d116941735","category":"Bar","checkinsCount":3257,"usersCount":1882,"tipCount":42,"visitsCount":3279,"url":"http://www.fishrestaurantcharleston.com","tier":2,"message":"Moderate","currency":"$","rating":7.9},{"name":"Aqua Terrace @ Marriott","twitter":"marriottintl","address":"170 Lockwood Blvd","lat":32.787874,"lng":-79.958641,"city_fetched":"Charleston,US","state":"SC","country":"United States","canonicalUrl":"https://foursquare.com/v/aqua-terrace--marriott/4c12f13682a3c9b6c9bcfaf8","categoryId":"4bf58dd8d48988d1d5941735","category":"Hotel Bar","checkinsCount":427,"usersCount":315,"tipCount":5,"visitsCount":428,"url":"http://www.marriott.com/chsmc","tier":"","message":"","currency":"","rating":7.9},{"name":"Maybank Public House","lat":32.76274772272222,"lng":-79.98662830895292,"neighborhood":"James Island","city_fetched":"Charleston,US","state":"SC","country":"United States","canonicalUrl":"https://foursquare.com/v/maybank-public-house/5659dcff498e8316342cccd7","categoryId":"4bf58dd8d48988d116941735","category":"Bar","checkinsCount":90,"usersCount":131,"tipCount":0,"visitsCount":222,"tier":"","message":"","currency":"","rating":7.9},{"name":"Trayce's Too","phone":"8435562378","address":"2578 Ashley River Rd","lat":32.83466740986072,"lng":-80.04599640744885,"city_fetched":"Charleston,US","state":"SC","country":"United States","canonicalUrl":"https://foursquare.com/v/trayces-too/4b789753f964a520e8d82ee3","categoryId":"4bf58dd8d48988d11d941735","category":"Sports Bar","checkinsCount":1682,"usersCount":330,"tipCount":6,"visitsCount":1991,"url":"http://traycestoo.com","tier":1,"message":"Cheap","currency":"$","rating":7.9},{"name":"McCann's Irish Pub","lat":32.85494970853831,"lng":-79.80357515379868,"city_fetched":"Charleston,US","state":"SC","country":"United States","canonicalUrl":"https://foursquare.com/v/mccanns-irish-pub/55d8c2dc498e86c4d6153b7f","categoryId":"4bf58dd8d48988d11b941735","category":"Pub","checkinsCount":462,"usersCount":148,"tipCount":0,"visitsCount":912,"tier":"","message":"","currency":"","rating":7.9},{"name":"Burn's Alley","phone":"8437236735","twitter":"burnsalley","address":"354 1/2 King St","lat":32.78503764004013,"lng":-79.93523597717285,"neighborhood":"Downtown Charleston","city_fetched":"Charleston,US","state":"SC","country":"United States","canonicalUrl":"https://foursquare.com/v/burns-alley/4b927067f964a5208df933e3","categoryId":"4bf58dd8d48988d116941735","category":"Bar","checkinsCount":4494,"usersCount":1089,"tipCount":14,"visitsCount":4639,"url":"http://www.burnsalley.com","tier":1,"message":"Cheap","currency":"$","rating":7.8},{"name":"Mueller's Pub","lat":32.79102552189729,"lng":-80.02912479909533,"city_fetched":"Charleston,US","state":"SC","country":"United States","canonicalUrl":"https://foursquare.com/v/muellers-pub/4d8237611ec4224b67a4d692","categoryId":"4bf58dd8d48988d11b941735","category":"Pub","checkinsCount":271,"usersCount":108,"tipCount":5,"visitsCount":272,"tier":"","message":"","currency":"","rating":7.8},{"name":"Bay Street Biergarten","phone":"8432091498","twitter":"baystbiergarten","address":"549 E Bay St","lat":32.79203674398424,"lng":-79.93133068084717,"city_fetched":"Charleston,US","state":"SC","country":"United States","canonicalUrl":"https://foursquare.com/v/bay-street-biergarten/5186e86e2fc694a8a506b5de","categoryId":"4bf58dd8d48988d117941735","category":"Beer Garden","checkinsCount":2697,"usersCount":2427,"tipCount":52,"visitsCount":4333,"url":"http://baystreetbiergarten.com","tier":2,"message":"Moderate","currency":"$","rating":7.8},{"name":"East Bay Meeting House","phone":"8437233446","address":"160 E Bay St","lat":32.778500708196646,"lng":-79.92702295648988,"neighborhood":"French Quarter","city_fetched":"Charleston,US","state":"SC","country":"United States","canonicalUrl":"https://foursquare.com/v/east-bay-meeting-house/4ad3ef2cf964a520fde620e3","categoryId":"4bf58dd8d48988d116941735","category":"Bar","checkinsCount":843,"usersCount":669,"tipCount":13,"visitsCount":844,"url":"http://www.eastbaymeetinghouse.com","tier":2,"message":"Moderate","currency":"$","rating":7.8},{"name":"Proof Bar","address":"437 King St","lat":32.78834097326524,"lng":-79.93790355671811,"city_fetched":"Charleston,US","state":"SC","country":"United States","canonicalUrl":"https://foursquare.com/v/proof-bar/4f7af685e4b0d7b5768dbfc4","categoryId":"4bf58dd8d48988d116941735","category":"Bar","checkinsCount":1713,"usersCount":1036,"tipCount":20,"visitsCount":1728,"tier":"","message":"","currency":"","rating":7.7},{"name":"O'Brions","phone":"8433889733","twitter":"obrionspubion","address":"361 N Shelmore Blvd","lat":32.812535762786865,"lng":-79.87945825,"city_fetched":"Charleston,US","state":"SC","country":"United States","canonicalUrl":"https://foursquare.com/v/obrions/4ba517ddf964a52033dc38e3","categoryId":"4bf58dd8d48988d11b941735","category":"Pub","checkinsCount":1630,"usersCount":499,"tipCount":6,"visitsCount":1927,"url":"http://www.obrionspub.com","tier":"","message":"","currency":"","rating":7.7},{"name":"The Roost Bar N' Grille","phone":"8437182285","address":"825 Savannah Hwy","lat":32.78193542913503,"lng":-79.98614769537491,"city_fetched":"Charleston,US","state":"SC","country":"United States","canonicalUrl":"https://foursquare.com/v/the-roost-bar-n-grille/4e052e962271dfa46ba0e157","categoryId":"4bf58dd8d48988d11d941735","category":"Sports Bar","checkinsCount":3174,"usersCount":1142,"tipCount":23,"visitsCount":3246,"url":"http://theroostavondale.com","tier":2,"message":"Moderate","currency":"$","rating":7.7},{"name":"Salty Mikes","lat":32.778704,"lng":-79.95039,"neighborhood":"Harleston Village","city_fetched":"Charleston,US","state":"SC","country":"United States","canonicalUrl":"https://foursquare.com/v/salty-mikes/4bbbb336ed7776b053cc3e51","categoryId":"4bf58dd8d48988d116941735","category":"Bar","checkinsCount":861,"usersCount":476,"tipCount":9,"visitsCount":889,"tier":1,"message":"Cheap","currency":"$","rating":7.6},{"name":"Mac's Place Pub And Grub","phone":"8437934653","address":"215 E Bay St","lat":32.780601,"lng":-79.927271,"neighborhood":"Downtown Charleston","city_fetched":"Charleston,US","state":"SC","country":"United States","canonicalUrl":"https://foursquare.com/v/macs-place-pub-and-grub/4de1ae67fa7651589eedb37b","categoryId":"4bf58dd8d48988d116941735","category":"Bar","checkinsCount":3495,"usersCount":2308,"tipCount":43,"visitsCount":3744,"url":"http://macsplacecharleston.com","tier":2,"message":"Moderate","currency":"$","rating":7.6},{"name":"Deja Vu II","phone":"8435545959","address":"4628 Spruill Ave","lat":32.87924925919574,"lng":-79.97994317288774,"city_fetched":"Charleston,US","state":"SC","country":"United States","canonicalUrl":"https://foursquare.com/v/deja-vu-ii/4c8ae5eae51e6dcb399d6dde","categoryId":"4bf58dd8d48988d1d8941735","category":"Gay Bar","checkinsCount":264,"usersCount":94,"tipCount":9,"visitsCount":294,"url":"http://dejavuii.com","tier":"","message":"","currency":"","rating":7.6},{"name":"Smokey's Place","phone":"8435661191","address":"1213 Remount Rd","lat":32.90177824369109,"lng":-79.98719630339765,"city_fetched":"Charleston,US","state":"SC","country":"United States","canonicalUrl":"https://foursquare.com/v/smokeys-place/5126995229a681c3f7672010","categoryId":"4bf58dd8d48988d11b941735","category":"Pub","checkinsCount":203,"usersCount":89,"tipCount":4,"visitsCount":210,"tier":"","message":"","currency":"","rating":7.6},{"name":"Dog & Duck","phone":"8438213056","address":"1580 Old Trolley Rd","lat":32.9661315,"lng":-80.16760653,"city_fetched":"Charleston,US","state":"SC","country":"United States","canonicalUrl":"https://foursquare.com/v/dog--duck/4b6dd78df964a520c7942ce3","categoryId":"4bf58dd8d48988d116941735","category":"Bar","checkinsCount":1676,"usersCount":730,"tipCount":19,"visitsCount":1843,"url":"http://dogandduckpubs.com","tier":2,"message":"Moderate","currency":"$","rating":7.5},{"name":"Oak Barrel Tavern","address":"825 B Highway 17","lat":32.781939884315754,"lng":-79.98623507985913,"city_fetched":"Charleston,US","state":"SC","country":"United States","canonicalUrl":"https://foursquare.com/v/oak-barrel-tavern/4cedc0518604a1cdd675f4c0","categoryId":"4bf58dd8d48988d116941735","category":"Bar","checkinsCount":779,"usersCount":275,"tipCount":8,"visitsCount":788,"tier":2,"message":"Moderate","currency":"$","rating":7.5},{"name":"Dudley's","phone":"8435776779","address":"42 Ann St","lat":32.78949112388741,"lng":-79.93833525529864,"city_fetched":"Charleston,US","state":"SC","country":"United States","canonicalUrl":"https://foursquare.com/v/dudleys/4b00c44df964a520074122e3","categoryId":"4bf58dd8d48988d116941735","category":"Bar","checkinsCount":2991,"usersCount":1030,"tipCount":11,"visitsCount":3103,"url":"http://dudleysonann.com","tier":1,"message":"Cheap","currency":"$","rating":7.4},{"name":"Cannon Green","lat":32.790737475994426,"lng":-79.94613278564131,"neighborhood":"Cannonborough - Elliottborough","city_fetched":"Charleston,US","state":"SC","country":"United States","canonicalUrl":"https://foursquare.com/v/cannon-green/50743d96e4b035a2189dcc91","categoryId":"4bf58dd8d48988d11a941735","category":"Other Nightlife","checkinsCount":128,"usersCount":200,"tipCount":0,"visitsCount":237,"tier":"","message":"","currency":"","rating":7.4},{"name":"Tradesman Brewing","address":"1639 Tatum St","lat":32.76001,"lng":-79.973739,"neighborhood":"James Island","city_fetched":"Charleston,US","state":"SC","country":"United States","canonicalUrl":"https://foursquare.com/v/tradesman-brewing/53178ebf498e392071d49f7f","categoryId":"50327c8591d4c4b30a586d5d","category":"Brewery","checkinsCount":145,"usersCount":150,"tipCount":2,"visitsCount":219,"tier":"","message":"","currency":"","rating":7.4},{"name":"Henry's Roof Terrace","address":"Market St","lat":32.78139120718315,"lng":-79.92895762713994,"neighborhood":"Downtown Charleston","city_fetched":"Charleston,US","state":"SC","country":"United States","canonicalUrl":"https://foursquare.com/v/henrys-roof-terrace/4eb35602cc2143e82715251c","categoryId":"4bf58dd8d48988d116941735","category":"Bar","checkinsCount":628,"usersCount":524,"tipCount":8,"visitsCount":630,"tier":"","message":"","currency":"","rating":7.4},{"name":"The Dinghy","address":"8 J C Long Blvd","lat":32.78530678307629,"lng":-79.7899794482663,"city_fetched":"Charleston,US","state":"SC","country":"United States","canonicalUrl":"https://foursquare.com/v/the-dinghy/538de91d498e4ac437082c00","categoryId":"52e81612bcbc57f1066b7a0d","category":"Beach Bar","checkinsCount":364,"usersCount":179,"tipCount":3,"visitsCount":463,"tier":"","message":"","currency":"","rating":7.3},{"name":"A C's Bar & Grill","phone":"8435776742","address":"467 King St","lat":32.789129627401124,"lng":-79.93860848114768,"neighborhood":"Radcliffeborough","city_fetched":"Charleston,US","state":"SC","country":"United States","canonicalUrl":"https://foursquare.com/v/a-cs-bar--grill/4b84c7e2f964a520f14331e3","categoryId":"4bf58dd8d48988d118941735","category":"Dive Bar","checkinsCount":6967,"usersCount":2015,"tipCount":39,"visitsCount":7059,"url":"http://acsbar.com","tier":1,"message":"Cheap","currency":"$","rating":7.3},{"name":"Southend Brewery & Smokehouse","phone":"8438534677","twitter":"southendbrewery","address":"161 E Bay St","lat":32.77856117447152,"lng":-79.92685675621033,"neighborhood":"French Quarter","city_fetched":"Charleston,US","state":"SC","country":"United States","canonicalUrl":"https://foursquare.com/v/southend-brewery--smokehouse/4b5ba469f964a5201d0d29e3","categoryId":"50327c8591d4c4b30a586d5d","category":"Brewery","checkinsCount":6795,"usersCount":6132,"tipCount":104,"visitsCount":7196,"url":"http://southendbrewery.com","tier":2,"message":"Moderate","currency":"$","rating":7.2},{"name":"Molly Darcy's Pub","phone":"8437374085","address":"235 E Bay St","lat":32.78164632129649,"lng":-79.92756401275587,"neighborhood":"Downtown Charleston","city_fetched":"Charleston,US","state":"SC","country":"United States","canonicalUrl":"https://foursquare.com/v/molly-darcys-pub/4cad3194a6e08cfae73ab294","categoryId":"4bf58dd8d48988d11b941735","category":"Pub","checkinsCount":2338,"usersCount":1789,"tipCount":21,"visitsCount":2467,"url":"http://mollydarcy.com","tier":2,"message":"Moderate","currency":"$","rating":7.2},{"name":"Midtown Bar & Grill","phone":"8437374284","address":"559 King St","lat":32.79135128906127,"lng":-79.94068622589111,"neighborhood":"Cannonborough - Elliottborough","city_fetched":"Charleston,US","state":"SC","country":"United States","canonicalUrl":"https://foursquare.com/v/midtown-bar--grill/4bb2b0e0715eef3b109f85bb","categoryId":"4bf58dd8d48988d116941735","category":"Bar","checkinsCount":6042,"usersCount":2105,"tipCount":28,"visitsCount":6105,"url":"http://www.midtownbarandgrill.net","tier":2,"message":"Moderate","currency":"$","rating":7.2},{"name":"Boone's Bar","phone":"8435776665","twitter":"boonesbar","address":"345 King St.","lat":32.78484331583263,"lng":-79.93575049655462,"neighborhood":"Downtown Charleston","city_fetched":"Charleston,US","state":"SC","country":"United States","canonicalUrl":"https://foursquare.com/v/boones-bar/4caf4aa8f2dbef3b919078e5","categoryId":"4bf58dd8d48988d116941735","category":"Bar","checkinsCount":4406,"usersCount":2018,"tipCount":27,"visitsCount":4489,"url":"http://www.boonesonking.com","tier":2,"message":"Moderate","currency":"$","rating":7.2},{"name":"Club Pantheon","phone":"8435772582","address":"28 Ann St","lat":32.7898309844225,"lng":-79.93748278516581,"city_fetched":"Charleston,US","state":"SC","country":"United States","canonicalUrl":"https://foursquare.com/v/club-pantheon/4b91ddcaf964a52073dc33e3","categoryId":"4bf58dd8d48988d11f941735","category":"Nightclub","checkinsCount":2617,"usersCount":1071,"tipCount":21,"visitsCount":2664,"url":"http://clubpantheon.net","tier":1,"message":"Cheap","currency":"$","rating":7.1},{"name":"Squeeze","phone":"8439376210","twitter":"squeeze_bar","address":"213 E Bay St","lat":32.780375,"lng":-79.927179,"neighborhood":"Downtown Charleston","city_fetched":"Charleston,US","state":"SC","country":"United States","canonicalUrl":"https://foursquare.com/v/squeeze/4bb2c2ae14cfd13a676915ab","categoryId":"4bf58dd8d48988d116941735","category":"Bar","checkinsCount":1947,"usersCount":995,"tipCount":25,"visitsCount":1947,"url":"http://squeeze-onsite.com","tier":"","message":"","currency":"","rating":7.1},{"name":"Back 9 Pub","phone":"8438520650","address":"2457 Ashley River Rd","lat":32.82774273241365,"lng":-80.04133534692551,"city_fetched":"Charleston,US","state":"SC","country":"United States","canonicalUrl":"https://foursquare.com/v/back-9-pub/4e335802d4c0c083094b552a","categoryId":"4bf58dd8d48988d116941735","category":"Bar","checkinsCount":647,"usersCount":89,"tipCount":1,"visitsCount":661,"url":"http://www.backninepub.com","tier":"","message":"","currency":"","rating":7.1},{"name":"Tabbuli","phone":"8436285959","twitter":"tabbuli","address":"6 N Market St","lat":32.78149396896426,"lng":-79.92618130676652,"neighborhood":"Downtown Charleston","city_fetched":"Charleston,US","state":"SC","country":"United States","canonicalUrl":"https://foursquare.com/v/tabbuli/4f1b7bd7e4b03543a16848c3","categoryId":"4bf58dd8d48988d119941735","category":"Hookah Bar","checkinsCount":2789,"usersCount":1355,"tipCount":48,"visitsCount":3030,"url":"http://tabbuli.com","tier":"","message":"","currency":"","rating":7.1},{"name":"Torch","address":"545 King St","lat":32.7912069820885,"lng":-79.94021415710449,"neighborhood":"Cannonborough - Elliottborough","city_fetched":"Charleston,US","state":"SC","country":"United States","canonicalUrl":"https://foursquare.com/v/torch/4c37e12593db0f4783b62092","categoryId":"4bf58dd8d48988d11f941735","category":"Nightclub","checkinsCount":1574,"usersCount":711,"tipCount":14,"visitsCount":1577,"url":"http://torchvelvetlounge.com","tier":"","message":"","currency":"","rating":7},{"name":"Henry's House","phone":"8437234363","twitter":"henryschs","address":"54 N Market St","lat":32.781246318866934,"lng":-79.92885378997003,"neighborhood":"Downtown Charleston","city_fetched":"Charleston,US","state":"SC","country":"United States","canonicalUrl":"https://foursquare.com/v/henrys-house/4b3bf51df964a520367f25e3","categoryId":"4bf58dd8d48988d116941735","category":"Bar","checkinsCount":5610,"usersCount":3709,"tipCount":46,"visitsCount":5733,"url":"http://henryshousecharleston.com","tier":2,"message":"Moderate","currency":"$","rating":7},{"name":"King Street Grille","phone":"8437236385","address":"304 King St","lat":32.78347577648954,"lng":-79.93463569332087,"neighborhood":"Downtown Charleston","city_fetched":"Charleston,US","state":"SC","country":"United States","canonicalUrl":"https://foursquare.com/v/king-street-grille/4b5725fbf964a520512828e3","categoryId":"4bf58dd8d48988d11d941735","category":"Sports Bar","checkinsCount":5213,"usersCount":3558,"tipCount":39,"visitsCount":5310,"url":"http://thekingstreetgrille.com","tier":2,"message":"Moderate","currency":"$","rating":6.9},{"name":"Market Street Saloon","phone":"8435772474","twitter":"marketstsaloon","address":"32 N Market St Ste D","lat":32.781296647168496,"lng":-79.92772250335238,"neighborhood":"Downtown Charleston","city_fetched":"Charleston,US","state":"SC","country":"United States","canonicalUrl":"https://foursquare.com/v/market-street-saloon/4b5159abf964a520884b27e3","categoryId":"4bf58dd8d48988d116941735","category":"Bar","checkinsCount":1804,"usersCount":1256,"tipCount":15,"visitsCount":1808,"url":"http://marketstreetsaloon.com","tier":"","message":"","currency":"","rating":6.9},{"name":"Upper Deck Tavern","phone":"8439580002","address":"353 King St","lat":32.78500369257773,"lng":-79.93573410249229,"neighborhood":"Downtown Charleston","city_fetched":"Charleston,US","state":"SC","country":"United States","canonicalUrl":"https://foursquare.com/v/upper-deck-tavern/4b43d837f964a520caeb25e3","categoryId":"4bf58dd8d48988d118941735","category":"Dive Bar","checkinsCount":4143,"usersCount":1049,"tipCount":26,"visitsCount":4170,"tier":1,"message":"Cheap","currency":"$","rating":6.9},{"name":"Charleston Rifle Club","phone":"8437224853","address":"2221 Heriot St","lat":32.814184916660565,"lng":-79.957594871521,"city_fetched":"Charleston,US","state":"SC","country":"United States","canonicalUrl":"https://foursquare.com/v/charleston-rifle-club/4c154ade7f7f2d7f6644e268","categoryId":"4bf58dd8d48988d11e941735","category":"Cocktail Bar","checkinsCount":280,"usersCount":178,"tipCount":0,"visitsCount":363,"tier":"","message":"","currency":"","rating":6.9},{"name":"L.I.F.E","phone":"8438055050","address":"487 King St","lat":32.78972741733662,"lng":-79.93905656969297,"neighborhood":"Radcliffeborough","city_fetched":"Charleston,US","state":"SC","country":"United States","canonicalUrl":"https://foursquare.com/v/life/50569b85e4b0150f2f8d1bd5","categoryId":"4bf58dd8d48988d116941735","category":"Bar","checkinsCount":391,"usersCount":251,"tipCount":5,"visitsCount":392,"url":"http://lifebarcharleston.com","tier":"","message":"","currency":"","rating":6.8},{"name":"Big Game Bar & Grill","address":"545 Belle Station Blvd","lat":32.84314397602971,"lng":-79.85421228588633,"city_fetched":"Charleston,US","state":"SC","country":"United States","canonicalUrl":"https://foursquare.com/v/big-game-bar--grill/52192eed11d24839010e8b22","categoryId":"4bf58dd8d48988d116941735","category":"Bar","checkinsCount":294,"usersCount":114,"tipCount":2,"visitsCount":372,"tier":1,"message":"Cheap","currency":"$","rating":6.8},{"name":"R-Pub","phone":"8435561975","address":"1836 Ashley River Rd","lat":32.80371256849536,"lng":-80.01811909485068,"city_fetched":"Charleston,US","state":"SC","country":"United States","canonicalUrl":"https://foursquare.com/v/rpub/4b57c5aef964a5204a4028e3","categoryId":"4bf58dd8d48988d11b941735","category":"Pub","checkinsCount":2767,"usersCount":252,"tipCount":6,"visitsCount":2837,"url":"http://www.rpubonline.com","tier":"","message":"","currency":"","rating":6.7},{"name":"Cutty's","address":"Bogard","lat":32.79339725705098,"lng":-79.94346083006677,"neighborhood":"Cannonborough - Elliottborough","city_fetched":"Charleston,US","state":"SC","country":"United States","canonicalUrl":"https://foursquare.com/v/cuttys/4f35d230e4b099ca92accc2c","categoryId":"4bf58dd8d48988d116941735","category":"Bar","checkinsCount":774,"usersCount":184,"tipCount":3,"visitsCount":775,"tier":"","message":"","currency":"","rating":6.7},{"name":"Palace Hotel","phone":"8435017994","twitter":"palacehotelchs","address":"35 Hanover St","lat":32.79534806917517,"lng":-79.93753196636077,"city_fetched":"Charleston,US","state":"SC","country":"United States","canonicalUrl":"https://foursquare.com/v/palace-hotel/5342b495498ec097e4d78932","categoryId":"4bf58dd8d48988d116941735","category":"Bar","checkinsCount":189,"usersCount":179,"tipCount":3,"visitsCount":296,"url":"http://www.palacehotelchs.com","tier":2,"message":"Moderate","currency":"$","rating":6.7},{"name":"Planet Follywood","phone":"8435887380","address":"32 Center St","lat":32.65661489161069,"lng":-79.941256,"neighborhood":"James Island","city_fetched":"Charleston,US","state":"SC","country":"United States","canonicalUrl":"https://foursquare.com/v/planet-follywood/4ba55333f964a520dafa38e3","categoryId":"4bf58dd8d48988d118941735","category":"Dive Bar","checkinsCount":660,"usersCount":381,"tipCount":7,"visitsCount":662,"tier":"","message":"","currency":"","rating":6.6},{"name":"Republic","address":"King St","lat":32.789692546465375,"lng":-79.93867951972867,"city_fetched":"Charleston,US","state":"SC","country":"United States","canonicalUrl":"https://foursquare.com/v/republic/518dc21c498e7182c6e19e34","categoryId":"4bf58dd8d48988d116941735","category":"Bar","checkinsCount":742,"usersCount":669,"tipCount":7,"visitsCount":790,"tier":"","message":"","currency":"","rating":6.6},{"name":"Dunleavy's Pub","lat":32.76277911700119,"lng":-79.83631888768743,"city_fetched":"Charleston,US","state":"SC","country":"United States","canonicalUrl":"https://foursquare.com/v/dunleavys-pub/4b81b61ef964a5204bb930e3","categoryId":"4bf58dd8d48988d11b941735","category":"Pub","checkinsCount":1301,"usersCount":837,"tipCount":31,"visitsCount":1319,"tier":"","message":"","currency":"","rating":6.6},{"name":"O'Brion's Pub & Grille","phone":"8437950309","address":"520 Folly Rd","lat":32.7541899491266,"lng":-79.97143854533307,"neighborhood":"James Island","city_fetched":"Charleston,US","state":"SC","country":"United States","canonicalUrl":"https://foursquare.com/v/obrions-pub--grille/4b706b6ff964a52053192de3","categoryId":"4bf58dd8d48988d11b941735","category":"Pub","checkinsCount":2031,"usersCount":672,"tipCount":13,"visitsCount":2128,"tier":2,"message":"Moderate","currency":"$","rating":6.5},{"name":"Thee Southern Belle","phone":"8437226833","address":"2028 Pittsburgh Ave","lat":32.832649531253,"lng":-79.95321750640869,"city_fetched":"Charleston,US","state":"SC","country":"United States","canonicalUrl":"https://foursquare.com/v/thee-southern-belle/4baece35f964a52087d93be3","categoryId":"4bf58dd8d48988d1d6941735","category":"Strip Club","checkinsCount":713,"usersCount":493,"tipCount":10,"visitsCount":790,"url":"http://www.theesouthernbelle.com","tier":"","message":"","currency":"","rating":6.5},{"name":"Club Habana","phone":"8438535900","address":"177 Meeting St","lat":32.7804,"lng":-79.931533,"neighborhood":"Downtown Charleston","city_fetched":"Charleston,US","state":"SC","country":"United States","canonicalUrl":"https://foursquare.com/v/club-habana/4c6730f0f7a80f47047da07a","categoryId":"4bf58dd8d48988d121941735","category":"Lounge","checkinsCount":438,"usersCount":282,"tipCount":9,"visitsCount":438,"url":"http://www.tinderboxcharleston.com/habana","tier":"","message":"","currency":"","rating":6.5},{"name":"My Father's Moustache","phone":"8438842425","address":"1405 Ben Sawyer Blvd","lat":32.79280056708539,"lng":-79.85544844299176,"city_fetched":"Charleston,US","state":"SC","country":"United States","canonicalUrl":"https://foursquare.com/v/my-fathers-moustache/5308166b11d20be72478d655","categoryId":"4bf58dd8d48988d11b941735","category":"Pub","checkinsCount":456,"usersCount":452,"tipCount":5,"visitsCount":909,"url":"http://www.myfathersmustache.com","tier":1,"message":"Cheap","currency":"$","rating":6.4},{"name":"Harborview Restaurant & Lounge","phone":"8435567100","twitter":"harborviewrb","address":"301 Savannah Hwy","lat":32.78128776471011,"lng":-79.96500899886588,"city_fetched":"Charleston,US","state":"SC","country":"United States","canonicalUrl":"https://foursquare.com/v/harborview-restaurant--lounge/4c157763a5eb76b0c071c3b7","categoryId":"4bf58dd8d48988d1d5941735","category":"Hotel Bar","checkinsCount":285,"usersCount":246,"tipCount":11,"visitsCount":287,"tier":"","message":"","currency":"","rating":6.3},{"name":"Carolina Ale House","lat":32.785936209562834,"lng":-79.9356575968275,"neighborhood":"Downtown Charleston","city_fetched":"Charleston,US","state":"SC","country":"United States","canonicalUrl":"https://foursquare.com/v/carolina-ale-house/555ff106498e8dcd99bd68dd","categoryId":"4bf58dd8d48988d11d941735","category":"Sports Bar","checkinsCount":446,"usersCount":389,"tipCount":5,"visitsCount":550,"tier":"","message":"","currency":"","rating":6.2},{"name":"NV Dance Lounge","phone":"8435772083","twitter":"nvchs","address":"48 N Market St","lat":32.78127729892731,"lng":-79.92877573,"neighborhood":"Downtown Charleston","city_fetched":"Charleston,US","state":"SC","country":"United States","canonicalUrl":"https://foursquare.com/v/nv-dance-lounge/4bdcde633904a593b91e509e","categoryId":"4bf58dd8d48988d121941735","category":"Lounge","checkinsCount":1962,"usersCount":769,"tipCount":17,"visitsCount":1984,"tier":"","message":"","currency":"","rating":6.2},{"name":"Island Bar & Grill","phone":"8437950903","address":"815 Folly Rd","lat":32.73889742,"lng":-79.967281,"neighborhood":"James Island","city_fetched":"Charleston,US","state":"SC","country":"United States","canonicalUrl":"https://foursquare.com/v/island-bar--grill/4ba2dc3bf964a520bb1e38e3","categoryId":"4bf58dd8d48988d120941735","category":"Karaoke Bar","checkinsCount":1073,"usersCount":393,"tipCount":7,"visitsCount":1149,"tier":"","message":"","currency":"","rating":6.2},{"name":"Silver Dollar","phone":"8437227223","address":"478 King St","lat":32.789995,"lng":-79.9391581,"neighborhood":"Radcliffeborough","city_fetched":"Charleston,US","state":"SC","country":"United States","canonicalUrl":"https://foursquare.com/v/silver-dollar/4bf4a497cad2c9282e3e9c99","categoryId":"4bf58dd8d48988d116941735","category":"Bar","checkinsCount":2507,"usersCount":896,"tipCount":11,"visitsCount":2518,"tier":"","message":"","currency":"","rating":5.9},{"name":"Mynt","phone":"8437181598","twitter":"myntcharleston","address":"135 Calhoun St","lat":32.78629889895502,"lng":-79.93492532493812,"neighborhood":"Downtown Charleston","city_fetched":"Charleston,US","state":"SC","country":"United States","canonicalUrl":"https://foursquare.com/v/mynt/4fcc150de4b082348a549855","categoryId":"4bf58dd8d48988d11f941735","category":"Nightclub","checkinsCount":1590,"usersCount":1018,"tipCount":8,"visitsCount":1725,"url":"http://myntsouthcarolina.com","tier":"","message":"","currency":"","rating":5.9},{"name":"Charleston Elks Lodge 242","phone":"8435564010","address":"1113 Sam Rittenberg Blvd","lat":32.824771026351456,"lng":-79.98962662239433,"city_fetched":"Charleston,US","state":"SC","country":"United States","canonicalUrl":"https://foursquare.com/v/charleston-elks-lodge-242/4e2ce79318508ec753d221bb","categoryId":"4bf58dd8d48988d121941735","category":"Lounge","checkinsCount":797,"usersCount":204,"tipCount":3,"visitsCount":924,"tier":"","message":"","currency":"","rating":5.6},{"name":"Calders Buffalo Pub","address":"1971 Riviera Dr","lat":32.82147294175616,"lng":-79.81662704046266,"city_fetched":"Charleston,US","state":"SC","country":"United States","canonicalUrl":"https://foursquare.com/v/calders-buffalo-pub/4bd75b6ef645c9b69bc0a5e0","categoryId":"4bf58dd8d48988d11b941735","category":"Pub","checkinsCount":812,"usersCount":390,"tipCount":16,"visitsCount":822,"tier":"","message":"","currency":"","rating":5.5},{"name":"Republic Reign","lat":32.789530979841196,"lng":-79.93877241624753,"city_fetched":"Charleston,US","state":"SC","country":"United States","canonicalUrl":"https://foursquare.com/v/republic-reign/507da7a7e4b035b151b82c5a","categoryId":"4bf58dd8d48988d11e941735","category":"Cocktail Bar","checkinsCount":1270,"usersCount":831,"tipCount":16,"visitsCount":1303,"tier":"","message":"","currency":"","rating":5.5},{"name":"O'Brions Pub & Grille","address":"2015","lat":32.897303397884215,"lng":-79.82099365753076,"city_fetched":"Charleston,US","state":"SC","country":"United States","canonicalUrl":"https://foursquare.com/v/obrions-pub--grille/4c76e8c5a5676dcbe4071721","categoryId":"4bf58dd8d48988d11b941735","category":"Pub","checkinsCount":1125,"usersCount":414,"tipCount":9,"visitsCount":1230,"tier":"","message":"","currency":"","rating":5.3},{"name":"The Pub on 61 West Ashley","phone":"8437370072","address":"2366 Ashley River Rd","lat":32.824697,"lng":-80.03771213333333,"city_fetched":"Charleston,US","state":"SC","country":"United States","canonicalUrl":"https://foursquare.com/v/the-pub-on-61-west-ashley/4daa6e596a2303012f0eb233","categoryId":"4bf58dd8d48988d116941735","category":"Bar","checkinsCount":478,"usersCount":121,"tipCount":2,"visitsCount":601,"tier":"","message":"","currency":"","rating":5.3}]