[{"name":"Freedom's Edge Brewing Company","phone":"3076359245","address":"301 W Lincolnway","lat":41.1314817991735,"lng":-104.81700510962226,"neighborhood":"Downtown Cheyenne Historic District","city_fetched":"Cheyenne,US","state":"WY","country":"United States","canonicalUrl":"https://foursquare.com/v/freedoms-edge-brewing-company/4f45b5fbe4b04ef91cd9642b","categoryId":"50327c8591d4c4b30a586d5d","category":"Brewery","checkinsCount":605,"usersCount":337,"tipCount":16,"visitsCount":753,"url":"http://www.freedomsedgebrewing.com","tier":2,"message":"Moderate","currency":"$","rating":8.4},{"name":"Sanford's Grub and Pub","phone":"3076343381","address":"122 E 17th St","lat":41.134141511718774,"lng":-104.81397875970266,"neighborhood":"Downtown Cheyenne Historic District","city_fetched":"Cheyenne,US","state":"WY","country":"United States","canonicalUrl":"https://foursquare.com/v/sanfords-grub-and-pub/4b6cbb96f964a52007502ce3","categoryId":"4bf58dd8d48988d11b941735","category":"Pub","checkinsCount":1370,"usersCount":962,"tipCount":27,"visitsCount":1609,"url":"http://www.thegrubandpub.com","tier":"","message":"","currency":"","rating":8.1},{"name":"The Albany","phone":"3076383507","address":"1506 Capitol Ave","lat":41.13220648308652,"lng":-104.81495903990165,"neighborhood":"Historic Cheyenne","city_fetched":"Cheyenne,US","state":"WY","country":"United States","canonicalUrl":"https://foursquare.com/v/the-albany/4b60ed65f964a520db012ae3","categoryId":"4bf58dd8d48988d116941735","category":"Bar","checkinsCount":681,"usersCount":447,"tipCount":11,"visitsCount":720,"url":"http://albanycheyenne.com","tier":"","message":"","currency":"","rating":7.8},{"name":"Suite 1901","phone":"3076341901","address":"1901 Central Ave","lat":41.136108251355076,"lng":-104.81580376625061,"neighborhood":"Historic Cheyenne","city_fetched":"Cheyenne,US","state":"WY","country":"United States","canonicalUrl":"https://foursquare.com/v/suite-1901/4b6d0286f964a520d8622ce3","categoryId":"4bf58dd8d48988d11e941735","category":"Cocktail Bar","checkinsCount":628,"usersCount":291,"tipCount":7,"visitsCount":752,"url":"http://thesuitebistro.com","tier":"","message":"","currency":"","rating":7.6},{"name":"Uncle Charlie's","address":"6001 Yellowstone Rd","lat":41.17445475010666,"lng":-104.8280668258667,"city_fetched":"Cheyenne,US","state":"WY","country":"United States","canonicalUrl":"https://foursquare.com/v/uncle-charlies/4b906713f964a5206d8833e3","categoryId":"4bf58dd8d48988d116941735","category":"Bar","checkinsCount":420,"usersCount":242,"tipCount":1,"visitsCount":728,"url":"http://unclecharlies.com","tier":"","message":"","currency":"","rating":7.4},{"name":"Cadillac Ranch Bar","address":"4799 Nationway, Cheyenne, WY 82001","lat":41.136000200204364,"lng":-104.7692913544463,"city_fetched":"Cheyenne,US","state":"WY","country":"United States","canonicalUrl":"https://foursquare.com/v/cadillac-ranch-bar/4f8f436ee4b01d8f6d25d1f9","categoryId":"4bf58dd8d48988d116941735","category":"Bar","checkinsCount":420,"usersCount":218,"tipCount":1,"visitsCount":522,"tier":"","message":"","currency":"","rating":7.1},{"name":"Outlaw Saloon","address":"312 S Greeley Hwy","lat":41.1143925918784,"lng":-104.80260193347931,"city_fetched":"Cheyenne,US","state":"WY","country":"United States","canonicalUrl":"https://foursquare.com/v/outlaw-saloon/4bef933ff2712d7f0af4fbd8","categoryId":"4bf58dd8d48988d118941735","category":"Dive Bar","checkinsCount":589,"usersCount":427,"tipCount":5,"visitsCount":749,"tier":"","message":"","currency":"","rating":6.9},{"name":"Jackson's Sports Grill","phone":"3076379101","address":"1121 Old Town Ln","lat":41.17311417247996,"lng":-104.8095703125,"city_fetched":"Cheyenne,US","state":"WY","country":"United States","canonicalUrl":"https://foursquare.com/v/jacksons-sports-grill/4c05a72270839521340b7bce","categoryId":"4bf58dd8d48988d11d941735","category":"Sports Bar","checkinsCount":733,"usersCount":333,"tipCount":11,"visitsCount":873,"url":"http://www.jacksonsallamerican.com","tier":"","message":"","currency":"","rating":6.1},{"name":"The Crown","phone":"3077789202","twitter":"thecrownbar307","address":"222 W Lincolnway","lat":41.13249138359304,"lng":-104.81656625676194,"neighborhood":"Downtown Cheyenne Historic District","city_fetched":"Cheyenne,US","state":"WY","country":"United States","canonicalUrl":"https://foursquare.com/v/the-crown/4e17ad2a45dd120c1207a853","categoryId":"4bf58dd8d48988d116941735","category":"Bar","checkinsCount":368,"usersCount":170,"tipCount":6,"visitsCount":395,"tier":"","message":"","currency":"","rating":5.7}]