[{"name":"Scofflaw","phone":"7732529700","twitter":"scofflaw","address":"3201 W Armitage Ave","lat":41.917364984640884,"lng":-87.70708890691276,"neighborhood":"Logan Square","city_fetched":"Chicago","state":"IL","country":"United States","canonicalUrl":"https://foursquare.com/v/scofflaw/4f5829f3e4b0ff1158ed1d8e","category":"Cocktail Bar","checkinsCount":9913,"usersCount":5609,"tipCount":127,"visitsCount":11938,"url":"http://scofflawchicago.com","tier":2,"message":"Moderate","currency":"$","rating":9.5},{"name":"Maude's Liquor Bar","phone":"3122439712","address":"840 W Randolph St","lat":41.884499262791394,"lng":-87.64899015426634,"neighborhood":"Fulton Market","city_fetched":"Chicago","state":"IL","country":"United States","canonicalUrl":"https://foursquare.com/v/maudes-liquor-bar/4cc5b207c844721eb395f001","category":"French Restaurant","checkinsCount":8276,"usersCount":5341,"tipCount":97,"visitsCount":8362,"url":"http://www.maudesliquorbar.com","tier":3,"message":"Expensive","currency":"$","rating":9.5},{"name":"Au Cheval","phone":"3129294580","twitter":"aucheval","address":"800 W Randolph St","lat":41.88451860120726,"lng":-87.64742601594278,"neighborhood":"Fulton Market","city_fetched":"Chicago","state":"IL","country":"United States","canonicalUrl":"https://foursquare.com/v/au-cheval/4f3d871fe4b046e822dbe157","category":"Gastropub","checkinsCount":16659,"usersCount":10431,"tipCount":343,"visitsCount":17618,"url":"http://auchevalchicago.com","tier":2,"message":"Moderate","currency":"$","rating":9.4},{"name":"Revolution Brewing","phone":"7732272739","twitter":"revbrewchicago","address":"2323 N Milwaukee Ave","lat":41.9234904892934,"lng":-87.69814968109131,"neighborhood":"Logan Square","city_fetched":"Chicago","state":"IL","country":"United States","canonicalUrl":"https://foursquare.com/v/revolution-brewing/4b0b3062f964a520582e23e3","category":"Brewery","checkinsCount":39275,"usersCount":19551,"tipCount":379,"visitsCount":42748,"url":"http://revbrew.com","tier":2,"message":"Moderate","currency":"$","rating":9.4},{"name":"Half Acre Beer Company","phone":"7732484038","twitter":"halfacrebeer","address":"4257 N Lincoln Ave","lat":41.95927468843553,"lng":-87.68243193626404,"neighborhood":"North Center","city_fetched":"Chicago","state":"IL","country":"United States","canonicalUrl":"https://foursquare.com/v/half-acre-beer-company/4b48e977f964a520095d26e3","category":"Brewery","checkinsCount":14376,"usersCount":6754,"tipCount":105,"visitsCount":16027,"url":"http://halfacrebeer.com","tier":2,"message":"Moderate","currency":"$","rating":9.4},{"name":"Gilt Bar","phone":"3124649544","twitter":"giltbar","address":"230 W Kinzie St","lat":41.88923572519122,"lng":-87.63534623567077,"neighborhood":"River North","city_fetched":"Chicago","state":"IL","country":"United States","canonicalUrl":"https://foursquare.com/v/gilt-bar/4b7ecfe4f964a520470130e3","category":"Bar","checkinsCount":13470,"usersCount":8711,"tipCount":161,"visitsCount":13801,"url":"http://www.giltbarchicago.com","tier":3,"message":"Expensive","currency":"$","rating":9.4},{"name":"Shaw's Crab House","phone":"3125272722","address":"21 E Hubbard St","lat":41.89003205068848,"lng":-87.62710008344948,"neighborhood":"Near North Side","city_fetched":"Chicago","state":"IL","country":"United States","canonicalUrl":"https://foursquare.com/v/shaws-crab-house/4ad91beff964a5202e1821e3","category":"Seafood Restaurant","checkinsCount":12361,"usersCount":8852,"tipCount":161,"visitsCount":13112,"url":"http://www.shawscrabhouse.com","tier":3,"message":"Expensive","currency":"$","rating":9.4},{"name":"Piece Brewery and Pizzeria","phone":"7737724422","twitter":"piecechicago","address":"1927 W North Ave","lat":41.91037562979727,"lng":-87.67617702484131,"neighborhood":"Wicker Park","city_fetched":"Chicago","state":"IL","country":"United States","canonicalUrl":"https://foursquare.com/v/piece-brewery-and-pizzeria/40fc6080f964a5202d0b1fe3","category":"Pizza Place","checkinsCount":34927,"usersCount":18880,"tipCount":317,"visitsCount":37038,"url":"http://piecechicago.com","tier":2,"message":"Moderate","currency":"$","rating":9.4},{"name":"Longman & Eagle","phone":"7732767110","twitter":"longmanandeagle","address":"2657 N Kedzie Ave","lat":41.93010297371153,"lng":-87.70725599256758,"neighborhood":"Logan Square","city_fetched":"Chicago","state":"IL","country":"United States","canonicalUrl":"https://foursquare.com/v/longman--eagle/4b469be2f964a5206e2526e3","category":"New American Restaurant","checkinsCount":23717,"usersCount":12563,"tipCount":316,"visitsCount":25742,"url":"http://longmanandeagle.com","tier":2,"message":"Moderate","currency":"$","rating":9.4},{"name":"Candlelite Chicago Restaurant","phone":"7734650087","twitter":"candlelitechi","address":"7452 N Western Ave","lat":42.01747279,"lng":-87.690333,"neighborhood":"West Ridge","city_fetched":"Chicago","state":"IL","country":"United States","canonicalUrl":"https://foursquare.com/v/candlelite-chicago-restaurant/4a973eeef964a520112920e3","category":"Pizza Place","checkinsCount":2807,"usersCount":1185,"tipCount":35,"visitsCount":3287,"url":"http://www.candlelitechicago.com","tier":2,"message":"Moderate","currency":"$","rating":9.4},{"name":"Avec","phone":"3123772002","address":"615 W Randolph St","lat":41.88449042863341,"lng":-87.64339817157251,"neighborhood":"West Loop","city_fetched":"Chicago","state":"IL","country":"United States","canonicalUrl":"https://foursquare.com/v/avec/4197f180f964a520181e1fe3","category":"New American Restaurant","checkinsCount":9387,"usersCount":6414,"tipCount":176,"visitsCount":9936,"url":"http://www.avecrestaurant.com","tier":3,"message":"Expensive","currency":"$","rating":9.4},{"name":"Hopleaf Bar","phone":"7733349851","address":"5148 N Clark St","lat":41.975887081800614,"lng":-87.66845226287842,"neighborhood":"Andersonville","city_fetched":"Chicago","state":"IL","country":"United States","canonicalUrl":"https://foursquare.com/v/hopleaf-bar/412a8500f964a520770c1fe3","category":"Beer Bar","checkinsCount":25887,"usersCount":13016,"tipCount":298,"visitsCount":28299,"url":"http://hopleaf.com","tier":2,"message":"Moderate","currency":"$","rating":9.3},{"name":"Mezcaleria Las Flores","address":"3149 W Logan Blvd","lat":41.9279169879892,"lng":-87.70685795556058,"neighborhood":"Logan Square","city_fetched":"Chicago","state":"IL","country":"United States","canonicalUrl":"https://foursquare.com/v/mezcaleria-las-flores/56da1c1e498e54cafa06a5e9","category":"Cocktail Bar","checkinsCount":359,"usersCount":281,"tipCount":7,"visitsCount":363,"tier":"","message":"","currency":"","rating":9.3},{"name":"The Whistler","phone":"7732273530","twitter":"whistlerchicago","address":"2421 N Milwaukee Ave","lat":41.925251005714976,"lng":-87.70103570666804,"neighborhood":"Logan Square","city_fetched":"Chicago","state":"IL","country":"United States","canonicalUrl":"https://foursquare.com/v/the-whistler/49bc8c49f964a5203f541fe3","category":"Cocktail Bar","checkinsCount":13564,"usersCount":8249,"tipCount":96,"visitsCount":14896,"url":"http://www.whistlerchicago.com","tier":2,"message":"Moderate","currency":"$","rating":9.3},{"name":"Lagunitas Brewing Company","address":"2607 W 17th St","lat":41.857726300995786,"lng":-87.69205056197679,"neighborhood":"Douglas Park","city_fetched":"Chicago","state":"IL","country":"United States","canonicalUrl":"https://foursquare.com/v/lagunitas-brewing-company/50c12f55498e5a9cfe451a68","category":"Brewery","checkinsCount":4602,"usersCount":4242,"tipCount":56,"visitsCount":6066,"url":"http://lagunitas.com","tier":2,"message":"Moderate","currency":"$","rating":9.3},{"name":"Big Star","phone":"7732354039","twitter":"bigstarchicago","address":"1531 N Damen Ave","lat":41.9092278850329,"lng":-87.67726723375097,"neighborhood":"Wicker Park","city_fetched":"Chicago","state":"IL","country":"United States","canonicalUrl":"https://foursquare.com/v/big-star/4adbf2bbf964a520242b21e3","category":"Taco Place","checkinsCount":62645,"usersCount":26674,"tipCount":548,"visitsCount":66294,"url":"http://www.bigstarchicago.com","tier":2,"message":"Moderate","currency":"$","rating":9.3},{"name":"Ada Street","phone":"7736977069","twitter":"adastreetchi","address":"1664 N Ada St","lat":41.91248387618026,"lng":-87.6623538829633,"neighborhood":"Bucktown","city_fetched":"Chicago","state":"IL","country":"United States","canonicalUrl":"https://foursquare.com/v/ada-street/4f52e52ae4b0195da4625f04","category":"American Restaurant","checkinsCount":3208,"usersCount":2518,"tipCount":64,"visitsCount":3698,"url":"http://adastreetchicago.com","tier":2,"message":"Moderate","currency":"$","rating":9.3},{"name":"Rootstock","phone":"7732921616","address":"954 N California Ave","lat":41.8991,"lng":-87.696945,"neighborhood":"Humboldt Park","city_fetched":"Chicago","state":"IL","country":"United States","canonicalUrl":"https://foursquare.com/v/rootstock/4a6e6560f964a520a6d41fe3","category":"New American Restaurant","checkinsCount":5110,"usersCount":3191,"tipCount":55,"visitsCount":5278,"url":"http://rootstockbar.com","tier":2,"message":"Moderate","currency":"$","rating":9.3},{"name":"Girl & the Goat","phone":"3124926262","twitter":"stephandthegoat","address":"809 W Randolph St","lat":41.884339,"lng":-87.647825,"neighborhood":"West Town","city_fetched":"Chicago","state":"IL","country":"United States","canonicalUrl":"https://foursquare.com/v/girl--the-goat/4c1f8dd3b306c928029768b7","category":"New American Restaurant","checkinsCount":24795,"usersCount":18812,"tipCount":484,"visitsCount":25587,"url":"http://www.girlandthegoat.com","tier":3,"message":"Expensive","currency":"$","rating":9.3},{"name":"Goose Island Beer Co.","phone":"3122261119","twitter":"gooseisland","address":"1800 W Fulton St","lat":41.88699668760529,"lng":-87.6723464158445,"neighborhood":"West Town","city_fetched":"Chicago","state":"IL","country":"United States","canonicalUrl":"https://foursquare.com/v/goose-island-beer-co/4a141ce2f964a52003781fe3","category":"Brewery","checkinsCount":4612,"usersCount":2344,"tipCount":10,"visitsCount":5568,"url":"http://www.gooseisland.com","tier":"","message":"","currency":"","rating":9.3},{"name":"The Violet Hour","phone":"7732521500","twitter":"theviolethour1","address":"1520 N Damen Ave","lat":41.909048226302026,"lng":-87.67742156982422,"neighborhood":"Wicker Park","city_fetched":"Chicago","state":"IL","country":"United States","canonicalUrl":"https://foursquare.com/v/the-violet-hour/49ba99c9f964a5207e531fe3","category":"Speakeasy","checkinsCount":15309,"usersCount":10443,"tipCount":222,"visitsCount":15429,"url":"http://theviolethour.com","tier":2,"message":"Moderate","currency":"$","rating":9.3},{"name":"The Publican","phone":"3127339555","twitter":"thepublican2008","address":"837 W Fulton Market","lat":41.886719758849296,"lng":-87.64892578125,"neighborhood":"Fulton Market","city_fetched":"Chicago","state":"IL","country":"United States","canonicalUrl":"https://foursquare.com/v/the-publican/4a08f159f964a52028741fe3","category":"New American Restaurant","checkinsCount":19138,"usersCount":13951,"tipCount":335,"visitsCount":20610,"url":"http://thepublicanrestaurant.com","tier":3,"message":"Expensive","currency":"$","rating":9.3},{"name":"Revolution Brewing","phone":"7735882267","twitter":"revbrewchicago","address":"3340 N Kedzie Ave","lat":41.94221146570899,"lng":-87.70790203878778,"neighborhood":"Northwest Side","city_fetched":"Chicago","state":"IL","country":"United States","canonicalUrl":"https://foursquare.com/v/revolution-brewing/4fbfef8ce4b07a4edce9aa58","category":"Brewery","checkinsCount":6513,"usersCount":4547,"tipCount":49,"visitsCount":8047,"url":"http://www.revbrew.com","tier":2,"message":"Moderate","currency":"$","rating":9.3},{"name":"Goose Island Brewpub","phone":"3129150071","twitter":"gooseclybourn","address":"1800 N Clybourn Ave","lat":41.91356228355571,"lng":-87.65410110354424,"neighborhood":"North Side","city_fetched":"Chicago","state":"IL","country":"United States","canonicalUrl":"https://foursquare.com/gooseclybourn","category":"Brewery","checkinsCount":23825,"usersCount":13117,"tipCount":158,"visitsCount":25195,"url":"http://www.gooseislandbrewpubs.com","tier":2,"message":"Moderate","currency":"$","rating":9.2},{"name":"Maria's Packaged Goods & Community Bar","phone":"7738900588","twitter":"marias_bar","address":"960 W 31st St","lat":41.838104359095546,"lng":-87.65104402759115,"neighborhood":"Bridgeport","city_fetched":"Chicago","state":"IL","country":"United States","canonicalUrl":"https://foursquare.com/v/marias-packaged-goods--community-bar/4c7db04610916dcb3e5d2a96","category":"Bar","checkinsCount":8112,"usersCount":3375,"tipCount":69,"visitsCount":8965,"url":"http://community-bar.com","tier":2,"message":"Moderate","currency":"$","rating":9.2},{"name":"Corridor Brewery & Provisions","phone":"7732704272","twitter":"corridorchicago","address":"3446 N Southport Ave","lat":41.944772697014,"lng":-87.66413390636444,"neighborhood":"Lakeview","city_fetched":"Chicago","state":"IL","country":"United States","canonicalUrl":"https://foursquare.com/v/corridor-brewery--provisions/5462804d498e4d476eaee3b5","category":"Brewery","checkinsCount":1510,"usersCount":1230,"tipCount":18,"visitsCount":1933,"url":"http://www.corridorchicago.com","tier":"","message":"","currency":"","rating":9.2},{"name":"Lagunitas Taproom","phone":"7735222097","address":"1843 N Washtenaw Ave","lat":41.85756126837619,"lng":-87.69205537504288,"neighborhood":"Douglas Park","city_fetched":"Chicago","state":"IL","country":"United States","canonicalUrl":"https://foursquare.com/v/lagunitas-taproom/53ab60e4498e4fa984d392b5","category":"Brewery","checkinsCount":1394,"usersCount":1205,"tipCount":19,"visitsCount":1548,"url":"http://lagunitas.com/taproom/chicago/#","tier":"","message":"","currency":"","rating":9.2},{"name":"Owen & Engine","phone":"7732352930","twitter":"owenandengine","address":"2700 N Western Ave","lat":41.93037236213105,"lng":-87.68801703353516,"neighborhood":"Northwest Side","city_fetched":"Chicago","state":"IL","country":"United States","canonicalUrl":"https://foursquare.com/v/owen--engine/4c86edce56e0370400adaea3","category":"Gastropub","checkinsCount":9047,"usersCount":4886,"tipCount":134,"visitsCount":9548,"url":"http://www.owenandengine.com","tier":2,"message":"Moderate","currency":"$","rating":9.2},{"name":"Dusek's","phone":"3125263851","twitter":"dusekschicago","address":"1227 W 18th St","lat":41.857913311543825,"lng":-87.6575037050336,"neighborhood":"Pilsen","city_fetched":"Chicago","state":"IL","country":"United States","canonicalUrl":"https://foursquare.com/v/duseks/523badaa11d2b6fd088bfee3","category":"Bar","checkinsCount":4700,"usersCount":3316,"tipCount":79,"visitsCount":5318,"url":"http://www.dusekschicago.com","tier":2,"message":"Moderate","currency":"$","rating":9.2},{"name":"MONEYGUN","phone":"3126000600","twitter":"moneygunchicago","address":"660 W Lake","lat":41.88580217152052,"lng":-87.64524350802866,"neighborhood":"Fulton River District","city_fetched":"Chicago","state":"IL","country":"United States","canonicalUrl":"https://foursquare.com/v/moneygun/56e64310498eaca0d21dd509","category":"Cocktail Bar","checkinsCount":658,"usersCount":598,"tipCount":16,"visitsCount":790,"url":"http://www.moneygunchicago.com","tier":2,"message":"Moderate","currency":"$","rating":9.2},{"name":"Lincoln Hall","phone":"7735252501","address":"2424 N Lincoln Ave","lat":41.92591789195689,"lng":-87.64976739844555,"neighborhood":"North Side","city_fetched":"Chicago","state":"IL","country":"United States","canonicalUrl":"https://foursquare.com/v/lincoln-hall/4ad32558f964a5202fe320e3","category":"Music Venue","checkinsCount":20740,"usersCount":10294,"tipCount":71,"visitsCount":21703,"url":"http://www.harmonygrill.com","tier":"","message":"","currency":"","rating":9.2},{"name":"Game Room","address":"12 S Michigan Ave","lat":41.88160770980414,"lng":-87.62500047683716,"neighborhood":"The Loop","city_fetched":"Chicago","state":"IL","country":"United States","canonicalUrl":"https://foursquare.com/v/game-room/5570b226498ef374560e9fe2","category":"Bar","checkinsCount":1203,"usersCount":919,"tipCount":19,"visitsCount":1216,"url":"http://gameroomchicago.com","tier":"","message":"","currency":"","rating":9.2},{"name":"Wyler Road","phone":"7736610675","twitter":"wyler_road","address":"3581 W Belden Ave","lat":41.92266145144037,"lng":-87.71680704517384,"neighborhood":"Logan Square","city_fetched":"Chicago","state":"IL","country":"United States","canonicalUrl":"https://foursquare.com/wyler_road","category":"Sandwich Place","checkinsCount":625,"usersCount":460,"tipCount":16,"visitsCount":930,"url":"http://www.wylerroad.com","tier":"","message":"","currency":"","rating":9.2},{"name":"Cindy's","phone":"3127923502","twitter":"cindysrooftop","address":"12 S Michigan Ave","lat":41.881693802109076,"lng":-87.62455509077787,"neighborhood":"The Loop","city_fetched":"Chicago","state":"IL","country":"United States","canonicalUrl":"https://foursquare.com/v/cindys/55669b9b498ee34e5249ea61","category":"Gastropub","checkinsCount":3566,"usersCount":2874,"tipCount":65,"visitsCount":3654,"url":"http://cindysrooftop.com","tier":3,"message":"Expensive","currency":"$","rating":9.2},{"name":"The Bad Apple","phone":"7733608406","address":"4300 N Lincoln Ave","lat":41.95967758523916,"lng":-87.68281280994415,"neighborhood":"North Center","city_fetched":"Chicago","state":"IL","country":"United States","canonicalUrl":"https://foursquare.com/v/the-bad-apple/4a84a641f964a52039fd1fe3","category":"Burger Joint","checkinsCount":15825,"usersCount":7366,"tipCount":188,"visitsCount":16713,"url":"http://badapplebar.com","tier":2,"message":"Moderate","currency":"$","rating":9.2},{"name":"PR Italian Bistro","phone":"7734048955","twitter":"pritalianbistro","address":"3908 N Sheridan Rd","lat":41.953107257070606,"lng":-87.65463352203369,"neighborhood":"Lakeview","city_fetched":"Chicago","state":"IL","country":"United States","canonicalUrl":"https://foursquare.com/v/pr-italian-bistro/4b4f6e7af964a520570627e3","category":"Italian Restaurant","checkinsCount":4019,"usersCount":2148,"tipCount":41,"visitsCount":4747,"url":"http://pritalianbistro.com","tier":2,"message":"Moderate","currency":"$","rating":9.2},{"name":"Smoke Daddy","phone":"7737726656","twitter":"thesmokedaddy","address":"1804 W Division St","lat":41.90336298760997,"lng":-87.67273162625109,"neighborhood":"Wicker Park","city_fetched":"Chicago","state":"IL","country":"United States","canonicalUrl":"https://foursquare.com/v/smoke-daddy/40cb9900f964a52016011fe3","category":"BBQ Joint","checkinsCount":10092,"usersCount":6754,"tipCount":130,"visitsCount":11500,"url":"http://www.thesmokedaddy.com","tier":2,"message":"Moderate","currency":"$","rating":9.2},{"name":"Laschet's Inn","phone":"7734787915","address":"2119 W Irving Park Rd","lat":41.95402288424862,"lng":-87.68198051271438,"neighborhood":"North Center","city_fetched":"Chicago","state":"IL","country":"United States","canonicalUrl":"https://foursquare.com/v/laschets-inn/40b28c80f964a520a5fc1ee3","category":"German Restaurant","checkinsCount":2471,"usersCount":1332,"tipCount":30,"visitsCount":2700,"url":"http://laschetsinn.com","tier":2,"message":"Moderate","currency":"$","rating":9.2},{"name":"Kuma's Corner","phone":"7736048769","twitter":"kumascorner","address":"2900 W Belmont Ave","lat":41.93947775040512,"lng":-87.70035445690155,"neighborhood":"Northwest Side","city_fetched":"Chicago","state":"IL","country":"United States","canonicalUrl":"https://foursquare.com/v/kumas-corner/49c3caaaf964a52078561fe3","category":"Burger Joint","checkinsCount":24878,"usersCount":14862,"tipCount":400,"visitsCount":26132,"url":"http://www.kumascorner.com","tier":2,"message":"Moderate","currency":"$","rating":9.2},{"name":"Frasca Pizzeria & Wine Bar","phone":"7732485222","twitter":"frascapizzeria","address":"3358 N Paulina St","lat":41.9432923907358,"lng":-87.67130613327026,"neighborhood":"Lakeview","city_fetched":"Chicago","state":"IL","country":"United States","canonicalUrl":"https://foursquare.com/v/frasca-pizzeria--wine-bar/40ef3180f964a520480a1fe3","category":"Pizza Place","checkinsCount":7387,"usersCount":3756,"tipCount":64,"visitsCount":8036,"url":"http://frascapizzeria.com","tier":2,"message":"Moderate","currency":"$","rating":9.1},{"name":"The Aviary","phone":"3122260868","twitter":"aviarycocktails","address":"955 W Fulton Market","lat":41.886655860760605,"lng":-87.6519513130188,"neighborhood":"Fulton Market","city_fetched":"Chicago","state":"IL","country":"United States","canonicalUrl":"https://foursquare.com/v/the-aviary/4c0bd62dbbc676b00b184cd5","category":"Cocktail Bar","checkinsCount":10257,"usersCount":7196,"tipCount":145,"visitsCount":10745,"url":"http://www.theaviary.com","tier":4,"message":"Very Expensive","currency":"$","rating":9.1},{"name":"Forbidden Root Restaurant & Brewery","phone":"3129292202","twitter":"forbiddenroot","address":"1746 W Chicago Ave","lat":41.89606768272536,"lng":-87.67160969186888,"neighborhood":"East Ukrainian Village","city_fetched":"Chicago","state":"IL","country":"United States","canonicalUrl":"https://foursquare.com/v/forbidden-root-restaurant--brewery/52e1ad22498e06170207f26b","category":"Brewery","checkinsCount":809,"usersCount":682,"tipCount":12,"visitsCount":993,"url":"http://forbiddenroot.com","tier":"","message":"","currency":"","rating":9.1},{"name":"Headquarters Beercade","phone":"7736655660","twitter":"hq_chicago","address":"2833 N Sheffield Ave","lat":41.933668808177195,"lng":-87.65361644723805,"neighborhood":"Lakeview","city_fetched":"Chicago","state":"IL","country":"United States","canonicalUrl":"https://foursquare.com/hq_chicago","category":"Bar","checkinsCount":14981,"usersCount":10700,"tipCount":88,"visitsCount":18286,"url":"http://hqbeercade.com","tier":2,"message":"Moderate","currency":"$","rating":9.1},{"name":"Sheffield's Beer & Wine Garden","phone":"7732814989","twitter":"sheffieldsbbq","address":"3258 N Sheffield Ave","lat":41.94158859945866,"lng":-87.65437066555023,"neighborhood":"Lakeview","city_fetched":"Chicago","state":"IL","country":"United States","canonicalUrl":"https://foursquare.com/v/sheffields-beer--wine-garden/40b28c80f964a5204bff1ee3","category":"Bar","checkinsCount":22302,"usersCount":11833,"tipCount":96,"visitsCount":25743,"url":"http://www.sheffieldschicago.com","tier":2,"message":"Moderate","currency":"$","rating":9.1},{"name":"The Promontory","phone":"3128012100","twitter":"promontorychi","address":"5311 S Lake Park West","lat":41.79911090355498,"lng":-87.58759336389615,"neighborhood":"Hyde Park","city_fetched":"Chicago","state":"IL","country":"United States","canonicalUrl":"https://foursquare.com/v/the-promontory/5104dd90e4b08a321af9d11a","category":"Gastropub","checkinsCount":2823,"usersCount":2115,"tipCount":51,"visitsCount":4369,"url":"http://promontorychicago.com","tier":2,"message":"Moderate","currency":"$","rating":9.1},{"name":"Three Aces","phone":"3122431577","twitter":"threeaceschgo","address":"1321 W Taylor St","lat":41.86924207880359,"lng":-87.66028286712796,"neighborhood":"University Village - Little Italy","city_fetched":"Chicago","state":"IL","country":"United States","canonicalUrl":"https://foursquare.com/v/three-aces/4cb76d7a7148f04da94cc8ab","category":"Bar","checkinsCount":8655,"usersCount":5163,"tipCount":97,"visitsCount":9767,"url":"http://threeaceschicago.com","tier":2,"message":"Moderate","currency":"$","rating":9.1},{"name":"The Gage","phone":"3123724243","twitter":"thegagechicago","address":"24 S Michigan Ave","lat":41.88131924185583,"lng":-87.6246421465911,"neighborhood":"The Loop","city_fetched":"Chicago","state":"IL","country":"United States","canonicalUrl":"https://foursquare.com/v/the-gage/49e749fbf964a52086641fe3","category":"Gastropub","checkinsCount":19501,"usersCount":14583,"tipCount":278,"visitsCount":21435,"url":"http://www.thegagechicago.com","tier":3,"message":"Expensive","currency":"$","rating":9.1},{"name":"Sportsman's Club","phone":"8722068054","twitter":"drinkandgather","address":"948 Western Ave","lat":41.89901310068089,"lng":-87.6870928334615,"neighborhood":"Humboldt Park","city_fetched":"Chicago","state":"IL","country":"United States","canonicalUrl":"https://foursquare.com/v/sportsmans-club/4e1e48aec65bd9e1fddd1006","category":"Dive Bar","checkinsCount":3445,"usersCount":1848,"tipCount":27,"visitsCount":4468,"url":"http://drinkingandgathering.com","tier":2,"message":"Moderate","currency":"$","rating":9.1},{"name":"Rock Island Public House","phone":"7083885513","twitter":"theriph","address":"13328 Olde Western Ave","lat":41.65076,"lng":-87.681343,"city_fetched":"Chicago","state":"IL","country":"United States","canonicalUrl":"https://foursquare.com/v/rock-island-public-house/50de5705e4b07dd5d3a0baff","category":"Bar","checkinsCount":1209,"usersCount":398,"tipCount":20,"visitsCount":1719,"url":"http://www.rockislandpublichouse.com","tier":2,"message":"Moderate","currency":"$","rating":9.1},{"name":"Palm Court at The Drake Hotel","phone":"3129324619","twitter":"drakechicago","address":"140 E Walton Pl","lat":41.90020082614245,"lng":-87.62386322021484,"neighborhood":"Gold Coast","city_fetched":"Chicago","state":"IL","country":"United States","canonicalUrl":"https://foursquare.com/v/palm-court-at-the-drake-hotel/4b00773af964a5208a3e22e3","category":"Tea Room","checkinsCount":1819,"usersCount":1400,"tipCount":28,"visitsCount":1824,"url":"http://thedrakehotel.com","tier":3,"message":"Expensive","currency":"$","rating":9.1},{"name":"Del Toro","phone":"3127337144","address":"2133 S Halsted St","lat":41.8532343550976,"lng":-87.64646244915723,"neighborhood":"East Pilsen","city_fetched":"Chicago","state":"IL","country":"United States","canonicalUrl":"https://foursquare.com/v/del-toro/4e9729ea754adbdc5d4fbc78","category":"Mexican Restaurant","checkinsCount":1720,"usersCount":957,"tipCount":42,"visitsCount":1975,"url":"http://deltorochicago.com","tier":2,"message":"Moderate","currency":"$","rating":9.1},{"name":"Casa De Montecristo","phone":"7083522663","address":"1332 W 55th St","lat":41.790361,"lng":-87.88671433925629,"city_fetched":"Chicago","state":"IL","country":"United States","canonicalUrl":"https://foursquare.com/v/casa-de-montecristo/4bc4a857461576b0cd388032","category":"Smoke Shop","checkinsCount":1900,"usersCount":354,"tipCount":18,"visitsCount":2287,"tier":"","message":"","currency":"","rating":9.1},{"name":"Club Lucky","phone":"7732272300","twitter":"clubluckychi","address":"1824 W Wabansia Ave","lat":41.91250491726369,"lng":-87.67381982804841,"neighborhood":"Bucktown","city_fetched":"Chicago","state":"IL","country":"United States","canonicalUrl":"https://foursquare.com/clubluckychi","category":"Italian Restaurant","checkinsCount":4295,"usersCount":2973,"tipCount":48,"visitsCount":5363,"url":"http://clubluckychicago.com","tier":2,"message":"Moderate","currency":"$","rating":9.1},{"name":"The Boiler Room","phone":"7732765625","twitter":"boilerroomchi","address":"2210 N California Ave","lat":41.92204561178046,"lng":-87.69754886627197,"neighborhood":"Logan Square","city_fetched":"Chicago","state":"IL","country":"United States","canonicalUrl":"https://foursquare.com/v/the-boiler-room/4c2e9022452620a165221c0f","category":"Pizza Place","checkinsCount":20765,"usersCount":7798,"tipCount":140,"visitsCount":22394,"url":"http://boilerroomlogansquare.com","tier":2,"message":"Moderate","currency":"$","rating":9.1},{"name":"Acadia","phone":"3123609500","twitter":"acadia_chicago","address":"1639 S Wabash Ave","lat":41.858550483061556,"lng":-87.6256227493286,"neighborhood":"South Loop","city_fetched":"Chicago","state":"IL","country":"United States","canonicalUrl":"https://foursquare.com/v/acadia/4edfec742c5bb0e03e446a40","category":"New American Restaurant","checkinsCount":1705,"usersCount":1208,"tipCount":45,"visitsCount":1976,"url":"http://acadiachicago.com","tier":4,"message":"Very Expensive","currency":"$","rating":9.1},{"name":"RL Restaurant","phone":"3124751100","address":"115 E Chicago Ave","lat":41.896874181011015,"lng":-87.62476235873845,"neighborhood":"Streeterville","city_fetched":"Chicago","state":"IL","country":"United States","canonicalUrl":"https://foursquare.com/v/rl-restaurant/4b8c1edef964a52028bf32e3","category":"American Restaurant","checkinsCount":6165,"usersCount":4188,"tipCount":97,"visitsCount":6307,"url":"http://rlrestaurant.polo.com","tier":4,"message":"Very Expensive","currency":"$","rating":9.1},{"name":"Delilah's","phone":"7734722771","address":"2771 N Lincoln Ave","lat":41.932278894192535,"lng":-87.65818285733732,"neighborhood":"North Side","city_fetched":"Chicago","state":"IL","country":"United States","canonicalUrl":"https://foursquare.com/v/delilahs/40b28c80f964a52029fc1ee3","category":"Whisky Bar","checkinsCount":12590,"usersCount":7594,"tipCount":100,"visitsCount":13549,"url":"http://www.delilahschicago.com","tier":1,"message":"Cheap","currency":"$","rating":9.1},{"name":"The Barrelhouse Flat","phone":"7738570421","twitter":"barrelhouseflat","address":"2624 N Lincoln Ave","lat":41.929488,"lng":-87.654546,"neighborhood":"Lincoln Park","city_fetched":"Chicago","state":"IL","country":"United States","canonicalUrl":"https://foursquare.com/v/the-barrelhouse-flat/4e8a3b9f49018e0360af5482","category":"Cocktail Bar","checkinsCount":11554,"usersCount":6550,"tipCount":85,"visitsCount":12901,"url":"http://barrelhouseflat.com","tier":2,"message":"Moderate","currency":"$","rating":9.1},{"name":"Aberdeen Tap","phone":"3129293845","address":"440 N Aberdeen St","lat":41.89010739326477,"lng":-87.654735,"neighborhood":"Fulton Market","city_fetched":"Chicago","state":"IL","country":"United States","canonicalUrl":"https://foursquare.com/v/aberdeen-tap/4cd7380894848cfa43b4f1b1","category":"Pub","checkinsCount":5733,"usersCount":2800,"tipCount":55,"visitsCount":6986,"url":"http://theaberdeentap.com","tier":2,"message":"Moderate","currency":"$","rating":9.1},{"name":"BuckleDown Brewing","phone":"7087771842","twitter":"buckledownbeer","address":"8700 47th St","lat":41.80584978931629,"lng":-87.83716294031092,"city_fetched":"Chicago","state":"IL","country":"United States","canonicalUrl":"https://foursquare.com/v/buckledown-brewing/52471d9811d293858162a802","category":"Brewery","checkinsCount":753,"usersCount":530,"tipCount":9,"visitsCount":1122,"url":"http://buckledownbrewing.com","tier":2,"message":"Moderate","currency":"$","rating":9.1},{"name":"Guthrie's Tavern","phone":"7734772900","twitter":"guthriestavern","address":"1300 W Addison St","lat":41.94728377582749,"lng":-87.66169405789826,"neighborhood":"Lakeview","city_fetched":"Chicago","state":"IL","country":"United States","canonicalUrl":"https://foursquare.com/guthriestavern","category":"Bar","checkinsCount":11183,"usersCount":7219,"tipCount":55,"visitsCount":12550,"url":"http://guthriestavern.com","tier":2,"message":"Moderate","currency":"$","rating":9},{"name":"Mercadito","phone":"3123299555","twitter":"mercaditochi","address":"108 W Kinzie St","lat":41.88921339594723,"lng":-87.63151010450869,"neighborhood":"River North","city_fetched":"Chicago","state":"IL","country":"United States","canonicalUrl":"https://foursquare.com/v/mercadito/4ab2f8def964a520286d20e3","category":"Mexican Restaurant","checkinsCount":18761,"usersCount":11451,"tipCount":216,"visitsCount":19372,"url":"http://www.mercaditorestaurants.com","tier":2,"message":"Moderate","currency":"$","rating":9},{"name":"The Map Room","phone":"7732527636","twitter":"maproomtavern","address":"1949 N Hoyne Ave","lat":41.91767963337826,"lng":-87.67998260419947,"neighborhood":"Bucktown","city_fetched":"Chicago","state":"IL","country":"United States","canonicalUrl":"https://foursquare.com/v/the-map-room/40b28c80f964a520defe1ee3","category":"Bar","checkinsCount":13395,"usersCount":7479,"tipCount":102,"visitsCount":14567,"url":"http://maproom.com","tier":2,"message":"Moderate","currency":"$","rating":9},{"name":"Billy Sunday","phone":"7736612485","twitter":"billysunday","address":"3143 W Logan Blvd","lat":41.9278208,"lng":-87.7065507,"neighborhood":"Logan Square","city_fetched":"Chicago","state":"IL","country":"United States","canonicalUrl":"https://foursquare.com/v/billy-sunday/50f06ca6e4b0a95d3a536118","category":"Cocktail Bar","checkinsCount":4462,"usersCount":2457,"tipCount":62,"visitsCount":4618,"url":"http://billy-sunday.com","tier":2,"message":"Moderate","currency":"$","rating":9},{"name":"Webster's Wine Bar","phone":"7732929463","twitter":"websterwinebar","address":"2601 N Milwaukee Ave","lat":41.92897433986585,"lng":-87.7069902420044,"neighborhood":"Logan Square","city_fetched":"Chicago","state":"IL","country":"United States","canonicalUrl":"https://foursquare.com/v/websters-wine-bar/40b28c80f964a52064fc1ee3","category":"Wine Bar","checkinsCount":5177,"usersCount":4162,"tipCount":39,"visitsCount":5292,"url":"http://www.websterwinebar.com","tier":3,"message":"Expensive","currency":"$","rating":9},{"name":"Fountainhead","phone":"7736978204","twitter":"thefountchicago","address":"1970 W Montrose Ave","lat":41.961579603447255,"lng":-87.67878863146956,"neighborhood":"Ravenswood","city_fetched":"Chicago","state":"IL","country":"United States","canonicalUrl":"https://foursquare.com/v/fountainhead/4bce3de4c564ef3b66fbedf0","category":"Bar","checkinsCount":13727,"usersCount":7019,"tipCount":92,"visitsCount":15661,"url":"http://fountainheadchicago.com","tier":2,"message":"Moderate","currency":"$","rating":9},{"name":"DryHop Brewers","phone":"7738573155","twitter":"dryhopchicago","address":"3155 N Broadway St","lat":41.939311335934924,"lng":-87.64438107547157,"neighborhood":"Lake View East","city_fetched":"Chicago","state":"IL","country":"United States","canonicalUrl":"https://foursquare.com/dryhopchicago","category":"Brewery","checkinsCount":9270,"usersCount":5467,"tipCount":97,"visitsCount":10886,"url":"http://www.dryhopchicago.com","tier":2,"message":"Moderate","currency":"$","rating":9},{"name":"Ward Eight Bar","address":"631 Howard St","lat":42.019549765062095,"lng":-87.67979003007072,"city_fetched":"Chicago","state":"IL","country":"United States","canonicalUrl":"https://foursquare.com/v/ward-eight-bar/4fc6376fe4b090c5c72bd228","category":"Cocktail Bar","checkinsCount":998,"usersCount":530,"tipCount":18,"visitsCount":1110,"url":"http://wardeight.com","tier":2,"message":"Moderate","currency":"$","rating":9},{"name":"The Monkey's Paw","phone":"3124139314","address":"2524 N Southport Ave","lat":41.92787729810361,"lng":-87.66364460802932,"neighborhood":"North Side","city_fetched":"Chicago","state":"IL","country":"United States","canonicalUrl":"https://foursquare.com/v/the-monkeys-paw/4fa9b0ebe4b06bb61bc041ff","category":"Whisky Bar","checkinsCount":1965,"usersCount":1239,"tipCount":24,"visitsCount":2319,"url":"http://www.themonkeyspawchicago.com","tier":2,"message":"Moderate","currency":"$","rating":9},{"name":"Sidetrack","phone":"7734779189","twitter":"sidetrackbar","address":"3349 N Halsted St","lat":41.94324251458887,"lng":-87.64922082424164,"neighborhood":"Lake View East","city_fetched":"Chicago","state":"IL","country":"United States","canonicalUrl":"https://foursquare.com/sidetrackbar","category":"Gay Bar","checkinsCount":58108,"usersCount":13820,"tipCount":148,"visitsCount":60194,"url":"http://sidetrackchicago.com","tier":1,"message":"Cheap","currency":"$","rating":9},{"name":"Bridge House Tavern","phone":"3126440283","twitter":"bridgehousetvrn","address":"321 N Clark St","lat":41.88777406808544,"lng":-87.63068675994873,"neighborhood":"Near North Side","city_fetched":"Chicago","state":"IL","country":"United States","canonicalUrl":"https://foursquare.com/v/bridge-house-tavern/4db33b1bcda1c57c82420c10","category":"American Restaurant","checkinsCount":5926,"usersCount":4900,"tipCount":58,"visitsCount":6680,"url":"http://www.bridgehousetavern.com","tier":2,"message":"Moderate","currency":"$","rating":9},{"name":"Sparrow","phone":"3127250732","twitter":"chicago_sparrow","address":"12 W Elm St","lat":41.903273,"lng":-87.628926,"neighborhood":"Near North Side","city_fetched":"Chicago","state":"IL","country":"United States","canonicalUrl":"https://foursquare.com/v/sparrow/5653d584498e4a9d46a91c2f","category":"Cocktail Bar","checkinsCount":362,"usersCount":301,"tipCount":6,"visitsCount":401,"url":"http://www.sparrowchicago.com","tier":"","message":"","currency":"","rating":8.9},{"name":"Hopewell Brewing Company","phone":"3123424391","address":"2760 N Milwaukee Ave","lat":41.931353735725715,"lng":-87.7113083738721,"neighborhood":"Logan Square","city_fetched":"Chicago","state":"IL","country":"United States","canonicalUrl":"https://foursquare.com/v/hopewell-brewing-company/55d500e5498eeaf83ea0842a","category":"Brewery","checkinsCount":849,"usersCount":660,"tipCount":11,"visitsCount":1164,"tier":1,"message":"Cheap","currency":"$","rating":8.9},{"name":"Watershed","phone":"3122664932","address":"601 N State St","lat":41.892668,"lng":-87.628061,"neighborhood":"Near North Side","city_fetched":"Chicago","state":"IL","country":"United States","canonicalUrl":"https://foursquare.com/v/watershed/4c49f8995609c9b60ad7078f","category":"Cocktail Bar","checkinsCount":5260,"usersCount":3279,"tipCount":60,"visitsCount":5293,"url":"http://www.watershedbar.com","tier":3,"message":"Expensive","currency":"$","rating":8.9},{"name":"Crew Bar and Grill","phone":"7737842739","address":"4804 N Broadway St","lat":41.96926059238524,"lng":-87.65985310077667,"neighborhood":"Uptown","city_fetched":"Chicago","state":"IL","country":"United States","canonicalUrl":"https://foursquare.com/v/crew-bar-and-grill/4223b080f964a520bf1f1fe3","category":"Sports Bar","checkinsCount":13553,"usersCount":4048,"tipCount":75,"visitsCount":14038,"url":"http://www.worldsgreatestbar.com","tier":2,"message":"Moderate","currency":"$","rating":8.9},{"name":"Buddy Guy's Legends","phone":"3124271190","twitter":"buddyguys","address":"700 S Wabash Ave","lat":41.87310064757227,"lng":-87.62614572780251,"neighborhood":"South Loop","city_fetched":"Chicago","state":"IL","country":"United States","canonicalUrl":"https://foursquare.com/buddyguys","category":"Music Venue","checkinsCount":8566,"usersCount":8367,"tipCount":120,"visitsCount":9835,"url":"http://buddyguy.com","tier":"","message":"","currency":"","rating":8.9},{"name":"Kasey's Tavern","phone":"3124277992","twitter":"kaseystavern","address":"701 S Dearborn St","lat":41.8737151810189,"lng":-87.6293134689331,"neighborhood":"Printer's Row","city_fetched":"Chicago","state":"IL","country":"United States","canonicalUrl":"https://foursquare.com/v/kaseys-tavern/40b28c80f964a5203bfb1ee3","category":"Pub","checkinsCount":7303,"usersCount":3087,"tipCount":61,"visitsCount":8283,"url":"http://www.kaseystavern.com","tier":1,"message":"Cheap","currency":"$","rating":8.9},{"name":"Osteria La Madia","phone":"3123290400","twitter":"osterialamadia","address":"59 W Grand Ave","lat":41.891693269387304,"lng":-87.63044499086298,"neighborhood":"Near North Side","city_fetched":"Chicago","state":"IL","country":"United States","canonicalUrl":"https://foursquare.com/osterialamadia","category":"Pizza Place","checkinsCount":6480,"usersCount":4149,"tipCount":85,"visitsCount":6507,"url":"http://www.dinelamadia.com","tier":2,"message":"Moderate","currency":"$","rating":8.9},{"name":"The Berkshire Room","phone":"3128940945","address":"15 E Ohio St","lat":41.89245798312855,"lng":-87.62745193681695,"neighborhood":"Near North Side","city_fetched":"Chicago","state":"IL","country":"United States","canonicalUrl":"https://foursquare.com/v/the-berkshire-room/51ca4b11498eb327cdb072b1","category":"Bar","checkinsCount":3616,"usersCount":2469,"tipCount":61,"visitsCount":3715,"url":"http://theberkshireroom.com","tier":3,"message":"Expensive","currency":"$","rating":8.9},{"name":"Broken Shaker","twitter":"shakerchicago","address":"19 E Ohio St","lat":41.89251334009213,"lng":-87.62732179958572,"neighborhood":"Near North Side","city_fetched":"Chicago","state":"IL","country":"United States","canonicalUrl":"https://foursquare.com/v/broken-shaker/554e1fb8498eafc2606cb999","category":"Cocktail Bar","checkinsCount":1617,"usersCount":1304,"tipCount":34,"visitsCount":1762,"tier":2,"message":"Moderate","currency":"$","rating":8.9},{"name":"Pops for Champagne","phone":"3122667677","twitter":"simasays","address":"601 N State St","lat":41.89259705302533,"lng":-87.62806887864872,"neighborhood":"Near North Side","city_fetched":"Chicago","state":"IL","country":"United States","canonicalUrl":"https://foursquare.com/v/pops-for-champagne/4a5428b6f964a52016b31fe3","category":"Wine Bar","checkinsCount":12342,"usersCount":8562,"tipCount":109,"visitsCount":12438,"url":"http://popsforchampagne.com","tier":3,"message":"Expensive","currency":"$","rating":8.9},{"name":"The Matchbox","phone":"3126669292","address":"770 N Milwaukee Ave","lat":41.895763,"lng":-87.654982,"neighborhood":"River West","city_fetched":"Chicago","state":"IL","country":"United States","canonicalUrl":"https://foursquare.com/v/the-matchbox/40b28c80f964a52026fd1ee3","category":"Bar","checkinsCount":5380,"usersCount":3130,"tipCount":66,"visitsCount":5769,"url":"http://thesilverpalmrestaurant.com/TheMachBox.php","tier":2,"message":"Moderate","currency":"$","rating":8.9},{"name":"Poor Phil's Bar & Grill","phone":"7088480871","address":"139 S Marion St","lat":41.88548201725192,"lng":-87.802640214476,"city_fetched":"Chicago","state":"IL","country":"United States","canonicalUrl":"https://foursquare.com/v/poor-phils-bar--grill/4add1b23f964a520176421e3","category":"Bar","checkinsCount":5220,"usersCount":2494,"tipCount":50,"visitsCount":6732,"url":"http://poorphils.com","tier":2,"message":"Moderate","currency":"$","rating":8.9},{"name":"The Garage Bar & Sandwiches","phone":"7736471386","address":"6154 N Milwaukee Ave","lat":41.993459425,"lng":-87.784363,"neighborhood":"Norwood Park East","city_fetched":"Chicago","state":"IL","country":"United States","canonicalUrl":"https://foursquare.com/v/the-garage-bar--sandwiches/4e3c9b1f483b04e17a8b7d19","category":"Pub","checkinsCount":2792,"usersCount":1186,"tipCount":25,"visitsCount":3567,"url":"http://thegaragechicago.com","tier":2,"message":"Moderate","currency":"$","rating":8.9},{"name":"Hugo's Frog Bar & Fish House","phone":"3126400999","twitter":"hugosfrog","address":"1024 N Rush St","lat":41.901294123106254,"lng":-87.62799658120859,"neighborhood":"Gold Coast","city_fetched":"Chicago","state":"IL","country":"United States","canonicalUrl":"https://foursquare.com/v/hugos-frog-bar--fish-house/4a736375f964a52054dc1fe3","category":"Seafood Restaurant","checkinsCount":7179,"usersCount":5378,"tipCount":70,"visitsCount":7271,"url":"http://www.hugosfrogbar.com","tier":3,"message":"Expensive","currency":"$","rating":8.9},{"name":"Ranalli's","phone":"3122808077","twitter":"ranallislp","address":"1925 N Lincoln Ave","lat":41.91738182703789,"lng":-87.6371822598338,"neighborhood":"Old Town Triangle","city_fetched":"Chicago","state":"IL","country":"United States","canonicalUrl":"https://foursquare.com/v/ranallis/4a333c5ff964a5201d9b1fe3","category":"Pizza Place","checkinsCount":5988,"usersCount":3602,"tipCount":33,"visitsCount":7643,"url":"http://ranallislincolnpark.com","tier":2,"message":"Moderate","currency":"$","rating":8.9},{"name":"The Green Lady","phone":"7735255571","twitter":"tglchicago","address":"3328 N Lincoln Ave","lat":41.94228501610844,"lng":-87.6705310679547,"neighborhood":"Lakeview","city_fetched":"Chicago","state":"IL","country":"United States","canonicalUrl":"https://foursquare.com/v/the-green-lady/4e6426dcd164ddd5e683a051","category":"Bar","checkinsCount":2324,"usersCount":1045,"tipCount":11,"visitsCount":2411,"url":"http://www.thegreenlady-chicago.com","tier":2,"message":"Moderate","currency":"$","rating":8.9},{"name":"Sable Kitchen & Bar","phone":"3127559704","twitter":"heatherterhune","address":"505 N State St","lat":41.89103693682779,"lng":-87.627808607329,"neighborhood":"Near North Side","city_fetched":"Chicago","state":"IL","country":"United States","canonicalUrl":"https://foursquare.com/v/sable-kitchen--bar/4b9faddcf964a5202f3437e3","category":"New American Restaurant","checkinsCount":15341,"usersCount":9487,"tipCount":189,"visitsCount":15617,"url":"https://www.kimptonhotels.com/boutique-hotels-in-dc-metro-area","tier":3,"message":"Expensive","currency":"$","rating":8.9},{"name":"Ignite Gaming Lounge","phone":"7734047033","twitter":"ignite_gl","address":"3341 N Elston Ave","lat":41.942182161263304,"lng":-87.7021328181133,"neighborhood":"Northwest Side","city_fetched":"Chicago","state":"IL","country":"United States","canonicalUrl":"https://foursquare.com/v/ignite-gaming-lounge/4b81bdc1f964a52041bb30e3","category":"Gaming Cafe","checkinsCount":1256,"usersCount":541,"tipCount":12,"visitsCount":1512,"url":"http://www.ignitegl.com","tier":"","message":"","currency":"","rating":8.9},{"name":"Empty Bottle","phone":"7732763600","twitter":"theemptybottle","address":"1035 N Western Ave","lat":41.90031112675273,"lng":-87.68690787255764,"neighborhood":"Ukrainian Village","city_fetched":"Chicago","state":"IL","country":"United States","canonicalUrl":"https://foursquare.com/v/empty-bottle/4123ed80f964a5203d0c1fe3","category":"Music Venue","checkinsCount":13012,"usersCount":5558,"tipCount":77,"visitsCount":13582,"url":"http://emptybottle.com","tier":"","message":"","currency":"","rating":8.9},{"name":"Rogers Park Social","twitter":"rpsocialbar","address":"6920 N Glenwood Ave","lat":42.007317,"lng":-87.666285,"neighborhood":"Rogers Park","city_fetched":"Chicago","state":"IL","country":"United States","canonicalUrl":"https://foursquare.com/v/rogers-park-social/536300da498ee44e63dcbc1d","category":"Bar","checkinsCount":1254,"usersCount":616,"tipCount":27,"visitsCount":1607,"url":"http://www.rogersparksocial.com","tier":1,"message":"Cheap","currency":"$","rating":8.9},{"name":"Nacional 27","phone":"3126642727","twitter":"nacional27","address":"325 W Huron St","lat":41.89468332201416,"lng":-87.63701359927535,"neighborhood":"River North","city_fetched":"Chicago","state":"IL","country":"United States","canonicalUrl":"https://foursquare.com/v/nacional-27/4a5bcc8ef964a520d1bb1fe3","category":"Latin American Restaurant","checkinsCount":5155,"usersCount":4055,"tipCount":60,"visitsCount":5286,"url":"http://www.n27chicago.com","tier":3,"message":"Expensive","currency":"$","rating":8.9},{"name":"Northman","phone":"7739352255","twitter":"northmanchi","address":"4333 N Lincoln","lat":41.960594,"lng":-87.683103,"neighborhood":"North Center","city_fetched":"Chicago","state":"IL","country":"United States","canonicalUrl":"https://foursquare.com/v/northman/56edf147498eb3b7f011158d","category":"Bar","checkinsCount":665,"usersCount":630,"tipCount":12,"visitsCount":876,"url":"http://www.thenorthman.com","tier":"","message":"","currency":"","rating":8.9},{"name":"UP Comedy Club","phone":"3126624562","twitter":"upcomedyclub","address":"230 W North Ave","lat":41.91145711768975,"lng":-87.63541370243172,"neighborhood":"Old Town Triangle","city_fetched":"Chicago","state":"IL","country":"United States","canonicalUrl":"https://foursquare.com/v/up-comedy-club/4ec14e7d6c25dfd9825030d1","category":"Comedy Club","checkinsCount":5750,"usersCount":3300,"tipCount":26,"visitsCount":5795,"url":"http://upcomedyclub.com","tier":"","message":"","currency":"","rating":8.9},{"name":"Flo & Santos","phone":"3125669817","twitter":"floandsantos","address":"1310 S Wabash Ave","lat":41.86544210184799,"lng":-87.62600112672378,"neighborhood":"South Loop","city_fetched":"Chicago","state":"IL","country":"United States","canonicalUrl":"https://foursquare.com/v/flo--santos/4bc7b41e92b376b08c4e503a","category":"Pizza Place","checkinsCount":8075,"usersCount":3863,"tipCount":94,"visitsCount":8856,"url":"http://www.floandsantos.com","tier":2,"message":"Moderate","currency":"$","rating":8.9},{"name":"The Bar at The Peninsula","phone":"3125736695","twitter":"thepeninsulachi","address":"108 E Superior St","lat":41.89592041639859,"lng":-87.62489318847656,"neighborhood":"Streeterville","city_fetched":"Chicago","state":"IL","country":"United States","canonicalUrl":"https://foursquare.com/v/the-bar-at-the-peninsula/4b72d5a5f964a520f38a2de3","category":"Hotel Bar","checkinsCount":2297,"usersCount":1570,"tipCount":28,"visitsCount":2299,"url":"http://chicago.peninsula.com/en/fine-dining/the-bar","tier":"","message":"","currency":"","rating":8.9},{"name":"Weegee's Lounge","phone":"7733849423","address":"3659 W Armitage Ave","lat":41.917059,"lng":-87.719026,"neighborhood":"Logan Square","city_fetched":"Chicago","state":"IL","country":"United States","canonicalUrl":"https://foursquare.com/v/weegees-lounge/4a2c3405f964a5202f971fe3","category":"Cocktail Bar","checkinsCount":2230,"usersCount":1260,"tipCount":25,"visitsCount":2653,"url":"http://weegeeslounge.com","tier":2,"message":"Moderate","currency":"$","rating":8.9},{"name":"Pub Royale","phone":"7736616874","twitter":"pub_royale","address":"2049 W Division St","lat":41.90316451114007,"lng":-87.67909194202518,"neighborhood":"Wicker Park","city_fetched":"Chicago","state":"IL","country":"United States","canonicalUrl":"https://foursquare.com/v/pub-royale/5552aec0498e612958e8fdad","category":"Pub","checkinsCount":1426,"usersCount":948,"tipCount":23,"visitsCount":1598,"url":"http://www.pubroyale.com","tier":"","message":"","currency":"","rating":8.9},{"name":"Imperial Oak Brewing","phone":"7083305096","twitter":"imperialoak","address":"501 Willow Blvd","lat":41.73246765136719,"lng":-87.87836456298828,"city_fetched":"Chicago","state":"IL","country":"United States","canonicalUrl":"https://foursquare.com/v/imperial-oak-brewing/5355d0f9498e7bf790d467e6","category":"Brewery","checkinsCount":1503,"usersCount":675,"tipCount":16,"visitsCount":2196,"url":"http://www.imperialoakbrewing.com","tier":"","message":"","currency":"","rating":8.8},{"name":"Paisans Pizzeria & Bar","phone":"7084845325","twitter":"paisansberwyn","address":"6226 Ogden Ave","lat":41.831895686355004,"lng":-87.77873128652571,"city_fetched":"Chicago","state":"IL","country":"United States","canonicalUrl":"https://foursquare.com/v/paisans-pizzeria--bar/523cd21b498e8150bdae12ab","category":"Pizza Place","checkinsCount":1058,"usersCount":978,"tipCount":22,"visitsCount":1858,"url":"http://www.paisanspizza.com","tier":2,"message":"Moderate","currency":"$","rating":8.8},{"name":"Emporium Arcade Bar","phone":"7736977922","address":"1366 N Milwaukee Ave","lat":41.90660958973037,"lng":-87.67173970284806,"neighborhood":"Wicker Park","city_fetched":"Chicago","state":"IL","country":"United States","canonicalUrl":"https://foursquare.com/v/emporium-arcade-bar/4fa9890ce4b0e4bcefca3383","category":"Bar","checkinsCount":14833,"usersCount":9666,"tipCount":74,"visitsCount":16800,"url":"http://www.emporiumchicago.com","tier":2,"message":"Moderate","currency":"$","rating":8.8},{"name":"Queen Mary","address":"2125 W Division","lat":41.9031116378718,"lng":-87.68069993565993,"neighborhood":"Ukrainian Village","city_fetched":"Chicago","state":"IL","country":"United States","canonicalUrl":"https://foursquare.com/v/queen-mary/564a7058498e178a04b98628","category":"Cocktail Bar","checkinsCount":580,"usersCount":540,"tipCount":10,"visitsCount":779,"tier":"","message":"","currency":"","rating":8.8},{"name":"Punch House","phone":"3125263851","twitter":"punchhousechi","address":"1227 W 18th St","lat":41.85792702287239,"lng":-87.65755668891043,"neighborhood":"Pilsen","city_fetched":"Chicago","state":"IL","country":"United States","canonicalUrl":"https://foursquare.com/v/punch-house/5248c48f11d23cb19d4087b2","category":"Cocktail Bar","checkinsCount":2709,"usersCount":1660,"tipCount":37,"visitsCount":2773,"url":"http://www.punchhousechicago.com","tier":2,"message":"Moderate","currency":"$","rating":8.8},{"name":"Travelle","phone":"3129237705","twitter":"travellechicago","address":"330 N Wabash Ave","lat":41.888145924988656,"lng":-87.62792428365408,"neighborhood":"Near North Side","city_fetched":"Chicago","state":"IL","country":"United States","canonicalUrl":"https://foursquare.com/v/travelle/51661c84e4b01695f4930291","category":"Lounge","checkinsCount":1384,"usersCount":982,"tipCount":26,"visitsCount":1423,"url":"http://www.travellechicago.com","tier":3,"message":"Expensive","currency":"$","rating":8.8},{"name":"Green Door Tavern","phone":"3126645496","address":"678 N Orleans St","lat":41.89473846166947,"lng":-87.63720989227295,"neighborhood":"River North","city_fetched":"Chicago","state":"IL","country":"United States","canonicalUrl":"https://foursquare.com/v/green-door-tavern/4ab28089f964a520656b20e3","category":"Bar","checkinsCount":9990,"usersCount":5412,"tipCount":67,"visitsCount":10578,"url":"http://www.greendoorchicago.com","tier":2,"message":"Moderate","currency":"$","rating":8.8},{"name":"Bangers & Lace","phone":"7732526499","twitter":"bangersandlace","address":"1670 W Division St","lat":41.90343851928582,"lng":-87.67032882312752,"neighborhood":"Wicker Park","city_fetched":"Chicago","state":"IL","country":"United States","canonicalUrl":"https://foursquare.com/v/bangers--lace/4c5847e030d82d7ff8b4db62","category":"Bar","checkinsCount":16902,"usersCount":8213,"tipCount":150,"visitsCount":18017,"url":"http://bangersandlacechicago.com","tier":2,"message":"Moderate","currency":"$","rating":8.8},{"name":"Bar Pastoral","address":"2947 N Broadway St","lat":41.93631717508743,"lng":-87.64423653210787,"neighborhood":"Lake View East","city_fetched":"Chicago","state":"IL","country":"United States","canonicalUrl":"https://foursquare.com/v/bar-pastoral/50984db4e4b0c441584af3b4","category":"Wine Bar","checkinsCount":2093,"usersCount":1299,"tipCount":27,"visitsCount":2183,"url":"http://pastoralartisan.com","tier":3,"message":"Expensive","currency":"$","rating":8.8},{"name":"SmallBar","phone":"7735099888","twitter":"smallbarlogan","address":"2956 N Albany Ave","lat":41.93564292902815,"lng":-87.70515561103821,"neighborhood":"Logan Square","city_fetched":"Chicago","state":"IL","country":"United States","canonicalUrl":"https://foursquare.com/v/smallbar/43768200f964a520502a1fe3","category":"Bar","checkinsCount":5463,"usersCount":2188,"tipCount":32,"visitsCount":6225,"url":"http://thesmallbar.com","tier":2,"message":"Moderate","currency":"$","rating":8.8},{"name":"Lockdown Bar & Grill","phone":"7734515625","twitter":"lockdownbar","address":"1024 N Western Ave","lat":41.90025672511808,"lng":-87.68698900938034,"neighborhood":"Humboldt Park","city_fetched":"Chicago","state":"IL","country":"United States","canonicalUrl":"https://foursquare.com/v/lockdown-bar--grill/4b64bf52f964a520f0cc2ae3","category":"Bar","checkinsCount":12020,"usersCount":4897,"tipCount":115,"visitsCount":12516,"url":"http://www.lockdownbar.com","tier":2,"message":"Moderate","currency":"$","rating":8.8},{"name":"Bird's Nest","phone":"7734721502","twitter":"birdsnestbar","address":"2500 N Southport Ave","lat":41.92708519434513,"lng":-87.66363497588807,"neighborhood":"North Side","city_fetched":"Chicago","state":"IL","country":"United States","canonicalUrl":"https://foursquare.com/v/birds-nest/40b28c80f964a5201dfc1ee3","category":"Dive Bar","checkinsCount":9786,"usersCount":2999,"tipCount":40,"visitsCount":11050,"url":"http://birdsnestbar.com","tier":1,"message":"Cheap","currency":"$","rating":8.8},{"name":"Three Dots and a Dash","phone":"3126104220","twitter":"threedotschi","address":"435 N Clark St","lat":41.89019754071453,"lng":-87.63105707277967,"neighborhood":"Near North Side","city_fetched":"Chicago","state":"IL","country":"United States","canonicalUrl":"https://foursquare.com/v/three-dots-and-a-dash/51f7183b8bbdc6a6ae21592e","category":"Tiki Bar","checkinsCount":13658,"usersCount":9574,"tipCount":176,"visitsCount":14050,"url":"http://www.threedotschicago.com","tier":3,"message":"Expensive","currency":"$","rating":8.8},{"name":"bottle & bottega","address":"1 W Harris Ave","lat":41.813999893775794,"lng":-87.86988059432858,"city_fetched":"Chicago","state":"IL","country":"United States","canonicalUrl":"https://foursquare.com/v/bottle--bottega/50fb39f0e4b0646ce056ed68","category":"Wine Bar","checkinsCount":173,"usersCount":138,"tipCount":6,"visitsCount":175,"url":"http://bottleandbottega.com","tier":"","message":"","currency":"","rating":8.8},{"name":"Best Intentions","phone":"3128181254","address":"3281 W Armitage Ave","lat":41.9171282677482,"lng":-87.7101633349323,"neighborhood":"Logan Square","city_fetched":"Chicago","state":"IL","country":"United States","canonicalUrl":"https://foursquare.com/v/best-intentions/4c8ad87ee51e6dcbaf066dde","category":"Dive Bar","checkinsCount":4053,"usersCount":1956,"tipCount":37,"visitsCount":5127,"url":"http://marblelogansquare.com","tier":1,"message":"Cheap","currency":"$","rating":8.8},{"name":"Begyle Brewing","phone":"7736616963","twitter":"begylebrewing","address":"1800 W Cuyler Ave","lat":41.95528665539195,"lng":-87.67452281184607,"neighborhood":"North Center","city_fetched":"Chicago","state":"IL","country":"United States","canonicalUrl":"https://foursquare.com/v/begyle-brewing/4f46b3e1e4b07d6fb0f4c892","category":"Brewery","checkinsCount":2060,"usersCount":1351,"tipCount":20,"visitsCount":2816,"url":"http://www.begylebrewing.com","tier":1,"message":"Cheap","currency":"$","rating":8.8},{"name":"The Duck Inn","phone":"3127248811","twitter":"duckinnchicago","address":"2701 S Eleanor St","lat":41.84448128841067,"lng":-87.66014319058041,"neighborhood":"Bridgeport","city_fetched":"Chicago","state":"IL","country":"United States","canonicalUrl":"https://foursquare.com/v/the-duck-inn/5487b37a498ea9d140484854","category":"Gastropub","checkinsCount":714,"usersCount":819,"tipCount":31,"visitsCount":1072,"url":"http://theduckinnchicago.com","tier":"","message":"","currency":"","rating":8.8},{"name":"Woodhaven Bar and Kitchen","phone":"3126249008","twitter":"woodhavenchi","address":"712 N Clark St","lat":41.895273538479536,"lng":-87.63139486312866,"neighborhood":"River North","city_fetched":"Chicago","state":"IL","country":"United States","canonicalUrl":"https://foursquare.com/v/woodhaven-bar-and-kitchen/53b1c2ac498e53a1873941f9","category":"American Restaurant","checkinsCount":279,"usersCount":174,"tipCount":8,"visitsCount":291,"url":"http://woodhavenchicago.com","tier":"","message":"","currency":"","rating":8.8},{"name":"Lea Brava","phone":"3127331975","address":"900 W Randolph St","lat":41.88448405535317,"lng":-87.6499360118895,"neighborhood":"Fulton Market","city_fetched":"Chicago","state":"IL","country":"United States","canonicalUrl":"https://foursquare.com/v/le%C3%B1a-brava/57229b1c498e8433ac3a692c","category":"Mexican Restaurant","checkinsCount":308,"usersCount":291,"tipCount":9,"visitsCount":311,"url":"http://www.rickbayless.com/restaurants/lena-brava/","tier":"","message":"","currency":"","rating":8.8},{"name":"RM Champagne Salon","phone":"3122431199","twitter":"rmchicago","address":"116 N Green St","lat":41.883878650629555,"lng":-87.64898213334138,"neighborhood":"West Town","city_fetched":"Chicago","state":"IL","country":"United States","canonicalUrl":"https://foursquare.com/v/rm-champagne-salon/4f5b8b51e4b0695cba3ba82f","category":"Bistro","checkinsCount":4905,"usersCount":3300,"tipCount":58,"visitsCount":4982,"url":"http://www.rmchampagnesalon.com","tier":3,"message":"Expensive","currency":"$","rating":8.8},{"name":"Lady Gregory's","phone":"7732715050","twitter":"ladygregorys","address":"5254 N Clark St","lat":41.977894538589254,"lng":-87.66855191926454,"neighborhood":"Andersonville","city_fetched":"Chicago","state":"IL","country":"United States","canonicalUrl":"https://foursquare.com/v/lady-gregorys/4d41a3378e0e88bfc1a217cd","category":"New American Restaurant","checkinsCount":14621,"usersCount":6003,"tipCount":130,"visitsCount":15207,"url":"http://www.ladygregorys.com","tier":2,"message":"Moderate","currency":"$","rating":8.8},{"name":"The Hideout","phone":"7732274433","twitter":"hideoutchicago","address":"1354 W Wabansia Ave","lat":41.91369355698731,"lng":-87.66266693531044,"neighborhood":"Bucktown","city_fetched":"Chicago","state":"IL","country":"United States","canonicalUrl":"https://foursquare.com/v/the-hideout/40b28c80f964a52017fd1ee3","category":"Rock Club","checkinsCount":8005,"usersCount":4792,"tipCount":49,"visitsCount":9063,"url":"http://www.hideoutchicago.com","tier":"","message":"","currency":"","rating":8.8},{"name":"HUB 51","phone":"3128280051","twitter":"hub51","address":"51 W Hubbard St","lat":41.88985068690511,"lng":-87.62980699539185,"neighborhood":"Near North Side","city_fetched":"Chicago","state":"IL","country":"United States","canonicalUrl":"https://foursquare.com/v/hub-51/49cd0720f964a520aa591fe3","category":"New American Restaurant","checkinsCount":30581,"usersCount":17943,"tipCount":239,"visitsCount":31797,"url":"http://www.hub51chicago.com","tier":3,"message":"Expensive","currency":"$","rating":8.8},{"name":"Rosa's Lounge","phone":"7733420452","twitter":"rosaslounge","address":"3420 W Armitage Ave","lat":41.917462361441466,"lng":-87.71275165913725,"neighborhood":"Logan Square","city_fetched":"Chicago","state":"IL","country":"United States","canonicalUrl":"https://foursquare.com/v/rosas-lounge/40b28c80f964a520e4fe1ee3","category":"Rock Club","checkinsCount":1384,"usersCount":1318,"tipCount":17,"visitsCount":1579,"url":"http://www.rosaslounge.com","tier":"","message":"","currency":"","rating":8.8},{"name":"OSB at L&E","phone":"7732767110","twitter":"longmanandeagle","address":"2657 N Kedzie Ave","lat":41.930071,"lng":-87.706897,"neighborhood":"Logan Square","city_fetched":"Chicago","state":"IL","country":"United States","canonicalUrl":"https://foursquare.com/v/osb-at-le/514dd549e4b04b410d5176ce","category":"Gastropub","checkinsCount":1001,"usersCount":508,"tipCount":13,"visitsCount":1007,"url":"http://www.longmanandeagle.com/garage/","tier":2,"message":"Moderate","currency":"$","rating":8.7},{"name":"Sepia","phone":"3124411920","twitter":"sepiachicago","address":"123 N Jefferson St","lat":41.88413387985914,"lng":-87.642733253993,"neighborhood":"West Loop","city_fetched":"Chicago","state":"IL","country":"United States","canonicalUrl":"https://foursquare.com/v/sepia/49dcd38ff964a520a95f1fe3","category":"New American Restaurant","checkinsCount":5296,"usersCount":3971,"tipCount":54,"visitsCount":5664,"url":"http://www.sepiachicago.com","tier":4,"message":"Very Expensive","currency":"$","rating":8.7},{"name":"Charleston","phone":"7734894757","address":"2076 N Hoyne Ave","lat":41.920009,"lng":-87.680221,"neighborhood":"Bucktown","city_fetched":"Chicago","state":"IL","country":"United States","canonicalUrl":"https://foursquare.com/v/charleston/40b28c80f964a520ccfe1ee3","category":"Dive Bar","checkinsCount":3893,"usersCount":2509,"tipCount":24,"visitsCount":4418,"url":"http://www.charlestonchicago.com","tier":1,"message":"Cheap","currency":"$","rating":8.7},{"name":"Wise Owl","address":"324 S Racine Ave","lat":41.876913123225464,"lng":-87.65702684737178,"neighborhood":"Near West Side","city_fetched":"Chicago","state":"IL","country":"United States","canonicalUrl":"https://foursquare.com/v/wise-owl/54133334498eaf5ffe73c0b5","category":"Bar","checkinsCount":379,"usersCount":465,"tipCount":3,"visitsCount":739,"url":"http://wiseowlchicago.com","tier":"","message":"","currency":"","rating":8.7},{"name":"The Betty","phone":"3127332222","twitter":"thebettychicago","address":"839 W Fulton Market","lat":41.88671781265744,"lng":-87.64903030950374,"neighborhood":"Fulton Market","city_fetched":"Chicago","state":"IL","country":"United States","canonicalUrl":"https://foursquare.com/v/the-betty/54b860ba498e8cea01dca550","category":"Cocktail Bar","checkinsCount":1761,"usersCount":1360,"tipCount":23,"visitsCount":1908,"url":"http://thebettychicago.com","tier":"","message":"","currency":"","rating":8.7},{"name":"Innertown Pub","phone":"7732359795","address":"1935 W Thomas St","lat":41.901331,"lng":-87.676028,"neighborhood":"East Ukrainian Village","city_fetched":"Chicago","state":"IL","country":"United States","canonicalUrl":"https://foursquare.com/v/innertown-pub/40b28c80f964a5201bfd1ee3","category":"Bar","checkinsCount":3999,"usersCount":2183,"tipCount":19,"visitsCount":4644,"url":"http://innertownpub.com","tier":1,"message":"Cheap","currency":"$","rating":8.7},{"name":"Drumbar","phone":"3129334805","twitter":"drumbarchi","address":"201 E Delaware Pl","lat":41.89911105405448,"lng":-87.62180749646478,"neighborhood":"Streeterville","city_fetched":"Chicago","state":"IL","country":"United States","canonicalUrl":"https://foursquare.com/drumbarchi","category":"Bar","checkinsCount":5567,"usersCount":3747,"tipCount":61,"visitsCount":5839,"url":"http://www.drumbar.com","tier":2,"message":"Moderate","currency":"$","rating":8.7},{"name":"Bar on Buena","phone":"7735258665","twitter":"thebaronbuena","address":"910 W Buena Ave","lat":41.95851981639862,"lng":-87.653532,"neighborhood":"Buena Park","city_fetched":"Chicago","state":"IL","country":"United States","canonicalUrl":"https://foursquare.com/v/bar-on-buena/4a55460ef964a520f8b31fe3","category":"Bar","checkinsCount":9310,"usersCount":3885,"tipCount":83,"visitsCount":10192,"url":"http://baronbuena.com","tier":2,"message":"Moderate","currency":"$","rating":8.7},{"name":"Raised Rooftop at Renaissance Hotel","address":"1 W Wacker Dr","lat":41.8868048534251,"lng":-87.62816527505765,"neighborhood":"The Loop","city_fetched":"Chicago","state":"IL","country":"United States","canonicalUrl":"https://foursquare.com/v/raised-rooftop-at-renaissance-hotel/5736ab1f498e4ad304e06cfa","category":"Bar","checkinsCount":404,"usersCount":373,"tipCount":8,"visitsCount":411,"tier":"","message":"","currency":"","rating":8.7},{"name":"Lost Lake","phone":"3122051234","twitter":"lostlaketiki","address":"3154 W Diversey Ave","lat":41.93205439603063,"lng":-87.70717551336713,"neighborhood":"Logan Square","city_fetched":"Chicago","state":"IL","country":"United States","canonicalUrl":"https://foursquare.com/v/lost-lake/54ad6987498ef8bcf129ec53","category":"Tiki Bar","checkinsCount":2633,"usersCount":2299,"tipCount":31,"visitsCount":3917,"url":"http://lostlaketiki.com","tier":2,"message":"Moderate","currency":"$","rating":8.7},{"name":"The Dearborn","phone":"3123841242","twitter":"thedearbornchi","address":"108 N State St","lat":41.884437507952946,"lng":-87.6294714263561,"neighborhood":"The Loop","city_fetched":"Chicago","state":"IL","country":"United States","canonicalUrl":"https://foursquare.com/v/the-dearborn/5755b556498ea375c5d4baac","category":"Gastropub","checkinsCount":219,"usersCount":184,"tipCount":8,"visitsCount":222,"url":"http://www.thedearborntavern.com","tier":"","message":"","currency":"","rating":8.7},{"name":"Big Chicks","phone":"7737285511","twitter":"bigchicks","address":"5024 N Sheridan Rd","lat":41.97401297681359,"lng":-87.65519643832687,"neighborhood":"Uptown","city_fetched":"Chicago","state":"IL","country":"United States","canonicalUrl":"https://foursquare.com/v/big-chicks/40b28c80f964a5206bfe1ee3","category":"Gay Bar","checkinsCount":17130,"usersCount":4564,"tipCount":83,"visitsCount":18334,"url":"http://www.bigchicks.com","tier":1,"message":"Cheap","currency":"$","rating":8.7},{"name":"Wilde Bar & Restaurant","phone":"7732440404","twitter":"wildechicago","address":"3130 N Broadway St","lat":41.93864883199985,"lng":-87.64449670983299,"neighborhood":"Lake View East","city_fetched":"Chicago","state":"IL","country":"United States","canonicalUrl":"https://foursquare.com/v/wilde-bar--restaurant/4a345eb1f964a520259c1fe3","category":"Bar","checkinsCount":15311,"usersCount":7260,"tipCount":132,"visitsCount":15594,"url":"http://www.wildechicago.com","tier":2,"message":"Moderate","currency":"$","rating":8.7},{"name":"GreenRiver","phone":"3123370101","twitter":"greenriverchi","address":"259 E Erie St Fl 18","lat":41.89359762931209,"lng":-87.62050594679177,"neighborhood":"Streeterville","city_fetched":"Chicago","state":"IL","country":"United States","canonicalUrl":"https://foursquare.com/greenriverchi","category":"Restaurant","checkinsCount":787,"usersCount":773,"tipCount":8,"visitsCount":982,"url":"http://www.greenriverchi.com","tier":3,"message":"Expensive","currency":"$","rating":8.7},{"name":"Palmer Place Restaurant & Biergarten","phone":"7084827127","twitter":"palmerplace","address":"56 S La Grange Rd","lat":41.813472768018904,"lng":-87.87044538779031,"city_fetched":"Chicago","state":"IL","country":"United States","canonicalUrl":"https://foursquare.com/v/palmer-place-restaurant--biergarten/4b47d9dcf964a520864126e3","category":"American Restaurant","checkinsCount":4982,"usersCount":2637,"tipCount":56,"visitsCount":5522,"url":"http://palmerslagrange.com","tier":3,"message":"Expensive","currency":"$","rating":8.7},{"name":"Farmhouse","phone":"3122804960","twitter":"farmhousechi","address":"228 W Chicago Ave","lat":41.896611808214956,"lng":-87.63539442622447,"neighborhood":"Near North Side","city_fetched":"Chicago","state":"IL","country":"United States","canonicalUrl":"https://foursquare.com/v/farmhouse/4df7f3f118a801cd9f119204","category":"American Restaurant","checkinsCount":9007,"usersCount":5911,"tipCount":133,"visitsCount":9475,"url":"http://www.farmhousechicago.com","tier":2,"message":"Moderate","currency":"$","rating":8.7},{"name":"Peckish Pig","phone":"8474916778","twitter":"peckishpig","address":"623 Howard St","lat":42.01958744727552,"lng":-87.67950598174389,"neighborhood":"Rogers Park","city_fetched":"Chicago","state":"IL","country":"United States","canonicalUrl":"https://foursquare.com/v/peckish-pig/531fad8f498e3462991f1d54","category":"Brewery","checkinsCount":1489,"usersCount":1071,"tipCount":42,"visitsCount":1943,"url":"http://thepeckishpig.com","tier":2,"message":"Moderate","currency":"$","rating":8.7},{"name":"Untitled Supper Club","phone":"3128801511","twitter":"untitledchicago","address":"111 W Kinzie St","lat":41.88911787747795,"lng":-87.63183782678925,"neighborhood":"River North","city_fetched":"Chicago","state":"IL","country":"United States","canonicalUrl":"https://foursquare.com/v/untitled-supper-club/4f88a48be4b0e6f347cfe5b9","category":"Speakeasy","checkinsCount":14331,"usersCount":10091,"tipCount":128,"visitsCount":16073,"url":"http://www.untitledchicago.com","tier":2,"message":"Moderate","currency":"$","rating":8.7},{"name":"Koval Distillery","phone":"3128787988","twitter":"kovaldistillery","address":"5121 N Ravenswood Ave","lat":41.974921699999996,"lng":-87.674184,"neighborhood":"Ravenswood","city_fetched":"Chicago","state":"IL","country":"United States","canonicalUrl":"https://foursquare.com/kovaldistillery","category":"Distillery","checkinsCount":1183,"usersCount":1086,"tipCount":16,"visitsCount":1370,"url":"http://www.koval-distillery.com","tier":"","message":"","currency":"","rating":8.7},{"name":"Paramount Room","phone":"3128296300","twitter":"paramountroom","address":"415 N Milwaukee Ave","lat":41.889501214027405,"lng":-87.64486836666667,"neighborhood":"Fulton River District","city_fetched":"Chicago","state":"IL","country":"United States","canonicalUrl":"https://foursquare.com/paramountroom","category":"American Restaurant","checkinsCount":8717,"usersCount":3362,"tipCount":93,"visitsCount":9332,"url":"http://paramountroom.com","tier":2,"message":"Moderate","currency":"$","rating":8.7},{"name":"Northdown Caf and Taproom","phone":"7736977578","address":"3244 N Lincoln Ave","lat":41.940906451161524,"lng":-87.66955835841786,"neighborhood":"Lakeview","city_fetched":"Chicago","state":"IL","country":"United States","canonicalUrl":"https://foursquare.com/v/northdown-caf%C3%A9-and-taproom/4dc48c66d164eb9c9fd8ca3c","category":"Gastropub","checkinsCount":6936,"usersCount":2875,"tipCount":74,"visitsCount":7086,"url":"http://northdownchicago.com","tier":2,"message":"Moderate","currency":"$","rating":8.7},{"name":"Blue Chicago","phone":"3126610100","address":"536 N Clark St","lat":41.892121934232954,"lng":-87.63120165786205,"neighborhood":"Near North Side","city_fetched":"Chicago","state":"IL","country":"United States","canonicalUrl":"https://foursquare.com/v/blue-chicago/40b28c80f964a52092fb1ee3","category":"Jazz Club","checkinsCount":4522,"usersCount":3841,"tipCount":42,"visitsCount":4627,"url":"http://www.bluechicago.com","tier":"","message":"","currency":"","rating":8.7},{"name":"Lucky's Sandwich Co.","phone":"7735490665","address":"3472 N Clark St","lat":41.94531411046197,"lng":-87.65508083107866,"neighborhood":"Lakeview","city_fetched":"Chicago","state":"IL","country":"United States","canonicalUrl":"https://foursquare.com/v/luckys-sandwich-co/4a708111f964a5209cd71fe3","category":"Sandwich Place","checkinsCount":6893,"usersCount":4567,"tipCount":71,"visitsCount":6932,"url":"http://luckysandwich.com","tier":2,"message":"Moderate","currency":"$","rating":8.7},{"name":"Simone's Bar","phone":"3126668601","twitter":"simonesbar","address":"960 W 18th St","lat":41.8581485441664,"lng":-87.65109701897222,"neighborhood":"Pilsen","city_fetched":"Chicago","state":"IL","country":"United States","canonicalUrl":"https://foursquare.com/v/simones-bar/4a980a24f964a520312a20e3","category":"Bar","checkinsCount":13354,"usersCount":6139,"tipCount":132,"visitsCount":15297,"url":"http://www.simonesbar.com","tier":2,"message":"Moderate","currency":"$","rating":8.7},{"name":"Jake Melnick's Corner Tap","phone":"3122660400","twitter":"jakemelnicks","address":"41 E Superior St","lat":41.895628601545056,"lng":-87.6264216770087,"neighborhood":"Near North Side","city_fetched":"Chicago","state":"IL","country":"United States","canonicalUrl":"https://foursquare.com/v/jake-melnicks-corner-tap/41f43a80f964a520181f1fe3","category":"Bar","checkinsCount":17758,"usersCount":11286,"tipCount":186,"visitsCount":19042,"url":"http://www.jakemelnicks.com","tier":2,"message":"Moderate","currency":"$","rating":8.7},{"name":"Logan Arcade","phone":"8722062859","twitter":"loganarcade","address":"2410 W Fullerton Ave","lat":41.925026958891465,"lng":-87.68811330329649,"neighborhood":"Logan Square","city_fetched":"Chicago","state":"IL","country":"United States","canonicalUrl":"https://foursquare.com/v/logan-arcade/53015818498ee35b40b8892b","category":"Arcade","checkinsCount":2810,"usersCount":1932,"tipCount":28,"visitsCount":3729,"url":"http://loganarcade.com","tier":"","message":"","currency":"","rating":8.7},{"name":"Arbella","phone":"3123441673","address":"112 W Grand Ave","lat":41.89178003910903,"lng":-87.63175589643947,"neighborhood":"River North","city_fetched":"Chicago","state":"IL","country":"United States","canonicalUrl":"https://foursquare.com/v/arbella/573e05bbcd108c13e380b249","category":"Restaurant","checkinsCount":175,"usersCount":138,"tipCount":6,"visitsCount":178,"url":"http://arbellachicago.com","tier":"","message":"","currency":"","rating":8.7},{"name":"Mr. Brown's Lounge","phone":"7732784445","twitter":"mrbrownslounge","address":"2301 W Chicago Ave","lat":41.89567970726501,"lng":-87.68442602593252,"neighborhood":"West Town","city_fetched":"Chicago","state":"IL","country":"United States","canonicalUrl":"https://foursquare.com/v/mr-browns-lounge/4b2abc30f964a52088ae24e3","category":"Caribbean Restaurant","checkinsCount":2920,"usersCount":1693,"tipCount":55,"visitsCount":3534,"url":"http://mrbrownslounge.com","tier":2,"message":"Moderate","currency":"$","rating":8.6},{"name":"Joe's Wine Cellar","phone":"7733034884","address":"2108 W Division St","lat":41.90310504265028,"lng":-87.67995853247793,"neighborhood":"Ukrainian Village","city_fetched":"Chicago","state":"IL","country":"United States","canonicalUrl":"https://foursquare.com/v/joes-wine-cellar/4fde35fbe4b049c33c0cacc4","category":"Wine Bar","checkinsCount":513,"usersCount":304,"tipCount":11,"visitsCount":523,"url":"http://joeswinecellar.com","tier":2,"message":"Moderate","currency":"$","rating":8.6},{"name":"The Office","twitter":"aviarycocktails","address":"955 W Fulton Market","lat":41.88656001350776,"lng":-87.6519513130188,"neighborhood":"Fulton Market","city_fetched":"Chicago","state":"IL","country":"United States","canonicalUrl":"https://foursquare.com/v/the-office/4ddab985d1647fcf3e983748","category":"Speakeasy","checkinsCount":2045,"usersCount":1173,"tipCount":19,"visitsCount":2052,"url":"http://www.theaviary.com","tier":3,"message":"Expensive","currency":"$","rating":8.6},{"name":"The Long Room","phone":"7736654500","twitter":"thelongroom1","address":"1612 W Irving Park Rd","lat":41.954522300831954,"lng":-87.6697268986865,"neighborhood":"South East Ravenswood","city_fetched":"Chicago","state":"IL","country":"United States","canonicalUrl":"https://foursquare.com/v/the-long-room/3fd66200f964a520deed1ee3","category":"Dive Bar","checkinsCount":6469,"usersCount":2913,"tipCount":40,"visitsCount":7059,"url":"http://www.longroomchicago.com","tier":2,"message":"Moderate","currency":"$","rating":8.6},{"name":"Coq D'Or","phone":"3127872200","twitter":"drakechicago","address":"140 E Walton Pl","lat":41.8999139618346,"lng":-87.62347053380051,"neighborhood":"Streeterville","city_fetched":"Chicago","state":"IL","country":"United States","canonicalUrl":"https://foursquare.com/v/coq-dor/40b28c80f964a520defb1ee3","category":"Hotel Bar","checkinsCount":2343,"usersCount":1589,"tipCount":33,"visitsCount":2348,"url":"http://thedrakehotel.com","tier":"","message":"","currency":"","rating":8.6},{"name":"Haymarket Pub & Brewery","phone":"3126380700","address":"737 W Randolph St","lat":41.88416378545351,"lng":-87.64733791351318,"neighborhood":"West Town","city_fetched":"Chicago","state":"IL","country":"United States","canonicalUrl":"https://foursquare.com/v/haymarket-pub--brewery/4bd88ddc1671b7135afb765f","category":"Brewery","checkinsCount":25919,"usersCount":14445,"tipCount":165,"visitsCount":27545,"url":"http://haymarketbrewing.com","tier":2,"message":"Moderate","currency":"$","rating":8.6},{"name":"Presidio","twitter":"presidiochicago","address":"1749 N Damen Ave","lat":41.91376002762594,"lng":-87.67746944776958,"neighborhood":"Bucktown","city_fetched":"Chicago","state":"IL","country":"United States","canonicalUrl":"https://foursquare.com/v/presidio/54dd429f498ea09b89483a8d","category":"Gastropub","checkinsCount":588,"usersCount":395,"tipCount":21,"visitsCount":622,"url":"http://www.presidiochicago.com","tier":3,"message":"Expensive","currency":"$","rating":8.6},{"name":"Bohemian House","phone":"3129550439","twitter":"bohochi","address":"11 W Illinois St","lat":41.89098101330165,"lng":-87.62839180581835,"neighborhood":"Near North Side","city_fetched":"Chicago","state":"IL","country":"United States","canonicalUrl":"https://foursquare.com/v/bohemian-house/53a2ea4f498e8775e9125f76","category":"Cocktail Bar","checkinsCount":1476,"usersCount":1340,"tipCount":37,"visitsCount":1588,"url":"http://bohochicago.com","tier":"","message":"","currency":"","rating":8.6},{"name":"Side Door","phone":"3127876768","address":"100 E Ontario St","lat":41.893390722663646,"lng":-87.62539861730531,"neighborhood":"Streeterville","city_fetched":"Chicago","state":"IL","country":"United States","canonicalUrl":"https://foursquare.com/v/side-door/5303ead711d21c9427b55466","category":"Gastropub","checkinsCount":974,"usersCount":826,"tipCount":19,"visitsCount":981,"url":"http://sidedoorchicago.com","tier":"","message":"","currency":"","rating":8.6},{"name":"La Mez Agave Lounge","phone":"3123292444","twitter":"lamezchi","address":"108 W Kinzie St","lat":41.88928565903057,"lng":-87.63145227092105,"neighborhood":"River North","city_fetched":"Chicago","state":"IL","country":"United States","canonicalUrl":"https://foursquare.com/v/la-mez-agave-lounge/4af47a58f964a520e8f221e3","category":"Cocktail Bar","checkinsCount":1559,"usersCount":794,"tipCount":14,"visitsCount":1560,"url":"http://www.mercaditorestaurants.com/chicago/promo?promo=la-mez-agave-lounge","tier":3,"message":"Expensive","currency":"$","rating":8.6},{"name":"Headquarters Beercade","phone":"3122918735","twitter":"hq_chicago","address":"213 W Institute Pl","lat":41.89716623689337,"lng":-87.6348602771759,"neighborhood":"Near North Side","city_fetched":"Chicago","state":"IL","country":"United States","canonicalUrl":"https://foursquare.com/v/headquarters-beercade/52f139a1498e481bc2d24e0d","category":"Bar","checkinsCount":4008,"usersCount":4163,"tipCount":48,"visitsCount":6131,"url":"http://hqbeercade.com/rivernorth","tier":2,"message":"Moderate","currency":"$","rating":8.6},{"name":"Go Tavern & Liquors","phone":"7732274052","address":"3219 W Armitage Ave","lat":41.917479421056946,"lng":-87.70790203878778,"neighborhood":"Logan Square","city_fetched":"Chicago","state":"IL","country":"United States","canonicalUrl":"https://foursquare.com/v/go-tavern--liquors/510f0958e4b09bd903bd1fbe","category":"Dive Bar","checkinsCount":1420,"usersCount":661,"tipCount":16,"visitsCount":1696,"tier":1,"message":"Cheap","currency":"$","rating":8.6},{"name":"Table, Donkey and Stick","phone":"7734868525","twitter":"tabledonkeyinn","address":"2728 W Armitage Ave","lat":41.91764246133851,"lng":-87.69617998542277,"neighborhood":"Logan Square","city_fetched":"Chicago","state":"IL","country":"United States","canonicalUrl":"https://foursquare.com/v/table-donkey-and-stick/50983a99e4b0385777e2da20","category":"New American Restaurant","checkinsCount":1978,"usersCount":1702,"tipCount":28,"visitsCount":2602,"url":"http://www.tabledonkeystick.com","tier":2,"message":"Moderate","currency":"$","rating":8.6},{"name":"694 Wine & Spirits","phone":"3124926620","twitter":"694winespirits","address":"694 N Milwaukee Ave","lat":41.89424830341873,"lng":-87.65253469347954,"neighborhood":"River West","city_fetched":"Chicago","state":"IL","country":"United States","canonicalUrl":"https://foursquare.com/v/694-wine--spirits/4a9f358ff964a520ec3c20e3","category":"Wine Bar","checkinsCount":3079,"usersCount":1898,"tipCount":30,"visitsCount":3434,"url":"http://www.694wineandspirits.com","tier":2,"message":"Moderate","currency":"$","rating":8.6},{"name":"Cruz Blanca Cervecera & Taqueria","phone":"3127331975","address":"904 W Randolph St","lat":41.884556741292215,"lng":-87.65002272713232,"neighborhood":"Fulton Market","city_fetched":"Chicago","state":"IL","country":"United States","canonicalUrl":"https://foursquare.com/v/cruz-blanca-cervecer%C3%ADa--taqueria/56d07112cd10d9e68d9aa269","category":"Restaurant","checkinsCount":505,"usersCount":437,"tipCount":8,"visitsCount":538,"url":"http://www.rickbayless.com/restaurants/cerveceria-cruz-blanca/","tier":"","message":"","currency":"","rating":8.6},{"name":"The Bedford","phone":"7732358800","twitter":"thebedfordchi","address":"1612 W Division St","lat":41.90344994851502,"lng":-87.66778142450542,"neighborhood":"Wicker Park","city_fetched":"Chicago","state":"IL","country":"United States","canonicalUrl":"https://foursquare.com/v/the-bedford/4d5eebf1196ba093347d0756","category":"New American Restaurant","checkinsCount":10876,"usersCount":7307,"tipCount":78,"visitsCount":11345,"url":"http://www.bedfordchicago.com","tier":2,"message":"Moderate","currency":"$","rating":8.6},{"name":"Tiny Lounge","phone":"7734630396","address":"4352 N Leavitt St","lat":41.961219,"lng":-87.68379540000001,"neighborhood":"North Center","city_fetched":"Chicago","state":"IL","country":"United States","canonicalUrl":"https://foursquare.com/v/tiny-lounge/42829c80f964a52071221fe3","category":"Lounge","checkinsCount":4729,"usersCount":2341,"tipCount":77,"visitsCount":4828,"url":"http://tinylounge.com","tier":2,"message":"Moderate","currency":"$","rating":8.6},{"name":"FitzGerald's","phone":"7087882118","address":"6615 Roosevelt Rd","lat":41.865022,"lng":-87.789733,"city_fetched":"Chicago","state":"IL","country":"United States","canonicalUrl":"https://foursquare.com/v/fitzgeralds/40da1980f964a5206e011fe3","category":"Music Venue","checkinsCount":2164,"usersCount":1216,"tipCount":17,"visitsCount":2385,"tier":"","message":"","currency":"","rating":8.6},{"name":"Jane's","phone":"7738625263","twitter":"janesrestaurant","address":"1655 W Cortland St","lat":41.91597267537027,"lng":-87.66993877699674,"neighborhood":"Bucktown","city_fetched":"Chicago","state":"IL","country":"United States","canonicalUrl":"https://foursquare.com/janesrestaurant","category":"American Restaurant","checkinsCount":2920,"usersCount":2086,"tipCount":28,"visitsCount":2996,"url":"http://www.janesrestaurant.com","tier":2,"message":"Moderate","currency":"$","rating":8.6},{"name":"Lalo's","phone":"7084849311","twitter":"lalosrestaurant","address":"3011 S Harlem Ave","lat":41.83709194210497,"lng":-87.80280826064951,"city_fetched":"Chicago","state":"IL","country":"United States","canonicalUrl":"https://foursquare.com/v/lalos/4b9810b1f964a520fe2935e3","category":"Mexican Restaurant","checkinsCount":3548,"usersCount":2177,"tipCount":34,"visitsCount":4572,"url":"http://www.lalos.com","tier":2,"message":"Moderate","currency":"$","rating":8.6},{"name":"Michael's Original Pizzeria & Tavern","phone":"7739294149","address":"4091 N Broadway St","lat":41.956816,"lng":-87.65187,"neighborhood":"Buena Park","city_fetched":"Chicago","state":"IL","country":"United States","canonicalUrl":"https://foursquare.com/v/michaels-original-pizzeria--tavern/4b0b3045f964a520552e23e3","category":"Pizza Place","checkinsCount":5803,"usersCount":2535,"tipCount":49,"visitsCount":7134,"url":"http://www.michaelspizzachicago.com","tier":2,"message":"Moderate","currency":"$","rating":8.6},{"name":"Section 8 Tailgate","phone":"7085947200","address":"Toyota Park Parking Lot","lat":41.765337444156714,"lng":-87.80541529678442,"city_fetched":"Chicago","state":"IL","country":"United States","canonicalUrl":"https://foursquare.com/v/section-8-tailgate/4bdcab6bc79cc928369b87e9","category":"Beer Garden","checkinsCount":1556,"usersCount":408,"tipCount":5,"visitsCount":1615,"url":"http://s8c.org","tier":"","message":"","currency":"","rating":8.5},{"name":"The Boarding House","phone":"3122800720","twitter":"boardinghse","address":"720 N Wells St","lat":41.89551877525791,"lng":-87.63417518958741,"neighborhood":"River North","city_fetched":"Chicago","state":"IL","country":"United States","canonicalUrl":"https://foursquare.com/v/the-boarding-house/50afbea3e4b0892bb81b2577","category":"American Restaurant","checkinsCount":4170,"usersCount":3457,"tipCount":66,"visitsCount":4500,"url":"http://boardinghousechicago.com","tier":4,"message":"Very Expensive","currency":"$","rating":8.5},{"name":"Five Star Bar","phone":"3128502555","twitter":"fivestarbar","address":"1424 W Chicago Ave","lat":41.89619992952158,"lng":-87.66345798969269,"neighborhood":"Noble Square","city_fetched":"Chicago","state":"IL","country":"United States","canonicalUrl":"https://foursquare.com/v/five-star-bar/4a765f44f964a520f2e21fe3","category":"Whisky Bar","checkinsCount":11483,"usersCount":5148,"tipCount":51,"visitsCount":12615,"url":"http://fivestarbar.com","tier":2,"message":"Moderate","currency":"$","rating":8.5},{"name":"Ditka's","phone":"3125878989","twitter":"ditkarestaurant","address":"100 E Chestnut St","lat":41.898446629314684,"lng":-87.62535041620876,"neighborhood":"Streeterville","city_fetched":"Chicago","state":"IL","country":"United States","canonicalUrl":"https://foursquare.com/v/ditkas/49f3c317f964a520d76a1fe3","category":"Steakhouse","checkinsCount":8949,"usersCount":6858,"tipCount":116,"visitsCount":9061,"url":"http://www.mikeditkaschicago.com","tier":3,"message":"Expensive","currency":"$","rating":8.5},{"name":"Replay Beer & Bourbon","phone":"7739759244","address":"3439 N Halsted St","lat":41.944702642219596,"lng":-87.64936272363784,"neighborhood":"Lake View East","city_fetched":"Chicago","state":"IL","country":"United States","canonicalUrl":"https://foursquare.com/v/replay-beer--bourbon/519d6641498eb6e84dd69147","category":"Gay Bar","checkinsCount":7179,"usersCount":2834,"tipCount":37,"visitsCount":8830,"tier":2,"message":"Moderate","currency":"$","rating":8.5},{"name":"Bar Deville","phone":"3129292349","twitter":"bardeville","address":"701 N Damen Ave","lat":41.894243,"lng":-87.676987,"neighborhood":"West Town","city_fetched":"Chicago","state":"IL","country":"United States","canonicalUrl":"https://foursquare.com/v/bar-deville/49dcd443f964a520ac5f1fe3","category":"Bar","checkinsCount":16063,"usersCount":10009,"tipCount":71,"visitsCount":17580,"url":"http://bardeville.com","tier":2,"message":"Moderate","currency":"$","rating":8.5},{"name":"Local Option","phone":"7733482008","twitter":"localoption","address":"1102 W Webster Ave","lat":41.92172326431308,"lng":-87.65611165203237,"neighborhood":"North Side","city_fetched":"Chicago","state":"IL","country":"United States","canonicalUrl":"https://foursquare.com/v/local-option/40b28c80f964a52044fc1ee3","category":"Brewery","checkinsCount":6592,"usersCount":4101,"tipCount":66,"visitsCount":7506,"url":"http://www.localoptionbier.com","tier":2,"message":"Moderate","currency":"$","rating":8.5},{"name":"Taverna 750","phone":"7739047466","twitter":"taverna750","address":"750 W Cornelia Ave","lat":41.94548710953391,"lng":-87.64905439756586,"neighborhood":"Lake View East","city_fetched":"Chicago","state":"IL","country":"United States","canonicalUrl":"https://foursquare.com/v/taverna-750/4d7286a2f7c38cfa1c54a83d","category":"Italian Restaurant","checkinsCount":9426,"usersCount":3683,"tipCount":51,"visitsCount":9961,"url":"http://www.taverna750.com","tier":2,"message":"Moderate","currency":"$","rating":8.5},{"name":"Pleasant House Pub","phone":"7735237437","address":"2119 S Halsted St","lat":41.853578,"lng":-87.646199,"neighborhood":"East Pilsen","city_fetched":"Chicago","state":"IL","country":"United States","canonicalUrl":"https://foursquare.com/v/pleasant-house-pub/57785c22498e9a08101ec2b5","category":"Pub","checkinsCount":126,"usersCount":124,"tipCount":5,"visitsCount":150,"url":"https://pleasanthousebakery.com","tier":"","message":"","currency":"","rating":8.5},{"name":"Sweetwater Tavern & Grille","phone":"3126987111","twitter":"sweetwaterchi","address":"225 N Michigan Ave","lat":41.886368318570725,"lng":-87.62428164482117,"neighborhood":"The Loop","city_fetched":"Chicago","state":"IL","country":"United States","canonicalUrl":"https://foursquare.com/sweetwaterchi","category":"American Restaurant","checkinsCount":21911,"usersCount":13109,"tipCount":182,"visitsCount":22933,"url":"http://www.sweetwatertavernandgrille.com","tier":2,"message":"Moderate","currency":"$","rating":8.5},{"name":"R Public House","phone":"8722087916","twitter":"rpublichouse","address":"1508 W Jarvis Ave","lat":42.01606557544454,"lng":-87.66858562811278,"neighborhood":"Rogers Park","city_fetched":"Chicago","state":"IL","country":"United States","canonicalUrl":"https://foursquare.com/v/r-public-house/51d9a63d498ee58cf68f7444","category":"Pub","checkinsCount":3071,"usersCount":725,"tipCount":17,"visitsCount":3665,"url":"http://www.rpublichouse.com","tier":2,"message":"Moderate","currency":"$","rating":8.5},{"name":"M Lounge","phone":"3124470201","twitter":"mloungechicago","address":"1520 S Wabash Ave","lat":41.8613228776563,"lng":-87.62581796470072,"neighborhood":"South Loop","city_fetched":"Chicago","state":"IL","country":"United States","canonicalUrl":"https://foursquare.com/mloungechicago","category":"Lounge","checkinsCount":2176,"usersCount":1165,"tipCount":29,"visitsCount":2624,"url":"http://www.mloungechicago.com","tier":2,"message":"Moderate","currency":"$","rating":8.5},{"name":"Miller's Pub","phone":"3122634988","twitter":"millerspub","address":"134 S Wabash Ave","lat":41.87991050687501,"lng":-87.62597186754361,"neighborhood":"The Loop","city_fetched":"Chicago","state":"IL","country":"United States","canonicalUrl":"https://foursquare.com/v/millers-pub/49d8159cf964a520a05d1fe3","category":"Pub","checkinsCount":16229,"usersCount":13105,"tipCount":191,"visitsCount":17787,"url":"http://www.millerspub.com","tier":2,"message":"Moderate","currency":"$","rating":8.5},{"name":"The Kinderhook Tap","phone":"7084340373","twitter":"kinderhooktap","address":"800 S Oak Park Ave","lat":41.87416255688654,"lng":-87.79389381408691,"city_fetched":"Chicago","state":"IL","country":"United States","canonicalUrl":"https://foursquare.com/kinderhooktap","category":"Bar","checkinsCount":1842,"usersCount":923,"tipCount":39,"visitsCount":2238,"url":"http://www.kinderhooktap.com","tier":1,"message":"Cheap","currency":"$","rating":8.5},{"name":"Murphy's Bleachers","phone":"7732815356","twitter":"murphysbleacher","address":"3655 N Sheffield Ave","lat":41.948922686748844,"lng":-87.65417041375898,"neighborhood":"Wrigleyville","city_fetched":"Chicago","state":"IL","country":"United States","canonicalUrl":"https://foursquare.com/v/murphys-bleachers/49ea0eb8f964a5201b661fe3","category":"Sports Bar","checkinsCount":16949,"usersCount":11586,"tipCount":45,"visitsCount":19105,"url":"http://murphysbleachers.com","tier":2,"message":"Moderate","currency":"$","rating":8.5},{"name":"Crown Liquors","phone":"7732529741","address":"2821 N Milwaukee Ave","lat":41.932316423870446,"lng":-87.7123715984666,"neighborhood":"Logan Square","city_fetched":"Chicago","state":"IL","country":"United States","canonicalUrl":"https://foursquare.com/v/crown-liquors/4bad6be1f964a5202b4e3be3","category":"Bar","checkinsCount":1363,"usersCount":704,"tipCount":5,"visitsCount":1674,"tier":"","message":"","currency":"","rating":8.5},{"name":"The Drinkingbird","phone":"7734729920","twitter":"drinkingbirdchi","address":"2201 N Clybourn Ave","lat":41.92179003936041,"lng":-87.66434293284668,"neighborhood":"North Side","city_fetched":"Chicago","state":"IL","country":"United States","canonicalUrl":"https://foursquare.com/drinkingbirdchi","category":"Bar","checkinsCount":4662,"usersCount":2374,"tipCount":33,"visitsCount":4695,"url":"http://drinkingbirdchicago.com","tier":2,"message":"Moderate","currency":"$","rating":8.5},{"name":"The Graystone Tavern","phone":"7736665450","address":"3441 N Sheffield Ave","lat":41.94471856086735,"lng":-87.65434382798281,"neighborhood":"Wrigleyville","city_fetched":"Chicago","state":"IL","country":"United States","canonicalUrl":"https://foursquare.com/v/the-graystone-tavern/566ca950498eba8f30d2fa65","category":"Sports Bar","checkinsCount":341,"usersCount":118,"tipCount":4,"visitsCount":385,"url":"http://graystonetavernchicago.com","tier":"","message":"","currency":"","rating":8.5},{"name":"Toon's Bar & Grill","phone":"7739351919","twitter":"toonschicago","address":"3857 N Southport Ave","lat":41.95244,"lng":-87.664088,"neighborhood":"Lakeview","city_fetched":"Chicago","state":"IL","country":"United States","canonicalUrl":"https://foursquare.com/v/toons-bar--grill/4ac64c18f964a52095b320e3","category":"Bar","checkinsCount":8079,"usersCount":3612,"tipCount":52,"visitsCount":9457,"url":"http://www.chicagotoons.com","tier":2,"message":"Moderate","currency":"$","rating":8.5},{"name":"First Draft","phone":"3124611062","address":"649 S Clark St","lat":41.87345997119737,"lng":-87.63047390830343,"neighborhood":"Printer's Row","city_fetched":"Chicago","state":"IL","country":"United States","canonicalUrl":"https://foursquare.com/v/first-draft/52571707498e66efc5f2960d","category":"Sports Bar","checkinsCount":1797,"usersCount":1333,"tipCount":18,"visitsCount":2437,"tier":"","message":"","currency":"","rating":8.5},{"name":"Wasabi Cafe Sushi & Sake","phone":"7736986252","twitter":"wasabicafe","address":"3908 N Lincoln Ave","lat":41.95267189132947,"lng":-87.67779683999088,"neighborhood":"North Center","city_fetched":"Chicago","state":"IL","country":"United States","canonicalUrl":"https://foursquare.com/v/wasabi-cafe-sushi--sake/4ef3af0e0aaf6577fd234f5a","category":"Sushi Restaurant","checkinsCount":1547,"usersCount":942,"tipCount":27,"visitsCount":1701,"url":"http://wasabicafe.com","tier":2,"message":"Moderate","currency":"$","rating":8.5},{"name":"Rockit Bar and Grill","phone":"3126456000","twitter":"rockit","address":"22 W Hubbard St","lat":41.89008153518819,"lng":-87.62898945605328,"neighborhood":"Near North Side","city_fetched":"Chicago","state":"IL","country":"United States","canonicalUrl":"https://foursquare.com/v/rockit-bar-and-grill/42474900f964a52089201fe3","category":"American Restaurant","checkinsCount":30571,"usersCount":18511,"tipCount":207,"visitsCount":31344,"url":"http://rockitbarandgrill.com","tier":2,"message":"Moderate","currency":"$","rating":8.5},{"name":"LuxBar","phone":"3126423400","twitter":"luxbarchicago","address":"18 E Bellevue Pl","lat":41.9014944756121,"lng":-87.627854347229,"neighborhood":"Gold Coast","city_fetched":"Chicago","state":"IL","country":"United States","canonicalUrl":"https://foursquare.com/v/luxbar/4a176a52f964a52058791fe3","category":"American Restaurant","checkinsCount":12989,"usersCount":7375,"tipCount":71,"visitsCount":13164,"url":"http://www.luxbar.com","tier":2,"message":"Moderate","currency":"$","rating":8.5},{"name":"Rainbo Club","phone":"7734895999","address":"1150 N Damen Ave","lat":41.902743,"lng":-87.67728299413923,"neighborhood":"Ukrainian Village","city_fetched":"Chicago","state":"IL","country":"United States","canonicalUrl":"https://foursquare.com/v/rainbo-club/40b28c80f964a5202efd1ee3","category":"Dive Bar","checkinsCount":7250,"usersCount":4031,"tipCount":47,"visitsCount":7700,"tier":1,"message":"Cheap","currency":"$","rating":8.5},{"name":"ZED451 Rooftop","phone":"3122666691","address":"739 N Clark St","lat":41.895733126915566,"lng":-87.63115828238537,"neighborhood":"Near North Side","city_fetched":"Chicago","state":"IL","country":"United States","canonicalUrl":"https://foursquare.com/v/zed451-rooftop/4e4b1d4945dd51440168e6eb","category":"Lounge","checkinsCount":396,"usersCount":337,"tipCount":2,"visitsCount":396,"url":"http://zed451.com","tier":"","message":"","currency":"","rating":8.4},{"name":"The Sixth","phone":"7734335959","twitter":"thesixthbar","address":"2200 W Lawrence Ave","lat":41.96873935306415,"lng":-87.6844212120592,"neighborhood":"Ravenswood","city_fetched":"Chicago","state":"IL","country":"United States","canonicalUrl":"https://foursquare.com/v/the-sixth/567f5406498e729ea3db3f50","category":"Cocktail Bar","checkinsCount":468,"usersCount":349,"tipCount":17,"visitsCount":493,"url":"http://www.thesixthbar.com","tier":"","message":"","currency":"","rating":8.4},{"name":"The Corner Bar","phone":"7732359279","address":"2224 N Leavitt St","lat":41.92192173,"lng":-87.682818,"neighborhood":"Bucktown","city_fetched":"Chicago","state":"IL","country":"United States","canonicalUrl":"https://foursquare.com/v/the-corner-bar/4b15cb8cf964a5205bb423e3","category":"Bar","checkinsCount":3964,"usersCount":913,"tipCount":23,"visitsCount":4369,"url":"http://cornerbarchicago.com","tier":1,"message":"Cheap","currency":"$","rating":8.4},{"name":"The Norse Bar","phone":"7739426344","twitter":"norsebar","address":"6334 N Clark St","lat":41.99747913830084,"lng":-87.67063700536296,"neighborhood":"Edgewater","city_fetched":"Chicago","state":"IL","country":"United States","canonicalUrl":"https://foursquare.com/v/the-norse-bar/4e431221aeb7f6be72c53cfa","category":"Bar","checkinsCount":3971,"usersCount":745,"tipCount":32,"visitsCount":4254,"url":"http://www.norsebar.com","tier":2,"message":"Moderate","currency":"$","rating":8.4},{"name":"Moher Public House","phone":"7734671954","twitter":"moherpub","address":"5310 W Devon Ave","lat":41.99744935274932,"lng":-87.76131067542225,"neighborhood":"Edgebrook","city_fetched":"Chicago","state":"IL","country":"United States","canonicalUrl":"https://foursquare.com/v/moher-public-house/4a917a98f964a520531a20e3","category":"Bar","checkinsCount":886,"usersCount":398,"tipCount":12,"visitsCount":944,"url":"http://www.moherchicago.com","tier":"","message":"","currency":"","rating":8.3}]