[{"name":"Sierra Nevada Brewing Co.","phone":"5303452739","twitter":"sierranevada","address":"1075 E 20th St","lat":39.724554806959965,"lng":-121.81490421295166,"city_fetched":"Chico","state":"CA","country":"United States","canonicalUrl":"https://foursquare.com/v/sierra-nevada-brewing-co/4aa32a33f964a5208f4320e3","category":"Brewery","checkinsCount":8955,"usersCount":4539,"tipCount":102,"visitsCount":10330,"url":"http://www.sierranevada.com","tier":3,"message":"Expensive","currency":"$","rating":9.1},{"name":"Argus Bar + Patio","twitter":"argus_bar","address":"212 W 2nd St","lat":39.72962802331024,"lng":-121.84175247683123,"neighborhood":"Downtown Chico","city_fetched":"Chico","state":"CA","country":"United States","canonicalUrl":"https://foursquare.com/v/argus-bar--patio/527db659498ece933a8ef7d9","category":"Cocktail Bar","checkinsCount":357,"usersCount":189,"tipCount":3,"visitsCount":425,"url":"http://argusbarandpatio.com","tier":2,"message":"Moderate","currency":"$","rating":8.6},{"name":"Madison Bear Garden","phone":"5308911639","twitter":"madisonbeargdn","address":"316 W 2nd St","lat":39.729276,"lng":-121.84263811,"neighborhood":"California State University-Chico","city_fetched":"Chico","state":"CA","country":"United States","canonicalUrl":"https://foursquare.com/v/madison-bear-garden/4af52585f964a5206ef821e3","category":"Burger Joint","checkinsCount":8292,"usersCount":2313,"tipCount":51,"visitsCount":8812,"url":"http://madisonbeargarden.com","tier":1,"message":"Cheap","currency":"$","rating":8.5},{"name":"Wine Time","address":"26 Lost Dutchman Dr","lat":39.77069756390586,"lng":-121.87689335736347,"city_fetched":"Chico","state":"CA","country":"United States","canonicalUrl":"https://foursquare.com/v/wine-time/4f9363fae4b0e90bfbdc5546","category":"Wine Bar","checkinsCount":264,"usersCount":111,"tipCount":4,"visitsCount":306,"url":"http://winetimechico.com","tier":"","message":"","currency":"","rating":8.5},{"name":"Park Ave Pub","phone":"5308933500","address":"2010 Park Ave","lat":39.71930961293028,"lng":-121.8232129988373,"city_fetched":"Chico","state":"CA","country":"United States","canonicalUrl":"https://foursquare.com/v/park-ave-pub/4cb3c222ef1b3704b7be5400","category":"Bar","checkinsCount":550,"usersCount":193,"tipCount":4,"visitsCount":744,"url":"http://www.parkavepub.net","tier":"","message":"","currency":"","rating":8.4},{"name":"The Handle Bar","phone":"5308942337","address":"2070 E 20th St Ste 160","lat":39.727516,"lng":-121.799108,"city_fetched":"Chico","state":"CA","country":"United States","canonicalUrl":"https://foursquare.com/v/the-handle-bar/50c2a09ce4b0c7bb3f64f5dd","category":"Bar","checkinsCount":908,"usersCount":256,"tipCount":8,"visitsCount":1168,"url":"http://handlebarchico.com","tier":2,"message":"Moderate","currency":"$","rating":8.4},{"name":"Tres Hombres","phone":"5303420425","twitter":"treschico","address":"100 Broadway St","lat":39.730184,"lng":-121.842112,"neighborhood":"Downtown Chico","city_fetched":"Chico","state":"CA","country":"United States","canonicalUrl":"https://foursquare.com/treschico","category":"Mexican Restaurant","checkinsCount":2882,"usersCount":1404,"tipCount":21,"visitsCount":3231,"url":"http://treshombreschico.com","tier":2,"message":"Moderate","currency":"$","rating":8.4},{"name":"Nash's Restaurant","phone":"5308961147","twitter":"nashschico","address":"1717 Esplanade","lat":39.74429722871413,"lng":-121.85063742823478,"neighborhood":"West Avenues","city_fetched":"Chico","state":"CA","country":"United States","canonicalUrl":"https://foursquare.com/v/nashs-restaurant/4baf6d86f964a520fefe3be3","category":"Breakfast Spot","checkinsCount":1058,"usersCount":547,"tipCount":11,"visitsCount":1324,"url":"http://www.nashsrestaurantchico.com","tier":2,"message":"Moderate","currency":"$","rating":8.3},{"name":"Fusion Hookah Lounge","phone":"5303433268","address":"245 Walnut St","lat":39.723775,"lng":-121.848609,"city_fetched":"Chico","state":"CA","country":"United States","canonicalUrl":"https://foursquare.com/v/fusion-hookah-lounge/51f60d8b498ebfa0bc1fbf60","category":"Hookah Bar","checkinsCount":91,"usersCount":62,"tipCount":4,"visitsCount":233,"tier":"","message":"","currency":"","rating":8.2},{"name":"The Banshee","phone":"5308959670","address":"132 W 2nd St","lat":39.729996,"lng":-121.84109330177307,"neighborhood":"Downtown Chico","city_fetched":"Chico","state":"CA","country":"United States","canonicalUrl":"https://foursquare.com/v/the-banshee/4b47ff30f964a5200f4626e3","category":"Gastropub","checkinsCount":4083,"usersCount":1152,"tipCount":37,"visitsCount":4286,"url":"http://bansheechico.com","tier":2,"message":"Moderate","currency":"$","rating":8.2},{"name":"Winchester Goose","phone":"5308951350","address":"800 Broadway St","lat":39.725474879185654,"lng":-121.83642625808714,"neighborhood":"Downtown Chico","city_fetched":"Chico","state":"CA","country":"United States","canonicalUrl":"https://foursquare.com/v/winchester-goose/5244699f0493867c0688d1a2","category":"Bar","checkinsCount":443,"usersCount":223,"tipCount":8,"visitsCount":574,"url":"http://www.thewinchestergoose.com","tier":2,"message":"Moderate","currency":"$","rating":8},{"name":"Crush Italian Cuisine & Lounge","phone":"5303427000","twitter":"chicocrush","address":"201 Broadway St","lat":39.729658371152176,"lng":-121.84087336063385,"neighborhood":"Downtown Chico","city_fetched":"Chico","state":"CA","country":"United States","canonicalUrl":"https://foursquare.com/v/crush-italian-cuisine--lounge/4b10ba90f964a520257523e3","category":"Italian Restaurant","checkinsCount":1343,"usersCount":619,"tipCount":10,"visitsCount":1369,"url":"http://www.chicocrush.com","tier":3,"message":"Expensive","currency":"$","rating":8},{"name":"Joe's Bar","phone":"5308943612","address":"749 W 5th St","lat":39.72387752401245,"lng":-121.84427124931823,"city_fetched":"Chico","state":"CA","country":"United States","canonicalUrl":"https://foursquare.com/v/joes-bar/4c2667b0136d20a18b4ee561","category":"Dive Bar","checkinsCount":1281,"usersCount":433,"tipCount":3,"visitsCount":1381,"tier":"","message":"","currency":"","rating":7.9},{"name":"Panama's Bar & Cafe","phone":"5308958817","address":"177 E 2nd St","lat":39.73057218694674,"lng":-121.8395671248436,"neighborhood":"Downtown Chico","city_fetched":"Chico","state":"CA","country":"United States","canonicalUrl":"https://foursquare.com/v/panamas-bar--cafe/4b36f9d4f964a520c73e25e3","category":"Bar","checkinsCount":3280,"usersCount":832,"tipCount":18,"visitsCount":3329,"url":"http://panamabarcafeinchico.com/panama-bar-cafe/","tier":"","message":"","currency":"","rating":7.7},{"name":"Monk's Wine Lounge & Bistro","phone":"5303433408","address":"128 W 2nd St","lat":39.7300386428833,"lng":-121.84102892875671,"neighborhood":"Downtown Chico","city_fetched":"Chico","state":"CA","country":"United States","canonicalUrl":"https://foursquare.com/v/monks-wine-lounge--bistro/4b1329acf964a520f39423e3","category":"Wine Bar","checkinsCount":290,"usersCount":171,"tipCount":5,"visitsCount":290,"url":"http://monkswinelounge.com","tier":"","message":"","currency":"","rating":7.7},{"name":"The Tackle Box","phone":"5303457499","address":"379 E Park Ave","lat":39.71443311645056,"lng":-121.80888643820973,"city_fetched":"Chico","state":"CA","country":"United States","canonicalUrl":"https://foursquare.com/v/the-tackle-box/4c118cd1d917c928eefeb562","category":"Dive Bar","checkinsCount":1015,"usersCount":400,"tipCount":12,"visitsCount":1206,"url":"http://tackleboxchico.com","tier":1,"message":"Cheap","currency":"$","rating":7.6},{"name":"Studio Inn Lounge","phone":"5303430662","address":"2582 Esplanade","lat":39.758251678170126,"lng":-121.86218457736186,"city_fetched":"Chico","state":"CA","country":"United States","canonicalUrl":"https://foursquare.com/v/studio-inn-lounge/4b7c5613f964a5201e8d2fe3","category":"Dive Bar","checkinsCount":5222,"usersCount":254,"tipCount":19,"visitsCount":5583,"tier":1,"message":"Cheap","currency":"$","rating":7.4},{"name":"Maltese Bar","phone":"5303434915","address":"1600 Park Ave","lat":39.721237493961084,"lng":-121.82715654373169,"city_fetched":"Chico","state":"CA","country":"United States","canonicalUrl":"https://foursquare.com/v/maltese-bar/4b8a0b0df964a520285d32e3","category":"Bar","checkinsCount":697,"usersCount":264,"tipCount":7,"visitsCount":817,"url":"http://www.themaltesebar.com","tier":"","message":"","currency":"","rating":7.2},{"name":"The End Zone","phone":"5303429791","address":"250 Cohasset Rd","lat":39.7519613346827,"lng":-121.85273346134775,"city_fetched":"Chico","state":"CA","country":"United States","canonicalUrl":"https://foursquare.com/v/the-end-zone/4be6ee6d2468c928c3d60143","category":"Sports Bar","checkinsCount":3184,"usersCount":315,"tipCount":10,"visitsCount":3510,"url":"http://www.endzonechico.com","tier":2,"message":"Moderate","currency":"$","rating":7.1},{"name":"Oasis Bar & Grill","phone":"5303434305","twitter":"oasischicoca","address":"1007 W 1st St","lat":39.725136558090426,"lng":-121.84958517551422,"city_fetched":"Chico","state":"CA","country":"United States","canonicalUrl":"https://foursquare.com/v/oasis-bar--grill/4b6e6bc9f964a520d3bc2ce3","category":"Dive Bar","checkinsCount":376,"usersCount":224,"tipCount":5,"visitsCount":423,"url":"http://www.oasisbarandgrill.net","tier":"","message":"","currency":"","rating":7},{"name":"Duffy's Tavern","phone":"5303437718","address":"337 Main St","lat":39.72920455293791,"lng":-121.83876514434814,"neighborhood":"Downtown Chico","city_fetched":"Chico","state":"CA","country":"United States","canonicalUrl":"https://foursquare.com/v/duffys-tavern/42814b00f964a520e3211fe3","category":"Dive Bar","checkinsCount":1817,"usersCount":562,"tipCount":15,"visitsCount":1891,"tier":1,"message":"Cheap","currency":"$","rating":7},{"name":"Bella's Sports Pub","phone":"5308935253","address":"134 Broadway St","lat":39.729901,"lng":-121.841705,"neighborhood":"Downtown Chico","city_fetched":"Chico","state":"CA","country":"United States","canonicalUrl":"https://foursquare.com/v/bellas-sports-pub/4b3d9e87f964a520d59525e3","category":"Sports Bar","checkinsCount":2332,"usersCount":568,"tipCount":10,"visitsCount":2347,"url":"http://bellassportspub.com","tier":1,"message":"Cheap","currency":"$","rating":6.9},{"name":"Riley's Bar","phone":"5303437459","twitter":"rileyschico","address":"702 W 5th St","lat":39.724564566666665,"lng":-121.84390673333333,"city_fetched":"Chico","state":"CA","country":"United States","canonicalUrl":"https://foursquare.com/rileyschico","category":"Bar","checkinsCount":4068,"usersCount":895,"tipCount":23,"visitsCount":4423,"url":"http://rileysbar.com","tier":1,"message":"Cheap","currency":"$","rating":6.9},{"name":"Lost on Main","phone":"5308922445","address":"319 Main St","lat":39.72947478141621,"lng":-121.83907896280289,"neighborhood":"Downtown Chico","city_fetched":"Chico","state":"CA","country":"United States","canonicalUrl":"https://foursquare.com/v/lost-on-main/4b7cd81bf964a52039a72fe3","category":"Bar","checkinsCount":429,"usersCount":216,"tipCount":4,"visitsCount":433,"url":"http://www.lostonmain.com","tier":"","message":"","currency":"","rating":6.8}]