[{"name":"MadTree Brewing","phone":"5138368733","twitter":"madtreebrewing","address":"5164 Kennedy Ave","lat":39.16663054117896,"lng":-84.41984906802354,"neighborhood":"Madisonville","city_fetched":"Cincinnati,US","state":"OH","country":"United States","canonicalUrl":"https://foursquare.com/v/madtree-brewing/506cd290e4b01df5d785fc1a","categoryId":"50327c8591d4c4b30a586d5d","category":"Brewery","checkinsCount":4263,"usersCount":2502,"tipCount":42,"visitsCount":6381,"url":"http://www.madtreebrewing.com","tier":2,"message":"Moderate","currency":"$","rating":9.4},{"name":"Rhinegeist Brewery","phone":"8608575019","twitter":"rhinegeist","address":"1910 Elm St","lat":39.11712824216424,"lng":-84.52016316380126,"neighborhood":"Over-The Rhine","city_fetched":"Cincinnati,US","state":"OH","country":"United States","canonicalUrl":"https://foursquare.com/v/rhinegeist-brewery/51c4888e498ea0454b65c7cd","categoryId":"50327c8591d4c4b30a586d5d","category":"Brewery","checkinsCount":5502,"usersCount":3914,"tipCount":48,"visitsCount":8019,"url":"http://rhinegeist.com","tier":1,"message":"Cheap","currency":"$","rating":9.2},{"name":"The Famous Neon's Unplugged","phone":"5138279361","twitter":"neonsunplugged","address":"208 E 12th St","lat":39.10939238460633,"lng":-84.5110684633255,"neighborhood":"Over-The Rhine","city_fetched":"Cincinnati,US","state":"OH","country":"United States","canonicalUrl":"https://foursquare.com/v/the-famous-neons-unplugged/4b55ee5ef964a52030f727e3","categoryId":"4bf58dd8d48988d116941735","category":"Bar","checkinsCount":17430,"usersCount":4517,"tipCount":61,"visitsCount":19068,"url":"http://www.neons-unplugged.com","tier":2,"message":"Moderate","currency":"$","rating":9.2},{"name":"Taft's Ale House","twitter":"taftsalehouse","address":"1429 Race St","lat":39.111331122550496,"lng":-84.51752619886962,"neighborhood":"Over-The Rhine","city_fetched":"Cincinnati,US","state":"OH","country":"United States","canonicalUrl":"https://foursquare.com/v/tafts-ale-house/54e8dc93498e2565b4a9f267","categoryId":"50327c8591d4c4b30a586d5d","category":"Brewery","checkinsCount":2195,"usersCount":2236,"tipCount":28,"visitsCount":3909,"url":"http://taftsalehouse.com","tier":2,"message":"Moderate","currency":"$","rating":9.2},{"name":"Fifty West Brewing Company","phone":"5138348789","twitter":"fiftywestbrew","address":"7668 Wooster Pike","lat":39.139453,"lng":-84.353713,"city_fetched":"Cincinnati,US","state":"OH","country":"United States","canonicalUrl":"https://foursquare.com/v/fifty-west-brewing-company/50b957c0e4b0040a84427617","categoryId":"50327c8591d4c4b30a586d5d","category":"Brewery","checkinsCount":2417,"usersCount":1477,"tipCount":33,"visitsCount":2960,"url":"http://www.fiftywestbrew.com","tier":2,"message":"Moderate","currency":"$","rating":9.2},{"name":"The Eagle OTR","address":"1342 Vine St","lat":39.11066,"lng":-84.515429,"neighborhood":"Over-The Rhine","city_fetched":"Cincinnati,US","state":"OH","country":"United States","canonicalUrl":"https://foursquare.com/v/the-eagle-otr/52aa527c11d2051f17177369","categoryId":"4bf58dd8d48988d116941735","category":"Bar","checkinsCount":3516,"usersCount":1932,"tipCount":59,"visitsCount":3807,"url":"http://theeagleotr.com/index.html","tier":2,"message":"Moderate","currency":"$","rating":9.2},{"name":"Zip's Cafe","phone":"5138719876","twitter":"zipscafe","address":"1036 Delta Ave","lat":39.12974103333333,"lng":-84.42949086,"neighborhood":"Mount Lookout","city_fetched":"Cincinnati,US","state":"OH","country":"United States","canonicalUrl":"https://foursquare.com/v/zips-cafe/4b4266f8f964a52030d325e3","categoryId":"4bf58dd8d48988d11b941735","category":"Pub","checkinsCount":4551,"usersCount":2211,"tipCount":56,"visitsCount":4659,"url":"http://www.zipscafe.com","tier":1,"message":"Cheap","currency":"$","rating":9.1},{"name":"Dutch's","phone":"5138711446","twitter":"dutchs","address":"3378 Erie Ave","lat":39.14146476966207,"lng":-84.4216954768158,"neighborhood":"Hyde Park","city_fetched":"Cincinnati,US","state":"OH","country":"United States","canonicalUrl":"https://foursquare.com/v/dutchs/4c54d2c4a724e21ec025fcf6","categoryId":"4bf58dd8d48988d123941735","category":"Wine Bar","checkinsCount":2889,"usersCount":1204,"tipCount":29,"visitsCount":3192,"url":"http://www.dutchswine.com","tier":2,"message":"Moderate","currency":"$","rating":9.1},{"name":"Arnold's Bar & Grill","phone":"5134216234","twitter":"arnoldsbar","address":"210 E 8th St","lat":39.105073676517996,"lng":-84.51016187667847,"neighborhood":"Central Business District","city_fetched":"Cincinnati,US","state":"OH","country":"United States","canonicalUrl":"https://foursquare.com/v/arnolds-bar--grill/4b3d1320f964a520588d25e3","categoryId":"4bf58dd8d48988d116941735","category":"Bar","checkinsCount":6411,"usersCount":3126,"tipCount":44,"visitsCount":7017,"url":"http://www.arnoldsbarandgrill.com","tier":2,"message":"Moderate","currency":"$","rating":9},{"name":"The Comet","phone":"5135418900","twitter":"cometfive","address":"4579 Hamilton Ave","lat":39.17274596666667,"lng":-84.543222,"neighborhood":"Northside","city_fetched":"Cincinnati,US","state":"OH","country":"United States","canonicalUrl":"https://foursquare.com/v/the-comet/4b43814ef964a520dde125e3","categoryId":"4bf58dd8d48988d116941735","category":"Bar","checkinsCount":3694,"usersCount":1412,"tipCount":43,"visitsCount":4111,"url":"http://cometbar.com","tier":1,"message":"Cheap","currency":"$","rating":9},{"name":"Mt. Carmel Brewing Company","phone":"5132402739","twitter":"mtcarmelbrewing","address":"4362 Mount Carmel Tobasco Rd","lat":39.093585665803566,"lng":-84.30015027523041,"city_fetched":"Cincinnati,US","state":"OH","country":"United States","canonicalUrl":"https://foursquare.com/v/mt-carmel-brewing-company/4c4b394b9e6dbe9a5ecbc00b","categoryId":"50327c8591d4c4b30a586d5d","category":"Brewery","checkinsCount":699,"usersCount":468,"tipCount":7,"visitsCount":921,"url":"http://mtcarmelbrewingcompany.com","tier":"","message":"","currency":"","rating":8.8},{"name":"Oakley Pub & Grill","phone":"5135312500","address":"3924 Isabella Ave","lat":39.15143079518041,"lng":-84.43209582805346,"neighborhood":"Oakley","city_fetched":"Cincinnati,US","state":"OH","country":"United States","canonicalUrl":"https://foursquare.com/v/oakley-pub--grill/4b43c098f964a5208be825e3","categoryId":"4bf58dd8d48988d116941735","category":"Bar","checkinsCount":4697,"usersCount":1535,"tipCount":36,"visitsCount":4952,"url":"http://oakleypubandgrill.com","tier":2,"message":"Moderate","currency":"$","rating":8.7},{"name":"MOTR Pub","phone":"5133816687","twitter":"motrpub","address":"1345 Main St","lat":39.110965785496,"lng":-84.51220035552979,"neighborhood":"Over-The Rhine","city_fetched":"Cincinnati,US","state":"OH","country":"United States","canonicalUrl":"https://foursquare.com/v/motr-pub/4c6c144a6af58cfa33c08517","categoryId":"4bf58dd8d48988d116941735","category":"Bar","checkinsCount":7835,"usersCount":2636,"tipCount":52,"visitsCount":8741,"url":"http://www.motrpub.com","tier":1,"message":"Cheap","currency":"$","rating":8.7},{"name":"Bohemian Hookah Cafe","phone":"5132210291","address":"340 Ludlow Ave","lat":39.14380497567139,"lng":-84.52107455304836,"neighborhood":"Clifton","city_fetched":"Cincinnati,US","state":"OH","country":"United States","canonicalUrl":"https://foursquare.com/v/bohemian-hookah-cafe/4f5422a7e4b0ee60bad4d8df","categoryId":"4bf58dd8d48988d119941735","category":"Hookah Bar","checkinsCount":783,"usersCount":234,"tipCount":15,"visitsCount":832,"url":"http://bohemianhookahcafe.com","tier":1,"message":"Cheap","currency":"$","rating":8.6},{"name":"Silver Spring House","phone":"5134897044","twitter":"thechickenjoint","address":"8322 E Kemper Rd","lat":39.27603993835496,"lng":-84.33495945076604,"city_fetched":"Cincinnati,US","state":"OH","country":"United States","canonicalUrl":"https://foursquare.com/thechickenjoint","categoryId":"4bf58dd8d48988d11b941735","category":"Pub","checkinsCount":4556,"usersCount":2294,"tipCount":30,"visitsCount":6082,"url":"http://thesilverspringhouse.com","tier":2,"message":"Moderate","currency":"$","rating":8.6},{"name":"Listermann Brewing Co.","phone":"5137311130","address":"1621 Dana Ave","lat":39.1462373694236,"lng":-84.47233200073242,"neighborhood":"Evanston","city_fetched":"Cincinnati,US","state":"OH","country":"United States","canonicalUrl":"https://foursquare.com/v/listermann-brewing-co/4b6b50caf964a52056002ce3","categoryId":"50327c8591d4c4b30a586d5d","category":"Brewery","checkinsCount":2000,"usersCount":1185,"tipCount":18,"visitsCount":3138,"url":"http://www.listermann.com","tier":"","message":"","currency":"","rating":8.5},{"name":"Japp's Since 1879","phone":"5133811524","twitter":"japps1879","address":"1134 Main St","lat":39.108847134887036,"lng":-84.51167836737619,"neighborhood":"Over-The Rhine","city_fetched":"Cincinnati,US","state":"OH","country":"United States","canonicalUrl":"https://foursquare.com/v/japps-since-1879/4ce30b2b7e9b721e823334f1","categoryId":"4bf58dd8d48988d11e941735","category":"Cocktail Bar","checkinsCount":6987,"usersCount":2753,"tipCount":34,"visitsCount":7430,"url":"http://japps1879.com","tier":2,"message":"Moderate","currency":"$","rating":8.5},{"name":"Unwind Wine Bar","phone":"5133219463","address":"3435 Michigan Ave","lat":39.13868092636798,"lng":-84.44209955438366,"neighborhood":"Hyde Park","city_fetched":"Cincinnati,US","state":"OH","country":"United States","canonicalUrl":"https://foursquare.com/v/unwind-wine-bar/5099918be4b084fe1d6b05b1","categoryId":"4bf58dd8d48988d123941735","category":"Wine Bar","checkinsCount":1315,"usersCount":717,"tipCount":11,"visitsCount":1633,"url":"http://www.unwindhydepark.com","tier":"","message":"","currency":"","rating":8.5},{"name":"The Littlefield","lat":39.15762184453059,"lng":-84.53992891714364,"neighborhood":"Northside","city_fetched":"Cincinnati,US","state":"OH","country":"United States","canonicalUrl":"https://foursquare.com/v/the-littlefield/53b74740498e8cb5722a80a2","categoryId":"4bf58dd8d48988d122941735","category":"Whisky Bar","checkinsCount":357,"usersCount":198,"tipCount":11,"visitsCount":417,"tier":"","message":"","currency":"","rating":8.4},{"name":"Anderson Pub & Grill","address":"8060 Beechmont Ave","lat":39.07343313919502,"lng":-84.33189294759802,"city_fetched":"Cincinnati,US","state":"OH","country":"United States","canonicalUrl":"https://foursquare.com/v/anderson-pub--grill/54139b11498e36563a10ea83","categoryId":"4bf58dd8d48988d116941735","category":"Bar","checkinsCount":218,"usersCount":220,"tipCount":1,"visitsCount":452,"tier":"","message":"","currency":"","rating":8.4},{"name":"The Brass Tap","phone":"5132422337","address":"251 Calhoun St.","lat":39.128439888034144,"lng":-84.51726505604124,"neighborhood":"CUF","city_fetched":"Cincinnati,US","state":"OH","country":"United States","canonicalUrl":"https://foursquare.com/v/the-brass-tap/52470ce911d2a19e0db8895b","categoryId":"4bf58dd8d48988d116941735","category":"Bar","checkinsCount":1162,"usersCount":538,"tipCount":20,"visitsCount":1310,"url":"http://brasstapbeerbar.com","tier":1,"message":"Cheap","currency":"$","rating":8.4},{"name":"Marty's Hops and Vines","phone":"5136814222","address":"6110 Hamilton Ave","lat":39.2023541443067,"lng":-84.54744458198547,"neighborhood":"College Hill","city_fetched":"Cincinnati,US","state":"OH","country":"United States","canonicalUrl":"https://foursquare.com/v/martys-hops-and-vines/4b58abedf964a520e56428e3","categoryId":"4bf58dd8d48988d123941735","category":"Wine Bar","checkinsCount":1181,"usersCount":294,"tipCount":14,"visitsCount":1289,"url":"http://martys-hopsandvines.com","tier":"","message":"","currency":"","rating":8.4},{"name":"The Lackman","phone":"5133810741","address":"1237 Vine St","lat":39.109321622365236,"lng":-84.5151937007904,"neighborhood":"Over-The Rhine","city_fetched":"Cincinnati,US","state":"OH","country":"United States","canonicalUrl":"https://foursquare.com/v/the-lackman/4c93cb6572dd224bb0f59391","categoryId":"4bf58dd8d48988d116941735","category":"Bar","checkinsCount":8807,"usersCount":2525,"tipCount":36,"visitsCount":9294,"url":"http://lackmanbar.com","tier":2,"message":"Moderate","currency":"$","rating":8.3},{"name":"Sundry and Vice","phone":"5137218423","twitter":"sundryandvice","address":"18 W 13th St.","lat":39.10939019291686,"lng":-84.51573401865785,"neighborhood":"Over-The Rhine","city_fetched":"Cincinnati,US","state":"OH","country":"United States","canonicalUrl":"https://foursquare.com/v/sundry-and-vice/55156c74498ece57a4ab8508","categoryId":"4bf58dd8d48988d11e941735","category":"Cocktail Bar","checkinsCount":557,"usersCount":452,"tipCount":9,"visitsCount":793,"url":"http://www.sundryandvice.com","tier":"","message":"","currency":"","rating":8.3},{"name":"The Cabaret","twitter":"cabaretcincy","address":"1122 Walnut St","lat":39.10839342375618,"lng":-84.51304564498689,"neighborhood":"Over-The Rhine","city_fetched":"Cincinnati,US","state":"OH","country":"United States","canonicalUrl":"https://foursquare.com/v/the-cabaret/4d966ca4a2c6548177f1bf53","categoryId":"4bf58dd8d48988d1d8941735","category":"Gay Bar","checkinsCount":2898,"usersCount":463,"tipCount":8,"visitsCount":2948,"url":"http://www.cabaretcincinnati.com","tier":"","message":"","currency":"","rating":8.3},{"name":"Digg's Bar & Grill","phone":"5137700708","address":"854 Reading Rd","lat":39.34245944023018,"lng":-84.33332920074218,"city_fetched":"Cincinnati,US","state":"OH","country":"United States","canonicalUrl":"https://foursquare.com/v/diggs-bar--grill/4e74dd161495be5170dc2f78","categoryId":"4bf58dd8d48988d11d941735","category":"Sports Bar","checkinsCount":945,"usersCount":340,"tipCount":7,"visitsCount":1138,"url":"http://www.diggsbarandgrill.com","tier":"","message":"","currency":"","rating":8.3},{"name":"City View Tavern","phone":"5132418439","twitter":"cityviewtavern","address":"403 Oregon St","lat":39.10600929077074,"lng":-84.50108728093915,"neighborhood":"Mount Adams","city_fetched":"Cincinnati,US","state":"OH","country":"United States","canonicalUrl":"https://foursquare.com/v/city-view-tavern/4b436000f964a5201adf25e3","categoryId":"4bf58dd8d48988d116941735","category":"Bar","checkinsCount":1177,"usersCount":859,"tipCount":20,"visitsCount":1394,"url":"http://cityviewtavern.com","tier":"","message":"","currency":"","rating":8.2},{"name":"Northside Tavern","phone":"5135423603","address":"4163 Hamilton Ave","lat":39.162418111719525,"lng":-84.5398419031593,"neighborhood":"Northside","city_fetched":"Cincinnati,US","state":"OH","country":"United States","canonicalUrl":"https://foursquare.com/v/northside-tavern/4b0220f4f964a520eb4722e3","categoryId":"4bf58dd8d48988d116941735","category":"Bar","checkinsCount":8210,"usersCount":1891,"tipCount":38,"visitsCount":8515,"url":"http://northsidetav.com/cincy/","tier":2,"message":"Moderate","currency":"$","rating":8.2},{"name":"Moerlein Tap Room","address":"1621 Moore St","lat":39.11376684529588,"lng":-84.51497104521064,"neighborhood":"Over-The Rhine","city_fetched":"Cincinnati,US","state":"OH","country":"United States","canonicalUrl":"https://foursquare.com/v/moerlein-tap-room/51a0f7c5498e1831035afb60","categoryId":"50327c8591d4c4b30a586d5d","category":"Brewery","checkinsCount":1232,"usersCount":882,"tipCount":8,"visitsCount":1698,"tier":1,"message":"Cheap","currency":"$","rating":8.2},{"name":"FOX Sports Ohio Champions Club","phone":"5137657210","twitter":"reds","address":"Great American Ball Park","lat":39.09734513029353,"lng":-84.50749039649963,"neighborhood":"Central Business District","city_fetched":"Cincinnati,US","state":"OH","country":"United States","canonicalUrl":"https://foursquare.com/v/fox-sports-ohio-champions-club/4bd47d86cfa7b713472724da","categoryId":"4bf58dd8d48988d121941735","category":"Lounge","checkinsCount":487,"usersCount":294,"tipCount":6,"visitsCount":488,"url":"http://cincinnati.reds.mlb.com/cin/ticketing/premium_seating.jsp?loc=champions","tier":"","message":"","currency":"","rating":8.2},{"name":"Myrtle's Punch House","phone":"5138348589","address":"2733 Woodburn Ave","lat":39.12882774968963,"lng":-84.47727080251286,"neighborhood":"East Walnut HIlls","city_fetched":"Cincinnati,US","state":"OH","country":"United States","canonicalUrl":"https://foursquare.com/v/myrtles-punch-house/5473d783498ec0bbca9021d6","categoryId":"4bf58dd8d48988d11e941735","category":"Cocktail Bar","checkinsCount":2674,"usersCount":408,"tipCount":7,"visitsCount":2940,"tier":"","message":"","currency":"","rating":8.2},{"name":"Liberty's Bar & Bottle","address":"1427 Main St","lat":39.11220799097194,"lng":-84.5124721092202,"neighborhood":"Over-The Rhine","city_fetched":"Cincinnati,US","state":"OH","country":"United States","canonicalUrl":"https://foursquare.com/v/libertys-bar--bottle/541cf4a6498e78ca0871851c","categoryId":"4bf58dd8d48988d116941735","category":"Bar","checkinsCount":760,"usersCount":507,"tipCount":9,"visitsCount":1363,"tier":"","message":"","currency":"","rating":8.2},{"name":"rhinehaus","phone":"5133812277","twitter":"rhinehausotr","address":"119 E 12th St","lat":39.108624496056294,"lng":-84.51243114216376,"neighborhood":"Over-The Rhine","city_fetched":"Cincinnati,US","state":"OH","country":"United States","canonicalUrl":"https://foursquare.com/v/rhinehaus/507ad9a5e4b04c2b97f7a51b","categoryId":"4bf58dd8d48988d11d941735","category":"Sports Bar","checkinsCount":3918,"usersCount":1119,"tipCount":19,"visitsCount":4420,"url":"http://rhinehausbar.com","tier":2,"message":"Moderate","currency":"$","rating":8.2},{"name":"Below Zero Lounge","phone":"5134219376","twitter":"belowzerolounge","address":"1120 Walnut St","lat":39.10843500708773,"lng":-84.51309889554977,"neighborhood":"Over-The Rhine","city_fetched":"Cincinnati,US","state":"OH","country":"United States","canonicalUrl":"https://foursquare.com/v/below-zero-lounge/4b525090f964a520b57627e3","categoryId":"4bf58dd8d48988d11e941735","category":"Cocktail Bar","checkinsCount":7873,"usersCount":1658,"tipCount":24,"visitsCount":8248,"url":"http://belowzerolounge.com","tier":2,"message":"Moderate","currency":"$","rating":8.2},{"name":"The Blind Lemon","phone":"5132413885","twitter":"ssw0530","address":"936 Hatch St","lat":39.10951725897609,"lng":-84.49767351150513,"neighborhood":"Mount Adams","city_fetched":"Cincinnati,US","state":"OH","country":"United States","canonicalUrl":"https://foursquare.com/v/the-blind-lemon/4b43f73df964a5203cef25e3","categoryId":"4bf58dd8d48988d116941735","category":"Bar","checkinsCount":1332,"usersCount":1014,"tipCount":24,"visitsCount":1372,"url":"http://www.theblindlemon.com","tier":"","message":"","currency":"","rating":8.1},{"name":"Biergarten At Findlay Market","address":"129 W Elder St","lat":39.115158,"lng":-84.51968467,"neighborhood":"Over-The Rhine","city_fetched":"Cincinnati,US","state":"OH","country":"United States","canonicalUrl":"https://foursquare.com/v/biergarten-at-findlay-market/4bf029733a002d7f60bf85a4","categoryId":"4bf58dd8d48988d117941735","category":"Beer Garden","checkinsCount":277,"usersCount":147,"tipCount":2,"visitsCount":281,"tier":"","message":"","currency":"","rating":8.1},{"name":"The Overlook Lodge","lat":39.18202477523019,"lng":-84.4280548848702,"neighborhood":"Pleasant Ridge","city_fetched":"Cincinnati,US","state":"OH","country":"United States","canonicalUrl":"https://foursquare.com/v/the-overlook-lodge/56357012498eae1202f31cf3","categoryId":"4bf58dd8d48988d11e941735","category":"Cocktail Bar","checkinsCount":551,"usersCount":175,"tipCount":1,"visitsCount":709,"tier":"","message":"","currency":"","rating":8.1},{"name":"C&D Cafe","phone":"5135419881","address":"1714 Hanfield St","lat":39.162635384043114,"lng":-84.54486429691315,"neighborhood":"Northside","city_fetched":"Cincinnati,US","state":"OH","country":"United States","canonicalUrl":"https://foursquare.com/v/cd-cafe/4b7cea70f964a52024a92fe3","categoryId":"4bf58dd8d48988d118941735","category":"Dive Bar","checkinsCount":866,"usersCount":221,"tipCount":5,"visitsCount":1017,"tier":"","message":"","currency":"","rating":8.1},{"name":"Fries Cafe","phone":"5132819002","twitter":"friescafe","address":"3247 Jefferson Ave","lat":39.13976876851913,"lng":-84.51271791095415,"neighborhood":"Clifton","city_fetched":"Cincinnati,US","state":"OH","country":"United States","canonicalUrl":"https://foursquare.com/v/fries-cafe/4b75de56f964a520bf2a2ee3","categoryId":"4bf58dd8d48988d116941735","category":"Bar","checkinsCount":1960,"usersCount":822,"tipCount":19,"visitsCount":2235,"url":"http://friescafe.com","tier":"","message":"","currency":"","rating":8.1},{"name":"Butterbee's American Grille","phone":"5135285800","address":"4022 Mount Carmel Tobasco Rd","lat":39.07035414236805,"lng":-84.30180251598358,"city_fetched":"Cincinnati,US","state":"OH","country":"United States","canonicalUrl":"https://foursquare.com/v/butterbees-american-grille/4b7440e8f964a5202bd02de3","categoryId":"4bf58dd8d48988d11d941735","category":"Sports Bar","checkinsCount":2823,"usersCount":1310,"tipCount":34,"visitsCount":3499,"url":"http://butterbeesgrille.com","tier":2,"message":"Moderate","currency":"$","rating":8},{"name":"Market Wines","phone":"5137449888","twitter":"marketwines","address":"128 W Elder St","lat":39.11531951068754,"lng":-84.51960325241089,"neighborhood":"Over-The Rhine","city_fetched":"Cincinnati,US","state":"OH","country":"United States","canonicalUrl":"https://foursquare.com/v/market-wines/4bb77b73b35776b046a2c701","categoryId":"4bf58dd8d48988d123941735","category":"Wine Bar","checkinsCount":1202,"usersCount":499,"tipCount":17,"visitsCount":1245,"url":"http://market-wines.com","tier":"","message":"","currency":"","rating":8},{"name":"Nine Giant Brewing","address":"6095 Montgomery Rd","lat":39.18209851072208,"lng":-84.42742923173336,"neighborhood":"Pleasant Ridge","city_fetched":"Cincinnati,US","state":"OH","country":"United States","canonicalUrl":"https://foursquare.com/v/nine-giant-brewing/55637bd0498e52484d271cbc","categoryId":"50327c8591d4c4b30a586d5d","category":"Brewery","checkinsCount":141,"usersCount":129,"tipCount":3,"visitsCount":174,"url":"http://ninegiant.com","tier":"","message":"","currency":"","rating":8},{"name":"Holy Grail Tavern and Grille","phone":"5136212222","twitter":"holygrailbanks","address":"161 Joe Nuxhall Way","lat":39.097632390101175,"lng":-84.5089441537857,"neighborhood":"Central Business District","city_fetched":"Cincinnati,US","state":"OH","country":"United States","canonicalUrl":"https://foursquare.com/v/holy-grail-tavern-and-grille/4d8201a07252a1cdf3bba45d","categoryId":"4bf58dd8d48988d116941735","category":"Bar","checkinsCount":12453,"usersCount":5661,"tipCount":60,"visitsCount":13171,"url":"http://holygrailcincy.com","tier":2,"message":"Moderate","currency":"$","rating":8},{"name":"Bockfest Hall","address":"1621 Moore St","lat":39.11350740997591,"lng":-84.51509906158716,"neighborhood":"Over-The Rhine","city_fetched":"Cincinnati,US","state":"OH","country":"United States","canonicalUrl":"https://foursquare.com/v/bockfest-hall/4b919a94f964a5202cc933e3","categoryId":"4bf58dd8d48988d117941735","category":"Beer Garden","checkinsCount":879,"usersCount":598,"tipCount":4,"visitsCount":930,"url":"http://bockfest.com","tier":"","message":"","currency":"","rating":8},{"name":"Knockback Nat's","phone":"5136211000","address":"10 W 7th St","lat":39.1037626672955,"lng":-84.51385985124794,"neighborhood":"Central Business District","city_fetched":"Cincinnati,US","state":"OH","country":"United States","canonicalUrl":"https://foursquare.com/v/knockback-nats/4b47f539f964a5201b4526e3","categoryId":"4bf58dd8d48988d116941735","category":"Bar","checkinsCount":3589,"usersCount":1409,"tipCount":30,"visitsCount":3667,"tier":1,"message":"Cheap","currency":"$","rating":8},{"name":"Party in the Park","phone":"5135793111","address":"Yeatman's Cove","lat":39.09902704064884,"lng":-84.50132131576537,"neighborhood":"Central Business District","city_fetched":"Cincinnati,US","state":"OH","country":"United States","canonicalUrl":"https://foursquare.com/v/party-in-the-park/4fb2c7111081cf3ad7799788","categoryId":"4bf58dd8d48988d11a941735","category":"Other Nightlife","checkinsCount":620,"usersCount":392,"tipCount":9,"visitsCount":646,"url":"http://m.party-in-the-park.com","tier":"","message":"","currency":"","rating":8},{"name":"Urban Artifact","address":"1660 Blue Rock St","lat":39.160605598621494,"lng":-84.54198360443115,"neighborhood":"Northside","city_fetched":"Cincinnati,US","state":"OH","country":"United States","canonicalUrl":"https://foursquare.com/v/urban-artifact/51fd186b498ecee282bedc11","categoryId":"50327c8591d4c4b30a586d5d","category":"Brewery","checkinsCount":456,"usersCount":474,"tipCount":4,"visitsCount":793,"url":"http://www.artifactbeer.com","tier":"","message":"","currency":"","rating":7.9},{"name":"Halfcut","twitter":"halfcutotr","address":"1128 Walnut St","lat":39.10839509615906,"lng":-84.51295346997644,"neighborhood":"Over-The Rhine","city_fetched":"Cincinnati,US","state":"OH","country":"United States","canonicalUrl":"https://foursquare.com/v/halfcut/534f32a311d253671ecb1c6f","categoryId":"4bf58dd8d48988d116941735","category":"Bar","checkinsCount":965,"usersCount":452,"tipCount":7,"visitsCount":1024,"url":"http://www.halfcut.com","tier":2,"message":"Moderate","currency":"$","rating":7.9},{"name":"Blind Pig","phone":"5133813114","address":"24 W 3rd St","lat":39.098633706984245,"lng":-84.51344506834761,"neighborhood":"Central Business District","city_fetched":"Cincinnati,US","state":"OH","country":"United States","canonicalUrl":"https://foursquare.com/v/blind-pig/548a5869498e93e9c0a15870","categoryId":"4bf58dd8d48988d1d4941735","category":"Speakeasy","checkinsCount":393,"usersCount":229,"tipCount":3,"visitsCount":439,"url":"http://omalleysinthealley.com","tier":"","message":"","currency":"","rating":7.9},{"name":"The Growler House","twitter":"thegrowlerhouse","address":"Madison Road","lat":39.129794483504575,"lng":-84.47787542778822,"neighborhood":"East Walnut HIlls","city_fetched":"Cincinnati,US","state":"OH","country":"United States","canonicalUrl":"https://foursquare.com/v/the-growler-house/545d54ab498ea427d9af9d2d","categoryId":"4bf58dd8d48988d116941735","category":"Bar","checkinsCount":873,"usersCount":246,"tipCount":8,"visitsCount":1094,"tier":"","message":"","currency":"","rating":7.9},{"name":"Latitudes Cafe","phone":"5138279146","address":"7426 Beechmont Ave","lat":39.07494775327204,"lng":-84.35020565986632,"city_fetched":"Cincinnati,US","state":"OH","country":"United States","canonicalUrl":"https://foursquare.com/v/latitudes-cafe/4b5b99b2f964a520100a29e3","categoryId":"4bf58dd8d48988d116941735","category":"Bar","checkinsCount":1651,"usersCount":581,"tipCount":14,"visitsCount":1864,"url":"http://latitudescafe.com","tier":2,"message":"Moderate","currency":"$","rating":7.9},{"name":"Wiseguy Lounge","address":"1211 Main St","lat":39.10923938638024,"lng":-84.5116630045242,"neighborhood":"Over-The Rhine","city_fetched":"Cincinnati,US","state":"OH","country":"United States","canonicalUrl":"https://foursquare.com/v/wiseguy-lounge/54a2377c498e1c9f0ef7cc1d","categoryId":"4bf58dd8d48988d1d4941735","category":"Speakeasy","checkinsCount":323,"usersCount":138,"tipCount":1,"visitsCount":331,"tier":"","message":"","currency":"","rating":7.9},{"name":"Mac's Pizza Pub","phone":"5132416227","twitter":"macspizzapub","address":"205 W McMillan St","lat":39.12766,"lng":-84.519721,"neighborhood":"The Heights","city_fetched":"Cincinnati,US","state":"OH","country":"United States","canonicalUrl":"https://foursquare.com/v/macs-pizza-pub/4b43637ff964a52060df25e3","categoryId":"4bf58dd8d48988d116941735","category":"Bar","checkinsCount":4679,"usersCount":1395,"tipCount":30,"visitsCount":4767,"url":"http://www.macsonmcmillan.com","tier":2,"message":"Moderate","currency":"$","rating":7.9},{"name":"Murray's Wings","phone":"5133899555","address":"2169 Queen City Ave","lat":39.12758563036583,"lng":-84.57306665068923,"neighborhood":"West Price Hill","city_fetched":"Cincinnati,US","state":"OH","country":"United States","canonicalUrl":"https://foursquare.com/v/murrays-wings/4bcc64d0cc8cd13ab2cbc0cf","categoryId":"4bf58dd8d48988d11d941735","category":"Sports Bar","checkinsCount":428,"usersCount":144,"tipCount":5,"visitsCount":540,"url":"http://murrayswings.com","tier":"","message":"","currency":"","rating":7.9},{"name":"Logo's Sports Bar & Grill","phone":"5137917700","address":"8954 Blue Ash Rd","lat":39.22093769,"lng":-84.38419356666667,"city_fetched":"Cincinnati,US","state":"OH","country":"United States","canonicalUrl":"https://foursquare.com/v/logos-sports-bar--grill/4b437f97f964a520c2e125e3","categoryId":"4bf58dd8d48988d120941735","category":"Karaoke Bar","checkinsCount":1264,"usersCount":464,"tipCount":14,"visitsCount":1552,"tier":"","message":"","currency":"","rating":7.8},{"name":"The Pub Rookwood","phone":"5138412748","twitter":"pubrookwood","address":"2692 Madison Rd Ste G1","lat":39.14776834528993,"lng":-84.44467306137085,"city_fetched":"Cincinnati,US","state":"OH","country":"United States","canonicalUrl":"https://foursquare.com/v/the-pub-rookwood/4b43ae52f964a5202fe625e3","categoryId":"4bf58dd8d48988d11b941735","category":"Pub","checkinsCount":5114,"usersCount":2273,"tipCount":42,"visitsCount":5457,"url":"http://www.experiencethepub.com/rookwood","tier":2,"message":"Moderate","currency":"$","rating":7.8},{"name":"21c Rooftop Bar","lat":39.1033387604335,"lng":-84.51214437196248,"neighborhood":"Central Business District","city_fetched":"Cincinnati,US","state":"OH","country":"United States","canonicalUrl":"https://foursquare.com/v/21c-rooftop-bar/5192c468498e36e1e0b8a5c4","categoryId":"4bf58dd8d48988d116941735","category":"Bar","checkinsCount":703,"usersCount":547,"tipCount":14,"visitsCount":703,"tier":"","message":"","currency":"","rating":7.8},{"name":"Listing Loon","lat":39.16110009249583,"lng":-84.53931981651937,"neighborhood":"Northside","city_fetched":"Cincinnati,US","state":"OH","country":"United States","canonicalUrl":"https://foursquare.com/v/listing-loon/51e5e417498efc97bd300341","categoryId":"4bf58dd8d48988d116941735","category":"Bar","checkinsCount":162,"usersCount":114,"tipCount":2,"visitsCount":195,"tier":"","message":"","currency":"","rating":7.8},{"name":"Blank Slate Brewing Company","twitter":"blankslatebeer","address":"4233 Airport Rd Unit C","lat":39.10585106350246,"lng":-84.4308489561081,"neighborhood":"East End","city_fetched":"Cincinnati,US","state":"OH","country":"United States","canonicalUrl":"https://foursquare.com/v/blank-slate-brewing-company/4e331b02a809117a2286c6cb","categoryId":"50327c8591d4c4b30a586d5d","category":"Brewery","checkinsCount":409,"usersCount":258,"tipCount":3,"visitsCount":569,"tier":"","message":"","currency":"","rating":7.8},{"name":"Rock Bottom Restaurant & Brewery","phone":"5136211588","twitter":"cincyrockbottom","address":"10 Fountain Square Plz","lat":39.10149154968845,"lng":-84.51247930526733,"neighborhood":"Central Business District","city_fetched":"Cincinnati,US","state":"OH","country":"United States","canonicalUrl":"https://foursquare.com/v/rock-bottom-restaurant--brewery/4b3fe95ff964a520e5b125e3","categoryId":"50327c8591d4c4b30a586d5d","category":"Brewery","checkinsCount":11633,"usersCount":6507,"tipCount":99,"visitsCount":11732,"url":"http://www.rockbottom.com","tier":2,"message":"Moderate","currency":"$","rating":7.8},{"name":"Deer Park Inn","phone":"5137913178","address":"7228 Blue Ash Rd","lat":39.19975214,"lng":-84.397698,"city_fetched":"Cincinnati,US","state":"OH","country":"United States","canonicalUrl":"https://foursquare.com/v/deer-park-inn/4bee35132c082d7fe0363042","categoryId":"4bf58dd8d48988d118941735","category":"Dive Bar","checkinsCount":321,"usersCount":89,"tipCount":5,"visitsCount":366,"tier":"","message":"","currency":"","rating":7.8},{"name":"The Wine Merchant","phone":"5137311515","twitter":"winemerchant1","address":"3972 Edwards Rd","lat":39.152058346809454,"lng":-84.44199701330983,"city_fetched":"Cincinnati,US","state":"OH","country":"United States","canonicalUrl":"https://foursquare.com/v/the-wine-merchant/4b784cedf964a52072c32ee3","categoryId":"4bf58dd8d48988d123941735","category":"Wine Bar","checkinsCount":320,"usersCount":126,"tipCount":2,"visitsCount":321,"tier":"","message":"","currency":"","rating":7.7},{"name":"On Broadway","phone":"5134212555","address":"817 Broadway St","lat":39.10620981480909,"lng":-84.5076685256298,"neighborhood":"Central Business District","city_fetched":"Cincinnati,US","state":"OH","country":"United States","canonicalUrl":"https://foursquare.com/v/on-broadway/4b99cf3cf964a520d59235e3","categoryId":"4bf58dd8d48988d1d8941735","category":"Gay Bar","checkinsCount":3226,"usersCount":466,"tipCount":19,"visitsCount":3503,"tier":1,"message":"Cheap","currency":"$","rating":7.7},{"name":"Catskeller","phone":"5135569358","address":"IN PO Box","lat":39.13173935,"lng":-84.51708333333333,"neighborhood":"CUF","city_fetched":"Cincinnati,US","state":"OH","country":"United States","canonicalUrl":"https://foursquare.com/v/catskeller/4b4a3a80f964a520bb7f26e3","categoryId":"4bf58dd8d48988d116941735","category":"Bar","checkinsCount":1148,"usersCount":408,"tipCount":14,"visitsCount":1157,"url":"http://uc.edu/mainstreet/tuc/catskeller.html","tier":"","message":"","currency":"","rating":7.7},{"name":"Goodfellas","lat":39.07489059741308,"lng":-84.3497966134365,"city_fetched":"Cincinnati,US","state":"OH","country":"United States","canonicalUrl":"https://foursquare.com/v/goodfellas/4fa4a3aee4b047f0ebaa9dee","categoryId":"4bf58dd8d48988d11d941735","category":"Sports Bar","checkinsCount":443,"usersCount":200,"tipCount":7,"visitsCount":513,"tier":"","message":"","currency":"","rating":7.7},{"name":"Slatts","phone":"5137912223","address":"4858 Cooper Rd","lat":39.230923459691766,"lng":-84.37577247619629,"city_fetched":"Cincinnati,US","state":"OH","country":"United States","canonicalUrl":"https://foursquare.com/v/slatts/4b48e735f964a5209a5c26e3","categoryId":"4bf58dd8d48988d11d941735","category":"Sports Bar","checkinsCount":1696,"usersCount":697,"tipCount":21,"visitsCount":1807,"url":"http://www.slattspub.com","tier":"","message":"","currency":"","rating":7.7},{"name":"Awakenings Coffee & Tea Co.","phone":"5133212525","address":"2734 Erie Ave","lat":39.13971143986643,"lng":-84.44197650507354,"neighborhood":"Hyde Park","city_fetched":"Cincinnati,US","state":"OH","country":"United States","canonicalUrl":"https://foursquare.com/v/awakenings-coffee--tea-co/4b49f086f964a5205e7626e3","categoryId":"4bf58dd8d48988d123941735","category":"Wine Bar","checkinsCount":3000,"usersCount":846,"tipCount":14,"visitsCount":3151,"url":"http://www.awakeningscincinnati.com","tier":1,"message":"Cheap","currency":"$","rating":7.7},{"name":"Righteous Room","phone":"5133814408","address":"641 Walnut St","lat":39.103771012883364,"lng":-84.51196197929933,"neighborhood":"Central Business District","city_fetched":"Cincinnati,US","state":"OH","country":"United States","canonicalUrl":"https://foursquare.com/v/righteous-room/4b4528c7f964a5209b0626e3","categoryId":"4bf58dd8d48988d116941735","category":"Bar","checkinsCount":7206,"usersCount":2542,"tipCount":25,"visitsCount":7252,"url":"http://therighteousroom.com","tier":2,"message":"Moderate","currency":"$","rating":7.7},{"name":"The Bar at Palm Court","phone":"5134219100","address":"35 W 5th St","lat":39.10079048888888,"lng":-84.514573,"neighborhood":"Central Business District","city_fetched":"Cincinnati,US","state":"OH","country":"United States","canonicalUrl":"https://foursquare.com/v/the-bar-at-palm-court/4b87e5c1f964a520b7d131e3","categoryId":"4bf58dd8d48988d1d5941735","category":"Hotel Bar","checkinsCount":935,"usersCount":449,"tipCount":8,"visitsCount":943,"tier":"","message":"","currency":"","rating":7.6},{"name":"Northside Yacht Club","address":"4231 Spring Grove Ave","lat":39.159878,"lng":-84.532678,"neighborhood":"Northside","city_fetched":"Cincinnati,US","state":"OH","country":"United States","canonicalUrl":"https://foursquare.com/v/northside-yacht-club/55408ab6498ed666a6c0e667","categoryId":"4bf58dd8d48988d116941735","category":"Bar","checkinsCount":265,"usersCount":267,"tipCount":4,"visitsCount":527,"tier":"","message":"","currency":"","rating":7.6},{"name":"Ludlow Wines","address":"343 Ludlow Ave","lat":39.14372633646334,"lng":-84.52107455304836,"neighborhood":"Clifton","city_fetched":"Cincinnati,US","state":"OH","country":"United States","canonicalUrl":"https://foursquare.com/v/ludlow-wines/4fca8047e4b0605a490b81ee","categoryId":"4bf58dd8d48988d123941735","category":"Wine Bar","checkinsCount":152,"usersCount":71,"tipCount":2,"visitsCount":153,"tier":"","message":"","currency":"","rating":7.6},{"name":"Tostado's Grill","phone":"5138710212","address":"3500 Eastern Ave","lat":39.116656571969074,"lng":-84.439336009724,"neighborhood":"Columbia-Tusculum","city_fetched":"Cincinnati,US","state":"OH","country":"United States","canonicalUrl":"https://foursquare.com/v/tostados-grill/4b490f76f964a520236426e3","categoryId":"4bf58dd8d48988d120941735","category":"Karaoke Bar","checkinsCount":1989,"usersCount":890,"tipCount":15,"visitsCount":2049,"tier":1,"message":"Cheap","currency":"$","rating":7.6},{"name":"Pirate's Cove Bar & Grill","phone":"5138711820","twitter":"piratescovecin","address":"4609 Kellogg Ave","lat":39.08588973421995,"lng":-84.42924463308857,"neighborhood":"East End","city_fetched":"Cincinnati,US","state":"OH","country":"United States","canonicalUrl":"https://foursquare.com/v/pirates-cove-bar--grill/4da5f599a86e226c26c267b8","categoryId":"4bf58dd8d48988d116941735","category":"Bar","checkinsCount":962,"usersCount":637,"tipCount":10,"visitsCount":1078,"url":"http://piratescovetropicalbar.com","tier":"","message":"","currency":"","rating":7.6},{"name":"Milton's - The Prospect Hill Tavern","phone":"5137849938","address":"301 Milton St","lat":39.11355447852967,"lng":-84.51070537875762,"neighborhood":"Mount Auburn","city_fetched":"Cincinnati,US","state":"OH","country":"United States","canonicalUrl":"https://foursquare.com/v/miltons--the-prospect-hill-tavern/4b45d7b5f964a520141126e3","categoryId":"4bf58dd8d48988d116941735","category":"Bar","checkinsCount":2560,"usersCount":658,"tipCount":12,"visitsCount":2872,"tier":"","message":"","currency":"","rating":7.6},{"name":"The Crow's Nest","lat":39.1092456848355,"lng":-84.60040279779835,"neighborhood":"West Price Hill","city_fetched":"Cincinnati,US","state":"OH","country":"United States","canonicalUrl":"https://foursquare.com/v/the-crows-nest/4b9715adf964a52033f734e3","categoryId":"4bf58dd8d48988d11b941735","category":"Pub","checkinsCount":622,"usersCount":165,"tipCount":4,"visitsCount":654,"tier":"","message":"","currency":"","rating":7.6},{"name":"Murphy's Pub","phone":"5137216148","twitter":"murphyspubclift","address":"2329 W Clifton Ave","lat":39.124569,"lng":-84.520027,"neighborhood":"The Heights","city_fetched":"Cincinnati,US","state":"OH","country":"United States","canonicalUrl":"https://foursquare.com/v/murphys-pub/4b47e3bef964a520f24226e3","categoryId":"4bf58dd8d48988d116941735","category":"Bar","checkinsCount":5102,"usersCount":1100,"tipCount":22,"visitsCount":5557,"url":"http://www.murphys-pub.com","tier":1,"message":"Cheap","currency":"$","rating":7.6},{"name":"Dogberry Brewing","address":"7865 Cincinnati Dayton Road","lat":39.35593798226079,"lng":-84.39550695068303,"city_fetched":"Cincinnati,US","state":"OH","country":"United States","canonicalUrl":"https://foursquare.com/v/dogberry-brewing/54aefd1d498eb5e74ac8482e","categoryId":"50327c8591d4c4b30a586d5d","category":"Brewery","checkinsCount":191,"usersCount":130,"tipCount":2,"visitsCount":254,"tier":"","message":"","currency":"","rating":7.6},{"name":"The Sandbar","phone":"5135333810","address":"4609 Kellogg Ave","lat":39.08545029501522,"lng":-84.42714204445346,"city_fetched":"Cincinnati,US","state":"OH","country":"United States","canonicalUrl":"https://foursquare.com/v/the-sandbar/4c9f878319e4236a29bb5989","categoryId":"4bf58dd8d48988d116941735","category":"Bar","checkinsCount":2531,"usersCount":882,"tipCount":10,"visitsCount":2981,"tier":2,"message":"Moderate","currency":"$","rating":7.5},{"name":"Pearl's","phone":"5138320485","twitter":"pearlscincy","address":"3520 Eastern Ave","lat":39.116065559337045,"lng":-84.43884891506545,"neighborhood":"Columbia-Tusculum","city_fetched":"Cincinnati,US","state":"OH","country":"United States","canonicalUrl":"https://foursquare.com/v/pearls/551c30ec498edf9af2c49a07","categoryId":"4bf58dd8d48988d116941735","category":"Bar","checkinsCount":250,"usersCount":197,"tipCount":3,"visitsCount":325,"url":"http://www.pearlscincy.com","tier":"","message":"","currency":"","rating":7.5},{"name":"Top of the Park","address":"506 E 4th St","lat":39.10162008511363,"lng":-84.50443689438178,"neighborhood":"Central Business District","city_fetched":"Cincinnati,US","state":"OH","country":"United States","canonicalUrl":"https://foursquare.com/v/top-of-the-park/5244c309498efbc894b20926","categoryId":"4bf58dd8d48988d1d5941735","category":"Hotel Bar","checkinsCount":201,"usersCount":145,"tipCount":2,"visitsCount":202,"tier":"","message":"","currency":"","rating":7.5},{"name":"J Taps Bar & Grill","phone":"5135749777","address":"6441 Glenway Ave","lat":39.150713716061965,"lng":-84.62832927703857,"neighborhood":"Bridgetown North","city_fetched":"Cincinnati,US","state":"OH","country":"United States","canonicalUrl":"https://foursquare.com/v/j-taps-bar--grill/4bc6acb6d35d9c747a22e33a","categoryId":"4bf58dd8d48988d11d941735","category":"Sports Bar","checkinsCount":951,"usersCount":446,"tipCount":10,"visitsCount":1212,"url":"http://jtapscincy.com","tier":2,"message":"Moderate","currency":"$","rating":7.5},{"name":"The Redmoor","phone":"5138716789","address":"3187 Linwood Ave","lat":39.12914746495927,"lng":-84.43044974139029,"neighborhood":"Mount Lookout","city_fetched":"Cincinnati,US","state":"OH","country":"United States","canonicalUrl":"https://foursquare.com/v/the-redmoor/4b871b9cf964a52007b131e3","categoryId":"4bf58dd8d48988d11a941735","category":"Other Nightlife","checkinsCount":604,"usersCount":434,"tipCount":4,"visitsCount":610,"url":"http://www.theredmoor.com","tier":"","message":"","currency":"","rating":7.5},{"name":"O'Bryon's Bar And Grill","phone":"5133215525","twitter":"obryonsbargrill","address":"1998 Madison Rd","lat":39.132176816565526,"lng":-84.4631628126725,"neighborhood":"Evanston","city_fetched":"Cincinnati,US","state":"OH","country":"United States","canonicalUrl":"https://foursquare.com/v/obryons-bar-and-grill/4b58e267f964a520d67028e3","categoryId":"4bf58dd8d48988d11b941735","category":"Pub","checkinsCount":3952,"usersCount":1216,"tipCount":18,"visitsCount":4182,"url":"http://www.obryonsirishpub.com","tier":2,"message":"Moderate","currency":"$","rating":7.5},{"name":"Low Spark","address":"15 W 14th St","lat":39.110473,"lng":-84.516238,"neighborhood":"Over-The Rhine","city_fetched":"Cincinnati,US","state":"OH","country":"United States","canonicalUrl":"https://foursquare.com/v/low-spark/562be423498e2c64faa4d476","categoryId":"4bf58dd8d48988d116941735","category":"Bar","checkinsCount":267,"usersCount":139,"tipCount":1,"visitsCount":283,"tier":"","message":"","currency":"","rating":7.5},{"name":"Pilot Inn","phone":"5135314156","twitter":"pilotinnohio","address":"3921 Edwards Rd","lat":39.15073223,"lng":-84.442489,"city_fetched":"Cincinnati,US","state":"OH","country":"United States","canonicalUrl":"https://foursquare.com/v/pilot-inn/4bc65b04b387d13aabccc1e8","categoryId":"4bf58dd8d48988d116941735","category":"Bar","checkinsCount":681,"usersCount":289,"tipCount":3,"visitsCount":689,"url":"http://pilotinn-hub.com","tier":"","message":"","currency":"","rating":7.5},{"name":"Jim & Jack's","phone":"5132517977","address":"3456 River Rd","lat":39.082302,"lng":-84.585572,"neighborhood":"Riverside","city_fetched":"Cincinnati,US","state":"OH","country":"United States","canonicalUrl":"https://foursquare.com/v/jim--jacks/4c79b1b3df08a1cd5ec2db5d","categoryId":"4bf58dd8d48988d116941735","category":"Bar","checkinsCount":481,"usersCount":217,"tipCount":2,"visitsCount":604,"url":"http://www.jimandjacks.net","tier":"","message":"","currency":"","rating":7.5},{"name":"Barnesburg Tavern and Grille","phone":"5137411200","address":"5761 Springdale Rd","lat":39.230179,"lng":-84.62980205,"city_fetched":"Cincinnati,US","state":"OH","country":"United States","canonicalUrl":"https://foursquare.com/v/barnesburg-tavern-and-grille/4b902507f964a520597833e3","categoryId":"4bf58dd8d48988d11d941735","category":"Sports Bar","checkinsCount":566,"usersCount":275,"tipCount":9,"visitsCount":630,"url":"http://barnesburgtavernandgrille.com","tier":"","message":"","currency":"","rating":7.5},{"name":"Cock & Bull Public House Hyde Park Square","phone":"5135334253","twitter":"theenglishpub","address":"2653 Erie Ave","lat":39.13958251476288,"lng":-84.443437,"neighborhood":"Hyde Park","city_fetched":"Cincinnati,US","state":"OH","country":"United States","canonicalUrl":"https://foursquare.com/v/cock--bull-public-house-hyde-park-square/4dda8ed8d4c05d50973347a4","categoryId":"4bf58dd8d48988d11b941735","category":"Pub","checkinsCount":4860,"usersCount":2377,"tipCount":36,"visitsCount":5270,"url":"http://www.candbpublichouse.com","tier":2,"message":"Moderate","currency":"$","rating":7.4},{"name":"Boswell's","address":"1686 Blue Rock St","lat":39.160620391785024,"lng":-84.54335306997342,"neighborhood":"Northside","city_fetched":"Cincinnati,US","state":"OH","country":"United States","canonicalUrl":"https://foursquare.com/v/boswells/50410e82e4b05127f7861cf3","categoryId":"4bf58dd8d48988d11b941735","category":"Pub","checkinsCount":391,"usersCount":220,"tipCount":4,"visitsCount":519,"tier":1,"message":"Cheap","currency":"$","rating":7.4},{"name":"Bearcat Lounge","phone":"5134873800","address":"151 Goodman St","lat":39.136581,"lng":-84.507609,"neighborhood":"Corryville","city_fetched":"Cincinnati,US","state":"OH","country":"United States","canonicalUrl":"https://foursquare.com/v/bearcat-lounge/4b91b4f1f964a52095d133e3","categoryId":"4bf58dd8d48988d1d5941735","category":"Hotel Bar","checkinsCount":811,"usersCount":175,"tipCount":9,"visitsCount":812,"tier":"","message":"","currency":"","rating":7.4},{"name":"Head First Sports Cafe","phone":"5137213767","address":"218 W 3rd St","lat":39.09819692825181,"lng":-84.51632797305109,"neighborhood":"Central Business District","city_fetched":"Cincinnati,US","state":"OH","country":"United States","canonicalUrl":"https://foursquare.com/v/head-first-sports-cafe/4b4bae43f964a520e5a326e3","categoryId":"4bf58dd8d48988d116941735","category":"Bar","checkinsCount":1418,"usersCount":513,"tipCount":5,"visitsCount":1435,"url":"http://www.headfirstsportscafe.com","tier":"","message":"","currency":"","rating":7.3},{"name":"Rooties","phone":"5134810200","address":"3605 Harrison Ave","lat":39.155924686856984,"lng":-84.6096414918051,"city_fetched":"Cincinnati,US","state":"OH","country":"United States","canonicalUrl":"https://foursquare.com/v/rooties/4b8dcb4bf964a520070e33e3","categoryId":"4bf58dd8d48988d116941735","category":"Bar","checkinsCount":1158,"usersCount":183,"tipCount":5,"visitsCount":1243,"tier":"","message":"","currency":"","rating":7.3},{"name":"Tap House Grill","phone":"5138918277","address":"8740 Montgomery Rd","lat":39.21363286166548,"lng":-84.35957816598275,"city_fetched":"Cincinnati,US","state":"OH","country":"United States","canonicalUrl":"https://foursquare.com/v/tap-house-grill/4ec7dd529a52756c561fc50d","categoryId":"4bf58dd8d48988d116941735","category":"Bar","checkinsCount":1305,"usersCount":677,"tipCount":15,"visitsCount":1653,"url":"http://www.taphousecincy.com","tier":2,"message":"Moderate","currency":"$","rating":7.3},{"name":"The Village Tavern","phone":"5137937882","twitter":"villagetavern","address":"9390 Montgomery Rd","lat":39.22667014309475,"lng":-84.35472610233245,"city_fetched":"Cincinnati,US","state":"OH","country":"United States","canonicalUrl":"https://foursquare.com/v/the-village-tavern/4b58c7bcf964a520db6a28e3","categoryId":"4bf58dd8d48988d116941735","category":"Bar","checkinsCount":3131,"usersCount":1274,"tipCount":15,"visitsCount":3367,"url":"http://thevillage-tavern.com","tier":1,"message":"Cheap","currency":"$","rating":7.3},{"name":"Horse & Barrel","address":"Walnut Street","lat":39.103476611408645,"lng":-84.51194465616742,"neighborhood":"Central Business District","city_fetched":"Cincinnati,US","state":"OH","country":"United States","canonicalUrl":"https://foursquare.com/v/horse--barrel/54a37232498e8a8a7c0d23d1","categoryId":"4bf58dd8d48988d11e941735","category":"Cocktail Bar","checkinsCount":190,"usersCount":128,"tipCount":3,"visitsCount":190,"tier":"","message":"","currency":"","rating":7.3},{"name":"601 Nightclub","phone":"5139170260","twitter":"601cincy","address":"601 Main St","lat":39.102823535187746,"lng":-84.51026496804374,"neighborhood":"Central Business District","city_fetched":"Cincinnati,US","state":"OH","country":"United States","canonicalUrl":"https://foursquare.com/v/601-nightclub/510de732e4b0898fb4df71fa","categoryId":"4bf58dd8d48988d11f941735","category":"Nightclub","checkinsCount":326,"usersCount":212,"tipCount":9,"visitsCount":329,"tier":"","message":"","currency":"","rating":7.3},{"name":"Tap & Go","phone":"5133813584","address":"950 Pavilion St","lat":39.10769823379465,"lng":-84.4972014427185,"neighborhood":"Mount Adams","city_fetched":"Cincinnati,US","state":"OH","country":"United States","canonicalUrl":"https://foursquare.com/v/tap--go/4b4f971df964a520980c27e3","categoryId":"4bf58dd8d48988d116941735","category":"Bar","checkinsCount":927,"usersCount":464,"tipCount":6,"visitsCount":930,"url":"http://tapandgocincy.com","tier":"","message":"","currency":"","rating":7.3},{"name":"Champions Grille","phone":"5133768920","twitter":"championsgrill","address":"3670 Werk Rd","lat":39.1442258,"lng":-84.6266386,"neighborhood":"Bridgetown North","city_fetched":"Cincinnati,US","state":"OH","country":"United States","canonicalUrl":"https://foursquare.com/v/champions-grille/4d3a5c4c34ee3704f909779b","categoryId":"4bf58dd8d48988d11d941735","category":"Sports Bar","checkinsCount":647,"usersCount":268,"tipCount":8,"visitsCount":766,"url":"http://championsgrille.com","tier":2,"message":"Moderate","currency":"$","rating":7.3},{"name":"Sundy's","lat":39.223519838148476,"lng":-84.51675300788213,"city_fetched":"Cincinnati,US","state":"OH","country":"United States","canonicalUrl":"https://foursquare.com/v/sundys/4bb3c5ee2397b7131a9a38b3","categoryId":"4bf58dd8d48988d116941735","category":"Bar","checkinsCount":555,"usersCount":98,"tipCount":3,"visitsCount":606,"tier":"","message":"","currency":"","rating":7.2},{"name":"Longworth's","phone":"5136512253","address":"1108 Saint Gregory St","lat":39.108041646033605,"lng":-84.49754878878593,"neighborhood":"Mount Adams","city_fetched":"Cincinnati,US","state":"OH","country":"United States","canonicalUrl":"https://foursquare.com/v/longworths/4b4cd305f964a52062c026e3","categoryId":"4bf58dd8d48988d116941735","category":"Bar","checkinsCount":5790,"usersCount":2156,"tipCount":33,"visitsCount":5820,"url":"http://www.longworths-mtadams.com","tier":"","message":"","currency":"","rating":7.2},{"name":"The Drinkery","twitter":"drinkotr","address":"1150 Main St","lat":39.10911392131226,"lng":-84.51160155307574,"neighborhood":"Over-The Rhine","city_fetched":"Cincinnati,US","state":"OH","country":"United States","canonicalUrl":"https://foursquare.com/v/the-drinkery/4d531ae174f2224bf0412559","categoryId":"4bf58dd8d48988d116941735","category":"Bar","checkinsCount":3382,"usersCount":1311,"tipCount":11,"visitsCount":3428,"url":"http://www.drinkeryotr.com","tier":2,"message":"Moderate","currency":"$","rating":7.2},{"name":"Vinces Bar Mt Healthy","address":"7701 Hamilton Ave","lat":39.233508907763095,"lng":-84.54819465191102,"city_fetched":"Cincinnati,US","state":"OH","country":"United States","canonicalUrl":"https://foursquare.com/v/vinces-bar-mt-healthy/4cf978cf7945224b33017ae7","categoryId":"4bf58dd8d48988d116941735","category":"Bar","checkinsCount":691,"usersCount":112,"tipCount":4,"visitsCount":764,"tier":"","message":"","currency":"","rating":7.2},{"name":"Brew Monkeys","phone":"5133308806","twitter":"brewmonkeys","address":"4312 Harrison Ave","lat":39.16257798634386,"lng":-84.62473108105,"neighborhood":"Bridgetown North","city_fetched":"Cincinnati,US","state":"OH","country":"United States","canonicalUrl":"https://foursquare.com/v/brew-monkeys/4ff5bdade4b00ee3e56ee7cb","categoryId":"50327c8591d4c4b30a586d5d","category":"Brewery","checkinsCount":724,"usersCount":107,"tipCount":1,"visitsCount":823,"url":"http://brewmonkeys.com","tier":"","message":"","currency":"","rating":7.2},{"name":"Mt. Adams Pavilion","phone":"5137449200","address":"949 Pavilion St","lat":39.107544,"lng":-84.497286,"neighborhood":"Mt Adams","city_fetched":"Cincinnati,US","state":"OH","country":"United States","canonicalUrl":"https://foursquare.com/v/mt-adams-pavilion/4b4fc081f964a520091427e3","categoryId":"4bf58dd8d48988d11f941735","category":"Nightclub","checkinsCount":4622,"usersCount":2383,"tipCount":21,"visitsCount":4825,"url":"http://mountadamspavilion.com","tier":2,"message":"Moderate","currency":"$","rating":7.2},{"name":"O' Malleys In The Alley","phone":"5133813114","address":"25 Ogden Pl","lat":39.098933308534356,"lng":-84.51343482675718,"neighborhood":"Central Business District","city_fetched":"Cincinnati,US","state":"OH","country":"United States","canonicalUrl":"https://foursquare.com/v/o-malleys-in-the-alley/4b53c2b8f964a5208faa27e3","categoryId":"4bf58dd8d48988d118941735","category":"Dive Bar","checkinsCount":2471,"usersCount":1399,"tipCount":25,"visitsCount":2634,"url":"http://omalleysinthealley.com","tier":1,"message":"Cheap","currency":"$","rating":7.2},{"name":"The Establishment","phone":"5136319000","address":"2900 Wasson Rd","lat":39.144531259905534,"lng":-84.43548528782519,"neighborhood":"Oakley","city_fetched":"Cincinnati,US","state":"OH","country":"United States","canonicalUrl":"https://foursquare.com/v/the-establishment/4b450157f964a520fb0026e3","categoryId":"4bf58dd8d48988d11b941735","category":"Pub","checkinsCount":2120,"usersCount":652,"tipCount":10,"visitsCount":2199,"url":"http://theeoakley.com","tier":"","message":"","currency":"","rating":7.2},{"name":"Gordo's Pub & Grill","phone":"5133511999","twitter":"gordospub","address":"4328 Montgomery Rd","lat":39.156454,"lng":-84.45880830287933,"city_fetched":"Cincinnati,US","state":"OH","country":"United States","canonicalUrl":"https://foursquare.com/v/gordos-pub--grill/4b2c30e7f964a5206cc324e3","categoryId":"4bf58dd8d48988d11b941735","category":"Pub","checkinsCount":1828,"usersCount":1079,"tipCount":24,"visitsCount":2267,"url":"http://www.gordospub.com","tier":1,"message":"Cheap","currency":"$","rating":7.2},{"name":"Christian Moerlein Brewery","address":"1621 Moore St","lat":39.113941855492776,"lng":-84.51512978547568,"neighborhood":"Over-The Rhine","city_fetched":"Cincinnati,US","state":"OH","country":"United States","canonicalUrl":"https://foursquare.com/v/christian-moerlein-brewery/4c94f855533aa093c363c445","categoryId":"50327c8591d4c4b30a586d5d","category":"Brewery","checkinsCount":401,"usersCount":285,"tipCount":2,"visitsCount":401,"tier":"","message":"","currency":"","rating":7.2},{"name":"Mt. Lookout Tavern","phone":"5138719633","twitter":"mtlookouttavern","address":"3209 Linwood Ave","lat":39.1280771,"lng":-84.43039834499359,"neighborhood":"Mount Lookout","city_fetched":"Cincinnati,US","state":"OH","country":"United States","canonicalUrl":"https://foursquare.com/v/mt-lookout-tavern/4b377606f964a520334125e3","categoryId":"4bf58dd8d48988d116941735","category":"Bar","checkinsCount":3852,"usersCount":1383,"tipCount":12,"visitsCount":3997,"url":"http://mtlookouttavern.com","tier":2,"message":"Moderate","currency":"$","rating":7.2},{"name":"Maloney's Pub","phone":"5139223156","address":"408 Greenwell Ave","lat":39.09549664788437,"lng":-84.60541248321533,"city_fetched":"Cincinnati,US","state":"OH","country":"United States","canonicalUrl":"https://foursquare.com/v/maloneys-pub/4b68a94cf964a520ab852be3","categoryId":"4bf58dd8d48988d116941735","category":"Bar","checkinsCount":991,"usersCount":357,"tipCount":7,"visitsCount":1029,"tier":"","message":"","currency":"","rating":7.2},{"name":"aliveOne","phone":"5137216977","address":"941 Pavilion St","lat":39.1076493,"lng":-84.4976556,"neighborhood":"Mt Adams","city_fetched":"Cincinnati,US","state":"OH","country":"United States","canonicalUrl":"https://foursquare.com/v/aliveone/4be63ce8d4f7c9b6129e2620","categoryId":"4bf58dd8d48988d116941735","category":"Bar","checkinsCount":1750,"usersCount":900,"tipCount":13,"visitsCount":1751,"tier":"","message":"","currency":"","rating":7.1},{"name":"Hap's Irish Pub","phone":"5138716477","address":"3510 Erie Ave","lat":39.14128996753129,"lng":-84.418778,"neighborhood":"Hyde Park","city_fetched":"Cincinnati,US","state":"OH","country":"United States","canonicalUrl":"https://foursquare.com/v/haps-irish-pub/4c288a529eb195210e882959","categoryId":"4bf58dd8d48988d116941735","category":"Bar","checkinsCount":1744,"usersCount":740,"tipCount":7,"visitsCount":1830,"url":"http://hapspub.com","tier":"","message":"","currency":"","rating":7.1},{"name":"Crowley's Highland House","address":"958 Pavilion St","lat":39.10771248333334,"lng":-84.4970190525055,"neighborhood":"Mount Adams","city_fetched":"Cincinnati,US","state":"OH","country":"United States","canonicalUrl":"https://foursquare.com/v/crowleys-highland-house/4b528f5ef964a520498227e3","categoryId":"4bf58dd8d48988d116941735","category":"Bar","checkinsCount":1044,"usersCount":637,"tipCount":6,"visitsCount":1054,"tier":"","message":"","currency":"","rating":7},{"name":"the grotto","address":"St Gregory St","lat":39.107992973572635,"lng":-84.4977272308148,"neighborhood":"Mount Adams","city_fetched":"Cincinnati,US","state":"OH","country":"United States","canonicalUrl":"https://foursquare.com/v/the-grotto/4ff1c24ae4b0730ed8efe6db","categoryId":"4bf58dd8d48988d116941735","category":"Bar","checkinsCount":355,"usersCount":198,"tipCount":1,"visitsCount":359,"tier":"","message":"","currency":"","rating":7},{"name":"Blue Goose Sports Cafe","phone":"5137695700","address":"11060 Reading Rd","lat":39.26956472,"lng":-84.41279466,"city_fetched":"Cincinnati,US","state":"OH","country":"United States","canonicalUrl":"https://foursquare.com/v/blue-goose-sports-cafe/4b998ed8f964a520768335e3","categoryId":"4bf58dd8d48988d11d941735","category":"Sports Bar","checkinsCount":1376,"usersCount":681,"tipCount":16,"visitsCount":1569,"url":"http://www.bluegoosesportscafe.com","tier":1,"message":"Cheap","currency":"$","rating":7},{"name":"R.P. McMurphy's","phone":"5135313300","address":"2910 Wasson Rd","lat":39.144484,"lng":-84.43518381666667,"neighborhood":"Oakley","city_fetched":"Cincinnati,US","state":"OH","country":"United States","canonicalUrl":"https://foursquare.com/v/rp-mcmurphys/4b45012cf964a520f20026e3","categoryId":"4bf58dd8d48988d11b941735","category":"Pub","checkinsCount":4621,"usersCount":1531,"tipCount":14,"visitsCount":5076,"url":"http://www.rpmcmurphyspub.com","tier":1,"message":"Cheap","currency":"$","rating":7},{"name":"Foley's","phone":"5139489163","address":"200 W Benson St","lat":39.223528814258664,"lng":-84.44378632930267,"city_fetched":"Cincinnati,US","state":"OH","country":"United States","canonicalUrl":"https://foursquare.com/v/foleys/4ba437e0f964a520fd8c38e3","categoryId":"4bf58dd8d48988d118941735","category":"Dive Bar","checkinsCount":995,"usersCount":468,"tipCount":9,"visitsCount":1155,"tier":1,"message":"Cheap","currency":"$","rating":6.9},{"name":"Rusty Bucket Corner Tavern","phone":"5138412739","address":"2692 Madison Rd","lat":39.147399,"lng":-84.442896,"city_fetched":"Cincinnati,US","state":"OH","country":"United States","canonicalUrl":"https://foursquare.com/v/rusty-bucket-corner-tavern/4b58935af964a5201e5f28e3","categoryId":"4bf58dd8d48988d11b941735","category":"Pub","checkinsCount":3407,"usersCount":1788,"tipCount":32,"visitsCount":3490,"url":"http://www.myrustybucket.com","tier":2,"message":"Moderate","currency":"$","rating":6.9},{"name":"Igby's","phone":"5137210083","twitter":"igbys","address":"122 E 6th St","lat":39.102764789606205,"lng":-84.51103824511269,"neighborhood":"Central Business District","city_fetched":"Cincinnati,US","state":"OH","country":"United States","canonicalUrl":"https://foursquare.com/v/igbys/50481d09e4b0d1f2d8d750aa","categoryId":"4bf58dd8d48988d116941735","category":"Bar","checkinsCount":3447,"usersCount":1571,"tipCount":18,"visitsCount":3515,"url":"http://igbysbar.com","tier":2,"message":"Moderate","currency":"$","rating":6.9},{"name":"Poppy's Sports Bar and Grill","phone":"5135744939","address":"6611 Glenway Ave","lat":39.156969749977144,"lng":-84.6300922524219,"neighborhood":"Bridgetown North","city_fetched":"Cincinnati,US","state":"OH","country":"United States","canonicalUrl":"https://foursquare.com/v/poppys-sports-bar-and-grill/4ce020e8825e721ee59d7445","categoryId":"4bf58dd8d48988d120941735","category":"Karaoke Bar","checkinsCount":641,"usersCount":118,"tipCount":3,"visitsCount":649,"tier":"","message":"","currency":"","rating":6.9},{"name":"Dana Gardens","phone":"5136312337","address":"1832 Dana Ave","lat":39.14631160268623,"lng":-84.46633522898806,"neighborhood":"Evanston","city_fetched":"Cincinnati,US","state":"OH","country":"United States","canonicalUrl":"https://foursquare.com/v/dana-gardens/4b443f7df964a5200af325e3","categoryId":"4bf58dd8d48988d116941735","category":"Bar","checkinsCount":3211,"usersCount":539,"tipCount":12,"visitsCount":3419,"tier":"","message":"","currency":"","rating":6.8},{"name":"Dive Bar","phone":"5132210931","address":"2608 Vine St","lat":39.12945269529704,"lng":-84.5094108581543,"neighborhood":"Corryville","city_fetched":"Cincinnati,US","state":"OH","country":"United States","canonicalUrl":"https://foursquare.com/v/dive-bar/4db098dccda14b702a34a91d","categoryId":"4bf58dd8d48988d118941735","category":"Dive Bar","checkinsCount":990,"usersCount":479,"tipCount":8,"visitsCount":1037,"tier":"","message":"","currency":"","rating":6.8},{"name":"Tavern On The Bend","phone":"5134817777","address":"5471 N Bend Rd","lat":39.190230053241756,"lng":-84.60034144016772,"city_fetched":"Cincinnati,US","state":"OH","country":"United States","canonicalUrl":"https://foursquare.com/v/tavern-on-the-bend/4ec5f92177c8be4920dbca3f","categoryId":"4bf58dd8d48988d116941735","category":"Bar","checkinsCount":870,"usersCount":408,"tipCount":22,"visitsCount":1057,"tier":2,"message":"Moderate","currency":"$","rating":6.8},{"name":"Friendly Stop","phone":"5137717427","address":"985 Congress Ave","lat":39.272726166666665,"lng":-84.46853748333334,"city_fetched":"Cincinnati,US","state":"OH","country":"United States","canonicalUrl":"https://foursquare.com/v/friendly-stop/4b36e1cbf964a520c93d25e3","categoryId":"4bf58dd8d48988d11b941735","category":"Pub","checkinsCount":800,"usersCount":303,"tipCount":16,"visitsCount":813,"tier":"","message":"","currency":"","rating":6.8},{"name":"Tavern On The Hill","phone":"5134213309","address":"1111 Saint Gregory St","lat":39.10807795123821,"lng":-84.49768113122065,"neighborhood":"Mount Adams","city_fetched":"Cincinnati,US","state":"OH","country":"United States","canonicalUrl":"https://foursquare.com/v/tavern-on-the-hill/517eec58e4b0481fba059396","categoryId":"4bf58dd8d48988d11d941735","category":"Sports Bar","checkinsCount":553,"usersCount":313,"tipCount":2,"visitsCount":688,"url":"http://mtadamstavernonthehill.com","tier":"","message":"","currency":"","rating":6.7},{"name":"Tina's","phone":"5136213567","address":"350 W 4th St","lat":39.09917744606662,"lng":-84.51900598612065,"city_fetched":"Cincinnati,US","state":"OH","country":"United States","canonicalUrl":"https://foursquare.com/v/tinas/4b44dae2f964a52046fe25e3","categoryId":"4bf58dd8d48988d116941735","category":"Bar","checkinsCount":3319,"usersCount":1187,"tipCount":12,"visitsCount":3784,"tier":"","message":"","currency":"","rating":6.7},{"name":"Sports Depot Bar & Grill","phone":"5135985565","address":"Ruwes Oak","lat":39.19464529935013,"lng":-84.6654665577443,"city_fetched":"Cincinnati,US","state":"OH","country":"United States","canonicalUrl":"https://foursquare.com/v/sports-depot-bar--grill/4b72ee00f964a5204b902de3","categoryId":"4bf58dd8d48988d11d941735","category":"Sports Bar","checkinsCount":617,"usersCount":214,"tipCount":2,"visitsCount":657,"tier":"","message":"","currency":"","rating":6.6},{"name":"transition bar","phone":"5138719700","address":"3152 Linwood Ave","lat":39.13036973926305,"lng":-84.43036256417341,"neighborhood":"Mount Lookout","city_fetched":"Cincinnati,US","state":"OH","country":"United States","canonicalUrl":"https://foursquare.com/v/transition-bar/50c227aee4b0723643d02610","categoryId":"4bf58dd8d48988d116941735","category":"Bar","checkinsCount":268,"usersCount":101,"tipCount":5,"visitsCount":277,"tier":1,"message":"Cheap","currency":"$","rating":6.6},{"name":"Arlin's Bar & Garden","phone":"5137516566","address":"307 Ludlow Ave","lat":39.143241885544406,"lng":-84.51968908309937,"neighborhood":"Clifton","city_fetched":"Cincinnati,US","state":"OH","country":"United States","canonicalUrl":"https://foursquare.com/v/arlins-bar--garden/4b43778bf964a5200ce125e3","categoryId":"4bf58dd8d48988d116941735","category":"Bar","checkinsCount":3261,"usersCount":1077,"tipCount":22,"visitsCount":3385,"tier":1,"message":"Cheap","currency":"$","rating":6.6},{"name":"Home Base Tavern","phone":"5137211212","address":"2401 Vine St","lat":39.12631271281628,"lng":-84.51289201988848,"neighborhood":"The Heights","city_fetched":"Cincinnati,US","state":"OH","country":"United States","canonicalUrl":"https://foursquare.com/v/home-base-tavern/4cf2008b1d18a143699857ec","categoryId":"4bf58dd8d48988d1d8941735","category":"Gay Bar","checkinsCount":199,"usersCount":81,"tipCount":5,"visitsCount":204,"tier":"","message":"","currency":"","rating":6.6},{"name":"Hooligan's Pub & Eatery","phone":"5138419994","address":"3340 Highland Ave","lat":39.170701503752525,"lng":-84.4240408,"neighborhood":"Pleasant Ridge","city_fetched":"Cincinnati,US","state":"OH","country":"United States","canonicalUrl":"https://foursquare.com/v/hooligans-pub--eatery/4bc918a4cc8cd13a721abbcf","categoryId":"4bf58dd8d48988d11b941735","category":"Pub","checkinsCount":822,"usersCount":288,"tipCount":12,"visitsCount":988,"url":"http://www.hooligans-pub.com","tier":2,"message":"Moderate","currency":"$","rating":6.6},{"name":"Chameleon","phone":"5139698869","twitter":"clubchameleon","address":"4114 Hamilton Ave","lat":39.160689,"lng":-84.539306,"neighborhood":"Northside","city_fetched":"Cincinnati,US","state":"OH","country":"United States","canonicalUrl":"https://foursquare.com/v/chameleon/4e0eabc4d22d8582bdc1fa22","categoryId":"4bf58dd8d48988d116941735","category":"Bar","checkinsCount":1090,"usersCount":300,"tipCount":5,"visitsCount":1127,"tier":"","message":"","currency":"","rating":6.6},{"name":"Fogartys Irish Pub","phone":"5135153215","address":"3620 Harrison Ave","lat":39.156571,"lng":-84.61000744253397,"city_fetched":"Cincinnati,US","state":"OH","country":"United States","canonicalUrl":"https://foursquare.com/v/fogartys-irish-pub/4becbff9d5510f47aeffcc6c","categoryId":"4bf58dd8d48988d116941735","category":"Bar","checkinsCount":653,"usersCount":349,"tipCount":5,"visitsCount":665,"tier":"","message":"","currency":"","rating":6.6},{"name":"Hookah Cafe","phone":"5132218700","address":"125 Calhoun St","lat":39.128084,"lng":-84.51400816440582,"neighborhood":"CUF","city_fetched":"Cincinnati,US","state":"OH","country":"United States","canonicalUrl":"https://foursquare.com/v/hookah-cafe/4b526b60f964a520637c27e3","categoryId":"4bf58dd8d48988d119941735","category":"Hookah Bar","checkinsCount":1018,"usersCount":354,"tipCount":11,"visitsCount":1030,"url":"http://www.wix.com/ladynite/hookahcafe","tier":"","message":"","currency":"","rating":6.6},{"name":"Shooters","phone":"5133819900","twitter":"shooterscincy","address":"927 Race St","lat":39.1059041378032,"lng":-84.51609492301941,"neighborhood":"Central Business District","city_fetched":"Cincinnati,US","state":"OH","country":"United States","canonicalUrl":"https://foursquare.com/v/shooters/4b7792c3f964a52038a22ee3","categoryId":"4bf58dd8d48988d1d8941735","category":"Gay Bar","checkinsCount":1985,"usersCount":720,"tipCount":8,"visitsCount":2409,"tier":1,"message":"Cheap","currency":"$","rating":6.5},{"name":"Game On Bar & Grill","phone":"5133859999","twitter":"gameoncincy","address":"5880 Cheviot Rd","lat":39.20025812911373,"lng":-84.60044370284929,"neighborhood":"White Oak East","city_fetched":"Cincinnati,US","state":"OH","country":"United States","canonicalUrl":"https://foursquare.com/v/game-on-bar--grill/4b53c4adf964a520d1aa27e3","categoryId":"4bf58dd8d48988d116941735","category":"Bar","checkinsCount":586,"usersCount":231,"tipCount":7,"visitsCount":716,"url":"http://www.geoffreysinc.com","tier":"","message":"","currency":"","rating":6.5},{"name":"The St. Clair","phone":"5137210083","address":"245 Calhoun St","lat":39.12837859691551,"lng":-84.51685541787396,"neighborhood":"CUF","city_fetched":"Cincinnati,US","state":"OH","country":"United States","canonicalUrl":"https://foursquare.com/v/the-st-clair/51f19534498ebc483f3c4abb","categoryId":"4bf58dd8d48988d11e941735","category":"Cocktail Bar","checkinsCount":408,"usersCount":199,"tipCount":7,"visitsCount":414,"tier":"","message":"","currency":"","rating":6.5},{"name":"Yesterday's Old Time Saloon","phone":"5134219998","address":"930 Hatch St","lat":39.109318145603666,"lng":-84.49780406339082,"neighborhood":"Mount Adams","city_fetched":"Cincinnati,US","state":"OH","country":"United States","canonicalUrl":"https://foursquare.com/v/yesterdays-old-time-saloon/4c4bb5dc42b4d13aee90097f","categoryId":"4bf58dd8d48988d118941735","category":"Dive Bar","checkinsCount":1146,"usersCount":341,"tipCount":3,"visitsCount":1149,"tier":"","message":"","currency":"","rating":6.4},{"name":"The Pike Bar & Grill","phone":"5137727453","address":"10010 Springfield Pike","lat":39.24757897853851,"lng":-84.47042601666666,"city_fetched":"Cincinnati,US","state":"OH","country":"United States","canonicalUrl":"https://foursquare.com/v/the-pike-bar--grill/4ba4365af964a520798c38e3","categoryId":"4bf58dd8d48988d11d941735","category":"Sports Bar","checkinsCount":920,"usersCount":283,"tipCount":9,"visitsCount":1082,"tier":1,"message":"Cheap","currency":"$","rating":6.4},{"name":"Tonic on 4th","phone":"5137211345","address":"127 W 4th St","lat":39.09970314316352,"lng":-84.51503249310646,"neighborhood":"Central Business District","city_fetched":"Cincinnati,US","state":"OH","country":"United States","canonicalUrl":"https://foursquare.com/v/tonic-on-4th/4b4359def964a520cfde25e3","categoryId":"4bf58dd8d48988d11e941735","category":"Cocktail Bar","checkinsCount":432,"usersCount":284,"tipCount":9,"visitsCount":432,"tier":"","message":"","currency":"","rating":6.4},{"name":"Edge Inn Tavern","phone":"5138419030","address":"3965 Edwards Rd.","lat":39.15123416666667,"lng":-84.44240323333334,"city_fetched":"Cincinnati,US","state":"OH","country":"United States","canonicalUrl":"https://foursquare.com/v/edge-inn-tavern/4b8f240af964a520d84a33e3","categoryId":"4bf58dd8d48988d118941735","category":"Dive Bar","checkinsCount":557,"usersCount":267,"tipCount":9,"visitsCount":628,"tier":"","message":"","currency":"","rating":6.4},{"name":"Monk's Cove","phone":"5137037600","address":"1110 St. Gregory St.","lat":39.107911,"lng":-84.49767132704879,"neighborhood":"Mount Adams","city_fetched":"Cincinnati,US","state":"OH","country":"United States","canonicalUrl":"https://foursquare.com/v/monks-cove/4b919013f964a520d7c533e3","categoryId":"4bf58dd8d48988d116941735","category":"Bar","checkinsCount":1996,"usersCount":882,"tipCount":4,"visitsCount":2017,"tier":"","message":"","currency":"","rating":6.3},{"name":"The Knotty Pine","phone":"5137413900","address":"6947 Cheviot Rd.","lat":39.211338,"lng":-84.59979175,"city_fetched":"Cincinnati,US","state":"OH","country":"United States","canonicalUrl":"https://foursquare.com/v/the-knotty-pine/4c727b540e8cbfb73dd801db","categoryId":"4bf58dd8d48988d116941735","category":"Bar","checkinsCount":801,"usersCount":365,"tipCount":7,"visitsCount":926,"url":"http://knottypinerocks.com","tier":"","message":"","currency":"","rating":6.3},{"name":"Jefferson Social","phone":"5133812623","address":"101 E Freedom Way","lat":39.0972449659334,"lng":-84.51003451925119,"neighborhood":"Central Business District","city_fetched":"Cincinnati,US","state":"OH","country":"United States","canonicalUrl":"https://foursquare.com/v/jefferson-social/51b2576c498eead63e31713a","categoryId":"4bf58dd8d48988d116941735","category":"Bar","checkinsCount":2468,"usersCount":1385,"tipCount":19,"visitsCount":2776,"url":"http://jeffersonsocial.com","tier":2,"message":"Moderate","currency":"$","rating":6.3},{"name":"Junker's Tavern","phone":"5135415470","address":"4156 Langland St","lat":39.163117490911624,"lng":-84.53818861272156,"neighborhood":"Northside","city_fetched":"Cincinnati,US","state":"OH","country":"United States","canonicalUrl":"https://foursquare.com/v/junkers-tavern/4b67b350f964a5204e5b2be3","categoryId":"4bf58dd8d48988d118941735","category":"Dive Bar","checkinsCount":1622,"usersCount":171,"tipCount":13,"visitsCount":1666,"tier":"","message":"","currency":"","rating":6.3},{"name":"Buzzard Bay Pub","phone":"5137144490","twitter":"buzzardbaypub","address":"7121 Dixie Hwy","lat":39.31337059649358,"lng":-84.48901888354672,"city_fetched":"Cincinnati,US","state":"OH","country":"United States","canonicalUrl":"https://foursquare.com/buzzardbaypub","categoryId":"52e81612bcbc57f1066b7a0d","category":"Beach Bar","checkinsCount":116,"usersCount":125,"tipCount":2,"visitsCount":237,"url":"http://www.buzzardbaypub.com","tier":1,"message":"Cheap","currency":"$","rating":6.3},{"name":"The Cricket Lounge","phone":"5133813000","address":"601 Vine St","lat":39.102444,"lng":-84.513491,"neighborhood":"Central Business District","city_fetched":"Cincinnati,US","state":"OH","country":"United States","canonicalUrl":"https://foursquare.com/v/the-cricket-lounge/4b48ed1ff964a520b95d26e3","categoryId":"4bf58dd8d48988d116941735","category":"Bar","checkinsCount":460,"usersCount":250,"tipCount":7,"visitsCount":460,"tier":"","message":"","currency":"","rating":6.3},{"name":"Millions","phone":"5138711148","address":"3212 Linwood Ave","lat":39.128235258985626,"lng":-84.43023949023495,"neighborhood":"Mount Lookout","city_fetched":"Cincinnati,US","state":"OH","country":"United States","canonicalUrl":"https://foursquare.com/v/millions/4b36ddf1f964a520923d25e3","categoryId":"4bf58dd8d48988d116941735","category":"Bar","checkinsCount":1230,"usersCount":506,"tipCount":8,"visitsCount":1257,"url":"http://www.millionscafe.com","tier":"","message":"","currency":"","rating":6.2},{"name":"Lachey's","phone":"5132750740","address":"52 E.12th St","lat":39.10857346314485,"lng":-84.51312757820712,"neighborhood":"Over-The Rhine","city_fetched":"Cincinnati,US","state":"OH","country":"United States","canonicalUrl":"https://foursquare.com/v/lacheys/547f2037498e6d9fc5f45c97","categoryId":"4bf58dd8d48988d11d941735","category":"Sports Bar","checkinsCount":868,"usersCount":832,"tipCount":9,"visitsCount":1259,"tier":"","message":"","currency":"","rating":6.2},{"name":"Tom & Jerry's Sports Bar and Grill","phone":"5134511763","address":"5060 Crookshank Rd","lat":39.12801287158881,"lng":-84.60721492767334,"neighborhood":"Westwood","city_fetched":"Cincinnati,US","state":"OH","country":"United States","canonicalUrl":"https://foursquare.com/v/tom--jerrys-sports-bar-and-grill/4c2812793492a593f7edb628","categoryId":"4bf58dd8d48988d120941735","category":"Karaoke Bar","checkinsCount":420,"usersCount":159,"tipCount":9,"visitsCount":420,"url":"http://www.webfandango.com","tier":"","message":"","currency":"","rating":6.2},{"name":"Pulse Nightclub","phone":"5137212582","twitter":"pulsecincy","address":"700 West Pete Rose Way","lat":39.095983590516376,"lng":-84.5228768089002,"city_fetched":"Cincinnati,US","state":"OH","country":"United States","canonicalUrl":"https://foursquare.com/v/pulse-nightclub/4d5f2e3371f38eec01453e21","categoryId":"4bf58dd8d48988d11f941735","category":"Nightclub","checkinsCount":565,"usersCount":405,"tipCount":2,"visitsCount":610,"tier":"","message":"","currency":"","rating":6.2},{"name":"Mixx Ultra Lounge","phone":"5136216499","address":"1203 Main St","lat":39.108866917787005,"lng":-84.5117142140151,"neighborhood":"Over-The Rhine","city_fetched":"Cincinnati,US","state":"OH","country":"United States","canonicalUrl":"https://foursquare.com/v/mixx-ultra-lounge/4b64ad0bf964a5209ac72ae3","categoryId":"4bf58dd8d48988d121941735","category":"Lounge","checkinsCount":1434,"usersCount":532,"tipCount":20,"visitsCount":1449,"url":"http://mixxcincy.com","tier":"","message":"","currency":"","rating":6.2},{"name":"Mynt Martini","phone":"5136216968","twitter":"myntcincinnati","address":"511 Walnut St","lat":39.10161988424442,"lng":-84.51243114216376,"neighborhood":"Central Business District","city_fetched":"Cincinnati,US","state":"OH","country":"United States","canonicalUrl":"https://foursquare.com/v/mynt-martini/4b43c36bf964a520f7e825e3","categoryId":"4bf58dd8d48988d11e941735","category":"Cocktail Bar","checkinsCount":7229,"usersCount":2749,"tipCount":46,"visitsCount":7264,"url":"http://www.myntcincinnati.com","tier":2,"message":"Moderate","currency":"$","rating":6.2},{"name":"Scene Ultra Lounge","phone":"5132937521","twitter":"sceneultra","address":"637 Walnut St","lat":39.10366457571243,"lng":-84.5120233297348,"neighborhood":"Central Business District","city_fetched":"Cincinnati,US","state":"OH","country":"United States","canonicalUrl":"https://foursquare.com/v/scene-ultra-lounge/4ce2c250d58c60fc65c9a76f","categoryId":"4bf58dd8d48988d121941735","category":"Lounge","checkinsCount":3806,"usersCount":1469,"tipCount":18,"visitsCount":3839,"url":"http://www.scenecinci.com","tier":2,"message":"Moderate","currency":"$","rating":6.1},{"name":"Red Roost Tavern","address":"151 W 5th St","lat":39.10061298232837,"lng":-84.51588251568418,"neighborhood":"Central Business District","city_fetched":"Cincinnati,US","state":"OH","country":"United States","canonicalUrl":"https://foursquare.com/v/red-roost-tavern/51c1144c498e8c2d1266be1c","categoryId":"4bf58dd8d48988d1d5941735","category":"Hotel Bar","checkinsCount":505,"usersCount":336,"tipCount":11,"visitsCount":510,"url":"http://www.cincinnati.hyatt.com/en/hotel/dining/RedRoostTavern.html","tier":2,"message":"Moderate","currency":"$","rating":6.1},{"name":"Simon Says","phone":"5133817577","address":"428 Walnut St","lat":39.10104038864746,"lng":-84.51141207736846,"neighborhood":"Central Business District","city_fetched":"Cincinnati,US","state":"OH","country":"United States","canonicalUrl":"https://foursquare.com/v/simon-says/4be9e133a9900f4756e21540","categoryId":"4bf58dd8d48988d1d8941735","category":"Gay Bar","checkinsCount":724,"usersCount":272,"tipCount":2,"visitsCount":732,"tier":"","message":"","currency":"","rating":6.1},{"name":"The Varsity Sports Bar and Grill","lat":39.07289646839919,"lng":-84.33218573617349,"city_fetched":"Cincinnati,US","state":"OH","country":"United States","canonicalUrl":"https://foursquare.com/v/the-varsity-sports-bar-and-grill/509f0782e4b0524f40f395b0","categoryId":"4bf58dd8d48988d11d941735","category":"Sports Bar","checkinsCount":279,"usersCount":95,"tipCount":3,"visitsCount":279,"tier":"","message":"","currency":"","rating":6},{"name":"Anderson Township Pub","phone":"5132310601","address":"6694 Clough Pike","lat":39.099129,"lng":-84.369022,"city_fetched":"Cincinnati,US","state":"OH","country":"United States","canonicalUrl":"https://foursquare.com/v/anderson-township-pub/4b81bdc0f964a52040bb30e3","categoryId":"4bf58dd8d48988d11b941735","category":"Pub","checkinsCount":280,"usersCount":186,"tipCount":6,"visitsCount":300,"url":"http://www.andersontownshippub.com","tier":"","message":"","currency":"","rating":6},{"name":"Montgomery Towne Tavern","phone":"5134892228","address":"10813 Montgomery Rd","lat":39.25976049790466,"lng":-84.34069651784293,"city_fetched":"Cincinnati,US","state":"OH","country":"United States","canonicalUrl":"https://foursquare.com/v/montgomery-towne-tavern/4c9d789dca44236a0a8f2199","categoryId":"4bf58dd8d48988d116941735","category":"Bar","checkinsCount":595,"usersCount":238,"tipCount":6,"visitsCount":678,"tier":1,"message":"Cheap","currency":"$","rating":5.9},{"name":"The Venue","phone":"5132395009","address":"9980 Kings Auto Mall Rd","lat":39.29335340748481,"lng":-84.30760186142321,"city_fetched":"Cincinnati,US","state":"OH","country":"United States","canonicalUrl":"https://foursquare.com/v/the-venue/5168d5bbe4b0c1c503c11634","categoryId":"4bf58dd8d48988d11f941735","category":"Nightclub","checkinsCount":302,"usersCount":142,"tipCount":1,"visitsCount":325,"tier":"","message":"","currency":"","rating":5.9},{"name":"Serpent","phone":"5136816969","address":"4042 Hamilton Ave","lat":39.15977437967392,"lng":-84.53905365289921,"neighborhood":"Northside","city_fetched":"Cincinnati,US","state":"OH","country":"United States","canonicalUrl":"https://foursquare.com/v/serpent/4bb2c90b4019a593435437b8","categoryId":"4bf58dd8d48988d1d8941735","category":"Gay Bar","checkinsCount":677,"usersCount":140,"tipCount":3,"visitsCount":718,"url":"http://www.serpentbar.com","tier":"","message":"","currency":"","rating":5.9},{"name":"Obscura","lat":39.1039,"lng":-84.512054,"neighborhood":"Central Business District","city_fetched":"Cincinnati,US","state":"OH","country":"United States","canonicalUrl":"https://foursquare.com/v/obscura/527ac8ab498e9b4a7139af39","categoryId":"4bf58dd8d48988d121941735","category":"Lounge","checkinsCount":398,"usersCount":285,"tipCount":10,"visitsCount":411,"tier":"","message":"","currency":"","rating":5.9},{"name":"Main Event","phone":"5134211294","address":"835 Main St","lat":39.10572391,"lng":-84.51082303,"neighborhood":"Central Business District","city_fetched":"Cincinnati,US","state":"OH","country":"United States","canonicalUrl":"https://foursquare.com/v/main-event/4bf189653fa220a1d9681820","categoryId":"4bf58dd8d48988d1d8941735","category":"Gay Bar","checkinsCount":700,"usersCount":430,"tipCount":7,"visitsCount":900,"tier":"","message":"","currency":"","rating":5.9},{"name":"Fricker's","phone":"5137292229","twitter":"frickers","address":"1580 Goodman Ave","lat":39.2167206711522,"lng":-84.54801041304513,"city_fetched":"Cincinnati,US","state":"OH","country":"United States","canonicalUrl":"https://foursquare.com/v/frickers/4b58ef98f964a5201b7428e3","categoryId":"4bf58dd8d48988d11d941735","category":"Sports Bar","checkinsCount":1231,"usersCount":532,"tipCount":17,"visitsCount":1442,"url":"http://www.frickers.com","tier":"","message":"","currency":"","rating":5.8},{"name":"Bad Tom Brewing","phone":"5138714677","twitter":"badtombrewing","address":"4720 Eastern Ave","lat":39.119847,"lng":-84.418375,"neighborhood":"Linwood","city_fetched":"Cincinnati,US","state":"OH","country":"United States","canonicalUrl":"https://foursquare.com/v/bad-tom-brewing/4eff2c20490182a1a702d379","categoryId":"50327c8591d4c4b30a586d5d","category":"Brewery","checkinsCount":240,"usersCount":215,"tipCount":4,"visitsCount":313,"url":"http://badtombrewing.com","tier":"","message":"","currency":"","rating":5.8},{"name":"Tap & Screw Brewery","lat":39.1281084439685,"lng":-84.60739714122965,"neighborhood":"Westwood","city_fetched":"Cincinnati,US","state":"OH","country":"United States","canonicalUrl":"https://foursquare.com/v/tap--screw-brewery/5494b0bf498ecffa719dfc7a","categoryId":"50327c8591d4c4b30a586d5d","category":"Brewery","checkinsCount":129,"usersCount":105,"tipCount":1,"visitsCount":149,"tier":"","message":"","currency":"","rating":5.8},{"name":"Oneal's Anderson","address":"8251 Beechmont Ave","lat":39.07195188215522,"lng":-84.3273416967256,"city_fetched":"Cincinnati,US","state":"OH","country":"United States","canonicalUrl":"https://foursquare.com/v/oneals-anderson/4ef6a5b82c5b04450048003c","categoryId":"4bf58dd8d48988d116941735","category":"Bar","checkinsCount":737,"usersCount":182,"tipCount":2,"visitsCount":799,"tier":"","message":"","currency":"","rating":5.8},{"name":"The Vogue","phone":"5137611203","address":"8442 Vine St","lat":39.2169,"lng":-84.47381455,"neighborhood":"Hartwell","city_fetched":"Cincinnati,US","state":"OH","country":"United States","canonicalUrl":"https://foursquare.com/v/the-vogue/4bc7b90aaf07a59341d17f2d","categoryId":"4bf58dd8d48988d116941735","category":"Bar","checkinsCount":171,"usersCount":57,"tipCount":6,"visitsCount":189,"tier":"","message":"","currency":"","rating":5.8},{"name":"Uncle Woody's","phone":"5137512518","twitter":"unclewoodys","address":"339 Calhoun St","lat":39.12844,"lng":-84.52,"neighborhood":"CUF","city_fetched":"Cincinnati,US","state":"OH","country":"United States","canonicalUrl":"https://foursquare.com/v/uncle-woodys/4b5b260df964a5208fe628e3","categoryId":"4bf58dd8d48988d116941735","category":"Bar","checkinsCount":2670,"usersCount":701,"tipCount":14,"visitsCount":2691,"tier":"","message":"","currency":"","rating":5.7},{"name":"Daniels Pub","phone":"5132811026","address":"2735 Vine St","lat":39.13158719655802,"lng":-84.5096094668664,"neighborhood":"Corryville","city_fetched":"Cincinnati,US","state":"OH","country":"United States","canonicalUrl":"https://foursquare.com/v/daniels-pub/4c71d5d39e706dcbf0854962","categoryId":"4bf58dd8d48988d116941735","category":"Bar","checkinsCount":284,"usersCount":176,"tipCount":6,"visitsCount":339,"tier":"","message":"","currency":"","rating":5.7},{"name":"Bucketheads","address":"Harrison Ave. (Dent, OH)","lat":39.192061687069895,"lng":-84.65948551345026,"city_fetched":"Cincinnati,US","state":"OH","country":"United States","canonicalUrl":"https://foursquare.com/v/bucketheads/51197c7ce4b03bddbe568f1d","categoryId":"4bf58dd8d48988d116941735","category":"Bar","checkinsCount":154,"usersCount":92,"tipCount":3,"visitsCount":195,"tier":"","message":"","currency":"","rating":5.7},{"name":"The Dock Complex","phone":"5132415623","address":"603 W Pete Rose Way","lat":39.0952589985407,"lng":-84.52168896471791,"neighborhood":"Central Business District","city_fetched":"Cincinnati,US","state":"OH","country":"United States","canonicalUrl":"https://foursquare.com/v/the-dock-complex/4b48276af964a5202e4926e3","categoryId":"4bf58dd8d48988d1d8941735","category":"Gay Bar","checkinsCount":1872,"usersCount":652,"tipCount":12,"visitsCount":2055,"url":"http://www.thedockcomplex.com","tier":"","message":"","currency":"","rating":5.7},{"name":"Plum Street Cafe","phone":"5136514341","address":"423 Plum St","lat":39.100094,"lng":-84.51764164,"neighborhood":"Central Business District","city_fetched":"Cincinnati,US","state":"OH","country":"United States","canonicalUrl":"https://foursquare.com/v/plum-street-cafe/4b4c2629f964a520dbae26e3","categoryId":"4bf58dd8d48988d116941735","category":"Bar","checkinsCount":1089,"usersCount":364,"tipCount":4,"visitsCount":1165,"tier":"","message":"","currency":"","rating":5.7},{"name":"Japp's Annex","phone":"5133811524","address":"1136 Main St.","lat":39.108931196318416,"lng":-84.51162203689908,"neighborhood":"Over-The Rhine","city_fetched":"Cincinnati,US","state":"OH","country":"United States","canonicalUrl":"https://foursquare.com/v/japps-annex/4effec8329c201c6fd79b47a","categoryId":"4bf58dd8d48988d11e941735","category":"Cocktail Bar","checkinsCount":642,"usersCount":289,"tipCount":3,"visitsCount":654,"url":"https://wellmannsbrands.com/japps1879/annex/","tier":"","message":"","currency":"","rating":5.5},{"name":"Grammer's","address":"1440 Walnut St","lat":39.112194,"lng":-84.513481,"neighborhood":"Over-The Rhine","city_fetched":"Cincinnati,US","state":"OH","country":"United States","canonicalUrl":"https://foursquare.com/v/grammers/5244cdb111d2255b213cf91a","categoryId":"4bf58dd8d48988d117941735","category":"Beer Garden","checkinsCount":129,"usersCount":107,"tipCount":0,"visitsCount":131,"tier":"","message":"","currency":"","rating":5.3},{"name":"Animations","phone":"5138717606","address":"3059 Madison Rd.","lat":39.15194811666667,"lng":-84.43187762,"neighborhood":"Oakley","city_fetched":"Cincinnati,US","state":"OH","country":"United States","canonicalUrl":"https://foursquare.com/v/animations/4bfdc7464cf820a16908edf4","categoryId":"4bf58dd8d48988d116941735","category":"Bar","checkinsCount":2143,"usersCount":762,"tipCount":14,"visitsCount":2196,"tier":2,"message":"Moderate","currency":"$","rating":5.2}]