[{"name":"Claremont Craft Ales","phone":"9096255350","twitter":"claremontbeer","address":"1420 N Claremont Blvd Ste 204","lat":34.10918046447047,"lng":-117.70182434174255,"city_fetched":"Claremont,US","state":"CA","country":"United States","canonicalUrl":"https://foursquare.com/v/claremont-craft-ales/5019c4f7e4b0c236becb8881","categoryId":"50327c8591d4c4b30a586d5d","category":"Brewery","checkinsCount":1327,"usersCount":801,"tipCount":25,"visitsCount":1937,"url":"http://claremontcraftales.com","tier":1,"message":"Cheap","currency":"$","rating":8.9},{"name":"Hamilton Family Brewery","phone":"9092612870","twitter":"hamfambrew","address":"9795 Seventh Street, Suite 803","lat":34.08791969053171,"lng":-117.592072783667,"neighborhood":"Southwest Rancho Cucamonga","city_fetched":"Claremont,US","state":"CA","country":"United States","canonicalUrl":"https://foursquare.com/v/hamilton-family-brewery/533a1a9211d22ef54e59d3f1","categoryId":"50327c8591d4c4b30a586d5d","category":"Brewery","checkinsCount":288,"usersCount":248,"tipCount":6,"visitsCount":465,"url":"http://hamiltonfamilybrewery.com","tier":"","message":"","currency":"","rating":8.8},{"name":"Dale Bros. Brewery","phone":"9095790032","twitter":"dalebrosbrewery","address":"2120 Porter Field Way","lat":34.10929602859345,"lng":-117.6908377502766,"city_fetched":"Claremont,US","state":"CA","country":"United States","canonicalUrl":"https://foursquare.com/v/dale-bros-brewery/4ccc89e7c9b84688fa9cbdc3","categoryId":"50327c8591d4c4b30a586d5d","category":"Brewery","checkinsCount":1676,"usersCount":917,"tipCount":20,"visitsCount":2350,"url":"http://www.dalebrosbrewery.com","tier":2,"message":"Moderate","currency":"$","rating":8.7},{"name":"Limericks Tavern","phone":"9099850120","twitter":"limerickstavern","address":"1234 W Foothill Blvd","lat":34.10558944032852,"lng":-117.67121150269693,"city_fetched":"Claremont,US","state":"CA","country":"United States","canonicalUrl":"https://foursquare.com/v/limericks-tavern/4db7eb8a1e7206c23cfc59b3","categoryId":"4bf58dd8d48988d11b941735","category":"Pub","checkinsCount":1235,"usersCount":591,"tipCount":16,"visitsCount":1464,"url":"http://www.limerickstavern.com","tier":2,"message":"Moderate","currency":"$","rating":8.5},{"name":"Chino Valley Brewery","phone":"9512917117","twitter":"chinovalleybrew","address":"1609 S Grove Ave Ste 109","lat":34.04446052407374,"lng":-117.62786150575481,"city_fetched":"Claremont,US","state":"CA","country":"United States","canonicalUrl":"https://foursquare.com/v/chino-valley-brewery/501323f1e4b00c72b65e91d4","categoryId":"50327c8591d4c4b30a586d5d","category":"Brewery","checkinsCount":660,"usersCount":107,"tipCount":9,"visitsCount":767,"url":"http://chinovalleybrewery.com","tier":1,"message":"Cheap","currency":"$","rating":8.4},{"name":"The Whisper House","twitter":"thewhisperhouse","address":"502 W 1st St","lat":34.09420118318834,"lng":-117.72112663955969,"neighborhood":"Village","city_fetched":"Claremont,US","state":"CA","country":"United States","canonicalUrl":"https://foursquare.com/v/the-whisper-house/55a2ea11498ebf3dc3cf1942","categoryId":"4bf58dd8d48988d116941735","category":"Bar","checkinsCount":251,"usersCount":184,"tipCount":2,"visitsCount":284,"tier":"","message":"","currency":"","rating":8.2},{"name":"Old Stump Brewing Co.","address":"2896 Metropolitan Pl","lat":34.09763182542438,"lng":-117.7539416729735,"city_fetched":"Claremont,US","state":"CA","country":"United States","canonicalUrl":"https://foursquare.com/v/old-stump-brewing-co/55692b91498e7a84d118844d","categoryId":"50327c8591d4c4b30a586d5d","category":"Brewery","checkinsCount":144,"usersCount":186,"tipCount":3,"visitsCount":327,"url":"http://oldstumpbrewery.com","tier":"","message":"","currency":"","rating":8.1},{"name":"The Sycamore Inn","phone":"9099821104","address":"8318 Foothill Blvd","lat":34.105475,"lng":-117.62359,"city_fetched":"Claremont,US","state":"CA","country":"United States","canonicalUrl":"https://foursquare.com/v/the-sycamore-inn/4af064a5f964a520a7db21e3","categoryId":"4bf58dd8d48988d123941735","category":"Wine Bar","checkinsCount":1037,"usersCount":606,"tipCount":18,"visitsCount":1392,"url":"http://www.thesycamoreinn.com","tier":2,"message":"Moderate","currency":"$","rating":8.1},{"name":"Piano Piano","phone":"9095474266","twitter":"pianopianodt","address":"555 W Foothill Blvd","lat":34.10733573,"lng":-117.72303,"neighborhood":"Foothill Boulevard Corridor","city_fetched":"Claremont,US","state":"CA","country":"United States","canonicalUrl":"https://foursquare.com/v/piano-piano/4b10c4cff964a520957523e3","categoryId":"4bf58dd8d48988d116941735","category":"Bar","checkinsCount":2294,"usersCount":1422,"tipCount":24,"visitsCount":2376,"url":"http://duelingpianopiano.com","tier":2,"message":"Moderate","currency":"$","rating":8.1},{"name":"No Clue Craft Brewery","address":"9037 Arrow Rte #170","lat":34.098189861756204,"lng":-117.60813699660505,"neighborhood":"Southwest Rancho Cucamonga","city_fetched":"Claremont,US","state":"CA","country":"United States","canonicalUrl":"https://foursquare.com/v/no-clue-craft-brewery/53544302498e523034ea0bd0","categoryId":"50327c8591d4c4b30a586d5d","category":"Brewery","checkinsCount":409,"usersCount":190,"tipCount":5,"visitsCount":656,"url":"http://nocluebrew.com","tier":"","message":"","currency":"","rating":7.9},{"name":"Casa 425","phone":"9096242272","address":"499 W 1st St.","lat":34.09503017618913,"lng":-117.72034771316466,"neighborhood":"Village","city_fetched":"Claremont,US","state":"CA","country":"United States","canonicalUrl":"https://foursquare.com/v/casa-425/4b5be327f964a520b31b29e3","categoryId":"4bf58dd8d48988d1d5941735","category":"Hotel Bar","checkinsCount":1255,"usersCount":592,"tipCount":15,"visitsCount":1271,"url":"http://casa425.com","tier":"","message":"","currency":"","rating":7.9},{"name":"Innovation Brew Works","address":"3650 W Temple Ave","lat":34.04978210091503,"lng":-117.81492321035181,"city_fetched":"Claremont,US","state":"CA","country":"United States","canonicalUrl":"https://foursquare.com/v/innovation-brew-works/549203cf498ed65f02c30f1c","categoryId":"50327c8591d4c4b30a586d5d","category":"Brewery","checkinsCount":175,"usersCount":302,"tipCount":3,"visitsCount":433,"url":"http://ibrewworks.com","tier":"","message":"","currency":"","rating":7.8},{"name":"I & I Brewing","phone":"9095913915","twitter":"iandibrewing","address":"5135 Edison Ave Ste 1","lat":33.996864599018245,"lng":-117.6926077922512,"city_fetched":"Claremont,US","state":"CA","country":"United States","canonicalUrl":"https://foursquare.com/v/i--i-brewing/4eab4b1f6da1cafdae4ac14d","categoryId":"50327c8591d4c4b30a586d5d","category":"Brewery","checkinsCount":598,"usersCount":299,"tipCount":9,"visitsCount":766,"url":"http://www.iandibrewing.com","tier":"","message":"","currency":"","rating":7.7},{"name":"340nightclub","phone":"9098659340","twitter":"340nightclub","address":"340 S Thomas St","lat":34.05628609269568,"lng":-117.75088548660278,"neighborhood":"Downtown Pomona","city_fetched":"Claremont,US","state":"CA","country":"United States","canonicalUrl":"https://foursquare.com/v/340nightclub/4e6895a3b3ad5d9197542a4d","categoryId":"4bf58dd8d48988d1d8941735","category":"Gay Bar","checkinsCount":2910,"usersCount":814,"tipCount":10,"visitsCount":3027,"url":"http://www.340nightclub.com","tier":2,"message":"Moderate","currency":"$","rating":7.7},{"name":"Tilted Kilt Chino","phone":"9095915200","twitter":"tiltedkiltpub","address":"3919 Grand Ave","lat":33.99782786336281,"lng":-117.71882994280654,"city_fetched":"Claremont,US","state":"CA","country":"United States","canonicalUrl":"https://foursquare.com/v/tilted-kilt-chino/5238ae5f7e4819c68c0b678d","categoryId":"4bf58dd8d48988d11d941735","category":"Sports Bar","checkinsCount":905,"usersCount":580,"tipCount":13,"visitsCount":1069,"url":"http://www.tiltedkilt.com","tier":2,"message":"Moderate","currency":"$","rating":7.7},{"name":"Dba 256 Wine Bar","phone":"9096237600","twitter":"songkick","address":"299 W 3rd St","lat":34.05695274333527,"lng":-117.75219440460205,"neighborhood":"Downtown Pomona","city_fetched":"Claremont,US","state":"CA","country":"United States","canonicalUrl":"https://foursquare.com/v/dba-256-wine-bar/4b88aafef964a520ba0732e3","categoryId":"4bf58dd8d48988d116941735","category":"Bar","checkinsCount":1832,"usersCount":867,"tipCount":18,"visitsCount":1950,"url":"http://dba256.com","tier":"","message":"","currency":"","rating":7.6},{"name":"Montana's","phone":"9095922211","address":"657 W Arrow Hwy","lat":34.10615417632739,"lng":-117.8175335540756,"city_fetched":"Claremont,US","state":"CA","country":"United States","canonicalUrl":"https://foursquare.com/v/montanas/4b6e6dc7f964a52023bd2ce3","categoryId":"4bf58dd8d48988d11f941735","category":"Nightclub","checkinsCount":1608,"usersCount":799,"tipCount":9,"visitsCount":1751,"url":"http://dancingatmontanas.com","tier":2,"message":"Moderate","currency":"$","rating":7.6},{"name":"The Sand Bar","phone":"9096240586","address":"5363 Arrow Hwy","lat":34.09211618408608,"lng":-117.68804803845237,"city_fetched":"Claremont,US","state":"CA","country":"United States","canonicalUrl":"https://foursquare.com/v/the-sand-bar/50f49be6e4b06675ba5b5227","categoryId":"4bf58dd8d48988d116941735","category":"Bar","checkinsCount":124,"usersCount":60,"tipCount":3,"visitsCount":138,"tier":"","message":"","currency":"","rating":7.5},{"name":"Sanctum Brewing Co.","twitter":"sanctumbrewco","address":"560 E Commercial St #21","lat":34.059494,"lng":-117.739742,"city_fetched":"Claremont,US","state":"CA","country":"United States","canonicalUrl":"https://foursquare.com/v/sanctum-brewing-co/52e30270498e082e80429051","categoryId":"50327c8591d4c4b30a586d5d","category":"Brewery","checkinsCount":366,"usersCount":247,"tipCount":10,"visitsCount":528,"url":"http://sanctumbrewing.com","tier":1,"message":"Cheap","currency":"$","rating":7.5},{"name":"Rawken Sushi Lounge","phone":"9096296800","address":"135 2nd St","lat":34.058102,"lng":-117.749801,"neighborhood":"Downtown Pomona","city_fetched":"Claremont,US","state":"CA","country":"United States","canonicalUrl":"https://foursquare.com/v/rawken-sushi-lounge/50f8bed1e4b01f65190ba576","categoryId":"4bf58dd8d48988d121941735","category":"Lounge","checkinsCount":247,"usersCount":133,"tipCount":9,"visitsCount":251,"url":"http://rawkensushi.com","tier":2,"message":"Moderate","currency":"$","rating":7.5},{"name":"That 80's Bar","address":"10555 Mills Ave","lat":34.062112,"lng":-117.717302,"city_fetched":"Claremont,US","state":"CA","country":"United States","canonicalUrl":"https://foursquare.com/v/that-80s-bar/51d4d83b698f51864643cd07","categoryId":"4bf58dd8d48988d116941735","category":"Bar","checkinsCount":355,"usersCount":363,"tipCount":9,"visitsCount":533,"tier":"","message":"","currency":"","rating":7.5},{"name":"Chase's Wine And Beer Bar","phone":"9095966810","address":"2136 3rd St","lat":34.10027595,"lng":-117.76956591666666,"city_fetched":"Claremont,US","state":"CA","country":"United States","canonicalUrl":"https://foursquare.com/v/chases-wine-and-beer-bar/4e3dfdebd22d102e854a578e","categoryId":"4bf58dd8d48988d123941735","category":"Wine Bar","checkinsCount":448,"usersCount":184,"tipCount":8,"visitsCount":473,"tier":"","message":"","currency":"","rating":7.5},{"name":"Galli's","phone":"9099411100","address":"6620 Carnelian St","lat":34.13407989489828,"lng":-117.61688232421875,"city_fetched":"Claremont,US","state":"CA","country":"United States","canonicalUrl":"https://foursquare.com/v/gallis/44e38422f964a52044371fe3","categoryId":"4bf58dd8d48988d116941735","category":"Bar","checkinsCount":433,"usersCount":174,"tipCount":9,"visitsCount":445,"url":"http://gallis.net","tier":"","message":"","currency":"","rating":7.4},{"name":"Heroes & Legends Bar & Grill","address":"131 Yale Ave","lat":34.09534632834714,"lng":-117.71798800447725,"neighborhood":"Village","city_fetched":"Claremont,US","state":"CA","country":"United States","canonicalUrl":"https://foursquare.com/v/heroes--legends-bar--grill/4b10aa4cf964a5208f7423e3","categoryId":"4bf58dd8d48988d11b941735","category":"Pub","checkinsCount":2287,"usersCount":1063,"tipCount":29,"visitsCount":2312,"tier":"","message":"","currency":"","rating":7.4},{"name":"Septembers Taproom & Eatery","address":"6331 Haven Ave","lat":34.139357,"lng":-117.575386,"city_fetched":"Claremont,US","state":"CA","country":"United States","canonicalUrl":"https://foursquare.com/v/septembers-taproom--eatery/547037c8498eab44b4fb6737","categoryId":"4bf58dd8d48988d11d941735","category":"Sports Bar","checkinsCount":272,"usersCount":215,"tipCount":3,"visitsCount":519,"url":"http://septembers.com","tier":"","message":"","currency":"","rating":7.4},{"name":"RÃ¶k House Brewing Company","phone":"9099810020","twitter":"rokhousebrewing","address":"1939 W 11th St","lat":34.10419486748029,"lng":-117.68834591521087,"city_fetched":"Claremont,US","state":"CA","country":"United States","canonicalUrl":"https://foursquare.com/v/r%C3%B6k-house-brewing-company/53af4937498e7b0d7953948c","categoryId":"50327c8591d4c4b30a586d5d","category":"Brewery","checkinsCount":200,"usersCount":200,"tipCount":4,"visitsCount":437,"url":"http://rokhousebrewing.com","tier":"","message":"","currency":"","rating":7.4},{"name":"Lordsburg Taphouse & Grill","address":"2335 D St","lat":34.10110014476881,"lng":-117.7702095886589,"city_fetched":"Claremont,US","state":"CA","country":"United States","canonicalUrl":"https://foursquare.com/v/lordsburg-taphouse--grill/51aba6dc498ef112aae70061","categoryId":"4bf58dd8d48988d116941735","category":"Bar","checkinsCount":530,"usersCount":308,"tipCount":3,"visitsCount":680,"url":"http://lordsburgtaphouse.com","tier":"","message":"","currency":"","rating":7.3},{"name":"Characters Sportsbar","address":"276 E 1st St","lat":34.05825114412566,"lng":-117.74831256072018,"neighborhood":"Downtown Pomona","city_fetched":"Claremont,US","state":"CA","country":"United States","canonicalUrl":"https://foursquare.com/v/characters-sportsbar/4b403da7f964a52016b725e3","categoryId":"4bf58dd8d48988d116941735","category":"Bar","checkinsCount":1143,"usersCount":480,"tipCount":10,"visitsCount":1203,"tier":1,"message":"Cheap","currency":"$","rating":7.3},{"name":"La Verne Brewing Co.","address":"2125 Wright Ave Ste C15","lat":34.09542086736345,"lng":-117.77183000301834,"city_fetched":"Claremont,US","state":"CA","country":"United States","canonicalUrl":"https://foursquare.com/v/la-verne-brewing-co/5171ec81e4b01233a525ec01","categoryId":"50327c8591d4c4b30a586d5d","category":"Brewery","checkinsCount":225,"usersCount":175,"tipCount":6,"visitsCount":366,"tier":"","message":"","currency":"","rating":7.2},{"name":"Eden Garden Fusion Grill","address":"392 E. A St.","lat":34.094588841810676,"lng":-117.64580202925566,"city_fetched":"Claremont,US","state":"CA","country":"United States","canonicalUrl":"https://foursquare.com/v/eden-garden-fusion-grill/5016075ae4b001b33a04da7c","categoryId":"4bf58dd8d48988d119941735","category":"Hookah Bar","checkinsCount":319,"usersCount":173,"tipCount":6,"visitsCount":369,"url":"http://edenfusiongrill.com","tier":"","message":"","currency":"","rating":7.1},{"name":"Packing House Wine Merchants","phone":"9094459463","address":"540 W 1st St","lat":34.09447616301678,"lng":-117.72139009921987,"neighborhood":"Village","city_fetched":"Claremont,US","state":"CA","country":"United States","canonicalUrl":"https://foursquare.com/v/packing-house-wine-merchants/4b510aeef964a5203f3f27e3","categoryId":"4bf58dd8d48988d123941735","category":"Wine Bar","checkinsCount":312,"usersCount":232,"tipCount":11,"visitsCount":317,"url":"http://www.packinghousewines.com","tier":"","message":"","currency":"","rating":7.1},{"name":"House of Wings Sports Bar","phone":"9095964466","address":"2317 D St, University of La Verne, La Verne, CA 91750","lat":34.100952834457786,"lng":-117.77023821801136,"city_fetched":"Claremont,US","state":"CA","country":"United States","canonicalUrl":"https://foursquare.com/v/house-of-wings-sports-bar/4f809661e4b0d99659eec854","categoryId":"4bf58dd8d48988d11d941735","category":"Sports Bar","checkinsCount":798,"usersCount":390,"tipCount":12,"visitsCount":888,"url":"http://houseofwingssportsbar.com","tier":"","message":"","currency":"","rating":7.1},{"name":"The Black Watch Pub & Restaurant","phone":"9099816069","address":"497 N Central Ave","lat":34.0991926,"lng":-117.69033728427928,"city_fetched":"Claremont,US","state":"CA","country":"United States","canonicalUrl":"https://foursquare.com/v/the-black-watch-pub--restaurant/4bd6559f5631c9b691d4a530","categoryId":"4bf58dd8d48988d116941735","category":"Bar","checkinsCount":758,"usersCount":473,"tipCount":9,"visitsCount":1093,"url":"http://theblackwatchpub.com","tier":"","message":"","currency":"","rating":7.1},{"name":"Second Avenue Saloon & Sports Bar","phone":"9099461750","address":"271 N 2nd Ave","lat":34.09698311671083,"lng":-117.64864966531783,"city_fetched":"Claremont,US","state":"CA","country":"United States","canonicalUrl":"https://foursquare.com/v/second-avenue-saloon--sports-bar/4b8dfa6cf964a520171533e3","categoryId":"4bf58dd8d48988d116941735","category":"Bar","checkinsCount":1613,"usersCount":769,"tipCount":13,"visitsCount":1661,"url":"http://www.upland2ndstreetbaran.com","tier":"","message":"","currency":"","rating":7},{"name":"Metro Ale House & Grill","phone":"9095654114","address":"197 E 2nd St","lat":34.0580300379739,"lng":-117.74925743892157,"neighborhood":"Downtown Pomona","city_fetched":"Claremont,US","state":"CA","country":"United States","canonicalUrl":"https://foursquare.com/v/metro-ale-house--grill/55002c05498e14dc1ec5ed64","categoryId":"4bf58dd8d48988d11b941735","category":"Pub","checkinsCount":82,"usersCount":106,"tipCount":15,"visitsCount":130,"url":"http://www.metroalehouse.com","tier":"","message":"","currency":"","rating":7},{"name":"Alibi East","phone":"9096239422","address":"255 S San Antonio Ave","lat":34.057907,"lng":-117.73727947,"city_fetched":"Claremont,US","state":"CA","country":"United States","canonicalUrl":"https://foursquare.com/v/alibi-east/4be4f4a0910020a15e85d214","categoryId":"4bf58dd8d48988d116941735","category":"Bar","checkinsCount":2260,"usersCount":527,"tipCount":18,"visitsCount":2695,"url":"http://www.alibieast.com","tier":1,"message":"Cheap","currency":"$","rating":7},{"name":"HK's Bar & Grill","phone":"9099892220","address":"9740 19th St","lat":34.133961,"lng":-117.59299,"city_fetched":"Claremont,US","state":"CA","country":"United States","canonicalUrl":"https://foursquare.com/v/hks-bar--grill/51a178a2498e3a83e4c8978a","categoryId":"4bf58dd8d48988d116941735","category":"Bar","checkinsCount":228,"usersCount":126,"tipCount":5,"visitsCount":317,"url":"http://www.hksbarandgrill.com","tier":"","message":"","currency":"","rating":7},{"name":"Shamrock's Grill & Pub","phone":"9095978333","twitter":"spwdon","address":"4020 Chino Hills Pkwy","lat":33.98351338015642,"lng":-117.716853959075,"city_fetched":"Claremont,US","state":"CA","country":"United States","canonicalUrl":"https://foursquare.com/v/shamrocks-grill--pub/4bbc190d3de8c9b6a0aa9aad","categoryId":"4bf58dd8d48988d11b941735","category":"Pub","checkinsCount":1774,"usersCount":702,"tipCount":16,"visitsCount":1865,"url":"http://shamrocks-pubandgrill.com","tier":"","message":"","currency":"","rating":7},{"name":"Deane's Bar & Thrill","phone":"9096081134","address":"8108 San Bernardino Rd","lat":34.10504857634142,"lng":-117.62836576605838,"neighborhood":"Southwest Rancho Cucamonga","city_fetched":"Claremont,US","state":"CA","country":"United States","canonicalUrl":"https://foursquare.com/v/deanes-bar--thrill/4b3c46a2f964a5208e8325e3","categoryId":"4bf58dd8d48988d116941735","category":"Bar","checkinsCount":940,"usersCount":309,"tipCount":6,"visitsCount":1169,"tier":"","message":"","currency":"","rating":6.9},{"name":"Hi Brow","address":"547 E Foothill Blvd","lat":34.107365506507456,"lng":-117.73924148481173,"city_fetched":"Claremont,US","state":"CA","country":"United States","canonicalUrl":"https://foursquare.com/v/hi-brow/4b99f7fbf964a520259935e3","categoryId":"4bf58dd8d48988d116941735","category":"Bar","checkinsCount":524,"usersCount":204,"tipCount":4,"visitsCount":548,"tier":"","message":"","currency":"","rating":6.9},{"name":"Hi Brow","phone":"9099829000","address":"925 W Foothill Blvd","lat":34.10791252715283,"lng":-117.66356324028753,"city_fetched":"Claremont,US","state":"CA","country":"United States","canonicalUrl":"https://foursquare.com/v/hi-brow/4b5cab5cf964a520553d29e3","categoryId":"4bf58dd8d48988d118941735","category":"Dive Bar","checkinsCount":912,"usersCount":249,"tipCount":9,"visitsCount":999,"url":"http://hibrowsportsbars.com","tier":"","message":"","currency":"","rating":6.9},{"name":"Dillon's Restaurant & Irish Pub","phone":"9095916100","twitter":"dillonsch","address":"13920 City Center Dr","lat":33.999949303436566,"lng":-117.73039904947312,"city_fetched":"Claremont,US","state":"CA","country":"United States","canonicalUrl":"https://foursquare.com/dillonsch","categoryId":"4bf58dd8d48988d11b941735","category":"Pub","checkinsCount":2179,"usersCount":1166,"tipCount":17,"visitsCount":2282,"url":"http://dillonsirishpub.com","tier":2,"message":"Moderate","currency":"$","rating":6.8},{"name":"Sinners Hookah Lounge","phone":"9096296666","address":"130 E 1st St","lat":34.05834,"lng":-117.74964586,"neighborhood":"Downtown Pomona","city_fetched":"Claremont,US","state":"CA","country":"United States","canonicalUrl":"https://foursquare.com/v/sinners-hookah-lounge/4ce77661fe90a35dbab53c0e","categoryId":"4bf58dd8d48988d119941735","category":"Hookah Bar","checkinsCount":332,"usersCount":175,"tipCount":4,"visitsCount":341,"tier":"","message":"","currency":"","rating":6.8},{"name":"The Hook-Up","phone":"9096202844","address":"1047 E 2nd St","lat":34.05829846858978,"lng":-117.73617625236511,"city_fetched":"Claremont,US","state":"CA","country":"United States","canonicalUrl":"https://foursquare.com/v/the-hookup/4ba1a8a7f964a52069c637e3","categoryId":"4bf58dd8d48988d1d8941735","category":"Gay Bar","checkinsCount":1238,"usersCount":359,"tipCount":9,"visitsCount":1483,"url":"http://www.hook-up.net","tier":1,"message":"Cheap","currency":"$","rating":6.8},{"name":"Velvet Room","phone":"9099896161","address":"4323 Mills Cir","lat":34.07489256463794,"lng":-117.55679547786713,"city_fetched":"Claremont,US","state":"CA","country":"United States","canonicalUrl":"https://foursquare.com/v/velvet-room/4ba83ba9f964a5208ad239e3","categoryId":"4bf58dd8d48988d119941735","category":"Hookah Bar","checkinsCount":1128,"usersCount":395,"tipCount":8,"visitsCount":1145,"url":"http://velvetroomontario.com","tier":"","message":"","currency":"","rating":6.8},{"name":"Sixty6 Sports Lounge","phone":"9094669900","address":"8916 Foothill Blvd Ste K1","lat":34.107302376145014,"lng":-117.61071012440205,"city_fetched":"Claremont,US","state":"CA","country":"United States","canonicalUrl":"https://foursquare.com/v/sixty6-sports-lounge/51fc69b0498e1b1295a41629","categoryId":"4bf58dd8d48988d11d941735","category":"Sports Bar","checkinsCount":302,"usersCount":157,"tipCount":5,"visitsCount":312,"url":"http://rancho66.com","tier":"","message":"","currency":"","rating":6.7},{"name":"Tequila Hoppers","phone":"9099859114","twitter":"tqhoppers","address":"60 N Mountain","lat":34.094759851635985,"lng":-117.66975062272718,"city_fetched":"Claremont,US","state":"CA","country":"United States","canonicalUrl":"https://foursquare.com/v/tequila-hoppers/4bb663606edc76b005dc301c","categoryId":"4bf58dd8d48988d11d941735","category":"Sports Bar","checkinsCount":2064,"usersCount":953,"tipCount":23,"visitsCount":2351,"url":"http://www.tequilahoppers.com","tier":"","message":"","currency":"","rating":6.7},{"name":"The Office Bar","phone":"9099475627","address":"2425 S Grove Ave","lat":34.02875543,"lng":-117.62754003333333,"city_fetched":"Claremont,US","state":"CA","country":"United States","canonicalUrl":"https://foursquare.com/v/the-office-bar/4e18086c183880768f3ce29f","categoryId":"4bf58dd8d48988d117941735","category":"Beer Garden","checkinsCount":617,"usersCount":247,"tipCount":6,"visitsCount":769,"tier":"","message":"","currency":"","rating":6.6},{"name":"Porter's Sports Grill","phone":"9099814700","address":"1041 E 16th St","lat":34.12190016250069,"lng":-117.63700101473644,"city_fetched":"Claremont,US","state":"CA","country":"United States","canonicalUrl":"https://foursquare.com/v/porters-sports-grill/4fb97799e4b06428af4bb753","categoryId":"4bf58dd8d48988d11d941735","category":"Sports Bar","checkinsCount":284,"usersCount":101,"tipCount":5,"visitsCount":296,"url":"http://www.roundin3rd.com","tier":"","message":"","currency":"","rating":6.6},{"name":"Wingnuts","phone":"9093911500","address":"1520 N Mountain Ave","lat":34.08645413961651,"lng":-117.66968263333334,"neighborhood":"Mountain Village","city_fetched":"Claremont,US","state":"CA","country":"United States","canonicalUrl":"https://foursquare.com/v/wingnuts/4b7afd3df964a5206f4a2fe3","categoryId":"4bf58dd8d48988d11d941735","category":"Sports Bar","checkinsCount":1859,"usersCount":777,"tipCount":20,"visitsCount":1940,"url":"http://wingnuts.biz","tier":"","message":"","currency":"","rating":6.6},{"name":"Kelly's Sports Bar & Billiards","phone":"9095918770","address":"5402 Philadelphia St Ste K","lat":34.03451813463636,"lng":-117.68694245325854,"city_fetched":"Claremont,US","state":"CA","country":"United States","canonicalUrl":"https://foursquare.com/v/kellys-sports-bar--billiards/4bcbe7d3511f9521fe51b2c7","categoryId":"4bf58dd8d48988d11b941735","category":"Pub","checkinsCount":1110,"usersCount":461,"tipCount":8,"visitsCount":1216,"url":"http://kellysnyc.com","tier":2,"message":"Moderate","currency":"$","rating":6.5},{"name":"Club Carnaval","address":"342 S Thomas St","lat":34.05641778483751,"lng":-117.75094675459876,"neighborhood":"Downtown Pomona","city_fetched":"Claremont,US","state":"CA","country":"United States","canonicalUrl":"https://foursquare.com/v/club-carnaval/4ccd13caba0a54818c8d4159","categoryId":"4bf58dd8d48988d11f941735","category":"Nightclub","checkinsCount":324,"usersCount":241,"tipCount":3,"visitsCount":324,"tier":"","message":"","currency":"","rating":6.5},{"name":"Vive Tequila Lounge & Nightclub","address":"235 W 3rd St","lat":34.05691614,"lng":-117.75122531,"neighborhood":"Downtown Pomona","city_fetched":"Claremont,US","state":"CA","country":"United States","canonicalUrl":"https://foursquare.com/v/vive-tequila-lounge--nightclub/4e87e5b44690327365711725","categoryId":"4bf58dd8d48988d121941735","category":"Lounge","checkinsCount":707,"usersCount":429,"tipCount":7,"visitsCount":730,"tier":"","message":"","currency":"","rating":6.4},{"name":"Flappers Comedy Club","phone":"8188459721","address":"532 W 1st St","lat":34.09436394921946,"lng":-117.72158483003321,"neighborhood":"Village","city_fetched":"Claremont,US","state":"CA","country":"United States","canonicalUrl":"https://foursquare.com/v/flappers-comedy-club/4c1d7cb6b9f876b0a1c77d46","categoryId":"4bf58dd8d48988d11a941735","category":"Other Nightlife","checkinsCount":383,"usersCount":215,"tipCount":3,"visitsCount":385,"url":"http://www.flapperscomedy.com","tier":"","message":"","currency":"","rating":6.4},{"name":"Bleachers Sports Bar","phone":"9094642078","address":"3757 Riverside Dr","lat":34.018389,"lng":-117.722749,"city_fetched":"Claremont,US","state":"CA","country":"United States","canonicalUrl":"https://foursquare.com/v/bleachers-sports-bar/4c28236bfe6e2d7f03e7523c","categoryId":"4bf58dd8d48988d11d941735","category":"Sports Bar","checkinsCount":937,"usersCount":163,"tipCount":2,"visitsCount":1074,"url":"http://bleacherssportsbarandgrill.com","tier":"","message":"","currency":"","rating":6.4},{"name":"Corral Bar & Grill","phone":"9096135995","twitter":"corralbar_grill","address":"12345 Mountain Ave Ste A2","lat":34.028653,"lng":-117.66681,"city_fetched":"Claremont,US","state":"CA","country":"United States","canonicalUrl":"https://foursquare.com/v/corral-bar--grill/4b6d3430f964a5205c6b2ce3","categoryId":"4bf58dd8d48988d116941735","category":"Bar","checkinsCount":295,"usersCount":108,"tipCount":5,"visitsCount":296,"tier":"","message":"","currency":"","rating":6.4},{"name":"Sahara Cafe","lat":34.03193916,"lng":-117.7721625,"city_fetched":"Claremont,US","state":"CA","country":"United States","canonicalUrl":"https://foursquare.com/v/sahara-cafe/4b88b143f964a520070932e3","categoryId":"4bf58dd8d48988d119941735","category":"Hookah Bar","checkinsCount":358,"usersCount":152,"tipCount":7,"visitsCount":358,"tier":"","message":"","currency":"","rating":6.3},{"name":"Goodfellas","address":"8034 Haven Ave","lat":34.1077737525269,"lng":-117.57632246154685,"city_fetched":"Claremont,US","state":"CA","country":"United States","canonicalUrl":"https://foursquare.com/v/goodfellas/4f924070e4b034eb655d328e","categoryId":"4bf58dd8d48988d116941735","category":"Bar","checkinsCount":957,"usersCount":296,"tipCount":8,"visitsCount":1202,"tier":"","message":"","currency":"","rating":6.2},{"name":"Hide-A-While","phone":"9099877247","address":"9469 Foothill Blvd","lat":34.10614842306382,"lng":-117.59819946694903,"neighborhood":"Southwest Rancho Cucamonga","city_fetched":"Claremont,US","state":"CA","country":"United States","canonicalUrl":"https://foursquare.com/v/hideawhile/4f19b495e4b00583e84a7379","categoryId":"4bf58dd8d48988d11e941735","category":"Cocktail Bar","checkinsCount":538,"usersCount":119,"tipCount":5,"visitsCount":580,"tier":"","message":"","currency":"","rating":6.2},{"name":"Happys Grille","phone":"9098619922","address":"23525 Palomino Dr","lat":34.023164,"lng":-117.80992355,"city_fetched":"Claremont,US","state":"CA","country":"United States","canonicalUrl":"https://foursquare.com/v/happys-grille/4bfc700c1be376b0b3b2f8b4","categoryId":"4bf58dd8d48988d11d941735","category":"Sports Bar","checkinsCount":1098,"usersCount":239,"tipCount":5,"visitsCount":1098,"tier":"","message":"","currency":"","rating":6.2},{"name":"Friar Tux Bar & Grill","address":"540 E Foothill Blvd","lat":34.106877158593385,"lng":-117.73924148481173,"city_fetched":"Claremont,US","state":"CA","country":"United States","canonicalUrl":"https://foursquare.com/v/friar-tux-bar--grill/4b7632def964a520e7422ee3","categoryId":"4bf58dd8d48988d118941735","category":"Dive Bar","checkinsCount":739,"usersCount":368,"tipCount":13,"visitsCount":743,"tier":"","message":"","currency":"","rating":6.2},{"name":"The Corner Bar","address":"13707 Central Ave","lat":34.004575,"lng":-117.688882,"city_fetched":"Claremont,US","state":"CA","country":"United States","canonicalUrl":"https://foursquare.com/v/the-corner-bar/4caaa629f47ea143950b8521","categoryId":"4bf58dd8d48988d118941735","category":"Dive Bar","checkinsCount":397,"usersCount":90,"tipCount":2,"visitsCount":401,"tier":"","message":"","currency":"","rating":6},{"name":"SkyFox Lounge","phone":"9095245690","address":"345 S Garey Ave","lat":34.0563668795444,"lng":-117.75035923,"neighborhood":"Downtown Pomona","city_fetched":"Claremont,US","state":"CA","country":"United States","canonicalUrl":"https://foursquare.com/v/skyfox-lounge/4cc3eb9380624688db78332f","categoryId":"4bf58dd8d48988d11f941735","category":"Nightclub","checkinsCount":547,"usersCount":273,"tipCount":5,"visitsCount":547,"tier":"","message":"","currency":"","rating":5.7},{"name":"Finish Line Sports Bar","address":"2201 N. White Ave.","lat":34.090853233333334,"lng":-117.76577955,"city_fetched":"Claremont,US","state":"CA","country":"United States","canonicalUrl":"https://foursquare.com/v/finish-line-sports-bar/4baeaca8f964a52086cd3be3","categoryId":"4bf58dd8d48988d11d941735","category":"Sports Bar","checkinsCount":612,"usersCount":459,"tipCount":8,"visitsCount":799,"tier":2,"message":"Moderate","currency":"$","rating":5.6},{"name":"Luna Lounge","address":"3220 Temple Ave.","lat":34.04685765372868,"lng":-117.80453871174323,"city_fetched":"Claremont,US","state":"CA","country":"United States","canonicalUrl":"https://foursquare.com/v/luna-lounge/4c6d9ddd10faa1434d69ee68","categoryId":"4bf58dd8d48988d11f941735","category":"Nightclub","checkinsCount":1020,"usersCount":551,"tipCount":9,"visitsCount":1112,"tier":"","message":"","currency":"","rating":5.5}]