[{"name":"Blackhorse Pub & Brewery","phone":"9315523726","twitter":"blackhorsenews","address":"132 Franklin St","lat":36.52745194561866,"lng":-87.35887173191924,"neighborhood":"Downtown Clarksville","city_fetched":"Clarksville","state":"TN","country":"United States","canonicalUrl":"https://foursquare.com/v/blackhorse-pub--brewery/4b4ff258f964a520101a27e3","category":"Brewery","checkinsCount":4319,"usersCount":2040,"tipCount":70,"visitsCount":4752,"url":"http://theblackhorsepub.net","tier":2,"message":"Moderate","currency":"$","rating":8.9},{"name":"The Gilroy Neighboorhood Pub Clarksville","phone":"9312339673","address":"140 University Ave","lat":36.52999274956313,"lng":-87.35356286119121,"neighborhood":"Downtown Clarksville","city_fetched":"Clarksville","state":"TN","country":"United States","canonicalUrl":"https://foursquare.com/v/the-gilroy-neighboorhood-pub-clarksville/4cac46128882199cddba46d4","category":"Pub","checkinsCount":2229,"usersCount":583,"tipCount":13,"visitsCount":2414,"url":"http://thegilroypubs.com","tier":"","message":"","currency":"","rating":8.2},{"name":"The Alley","address":"101 Strawberry Aly","lat":36.52788172848858,"lng":-87.36067030819372,"neighborhood":"Downtown Clarksville","city_fetched":"Clarksville","state":"TN","country":"United States","canonicalUrl":"https://foursquare.com/v/the-alley/520c415b498e898472722f85","category":"American Restaurant","checkinsCount":125,"usersCount":61,"tipCount":10,"visitsCount":137,"url":"http://thealleyclarksville.com","tier":"","message":"","currency":"","rating":7.9},{"name":"Tap Room","phone":"9315523726","twitter":"taproombar","address":"132 Franklin St","lat":36.527471,"lng":-87.358967,"neighborhood":"Downtown Clarksville","city_fetched":"Clarksville","state":"TN","country":"United States","canonicalUrl":"https://foursquare.com/v/tap-room/4bc1424c4cdfc9b6067e9421","category":"Bar","checkinsCount":1555,"usersCount":277,"tipCount":6,"visitsCount":1565,"url":"http://theblackhorsepub.net/#!tap-room/c3zk","tier":"","message":"","currency":"","rating":7.9},{"name":"Up In Smoke Cigars","phone":"9319191047","address":"101 Hatcher Ln Apt D","lat":36.563072297455776,"lng":-87.31094883665278,"neighborhood":"St. B.","city_fetched":"Clarksville","state":"TN","country":"United States","canonicalUrl":"https://foursquare.com/v/up-in-smoke-cigars/50b7ee40e4b0a43603c2114b","category":"Smoke Shop","checkinsCount":1081,"usersCount":80,"tipCount":6,"visitsCount":1204,"url":"http://upinsmoketn.com","tier":"","message":"","currency":"","rating":7.8},{"name":"O'Neal's Bar & Grill","phone":"9318025577","address":"1979 Madison St","lat":36.51413616060554,"lng":-87.29519340865629,"neighborhood":"Madison Street","city_fetched":"Clarksville","state":"TN","country":"United States","canonicalUrl":"https://foursquare.com/v/oneals-bar--grill/4b9725cdf964a52000fa34e3","category":"Bar","checkinsCount":630,"usersCount":201,"tipCount":10,"visitsCount":670,"tier":"","message":"","currency":"","rating":7.7},{"name":"Electric Cowboy","phone":"9318026777","address":"690 North Riverside Drive","lat":36.53933089374192,"lng":-87.36930832519293,"neighborhood":"River District","city_fetched":"Clarksville","state":"TN","country":"United States","canonicalUrl":"https://foursquare.com/v/electric-cowboy/4fe3d9f9e4b0ef61f4d5a06e","category":"Bar","checkinsCount":916,"usersCount":355,"tipCount":9,"visitsCount":1206,"url":"http://electriccowboy.com","tier":"","message":"","currency":"","rating":7.6},{"name":"Tipper's 2","address":"1471 Tiny Town Rd","lat":36.62561920454505,"lng":-87.36958459898742,"city_fetched":"Clarksville","state":"TN","country":"United States","canonicalUrl":"https://foursquare.com/v/tippers-2/4bac2964f964a52040e83ae3","category":"Bar","checkinsCount":497,"usersCount":174,"tipCount":7,"visitsCount":561,"tier":"","message":"","currency":"","rating":7.5},{"name":"The Night Deposit","phone":"9315536822","address":"404 N 2nd St","lat":36.53166,"lng":-87.36055,"city_fetched":"Clarksville","state":"TN","country":"United States","canonicalUrl":"https://foursquare.com/v/the-night-deposit/4cc3b53601fb236a06b8a7ba","category":"Bar","checkinsCount":395,"usersCount":112,"tipCount":2,"visitsCount":435,"tier":"","message":"","currency":"","rating":7.5},{"name":"Tilted Kilt Pub","phone":"9316455458","twitter":"tiltedkiltpub","address":"2709b Wilma Rudolph Blvd","lat":36.58749399107626,"lng":-87.29628568407996,"city_fetched":"Clarksville","state":"TN","country":"United States","canonicalUrl":"https://foursquare.com/v/tilted-kilt-pub/507eae13e4b0388f201bab23","category":"Pub","checkinsCount":739,"usersCount":605,"tipCount":20,"visitsCount":963,"url":"http://www.tiltedkilt.com","tier":2,"message":"Moderate","currency":"$","rating":7.4},{"name":"The Pea Patch","phone":"9315520153","address":"Franklin St","lat":36.528981,"lng":-87.35339368,"neighborhood":"Downtown Clarksville","city_fetched":"Clarksville","state":"TN","country":"United States","canonicalUrl":"https://foursquare.com/v/the-pea-patch/4bbb8f332d9ea593688f9fce","category":"Bar","checkinsCount":1316,"usersCount":305,"tipCount":10,"visitsCount":1359,"url":"http://thepeapatchclarksville.com","tier":"","message":"","currency":"","rating":7.1},{"name":"Wild Woody's Saloon","address":"700 N Riverside Dr","lat":36.539387820665716,"lng":-87.367107770194,"neighborhood":"River District","city_fetched":"Clarksville","state":"TN","country":"United States","canonicalUrl":"https://foursquare.com/v/wild-woodys-saloon/4d8e9b2dc479a35d6ed54a97","category":"Bar","checkinsCount":725,"usersCount":138,"tipCount":5,"visitsCount":762,"tier":"","message":"","currency":"","rating":6.9},{"name":"Tarboosh Hookah Bar","lat":36.527485,"lng":-87.35949,"neighborhood":"Downtown Clarksville","city_fetched":"Clarksville","state":"Tennessee","country":"United States","canonicalUrl":"https://foursquare.com/v/tarboosh-hookah-bar/4e6ae6b1aeb7c31e4346ddd3","category":"Hookah Bar","checkinsCount":1086,"usersCount":198,"tipCount":10,"visitsCount":1089,"tier":"","message":"","currency":"","rating":6.9},{"name":"Cloud 9","phone":"9313209659","address":"136 Franklin ST","lat":36.527575,"lng":-87.358774,"neighborhood":"Downtown Clarksville","city_fetched":"Clarksville","state":"TN","country":"United States","canonicalUrl":"https://foursquare.com/v/cloud-9/501094c0e4b0393995c64058","category":"Cocktail Bar","checkinsCount":293,"usersCount":126,"tipCount":3,"visitsCount":302,"tier":"","message":"","currency":"","rating":6.9},{"name":"O'Connors Irish Pub & Grill","phone":"9315422540","twitter":"oconnors_pub","address":"1198 Tylertown Rd","lat":36.63313727013813,"lng":-87.31576274695617,"city_fetched":"Clarksville","state":"TN","country":"United States","canonicalUrl":"https://foursquare.com/v/oconnors-irish-pub--grill/4ba5a847f964a520e11939e3","category":"Bar","checkinsCount":560,"usersCount":333,"tipCount":8,"visitsCount":658,"url":"http://www.oconnorsfun.com","tier":"","message":"","currency":"","rating":6.8},{"name":"Warehouse Night Club","phone":"9316477625","address":"20 McClure St","lat":36.533397,"lng":-87.364222,"city_fetched":"Clarksville","state":"TN","country":"United States","canonicalUrl":"https://foursquare.com/v/warehouse-night-club/4bd3d44b77b29c7431d09182","category":"Bar","checkinsCount":430,"usersCount":213,"tipCount":8,"visitsCount":475,"tier":"","message":"","currency":"","rating":6.7},{"name":"Kelly's Pub","twitter":"kellyspubclarks","address":"Franklin St","lat":36.52741666983809,"lng":-87.35950196869499,"neighborhood":"Downtown Clarksville","city_fetched":"Clarksville","state":"TN","country":"United States","canonicalUrl":"https://foursquare.com/v/kellys-pub/4d82ded1d5fab60c7a5bc19b","category":"Pub","checkinsCount":1640,"usersCount":212,"tipCount":14,"visitsCount":1647,"url":"http://www.kellyspubclarksville.com","tier":"","message":"","currency":"","rating":6.6},{"name":"The Lodge Sports Pub","phone":"9319200420","twitter":"lodgesportspub","address":"3025 Mr C Dr","lat":36.5916785260279,"lng":-87.28616237640381,"city_fetched":"Clarksville","state":"TN","country":"United States","canonicalUrl":"https://foursquare.com/v/the-lodge-sports-pub/4bd4bfa74e32d13abfd3bf80","category":"Sports Bar","checkinsCount":566,"usersCount":304,"tipCount":5,"visitsCount":599,"tier":"","message":"","currency":"","rating":6.3}]