[{"name":"Dogfish Head Alehouse","phone":"3019634847","twitter":"dogfish_ale","address":"800 W Diamond Ave","lat":39.14184394944322,"lng":-77.21710681915283,"city_fetched":"Clarksburg,US","state":"MD","country":"United States","canonicalUrl":"https://foursquare.com/v/dogfish-head-alehouse/4a1f5843f964a520227c1fe3","categoryId":"4bf58dd8d48988d116941735","category":"Bar","checkinsCount":11868,"usersCount":5686,"tipCount":132,"visitsCount":14178,"url":"http://dogfishalehouse.com","tier":2,"message":"Moderate","currency":"$","rating":8.9},{"name":"Growlers of Gaithersburg","phone":"3015199400","twitter":"growlersbrewery","address":"227 E Diamond Ave","lat":39.14203198,"lng":-77.19366716666667,"city_fetched":"Clarksburg,US","state":"MD","country":"United States","canonicalUrl":"https://foursquare.com/growlersbrewery","categoryId":"4bf58dd8d48988d116941735","category":"Bar","checkinsCount":6331,"usersCount":2248,"tipCount":56,"visitsCount":7129,"url":"http://www.growlersrestaurant.com","tier":"","message":"","currency":"","rating":8.2},{"name":"Sheeshababas House of Hookah","phone":"3018208200","address":"8600 Zetts Ave","lat":39.12076665535047,"lng":-77.17802902967027,"city_fetched":"Clarksburg,US","state":"MD","country":"United States","canonicalUrl":"https://foursquare.com/v/sheeshababas-house-of-hookah/5013485ae4b020985b7ec561","categoryId":"4bf58dd8d48988d119941735","category":"Hookah Bar","checkinsCount":540,"usersCount":231,"tipCount":10,"visitsCount":644,"tier":"","message":"","currency":"","rating":7.8},{"name":"Wine Harvest","phone":"3018694008","address":"114 Market St","lat":39.122302,"lng":-77.23495,"city_fetched":"Clarksburg,US","state":"MD","country":"United States","canonicalUrl":"https://foursquare.com/v/wine-harvest/4a6b9396f964a52037cf1fe3","categoryId":"4bf58dd8d48988d123941735","category":"Wine Bar","checkinsCount":1046,"usersCount":270,"tipCount":11,"visitsCount":1057,"url":"http://thewineharvest.com","tier":1,"message":"Cheap","currency":"$","rating":7.8},{"name":"Old Town Pour House - Gaithersburg","phone":"3019636281","twitter":"otphgburg","address":"212 Ellington Blvd","lat":39.11460402923839,"lng":-77.20514536245923,"city_fetched":"Clarksburg,US","state":"MD","country":"United States","canonicalUrl":"https://foursquare.com/v/old-town-pour-house--gaithersburg/54d14b43498ed6beabab5f73","categoryId":"4bf58dd8d48988d116941735","category":"Bar","checkinsCount":999,"usersCount":682,"tipCount":13,"visitsCount":1297,"url":"http://www.oldtownpourhouse.com/gaithersburg","tier":"","message":"","currency":"","rating":7.7},{"name":"Lu & Joe's Restaurant & Lounge","phone":"3018315577","address":"1024 Ridge Rd","lat":39.34490812101709,"lng":-77.18119472265244,"city_fetched":"Clarksburg,US","state":"MD","country":"United States","canonicalUrl":"https://foursquare.com/v/lu--joes-restaurant--lounge/4aeddcd2f964a520aecf21e3","categoryId":"4bf58dd8d48988d11d941735","category":"Sports Bar","checkinsCount":913,"usersCount":405,"tipCount":17,"visitsCount":1145,"url":"http://www.luandjoes.com","tier":2,"message":"Moderate","currency":"$","rating":7.5},{"name":"Hershey's Restaurant","phone":"3019489893","address":"17030 Oakmont Ave","lat":39.13572765260169,"lng":-77.17759251594543,"city_fetched":"Clarksburg,US","state":"MD","country":"United States","canonicalUrl":"https://foursquare.com/v/hersheys-restaurant/4b05ec25f964a520dde522e3","categoryId":"4bf58dd8d48988d11b941735","category":"Pub","checkinsCount":709,"usersCount":311,"tipCount":13,"visitsCount":885,"url":"http://www.visitmontgomery.com/restaurants/details/hersheys-restaurant","tier":2,"message":"Moderate","currency":"$","rating":7.4},{"name":"Quincy's Bar & Grille","phone":"3018698200","address":"616 Quince Orchard Rd","lat":39.14164424201975,"lng":-77.22354412078857,"neighborhood":"Quince Orchard","city_fetched":"Clarksburg,US","state":"MD","country":"United States","canonicalUrl":"https://foursquare.com/v/quincys-bar--grille/4b511395f964a5201d4127e3","categoryId":"4bf58dd8d48988d118941735","category":"Dive Bar","checkinsCount":5918,"usersCount":1079,"tipCount":20,"visitsCount":6913,"url":"http://quincysbar.com","tier":2,"message":"Moderate","currency":"$","rating":7.2},{"name":"Gentleman Jim's Restaurant","phone":"3019637778","address":"18917 Earhart Ct","lat":39.16805135215417,"lng":-77.17214336632793,"city_fetched":"Clarksburg,US","state":"MD","country":"United States","canonicalUrl":"https://foursquare.com/v/gentleman-jims-restaurant/4c27e0ff97d00f47e5163fea","categoryId":"4bf58dd8d48988d120941735","category":"Karaoke Bar","checkinsCount":938,"usersCount":376,"tipCount":14,"visitsCount":1134,"url":"http://www.visitmontgomery.com/restaurants/details/gentleman-jims-gaithersburg","tier":1,"message":"Cheap","currency":"$","rating":7.2},{"name":"Union Jack's British Pub","phone":"2407807139","address":"9811 Washingtonian Blvd","lat":39.11611031144413,"lng":-77.19839572906493,"city_fetched":"Clarksburg,US","state":"MD","country":"United States","canonicalUrl":"https://foursquare.com/v/union-jacks-british-pub/52dd95d911d2013b93a72d31","categoryId":"4bf58dd8d48988d11b941735","category":"Pub","checkinsCount":1426,"usersCount":802,"tipCount":13,"visitsCount":1524,"url":"http://www.unionjacksrio.com","tier":2,"message":"Moderate","currency":"$","rating":6.4},{"name":"Laredo Grill","phone":"3012169890","address":"347 Muddy Branch Rd","lat":39.12802403,"lng":-77.20750824,"city_fetched":"Clarksburg,US","state":"MD","country":"United States","canonicalUrl":"https://foursquare.com/v/laredo-grill/4b1054fff964a520026e23e3","categoryId":"4bf58dd8d48988d120941735","category":"Karaoke Bar","checkinsCount":360,"usersCount":143,"tipCount":11,"visitsCount":366,"url":"http://www.laredogrill.com","tier":"","message":"","currency":"","rating":6.4},{"name":"The Greene Turtle","phone":"2406861800","address":"19961 Century Blvd","lat":39.18337493608639,"lng":-77.26177632808685,"city_fetched":"Clarksburg,US","state":"MD","country":"United States","canonicalUrl":"https://foursquare.com/v/the-greene-turtle/4af60b32f964a520870022e3","categoryId":"4bf58dd8d48988d11d941735","category":"Sports Bar","checkinsCount":3832,"usersCount":1764,"tipCount":25,"visitsCount":4335,"url":"http://www.greeneturtle.com","tier":2,"message":"Moderate","currency":"$","rating":6}]