[{"name":"L'Albatros Brasserie & Bar","phone":"2167917880","twitter":"albatroscle","address":"11401 Bellflower Ct","lat":41.51158832369933,"lng":-81.60629764511464,"neighborhood":"University Circle","city_fetched":"Cleveland,US","state":"OH","country":"United States","canonicalUrl":"https://foursquare.com/v/lalbatros-brasserie--bar/4ad4bff1f964a52083e920e3","categoryId":"4bf58dd8d48988d116941735","category":"Bar","checkinsCount":3289,"usersCount":1909,"tipCount":59,"visitsCount":3851,"url":"http://albatrosbrasserie.com","tier":3,"message":"Expensive","currency":"$","rating":9.4},{"name":"Platform Brewhouse","phone":"2162021386","twitter":"platformbeers","address":"4125 Lorain Ave","lat":41.47992097831489,"lng":-81.71400137173248,"neighborhood":"Ohio City","city_fetched":"Cleveland,US","state":"OH","country":"United States","canonicalUrl":"https://foursquare.com/v/platform-brewhouse/534ea2ff498eb08094a9fbde","categoryId":"50327c8591d4c4b30a586d5d","category":"Brewery","checkinsCount":2381,"usersCount":1263,"tipCount":21,"visitsCount":3390,"url":"http://platformbeerco.com","tier":2,"message":"Moderate","currency":"$","rating":9.3},{"name":"Great Lakes Brewing Company","phone":"2167714404","twitter":"glbc_cleveland","address":"2516 Market Ave","lat":41.48435721144726,"lng":-81.70434057712555,"neighborhood":"Ohio City","city_fetched":"Cleveland,US","state":"OH","country":"United States","canonicalUrl":"https://foursquare.com/v/great-lakes-brewing-company/4ad77bf2f964a520520b21e3","categoryId":"50327c8591d4c4b30a586d5d","category":"Brewery","checkinsCount":23378,"usersCount":11556,"tipCount":194,"visitsCount":24167,"url":"http://www.greatlakesbrewing.com","tier":2,"message":"Moderate","currency":"$","rating":9.3},{"name":"The Velvet Tango Room","phone":"2162418869","twitter":"velvettangoroom","address":"2095 Columbus Rd","lat":41.483886772993955,"lng":-81.70030718525345,"neighborhood":"Tremont","city_fetched":"Cleveland,US","state":"OH","country":"United States","canonicalUrl":"https://foursquare.com/v/the-velvet-tango-room/4ad5505ef964a520c90221e3","categoryId":"4bf58dd8d48988d11e941735","category":"Cocktail Bar","checkinsCount":3885,"usersCount":1854,"tipCount":56,"visitsCount":4177,"url":"http://www.velvettangoroom.com","tier":3,"message":"Expensive","currency":"$","rating":9},{"name":"Toast","phone":"2168628974","address":"1365 W 65th St","lat":41.48496072942715,"lng":-81.73000185634407,"neighborhood":"Detroit - Shoreway","city_fetched":"Cleveland,US","state":"OH","country":"United States","canonicalUrl":"https://foursquare.com/v/toast/516b0cade4b0f82adff4fd1b","categoryId":"4bf58dd8d48988d123941735","category":"Wine Bar","checkinsCount":870,"usersCount":455,"tipCount":16,"visitsCount":990,"url":"http://toastcleveland.com","tier":"","message":"","currency":"","rating":9},{"name":"Porco Lounge & Tiki Room","twitter":"porcolounge","address":"2527 W 25th St","lat":41.47775551342356,"lng":-81.69906038692153,"neighborhood":"Tremont","city_fetched":"Cleveland,US","state":"OH","country":"United States","canonicalUrl":"https://foursquare.com/v/porco-lounge--tiki-room/524f415311d27138de3ff115","categoryId":"4bf58dd8d48988d11e941735","category":"Cocktail Bar","checkinsCount":1558,"usersCount":1126,"tipCount":21,"visitsCount":2189,"url":"http://www.porcolounge.com","tier":2,"message":"Moderate","currency":"$","rating":9},{"name":"Prosperity Social Club","phone":"2169371938","address":"1109 Starkweather Ave","lat":41.47713423333333,"lng":-81.68982,"neighborhood":"Tremont","city_fetched":"Cleveland,US","state":"OH","country":"United States","canonicalUrl":"https://foursquare.com/v/prosperity-social-club/4abd730ff964a520678a20e3","categoryId":"4bf58dd8d48988d116941735","category":"Bar","checkinsCount":4420,"usersCount":1798,"tipCount":42,"visitsCount":4896,"url":"http://prosperitysocialclub.com","tier":2,"message":"Moderate","currency":"$","rating":8.9},{"name":"Drink. Bar & Grill","phone":"2166617543","twitter":"drinkcleveland","address":"4250 Pearl Rd","lat":41.439980783256274,"lng":-81.70640006843776,"neighborhood":"Old Brooklyn","city_fetched":"Cleveland,US","state":"OH","country":"United States","canonicalUrl":"https://foursquare.com/v/drink-bar--grill/5132a840e4b0ee8b352fc92a","categoryId":"4bf58dd8d48988d11e941735","category":"Cocktail Bar","checkinsCount":378,"usersCount":140,"tipCount":7,"visitsCount":459,"url":"http://www.drinkbarandgrill.com","tier":2,"message":"Moderate","currency":"$","rating":8.9},{"name":"Brick And Barrel","phone":"2163313308","twitter":"brickandbarrel","address":"1844 Columbus Rd","lat":41.48949,"lng":-81.700787,"neighborhood":"Downtown Cleveland","city_fetched":"Cleveland,US","state":"OH","country":"United States","canonicalUrl":"https://foursquare.com/v/brick-and-barrel/535c7f9d498eeb428ee916de","categoryId":"4bf58dd8d48988d11b941735","category":"Pub","checkinsCount":460,"usersCount":430,"tipCount":5,"visitsCount":740,"url":"http://www.breweryclevelandoh.com","tier":"","message":"","currency":"","rating":8.9},{"name":"XYZ the Tavern","phone":"2167061104","twitter":"xyzthetavern","address":"6419 Detroit Ave","lat":41.484162305082705,"lng":-81.72993957996368,"neighborhood":"Detroit - Shoreway","city_fetched":"Cleveland,US","state":"OH","country":"United States","canonicalUrl":"https://foursquare.com/v/xyz-the-tavern/4d1cfce686e154817b359c3a","categoryId":"4bf58dd8d48988d116941735","category":"Bar","checkinsCount":8343,"usersCount":2244,"tipCount":49,"visitsCount":8837,"url":"http://www.xyzthetavern.com","tier":2,"message":"Moderate","currency":"$","rating":8.7},{"name":"Johnny's Little Bar & Grill","phone":"2168612166","address":"614 Frankfort Ave","lat":41.498310463355374,"lng":-81.69852043988338,"neighborhood":"Downtown Cleveland","city_fetched":"Cleveland,US","state":"OH","country":"United States","canonicalUrl":"https://foursquare.com/v/johnnys-little-bar--grill/4aea6e1cf964a5208bbb21e3","categoryId":"4bf58dd8d48988d116941735","category":"Bar","checkinsCount":4094,"usersCount":1568,"tipCount":36,"visitsCount":4458,"url":"http://johnnyscleveland.com","tier":2,"message":"Moderate","currency":"$","rating":8.7},{"name":"Barrio","phone":"2169997714","address":"806 Literary Rd","lat":41.48202388105382,"lng":-81.68647485556104,"neighborhood":"Tremont","city_fetched":"Cleveland,US","state":"OH","country":"United States","canonicalUrl":"https://foursquare.com/v/barrio/4fa491ffe4b0bcbb4669d8d5","categoryId":"4bf58dd8d48988d116941735","category":"Bar","checkinsCount":5440,"usersCount":2506,"tipCount":64,"visitsCount":6516,"url":"http://barrio-tacos.com","tier":2,"message":"Moderate","currency":"$","rating":8.7},{"name":"Indians Family Social Suite","phone":"2164204487","twitter":"mlb","address":"Progressive Field","lat":41.495560327870294,"lng":-81.68452978134155,"neighborhood":"Downtown Cleveland","city_fetched":"Cleveland,US","state":"OH","country":"United States","canonicalUrl":"https://foursquare.com/v/indians-family-social-suite/4d8b24130c422d43c1250831","categoryId":"4bf58dd8d48988d121941735","category":"Lounge","checkinsCount":560,"usersCount":314,"tipCount":5,"visitsCount":560,"url":"http://cleveland.indians.mlb.com/cle/fan_forum/social_suites.jsp","tier":"","message":"","currency":"","rating":8.7},{"name":"Edison's Pub","phone":"2165220006","address":"2373 Professor Ave","lat":41.48022185583693,"lng":-81.68500185012817,"neighborhood":"Tremont","city_fetched":"Cleveland,US","state":"OH","country":"United States","canonicalUrl":"https://foursquare.com/v/edisons-pub/4ad930f3f964a520f51821e3","categoryId":"4bf58dd8d48988d11b941735","category":"Pub","checkinsCount":6860,"usersCount":2283,"tipCount":42,"visitsCount":7181,"url":"http://www.edisonspub.com","tier":1,"message":"Cheap","currency":"$","rating":8.6},{"name":"The ParkView NiteClub","phone":"2169611341","address":"1261 W 58th St","lat":41.4887429,"lng":-81.726284,"neighborhood":"Detroit - Shoreway","city_fetched":"Cleveland,US","state":"OH","country":"United States","canonicalUrl":"https://foursquare.com/v/the-parkview-niteclub/4ad4bff0f964a52030e920e3","categoryId":"4bf58dd8d48988d116941735","category":"Bar","checkinsCount":2986,"usersCount":1382,"tipCount":51,"visitsCount":3476,"url":"http://www.parkviewniteclub.com","tier":1,"message":"Cheap","currency":"$","rating":8.5},{"name":"The Treehouse","phone":"2166962505","address":"820 College Ave","lat":41.480672942878435,"lng":-81.68552560912468,"neighborhood":"Tremont","city_fetched":"Cleveland,US","state":"OH","country":"United States","canonicalUrl":"https://foursquare.com/v/the-treehouse/4adaa93cf964a520fb2321e3","categoryId":"4bf58dd8d48988d11b941735","category":"Pub","checkinsCount":8082,"usersCount":3212,"tipCount":24,"visitsCount":8662,"url":"http://www.treehousecleveland.com","tier":2,"message":"Moderate","currency":"$","rating":8.5},{"name":"Barking Spider Tavern","phone":"2164212863","address":"11310 Juniper Rd","lat":41.51150977198502,"lng":-81.60686373710632,"neighborhood":"University Circle","city_fetched":"Cleveland,US","state":"OH","country":"United States","canonicalUrl":"https://foursquare.com/v/barking-spider-tavern/4ad4bff0f964a52039e920e3","categoryId":"4bf58dd8d48988d116941735","category":"Bar","checkinsCount":1424,"usersCount":781,"tipCount":10,"visitsCount":1456,"url":"http://www.barkingspidertavern.com","tier":1,"message":"Cheap","currency":"$","rating":8.4},{"name":"The Foundation Room","phone":"2162743366","address":"308 Euclid Ave","lat":41.49915703025396,"lng":-81.69024432347454,"neighborhood":"Downtown Cleveland","city_fetched":"Cleveland,US","state":"OH","country":"United States","canonicalUrl":"https://foursquare.com/v/the-foundation-room/4b913e39f964a520a1ac33e3","categoryId":"4bf58dd8d48988d116941735","category":"Bar","checkinsCount":1506,"usersCount":591,"tipCount":3,"visitsCount":1508,"tier":"","message":"","currency":"","rating":8.4},{"name":"Take5Live","lat":41.497455086842656,"lng":-81.69812483262382,"neighborhood":"Downtown Cleveland","city_fetched":"Cleveland,US","state":"OH","country":"United States","canonicalUrl":"https://foursquare.com/v/take5live/511f106de4b00ebaf19ac828","categoryId":"4bf58dd8d48988d123941735","category":"Wine Bar","checkinsCount":285,"usersCount":146,"tipCount":8,"visitsCount":289,"tier":"","message":"","currency":"","rating":8.4},{"name":"Clifton Martini & Wine Bar","phone":"2169650221","address":"10427 Clifton Blvd","lat":41.48524131543034,"lng":-81.75720691680908,"neighborhood":"Edgewater","city_fetched":"Cleveland,US","state":"OH","country":"United States","canonicalUrl":"https://foursquare.com/v/clifton-martini--wine-bar/4b85f4dbf964a520677b31e3","categoryId":"4bf58dd8d48988d123941735","category":"Wine Bar","checkinsCount":2265,"usersCount":1150,"tipCount":30,"visitsCount":2665,"url":"http://www.clitonmartini.com","tier":"","message":"","currency":"","rating":8.4},{"name":"Crazy Horse","phone":"2165661135","twitter":"crazy_horse_cle","address":"1438 Saint Clair Ave NE","lat":41.506044,"lng":-81.6856008,"neighborhood":"Downtown Cleveland","city_fetched":"Cleveland,US","state":"OH","country":"United States","canonicalUrl":"https://foursquare.com/v/crazy-horse/4b60f1bff964a520bc022ae3","categoryId":"4bf58dd8d48988d1d6941735","category":"Strip Club","checkinsCount":446,"usersCount":228,"tipCount":7,"visitsCount":481,"url":"http://crazyhorseclevelandoh.com","tier":"","message":"","currency":"","rating":8.3},{"name":"The Harp","phone":"2169390200","address":"4408 Detroit Ave","lat":41.48789869,"lng":-81.71695645,"neighborhood":"Ohio City","city_fetched":"Cleveland,US","state":"OH","country":"United States","canonicalUrl":"https://foursquare.com/v/the-harp/4af492dbf964a520fcf321e3","categoryId":"4bf58dd8d48988d116941735","category":"Bar","checkinsCount":3961,"usersCount":2234,"tipCount":30,"visitsCount":4570,"url":"http://www.the-harp.com","tier":2,"message":"Moderate","currency":"$","rating":8.3},{"name":"The Wine Spot","phone":"2163423623","twitter":"thewinespotch","address":"2271 Lee Rd","lat":41.497828499790515,"lng":-81.56499043520702,"neighborhood":"Cleveland Heights","city_fetched":"Cleveland,US","state":"OH","country":"United States","canonicalUrl":"https://foursquare.com/v/the-wine-spot/4eebd2940e61a41863455ae3","categoryId":"4bf58dd8d48988d123941735","category":"Wine Bar","checkinsCount":884,"usersCount":294,"tipCount":10,"visitsCount":963,"url":"http://www.thewinespotonline.com","tier":"","message":"","currency":"","rating":8.3},{"name":"Jukebox","phone":"2162067699","twitter":"jukeboxcle","address":"1404 W 29th St","lat":41.489586090842245,"lng":-81.71101305727208,"neighborhood":"Ohio City","city_fetched":"Cleveland,US","state":"OH","country":"United States","canonicalUrl":"https://foursquare.com/v/jukebox/53ddaf74498ea55cd5f490cb","categoryId":"4bf58dd8d48988d116941735","category":"Bar","checkinsCount":793,"usersCount":385,"tipCount":10,"visitsCount":852,"url":"http://www.jukeboxcle.com","tier":"","message":"","currency":"","rating":8.3},{"name":"ABC the Tavern","phone":"2168613857","twitter":"abcthetavern","address":"1872 W 25th St","lat":41.48566926908131,"lng":-81.70488728758095,"neighborhood":"Ohio City","city_fetched":"Cleveland,US","state":"OH","country":"United States","canonicalUrl":"https://foursquare.com/v/abc-the-tavern/4ae3dec1f964a5206b9921e3","categoryId":"4bf58dd8d48988d116941735","category":"Bar","checkinsCount":8636,"usersCount":2629,"tipCount":49,"visitsCount":8722,"url":"http://www.abcthetavern.com","tier":2,"message":"Moderate","currency":"$","rating":8.3},{"name":"City Tap Cleveland","phone":"2166962337","twitter":"citytapcle","address":"748 Prospect Ave E","lat":41.49851749878782,"lng":-81.68707251548767,"neighborhood":"Downtown Cleveland","city_fetched":"Cleveland,US","state":"OH","country":"United States","canonicalUrl":"https://foursquare.com/citytapcle","categoryId":"4bf58dd8d48988d11d941735","category":"Sports Bar","checkinsCount":10455,"usersCount":3811,"tipCount":70,"visitsCount":10909,"url":"http://www.citytapcleveland.com","tier":2,"message":"Moderate","currency":"$","rating":8.3},{"name":"Bar 32","phone":"2164135000","twitter":"hiltoncleveland","address":"Hilton Cleveland Downtown","lat":41.50311775933401,"lng":-81.69552660270229,"neighborhood":"Downtown Cleveland","city_fetched":"Cleveland,US","state":"OH","country":"United States","canonicalUrl":"https://foursquare.com/v/bar-32/57784cc9498ec5cc17df000b","categoryId":"4bf58dd8d48988d1d5941735","category":"Hotel Bar","checkinsCount":139,"usersCount":141,"tipCount":3,"visitsCount":161,"url":"http://www3.hilton.com/en/hotels/ohio/hilton-cleveland-downtown-CLEDOHH/dining/index.html","tier":"","message":"","currency":"","rating":8.3},{"name":"Press Wine Bar","phone":"2165669463","address":"2221 Professor Ave Cleveland, OH, United States","lat":41.481772,"lng":-81.686789,"neighborhood":"Tremont","city_fetched":"Cleveland,US","state":"OH","country":"United States","canonicalUrl":"https://foursquare.com/v/press-wine-bar/50ad8e54e4b05083be380c77","categoryId":"4bf58dd8d48988d123941735","category":"Wine Bar","checkinsCount":2106,"usersCount":1061,"tipCount":15,"visitsCount":2231,"url":"http://presswinebar.com","tier":2,"message":"Moderate","currency":"$","rating":8.2},{"name":"Sachsenheim Hall","phone":"2166510888","address":"7001 Denison Ave","lat":41.461362253760356,"lng":-81.73617839813232,"city_fetched":"Cleveland,US","state":"OH","country":"United States","canonicalUrl":"https://foursquare.com/v/sachsenheim-hall/4b2d9645f964a52045d924e3","categoryId":"4bf58dd8d48988d116941735","category":"Bar","checkinsCount":1210,"usersCount":561,"tipCount":11,"visitsCount":1404,"tier":"","message":"","currency":"","rating":8.2},{"name":"The Millard Fillmore Presidential Library","address":"15617 Waterloo Rd","lat":41.571115444955005,"lng":-81.57132051069136,"neighborhood":"Waterloo Art District","city_fetched":"Cleveland,US","state":"OH","country":"United States","canonicalUrl":"https://foursquare.com/v/the-millard-fillmore-presidential-library/54a03325498e56a9c63a04b0","categoryId":"4bf58dd8d48988d116941735","category":"Bar","checkinsCount":175,"usersCount":92,"tipCount":4,"visitsCount":225,"tier":"","message":"","currency":"","rating":8.2},{"name":"Portside Distillery","phone":"2165866633","twitter":"portsidecle","address":"983 Front Ave","lat":41.501522746109075,"lng":-81.7029619216919,"neighborhood":"Downtown Cleveland","city_fetched":"Cleveland,US","state":"OH","country":"United States","canonicalUrl":"https://foursquare.com/portsidecle","categoryId":"4bf58dd8d48988d116941735","category":"Bar","checkinsCount":708,"usersCount":533,"tipCount":5,"visitsCount":896,"url":"http://portsidedistillery.com","tier":"","message":"","currency":"","rating":8.2},{"name":"The Spotted Owl","phone":"2167955595","twitter":"spottedowlbar","address":"710 Jefferson Ave","lat":41.480156,"lng":-81.683481,"neighborhood":"Tremont","city_fetched":"Cleveland,US","state":"OH","country":"United States","canonicalUrl":"https://foursquare.com/v/the-spotted-owl/52b4d17c498e6f07f761a559","categoryId":"4bf58dd8d48988d116941735","category":"Bar","checkinsCount":680,"usersCount":372,"tipCount":7,"visitsCount":841,"url":"http://spottedowlbar.com","tier":"","message":"","currency":"","rating":8.2},{"name":"Stone Mad Pub","phone":"2162816500","address":"1306 W 65th St","lat":41.48663375474187,"lng":-81.73049479722977,"neighborhood":"Detroit - Shoreway","city_fetched":"Cleveland,US","state":"OH","country":"United States","canonicalUrl":"https://foursquare.com/v/stone-mad-pub/4ae24013f964a520638c21e3","categoryId":"4bf58dd8d48988d11b941735","category":"Pub","checkinsCount":3409,"usersCount":1616,"tipCount":35,"visitsCount":3849,"tier":2,"message":"Moderate","currency":"$","rating":8},{"name":"Azure","address":"2017 E 9th St","lat":41.500209142209826,"lng":-81.68583322491085,"neighborhood":"Downtown Cleveland","city_fetched":"Cleveland,US","state":"OH","country":"United States","canonicalUrl":"https://foursquare.com/v/azure/55452c25498ef0b1d34c4363","categoryId":"4bf58dd8d48988d1d5941735","category":"Hotel Bar","checkinsCount":483,"usersCount":370,"tipCount":3,"visitsCount":518,"tier":"","message":"","currency":"","rating":8},{"name":"Vino Volo","phone":"2162652725","twitter":"vinovolo","address":"5300 Riverside Dr","lat":41.41133411396106,"lng":-81.84016636436515,"city_fetched":"Cleveland,US","state":"OH","country":"United States","canonicalUrl":"https://foursquare.com/v/vino-volo/51fb9d51498e34eda9cc4b5d","categoryId":"4bf58dd8d48988d123941735","category":"Wine Bar","checkinsCount":181,"usersCount":149,"tipCount":2,"visitsCount":181,"url":"https://www.vinovolo.com/locations/Cleveland-OH","tier":"","message":"","currency":"","rating":8},{"name":"Rowley Inn","phone":"2167955345","twitter":"therowleycle","address":"1104 Rowley Ave","lat":41.46900402819772,"lng":-81.6880702972412,"neighborhood":"Tremont","city_fetched":"Cleveland,US","state":"OH","country":"United States","canonicalUrl":"https://foursquare.com/v/rowley-inn/4ad55205f964a520cf0221e3","categoryId":"4bf58dd8d48988d118941735","category":"Dive Bar","checkinsCount":436,"usersCount":186,"tipCount":7,"visitsCount":494,"url":"http://www.rowleyinn.com","tier":"","message":"","currency":"","rating":8},{"name":"Flat Iron Cafe","phone":"2166966968","address":"1114 Center St","lat":41.49424159255429,"lng":-81.70201131503333,"neighborhood":"Downtown Cleveland","city_fetched":"Cleveland,US","state":"OH","country":"United States","canonicalUrl":"https://foursquare.com/v/flat-iron-cafe/4b2c2e68f964a52048c324e3","categoryId":"4bf58dd8d48988d11b941735","category":"Pub","checkinsCount":1351,"usersCount":930,"tipCount":14,"visitsCount":1616,"url":"http://www.flatironcafe.com","tier":"","message":"","currency":"","rating":8},{"name":"Market Avenue Wine Bar","phone":"2166969463","address":"2526 Market Ave","lat":41.484382,"lng":-81.70429369,"neighborhood":"Ohio City","city_fetched":"Cleveland,US","state":"OH","country":"United States","canonicalUrl":"https://foursquare.com/v/market-avenue-wine-bar/4ad5512cf964a520ca0221e3","categoryId":"4bf58dd8d48988d123941735","category":"Wine Bar","checkinsCount":1621,"usersCount":828,"tipCount":15,"visitsCount":1628,"url":"http://marketavenuewinebar.com","tier":"","message":"","currency":"","rating":7.9},{"name":"VIP Club","phone":"2164202481","twitter":"theqarena","address":"Quicken Loans Arena","lat":41.496404295296955,"lng":-81.68782226185043,"neighborhood":"Downtown Cleveland","city_fetched":"Cleveland,US","state":"OH","country":"United States","canonicalUrl":"https://foursquare.com/v/vip-club/4cccb15454f0b1f7833918ca","categoryId":"4bf58dd8d48988d121941735","category":"Lounge","checkinsCount":283,"usersCount":113,"tipCount":0,"visitsCount":284,"url":"http://www.nba.com/cavaliers/tickets/vip_club.html","tier":"","message":"","currency":"","rating":7.9},{"name":"Leather Stallion Saloon","phone":"2165898588","twitter":"leatherstallion","address":"2205 Saint Clair Ave NE","lat":41.50981303031563,"lng":-81.67878561621883,"neighborhood":"Downtown Cleveland","city_fetched":"Cleveland,US","state":"OH","country":"United States","canonicalUrl":"https://foursquare.com/v/leather-stallion-saloon/4b6e224bf964a520d3ac2ce3","categoryId":"4bf58dd8d48988d1d8941735","category":"Gay Bar","checkinsCount":2244,"usersCount":365,"tipCount":13,"visitsCount":2576,"url":"http://www.leatherstallion.com","tier":1,"message":"Cheap","currency":"$","rating":7.9},{"name":"Vibe","phone":"2164761970","address":"11633 Lorain Ave","lat":41.46185874951419,"lng":-81.76864844890679,"city_fetched":"Cleveland,US","state":"OH","country":"United States","canonicalUrl":"https://foursquare.com/v/vibe/4e59b1e1aeb7d78d9f7ba0dd","categoryId":"4bf58dd8d48988d1d8941735","category":"Gay Bar","checkinsCount":777,"usersCount":342,"tipCount":11,"visitsCount":1160,"url":"http://vibecleveland.com","tier":"","message":"","currency":"","rating":7.9},{"name":"Hotz's Cafe","phone":"2167717004","address":"2529 W 10th St","lat":41.47730203135414,"lng":-81.68730050325394,"neighborhood":"Tremont","city_fetched":"Cleveland,US","state":"OH","country":"United States","canonicalUrl":"https://foursquare.com/v/hotzs-cafe/4b89e1e7f964a520b75332e3","categoryId":"4bf58dd8d48988d116941735","category":"Bar","checkinsCount":839,"usersCount":406,"tipCount":1,"visitsCount":965,"tier":"","message":"","currency":"","rating":7.9},{"name":"Dina's Pizza & Pub","phone":"2163513663","address":"5701 Memphis Ave","lat":41.43966328708997,"lng":-81.72635198193136,"neighborhood":"Old Brooklyn","city_fetched":"Cleveland,US","state":"OH","country":"United States","canonicalUrl":"https://foursquare.com/v/dinas-pizza--pub/4b1d8e4af964a5202b1224e3","categoryId":"4bf58dd8d48988d116941735","category":"Bar","checkinsCount":3952,"usersCount":1342,"tipCount":39,"visitsCount":4780,"url":"http://dinaspizzaandpub.com","tier":2,"message":"Moderate","currency":"$","rating":7.9},{"name":"McNamara's","phone":"2169399346","address":"8611 lake road","lat":41.48424207,"lng":-81.74413165,"neighborhood":"Detroit - Shoreway","city_fetched":"Cleveland,US","state":"OH","country":"United States","canonicalUrl":"https://foursquare.com/v/mcnamaras/4b10859bf964a5202d7223e3","categoryId":"4bf58dd8d48988d116941735","category":"Bar","checkinsCount":430,"usersCount":262,"tipCount":6,"visitsCount":566,"tier":"","message":"","currency":"","rating":7.9},{"name":"Club House Pub & Grub","phone":"4408842582","address":"6365 Pearl Rd","lat":41.38702124602336,"lng":-81.76638384976226,"city_fetched":"Cleveland,US","state":"OH","country":"United States","canonicalUrl":"https://foursquare.com/v/club-house-pub--grub/4b076682f964a52025fd22e3","categoryId":"4bf58dd8d48988d11b941735","category":"Pub","checkinsCount":529,"usersCount":284,"tipCount":8,"visitsCount":664,"tier":"","message":"","currency":"","rating":7.8},{"name":"Mulberry's","phone":"2164434843","address":"2316 Mulberry Ave","lat":41.49469395040378,"lng":-81.70788074625425,"neighborhood":"Ohio City","city_fetched":"Cleveland,US","state":"OH","country":"United States","canonicalUrl":"https://foursquare.com/v/mulberrys/4adfb82df964a520f67c21e3","categoryId":"4bf58dd8d48988d116941735","category":"Bar","checkinsCount":3024,"usersCount":439,"tipCount":5,"visitsCount":3194,"url":"http://www.mulberryscleveland.com","tier":"","message":"","currency":"","rating":7.8},{"name":"Lion on Lorain Bar and Grill","phone":"2162526483","address":"12703 Lorain Ave","lat":41.45918919520887,"lng":-81.77671789848205,"city_fetched":"Cleveland,US","state":"OH","country":"United States","canonicalUrl":"https://foursquare.com/v/lion-on-lorain-bar-and-grill/4e18dcddd22d512258881ba6","categoryId":"4bf58dd8d48988d116941735","category":"Bar","checkinsCount":848,"usersCount":378,"tipCount":15,"visitsCount":903,"tier":"","message":"","currency":"","rating":7.7},{"name":"Lounge Leo","phone":"2162314939","address":"2161 Murray Hill Rd","lat":41.50459408333333,"lng":-81.600087,"neighborhood":"University Circle","city_fetched":"Cleveland,US","state":"OH","country":"United States","canonicalUrl":"https://foursquare.com/v/lounge-leo/4ad551c7f964a520ce0221e3","categoryId":"4bf58dd8d48988d118941735","category":"Dive Bar","checkinsCount":506,"usersCount":250,"tipCount":7,"visitsCount":529,"tier":"","message":"","currency":"","rating":7.7},{"name":"Knuckleheads","phone":"2163983456","address":"2115 Brookpark Rd","lat":41.419002133333336,"lng":-81.69575856666667,"city_fetched":"Cleveland,US","state":"OH","country":"United States","canonicalUrl":"https://foursquare.com/v/knuckleheads/4bfe03b2e529c928b3d6bb8c","categoryId":"4bf58dd8d48988d116941735","category":"Bar","checkinsCount":672,"usersCount":149,"tipCount":5,"visitsCount":724,"tier":"","message":"","currency":"","rating":7.7},{"name":"FWD Day/Night Club","lat":41.49996287009019,"lng":-81.70776849373935,"neighborhood":"Downtown Cleveland","city_fetched":"Cleveland,US","state":"OH","country":"United States","canonicalUrl":"https://foursquare.com/v/fwd-daynight-club/55bc1595498ede53c4a8b932","categoryId":"4bf58dd8d48988d11f941735","category":"Nightclub","checkinsCount":189,"usersCount":218,"tipCount":3,"visitsCount":301,"tier":"","message":"","currency":"","rating":7.7},{"name":"Old Angle Tavern","phone":"2168615643","address":"1848 W 25th St","lat":41.48596667355316,"lng":-81.70505940914154,"neighborhood":"Ohio City","city_fetched":"Cleveland,US","state":"OH","country":"United States","canonicalUrl":"https://foursquare.com/v/old-angle-tavern/4afd8c19f964a5207a2822e3","categoryId":"4bf58dd8d48988d11b941735","category":"Pub","checkinsCount":6102,"usersCount":1733,"tipCount":27,"visitsCount":6205,"url":"http://www.oldangletavern.com","tier":2,"message":"Moderate","currency":"$","rating":7.7},{"name":"Public House","phone":"2162526608","address":"17219 Lorain Ave","lat":41.44995419490792,"lng":-81.8173098564148,"neighborhood":"Kamm's Corners","city_fetched":"Cleveland,US","state":"OH","country":"United States","canonicalUrl":"https://foursquare.com/v/public-house/4afe1289f964a520af2d22e3","categoryId":"4bf58dd8d48988d116941735","category":"Bar","checkinsCount":2562,"usersCount":751,"tipCount":13,"visitsCount":2774,"url":"http://irishpubcleveland.com","tier":"","message":"","currency":"","rating":7.6},{"name":"BIN216","phone":"2168600530","address":"1515 Euclid Ave","lat":41.50097411664032,"lng":-81.68088713562236,"neighborhood":"Downtown Cleveland","city_fetched":"Cleveland,US","state":"OH","country":"United States","canonicalUrl":"https://foursquare.com/v/bin216/538b5aa4498e63a9b04db4bd","categoryId":"4bf58dd8d48988d123941735","category":"Wine Bar","checkinsCount":280,"usersCount":180,"tipCount":2,"visitsCount":286,"url":"http://www.bin216cleveland.com","tier":"","message":"","currency":"","rating":7.6},{"name":"Lava Lounge","phone":"2165899112","address":"1307 Auburn Ave","lat":41.47595179726392,"lng":-81.69083779669944,"neighborhood":"Tremont","city_fetched":"Cleveland,US","state":"OH","country":"United States","canonicalUrl":"https://foursquare.com/v/lava-lounge/4ae271b2f964a520548e21e3","categoryId":"4bf58dd8d48988d121941735","category":"Lounge","checkinsCount":2962,"usersCount":1039,"tipCount":35,"visitsCount":3064,"url":"http://www.lavalounge.com","tier":2,"message":"Moderate","currency":"$","rating":7.6},{"name":"Lincoln Park Pub","phone":"2166212240","address":"2609 W 14th St","lat":41.476643657534886,"lng":-81.69121205664985,"neighborhood":"Tremont","city_fetched":"Cleveland,US","state":"OH","country":"United States","canonicalUrl":"https://foursquare.com/v/lincoln-park-pub/4abd6e23f964a5203f8a20e3","categoryId":"4bf58dd8d48988d11b941735","category":"Pub","checkinsCount":3066,"usersCount":926,"tipCount":15,"visitsCount":3152,"tier":"","message":"","currency":"","rating":7.6},{"name":"Camino Taco & Tequila Bar","phone":"2166218226","twitter":"caminocle","address":"1300 W 9th St","lat":41.499081,"lng":-81.700533,"neighborhood":"Downtown Cleveland","city_fetched":"Cleveland,US","state":"OH","country":"United States","canonicalUrl":"https://foursquare.com/v/camino-taco--tequila-bar/5356eec8498ee8116fe12f35","categoryId":"4bf58dd8d48988d116941735","category":"Bar","checkinsCount":332,"usersCount":200,"tipCount":8,"visitsCount":356,"url":"http://caminocleveland.com","tier":2,"message":"Moderate","currency":"$","rating":7.6},{"name":"Panini's Bar and Grill","phone":"2165221510","address":"840 Huron Rd E","lat":41.49891791776523,"lng":-81.68561934679346,"neighborhood":"Downtown Cleveland","city_fetched":"Cleveland,US","state":"OH","country":"United States","canonicalUrl":"https://foursquare.com/v/paninis-bar-and-grill/4ad4d88df964a52033fc20e3","categoryId":"4bf58dd8d48988d11d941735","category":"Sports Bar","checkinsCount":4612,"usersCount":2758,"tipCount":22,"visitsCount":4725,"url":"http://www.paninisgrill.com/locations/cleveland-gateway","tier":1,"message":"Cheap","currency":"$","rating":7.6},{"name":"Panini's Bar and Grill","phone":"2168129852","twitter":"paninisbargrill","address":"937 E 222nd St","lat":41.58843089937739,"lng":-81.5264522110233,"neighborhood":"Euclid - Green","city_fetched":"Cleveland,US","state":"OH","country":"United States","canonicalUrl":"https://foursquare.com/v/paninis-bar-and-grill/4b0d95f8f964a520a24b23e3","categoryId":"4bf58dd8d48988d11d941735","category":"Sports Bar","checkinsCount":2089,"usersCount":643,"tipCount":13,"visitsCount":2330,"url":"http://www.paninisgrill.com/locations/euclid","tier":2,"message":"Moderate","currency":"$","rating":7.6},{"name":"Gillespie's Map Room","phone":"2166217747","address":"1281 W 9th St","lat":41.49934273425328,"lng":-81.70096353518458,"neighborhood":"Downtown Cleveland","city_fetched":"Cleveland,US","state":"OH","country":"United States","canonicalUrl":"https://foursquare.com/v/gillespies-map-room/4ad5515ef964a520cc0221e3","categoryId":"4bf58dd8d48988d116941735","category":"Bar","checkinsCount":6799,"usersCount":1902,"tipCount":50,"visitsCount":7063,"url":"http://maproomcleveland.com","tier":1,"message":"Cheap","currency":"$","rating":7.6},{"name":"Brennan's Colony","phone":"2163711010","address":"2299 Lee Rd","lat":41.497198305940614,"lng":-81.56492616773953,"city_fetched":"Cleveland,US","state":"OH","country":"United States","canonicalUrl":"https://foursquare.com/v/brennans-colony/4aeb1ed9f964a520a0be21e3","categoryId":"4bf58dd8d48988d11b941735","category":"Pub","checkinsCount":2290,"usersCount":847,"tipCount":14,"visitsCount":2367,"url":"http://brennanscolony.com","tier":"","message":"","currency":"","rating":7.5},{"name":"Huron Point Tavern","phone":"2163488600","twitter":"huronpointtav","address":"828 Huron Rd E","lat":41.49862196159568,"lng":-81.6858547925949,"neighborhood":"Downtown Cleveland","city_fetched":"Cleveland,US","state":"OH","country":"United States","canonicalUrl":"https://foursquare.com/huronpointtav","categoryId":"4bf58dd8d48988d116941735","category":"Bar","checkinsCount":763,"usersCount":246,"tipCount":6,"visitsCount":775,"url":"http://www.huronpointtavern.com","tier":"","message":"","currency":"","rating":7.5},{"name":"Stevenson's Bar & Grill","phone":"2169997156","twitter":"stevensonsbar","address":"800 E 200th St","lat":41.58577955807609,"lng":-81.54039323329926,"neighborhood":"North Collinwood","city_fetched":"Cleveland,US","state":"OH","country":"United States","canonicalUrl":"https://foursquare.com/v/stevensons-bar--grill/527031b011d2b3edd5063d5e","categoryId":"4bf58dd8d48988d11d941735","category":"Sports Bar","checkinsCount":171,"usersCount":62,"tipCount":0,"visitsCount":205,"tier":"","message":"","currency":"","rating":7.5},{"name":"BG's Old World Tavern","phone":"2165310331","address":"662 E 185th St","lat":41.5895390537332,"lng":-81.54968038201332,"neighborhood":"Euclid - Green","city_fetched":"Cleveland,US","state":"OH","country":"United States","canonicalUrl":"https://foursquare.com/v/bgs-old-world-tavern/4c4bb7c7bad7a5938dd436ac","categoryId":"4bf58dd8d48988d116941735","category":"Bar","checkinsCount":629,"usersCount":146,"tipCount":7,"visitsCount":709,"tier":"","message":"","currency":"","rating":7.5},{"name":"Spitfire Saloon","phone":"2162267748","address":"1539 W 117th St","lat":41.47965965404083,"lng":-81.76868049462107,"neighborhood":"Edgewater","city_fetched":"Cleveland,US","state":"OH","country":"United States","canonicalUrl":"https://foursquare.com/v/spitfire-saloon/4adfe682f964a520e77d21e3","categoryId":"4bf58dd8d48988d118941735","category":"Dive Bar","checkinsCount":1411,"usersCount":577,"tipCount":5,"visitsCount":1500,"url":"http://punkrockbar.com","tier":"","message":"","currency":"","rating":7.5},{"name":"Society Lounge","phone":"2167819050","twitter":"societyone4th","address":"East 4th Street","lat":41.498769,"lng":-81.690141,"neighborhood":"Downtown Cleveland","city_fetched":"Cleveland,US","state":"OH","country":"United States","canonicalUrl":"https://foursquare.com/societyone4th","categoryId":"4bf58dd8d48988d11e941735","category":"Cocktail Bar","checkinsCount":1813,"usersCount":1125,"tipCount":25,"visitsCount":1844,"url":"http://www.societycleveland.com","tier":3,"message":"Expensive","currency":"$","rating":7.5},{"name":"Twist","phone":"2162212333","address":"11633 Clifton Blvd","lat":41.48723712170799,"lng":-81.76836537782464,"neighborhood":"Edgewater","city_fetched":"Cleveland,US","state":"OH","country":"United States","canonicalUrl":"https://foursquare.com/v/twist/4ae05da8f964a520dc7e21e3","categoryId":"4bf58dd8d48988d1d8941735","category":"Gay Bar","checkinsCount":5445,"usersCount":1246,"tipCount":24,"visitsCount":6159,"tier":2,"message":"Moderate","currency":"$","rating":7.5},{"name":"The Social Room","address":"2261 Lee Rd","lat":41.49806105262498,"lng":-81.56506005823464,"city_fetched":"Cleveland,US","state":"OH","country":"United States","canonicalUrl":"https://foursquare.com/v/the-social-room/4f7d2f0de4b0a665d1c88b01","categoryId":"4bf58dd8d48988d116941735","category":"Bar","checkinsCount":559,"usersCount":228,"tipCount":5,"visitsCount":573,"tier":"","message":"","currency":"","rating":7.5},{"name":"Shooter's","phone":"2168616900","twitter":"shootersonthewater","address":"1148 Main Ave","lat":41.49835678644665,"lng":-81.70772552490234,"neighborhood":"Ohio City","city_fetched":"Cleveland,US","state":"OH","country":"United States","canonicalUrl":"https://foursquare.com/v/shooters/4ad4bff0f964a52016e920e3","categoryId":"4bf58dd8d48988d116941735","category":"Bar","checkinsCount":6848,"usersCount":3780,"tipCount":28,"visitsCount":7545,"url":"http://www.shootersflats.com","tier":3,"message":"Expensive","currency":"$","rating":7.5},{"name":"Smedley's Bar & Grill","address":"17004 Lorain Ave","lat":41.45053321899571,"lng":-81.81569252862904,"neighborhood":"Kamm's Corners","city_fetched":"Cleveland,US","state":"OH","country":"United States","canonicalUrl":"https://foursquare.com/v/smedleys-bar--grill/4b74f408f964a5202ef92de3","categoryId":"4bf58dd8d48988d116941735","category":"Bar","checkinsCount":1163,"usersCount":410,"tipCount":6,"visitsCount":1173,"tier":"","message":"","currency":"","rating":7.5},{"name":"Becky's","phone":"2166210055","twitter":"beckys37519293","address":"1762 E 18th St","lat":41.50400062347414,"lng":-81.67958772988669,"neighborhood":"Downtown Cleveland","city_fetched":"Cleveland,US","state":"OH","country":"United States","canonicalUrl":"https://foursquare.com/beckys37519293","categoryId":"4bf58dd8d48988d116941735","category":"Bar","checkinsCount":2535,"usersCount":1267,"tipCount":25,"visitsCount":3025,"url":"http://beckysbar.com","tier":2,"message":"Moderate","currency":"$","rating":7.5},{"name":"Hoopples River Bed Cafe","phone":"2165750483","address":"1930 Columbus Rd","lat":41.48741705790756,"lng":-81.70082988872939,"neighborhood":"Ohio City","city_fetched":"Cleveland,US","state":"OH","country":"United States","canonicalUrl":"https://foursquare.com/v/hoopples-river-bed-cafe/4b11a418f964a5202c8123e3","categoryId":"4bf58dd8d48988d116941735","category":"Bar","checkinsCount":1932,"usersCount":972,"tipCount":15,"visitsCount":2405,"url":"http://hoopples.com","tier":1,"message":"Cheap","currency":"$","rating":7.5},{"name":"Flying Monkey Pub","phone":"2168616659","address":"819 Jefferson Ave","lat":41.47947016518734,"lng":-81.68432002397124,"neighborhood":"Tremont","city_fetched":"Cleveland,US","state":"OH","country":"United States","canonicalUrl":"https://foursquare.com/v/flying-monkey-pub/4ada877ff964a520492321e3","categoryId":"4bf58dd8d48988d11b941735","category":"Pub","checkinsCount":5391,"usersCount":1928,"tipCount":27,"visitsCount":5688,"url":"http://www.flyingmonkeypub.com","tier":1,"message":"Cheap","currency":"$","rating":7.4},{"name":"Cocktails","phone":"2169613115","address":"9208 Detroit Ave","lat":41.480424109482996,"lng":-81.74720139738638,"neighborhood":"Edgewater","city_fetched":"Cleveland,US","state":"OH","country":"United States","canonicalUrl":"https://foursquare.com/v/cocktails/4ae63355f964a52089a521e3","categoryId":"4bf58dd8d48988d1d8941735","category":"Gay Bar","checkinsCount":2610,"usersCount":638,"tipCount":14,"visitsCount":3471,"tier":2,"message":"Moderate","currency":"$","rating":7.4},{"name":"Pacer's Bar & Grill","phone":"2164867711","address":"19800 S Waterloo Rd","lat":41.579562890985734,"lng":-81.54201666313297,"neighborhood":"North Collinwood","city_fetched":"Cleveland,US","state":"OH","country":"United States","canonicalUrl":"https://foursquare.com/v/pacers-bar--grill/530fdfcb498e496f91d483b9","categoryId":"4bf58dd8d48988d116941735","category":"Bar","checkinsCount":154,"usersCount":106,"tipCount":4,"visitsCount":265,"tier":"","message":"","currency":"","rating":7.4},{"name":"Carney's","address":"1329 Washington Ave","lat":41.4930886,"lng":-81.70709893,"neighborhood":"Ohio City","city_fetched":"Cleveland,US","state":"OH","country":"United States","canonicalUrl":"https://foursquare.com/v/carneys/4b9fedb6f964a5202d4b37e3","categoryId":"4bf58dd8d48988d116941735","category":"Bar","checkinsCount":933,"usersCount":352,"tipCount":7,"visitsCount":1050,"tier":"","message":"","currency":"","rating":7.4},{"name":"Back Stage Bar","phone":"2166715483","address":"17007 Lorain Ave","lat":41.45009120124677,"lng":-81.81565516588873,"neighborhood":"Kamm's Corners","city_fetched":"Cleveland,US","state":"OH","country":"United States","canonicalUrl":"https://foursquare.com/v/back-stage-bar/4ae2b77bf964a5205c8f21e3","categoryId":"4bf58dd8d48988d116941735","category":"Bar","checkinsCount":5001,"usersCount":1371,"tipCount":23,"visitsCount":5051,"url":"http://www.backstagebarcleveland.com","tier":"","message":"","currency":"","rating":7.4},{"name":"Time Warner Cable Club Lounge","phone":"2164204487","twitter":"indians","address":"Progressive Field","lat":41.49545180595789,"lng":-81.6845402043691,"neighborhood":"Downtown Cleveland","city_fetched":"Cleveland,US","state":"OH","country":"United States","canonicalUrl":"https://foursquare.com/v/time-warner-cable-club-lounge/4bc65aba51b376b0017c1b6f","categoryId":"4bf58dd8d48988d121941735","category":"Lounge","checkinsCount":749,"usersCount":291,"tipCount":2,"visitsCount":750,"url":"http://www.indians.com","tier":"","message":"","currency":"","rating":7.4},{"name":"Skinny's Bar & Grill","address":"780 E 222nd St","lat":41.593408208050946,"lng":-81.52694517939884,"neighborhood":"Euclid - Green","city_fetched":"Cleveland,US","state":"OH","country":"United States","canonicalUrl":"https://foursquare.com/v/skinnys-bar--grill/4b7368daf964a52018ad2de3","categoryId":"4bf58dd8d48988d116941735","category":"Bar","checkinsCount":404,"usersCount":109,"tipCount":4,"visitsCount":424,"tier":"","message":"","currency":"","rating":7.4},{"name":"The Duck Island Club","phone":"2166217676","address":"2102 Freeman Ave","lat":41.48359233216591,"lng":-81.69977674622211,"neighborhood":"Tremont","city_fetched":"Cleveland,US","state":"OH","country":"United States","canonicalUrl":"https://foursquare.com/v/the-duck-island-club/4b8dfc4cf964a5203c1533e3","categoryId":"4bf58dd8d48988d118941735","category":"Dive Bar","checkinsCount":1064,"usersCount":447,"tipCount":8,"visitsCount":1080,"url":"http://www.duckislandclub.com","tier":1,"message":"Cheap","currency":"$","rating":7.4},{"name":"D'Vine Wine Bar","phone":"2162418463","address":"836 W Saint Clair Ave","lat":41.49909975364754,"lng":-81.6994292593672,"neighborhood":"Downtown Cleveland","city_fetched":"Cleveland,US","state":"OH","country":"United States","canonicalUrl":"https://foursquare.com/v/dvine-wine-bar/4ad4bff0f964a5204fe920e3","categoryId":"4bf58dd8d48988d123941735","category":"Wine Bar","checkinsCount":1450,"usersCount":782,"tipCount":13,"visitsCount":1452,"url":"http://www.dvinewinebar.com","tier":"","message":"","currency":"","rating":7.4},{"name":"Now That's Class","phone":"2162218576","twitter":"nowthatsclass","address":"11213 Detroit Ave","lat":41.48258529810973,"lng":-81.76547009466395,"neighborhood":"Edgewater","city_fetched":"Cleveland,US","state":"OH","country":"United States","canonicalUrl":"https://foursquare.com/v/now-thats-class/4ad4bff0f964a5203ce920e3","categoryId":"4bf58dd8d48988d118941735","category":"Dive Bar","checkinsCount":2208,"usersCount":957,"tipCount":6,"visitsCount":2251,"url":"http://www.nowthatsclass.net","tier":1,"message":"Cheap","currency":"$","rating":7.4},{"name":"Harbor Inn Cafe","phone":"2162413232","address":"1219 Main Ave","lat":41.495999,"lng":-81.70638218333333,"neighborhood":"Ohio City","city_fetched":"Cleveland,US","state":"OH","country":"United States","canonicalUrl":"https://foursquare.com/v/harbor-inn-cafe/4ae64fb3f964a5205ca621e3","categoryId":"4bf58dd8d48988d118941735","category":"Dive Bar","checkinsCount":2311,"usersCount":1074,"tipCount":8,"visitsCount":2549,"tier":1,"message":"Cheap","currency":"$","rating":7.3},{"name":"Tick Tock Tavern","phone":"2166316111","address":"11526 Clifton Blvd","lat":41.487376093733616,"lng":-81.76710850005196,"neighborhood":"Edgewater","city_fetched":"Cleveland,US","state":"OH","country":"United States","canonicalUrl":"https://foursquare.com/v/tick-tock-tavern/4b917e32f964a5209cc033e3","categoryId":"4bf58dd8d48988d116941735","category":"Bar","checkinsCount":1482,"usersCount":611,"tipCount":19,"visitsCount":1591,"url":"http://www.ticktocktavern.net","tier":1,"message":"Cheap","currency":"$","rating":7.3},{"name":"Dive Bar","phone":"2166217827","address":"1214 W 6th St","lat":41.501143,"lng":-81.699951,"neighborhood":"Downtown Cleveland","city_fetched":"Cleveland,US","state":"OH","country":"United States","canonicalUrl":"https://foursquare.com/v/dive-bar/4ae3c779f964a520e59821e3","categoryId":"4bf58dd8d48988d118941735","category":"Dive Bar","checkinsCount":3871,"usersCount":1375,"tipCount":15,"visitsCount":3951,"url":"http://www.divebarnyc.com","tier":1,"message":"Cheap","currency":"$","rating":7.3},{"name":"The Islander Bar And Grille","phone":"4402430593","address":"7581 Pearl Rd","lat":41.35907117145648,"lng":-81.81494527020334,"city_fetched":"Cleveland,US","state":"OH","country":"United States","canonicalUrl":"https://foursquare.com/v/the-islander-bar-and-grille/4bdb982c3904a593ab594b9e","categoryId":"4bf58dd8d48988d116941735","category":"Bar","checkinsCount":1719,"usersCount":650,"tipCount":12,"visitsCount":1806,"tier":"","message":"","currency":"","rating":7.3},{"name":"Moriarty's Pub","phone":"2167710211","address":"1912 E 6th St","lat":41.50083164556544,"lng":-81.68925519087178,"neighborhood":"Downtown Cleveland","city_fetched":"Cleveland,US","state":"OH","country":"United States","canonicalUrl":"https://foursquare.com/v/moriartys-pub/4bc39fb4abf49521560ac493","categoryId":"4bf58dd8d48988d116941735","category":"Bar","checkinsCount":666,"usersCount":329,"tipCount":10,"visitsCount":670,"tier":"","message":"","currency":"","rating":7.3},{"name":"Pearl Road Tavern & Eatery","phone":"2163987664","twitter":"pearroadtavem","address":"4370 Pearl Rd","lat":41.43681485217588,"lng":-81.70902907848358,"neighborhood":"Old Brooklyn","city_fetched":"Cleveland,US","state":"OH","country":"United States","canonicalUrl":"https://foursquare.com/v/pearl-road-tavern--eatery/4b55d4d8f964a520f0f127e3","categoryId":"4bf58dd8d48988d116941735","category":"Bar","checkinsCount":854,"usersCount":286,"tipCount":10,"visitsCount":1059,"url":"http://pearlroadtavern.com","tier":"","message":"","currency":"","rating":7.3},{"name":"Platinum Horse","phone":"2169160000","address":"13955 Brookpark Rd","lat":41.41914830090721,"lng":-81.79429123603455,"city_fetched":"Cleveland,US","state":"OH","country":"United States","canonicalUrl":"https://foursquare.com/v/platinum-horse/4b62f79ef964a520425b2ae3","categoryId":"4bf58dd8d48988d1d6941735","category":"Strip Club","checkinsCount":657,"usersCount":251,"tipCount":3,"visitsCount":666,"tier":"","message":"","currency":"","rating":7.3},{"name":"Kenny's Tavern","phone":"2163980533","address":"4227 Fulton Rd","lat":41.44147675,"lng":-81.72289123333333,"neighborhood":"Old Brooklyn","city_fetched":"Cleveland,US","state":"OH","country":"United States","canonicalUrl":"https://foursquare.com/v/kennys-tavern/4b936026f964a520e64134e3","categoryId":"4bf58dd8d48988d116941735","category":"Bar","checkinsCount":752,"usersCount":116,"tipCount":6,"visitsCount":767,"tier":"","message":"","currency":"","rating":7.2},{"name":"Barley House","phone":"2166231700","twitter":"barleyhousecle","address":"1265 W 6th St","lat":41.500588643396135,"lng":-81.69911295175552,"neighborhood":"Downtown Cleveland","city_fetched":"Cleveland,US","state":"OH","country":"United States","canonicalUrl":"https://foursquare.com/barleyhousecle","categoryId":"4bf58dd8d48988d116941735","category":"Bar","checkinsCount":12395,"usersCount":5277,"tipCount":55,"visitsCount":13568,"url":"http://www.barleyhousecleveland.com","tier":2,"message":"Moderate","currency":"$","rating":7.2},{"name":"Rivergate Tavern","phone":"2167724400","address":"1852 Columbus Rd","lat":41.489145,"lng":-81.700593,"neighborhood":"Downtown Cleveland","city_fetched":"Cleveland,US","state":"OH","country":"United States","canonicalUrl":"https://foursquare.com/v/rivergate-tavern/4cdb2ff7d5495481be9b3ab2","categoryId":"4bf58dd8d48988d116941735","category":"Bar","checkinsCount":1559,"usersCount":302,"tipCount":5,"visitsCount":1622,"tier":"","message":"","currency":"","rating":7.2},{"name":"Larry Flynt's Hustler Club Cleveland","phone":"2163940191","twitter":"hustlerclubcle","address":"1101 Center St","lat":41.493975212606294,"lng":-81.70181393623352,"neighborhood":"Downtown Cleveland","city_fetched":"Cleveland,US","state":"OH","country":"United States","canonicalUrl":"https://foursquare.com/v/larry-flynts-hustler-club-cleveland/4bc100de74a9a5934b25d1f6","categoryId":"4bf58dd8d48988d1d6941735","category":"Strip Club","checkinsCount":1858,"usersCount":776,"tipCount":6,"visitsCount":2037,"url":"http://www.hustlerclubcleveland.com","tier":2,"message":"Moderate","currency":"$","rating":7.2},{"name":"Wilbert's Food & Music","phone":"2169024663","twitter":"wilbertsmusic","address":"812 Huron Rd E","lat":41.497913964149966,"lng":-81.68571559202265,"neighborhood":"Downtown Cleveland","city_fetched":"Cleveland,US","state":"OH","country":"United States","canonicalUrl":"https://foursquare.com/v/wilberts-food--music/4ad4bff1f964a52074e920e3","categoryId":"4bf58dd8d48988d116941735","category":"Bar","checkinsCount":2310,"usersCount":1491,"tipCount":14,"visitsCount":2334,"url":"http://www.wilbertsmusic.com","tier":"","message":"","currency":"","rating":7.2},{"name":"Choices","lat":41.589338657650515,"lng":-81.5005614762614,"neighborhood":"Euclid - Green","city_fetched":"Cleveland,US","state":"OH","country":"United States","canonicalUrl":"https://foursquare.com/v/choices/4eed933d9adf257d66fff7dc","categoryId":"4bf58dd8d48988d116941735","category":"Bar","checkinsCount":104,"usersCount":59,"tipCount":2,"visitsCount":115,"tier":"","message":"","currency":"","rating":7.2},{"name":"Christie's Cabaret","phone":"2165746222","address":"1180 Main Ave","lat":41.49777821871642,"lng":-81.70819759368896,"neighborhood":"Ohio City","city_fetched":"Cleveland,US","state":"OH","country":"United States","canonicalUrl":"https://foursquare.com/v/christies-cabaret/4bbbf47dafe1b71380f42f4b","categoryId":"4bf58dd8d48988d1d6941735","category":"Strip Club","checkinsCount":2347,"usersCount":939,"tipCount":12,"visitsCount":2547,"url":"http://www.christiescabaret.com","tier":"","message":"","currency":"","rating":7.2},{"name":"Zone Car Lounge","phone":"2169399227","address":"1302 W 58th St","lat":41.48760422505056,"lng":-81.72613620758057,"neighborhood":"Detroit - Shoreway","city_fetched":"Cleveland,US","state":"OH","country":"United States","canonicalUrl":"https://foursquare.com/v/zone-car-lounge/4bca8335fb84c9b65f701d3e","categoryId":"4bf58dd8d48988d116941735","category":"Bar","checkinsCount":577,"usersCount":230,"tipCount":1,"visitsCount":798,"tier":"","message":"","currency":"","rating":7.2},{"name":"AURA ULTRA LOUNGE","phone":"2162863781","twitter":"auraloungecle","address":"1313 E 26th St","lat":41.512134359046414,"lng":-81.67459309433353,"city_fetched":"Cleveland,US","state":"OH","country":"United States","canonicalUrl":"https://foursquare.com/v/aura-ultra-lounge/53ae0331498ee5418794b56d","categoryId":"4bf58dd8d48988d1d8941735","category":"Gay Bar","checkinsCount":190,"usersCount":49,"tipCount":1,"visitsCount":217,"tier":"","message":"","currency":"","rating":7.2},{"name":"W XYZ Bar","phone":"2164006469","twitter":"alofthotels","address":"Aloft Cleveland Downtown","lat":41.50038859780311,"lng":-81.70388231359276,"neighborhood":"Downtown Cleveland","city_fetched":"Cleveland,US","state":"OH","country":"United States","canonicalUrl":"https://foursquare.com/v/w-xyz-bar/51bb8178498e92fc7538edbf","categoryId":"4bf58dd8d48988d1d5941735","category":"Hotel Bar","checkinsCount":637,"usersCount":356,"tipCount":5,"visitsCount":643,"url":"http://www.aloftclevelanddowntown.com/cleveland-bar","tier":2,"message":"Moderate","currency":"$","rating":7.2},{"name":"Paradise Island Saloon","phone":"2168128897","address":"830 Babbitt Rd","lat":41.597554716666664,"lng":-81.5162985,"neighborhood":"Euclid - Green","city_fetched":"Cleveland,US","state":"OH","country":"United States","canonicalUrl":"https://foursquare.com/v/paradise-island-saloon/4e038662483bb38cf0f34121","categoryId":"4bf58dd8d48988d116941735","category":"Bar","checkinsCount":438,"usersCount":305,"tipCount":12,"visitsCount":714,"url":"http://www.paradiseislandsaloon.com","tier":"","message":"","currency":"","rating":7.1},{"name":"Crazy Horse Men's Club","phone":"2167631111","twitter":"crazy_horse_cle","address":"25540 Miles Rd","lat":41.42407413451729,"lng":-81.49857281138637,"city_fetched":"Cleveland,US","state":"OH","country":"United States","canonicalUrl":"https://foursquare.com/v/crazy-horse-mens-club/4b4e85adf964a52060f026e3","categoryId":"4bf58dd8d48988d1d6941735","category":"Strip Club","checkinsCount":519,"usersCount":259,"tipCount":3,"visitsCount":521,"url":"http://www.crazyhorseclevelandoh.com","tier":"","message":"","currency":"","rating":7.1},{"name":"Helen's Game Time","address":"3962 Mayfield Rd","lat":41.5205160278539,"lng":-81.53805218610322,"city_fetched":"Cleveland,US","state":"OH","country":"United States","canonicalUrl":"https://foursquare.com/v/helens-game-time/51464d57e4b0251c3790febe","categoryId":"4bf58dd8d48988d116941735","category":"Bar","checkinsCount":102,"usersCount":74,"tipCount":2,"visitsCount":113,"tier":"","message":"","currency":"","rating":7.1},{"name":"A Bar + Kitchen","phone":"2166448954","twitter":"abarkitchen","address":"850 Euclid Ave","lat":41.49996251445507,"lng":-81.68723945816738,"neighborhood":"Downtown Cleveland","city_fetched":"Cleveland,US","state":"OH","country":"United States","canonicalUrl":"https://foursquare.com/abarkitchen","categoryId":"4bf58dd8d48988d116941735","category":"Bar","checkinsCount":392,"usersCount":190,"tipCount":11,"visitsCount":424,"url":"http://www.abarcle.com","tier":"","message":"","currency":"","rating":7.1},{"name":"Chocolate Bar","phone":"2162662626","twitter":"chocolatebarcle","address":"347 Euclid Ave","lat":41.49977316036824,"lng":-81.69032452283672,"neighborhood":"Downtown Cleveland","city_fetched":"Cleveland,US","state":"OH","country":"United States","canonicalUrl":"https://foursquare.com/v/chocolate-bar/4b36a203f964a5208e3925e3","categoryId":"4bf58dd8d48988d11e941735","category":"Cocktail Bar","checkinsCount":6492,"usersCount":4342,"tipCount":86,"visitsCount":6537,"url":"http://www.originalchocolatebar.com/cleveland","tier":2,"message":"Moderate","currency":"$","rating":7.1},{"name":"Tavo Martini Loft & Restaurant","phone":"2165830606","twitter":"tavomartiniloft","address":"815 Rockwell Ave","lat":41.502704038328716,"lng":-81.68920172386852,"neighborhood":"Downtown Cleveland","city_fetched":"Cleveland,US","state":"OH","country":"United States","canonicalUrl":"https://foursquare.com/v/tavo-martini-loft--restaurant/4e24ae88483b052d5221bde3","categoryId":"4bf58dd8d48988d121941735","category":"Lounge","checkinsCount":607,"usersCount":220,"tipCount":5,"visitsCount":607,"url":"http://www.tavomartiniloft.com","tier":"","message":"","currency":"","rating":7},{"name":"Rumor Bar & Lounge","phone":"8669501919","twitter":"rumorcleveland","address":"1266 W 6th St","lat":41.5004620865083,"lng":-81.69919610023499,"neighborhood":"Downtown Cleveland","city_fetched":"Cleveland,US","state":"OH","country":"United States","canonicalUrl":"https://foursquare.com/rumorcleveland","categoryId":"4bf58dd8d48988d11f941735","category":"Nightclub","checkinsCount":444,"usersCount":302,"tipCount":4,"visitsCount":448,"url":"http://www.rumorcleveland.com","tier":"","message":"","currency":"","rating":7},{"name":"Iron City Cafe","phone":"2167410010","address":"4002 Jennings Rd","lat":41.44754171832342,"lng":-81.68811633536397,"neighborhood":"Brooklyn - Centre","city_fetched":"Cleveland,US","state":"OH","country":"United States","canonicalUrl":"https://foursquare.com/v/iron-city-cafe/4c6de94df338236a2d3e091b","categoryId":"4bf58dd8d48988d116941735","category":"Bar","checkinsCount":148,"usersCount":86,"tipCount":1,"visitsCount":180,"tier":"","message":"","currency":"","rating":7},{"name":"Sunset Grille","phone":"2166311800","address":"2800 Whiskey Is","lat":41.497746887015545,"lng":-81.71613885690186,"neighborhood":"Ohio City","city_fetched":"Cleveland,US","state":"OH","country":"United States","canonicalUrl":"https://foursquare.com/v/sunset-grille/4fa58944e4b0cfe54d093e01","categoryId":"4bf58dd8d48988d116941735","category":"Bar","checkinsCount":1283,"usersCount":687,"tipCount":8,"visitsCount":1356,"tier":"","message":"","currency":"","rating":7},{"name":"Winners Sports Bar","lat":41.595262277656296,"lng":-81.49140567843102,"neighborhood":"Euclid - Green","city_fetched":"Cleveland,US","state":"OH","country":"United States","canonicalUrl":"https://foursquare.com/v/winners-sports-bar/4f2b16dae4b0ecad91a023f0","categoryId":"4bf58dd8d48988d11d941735","category":"Sports Bar","checkinsCount":232,"usersCount":70,"tipCount":5,"visitsCount":291,"tier":"","message":"","currency":"","rating":7},{"name":"Renaissance Lounge Bar","lat":41.498919277895894,"lng":-81.69474363327026,"neighborhood":"Downtown Cleveland","city_fetched":"Cleveland,US","state":"OH","country":"United States","canonicalUrl":"https://foursquare.com/v/renaissance-lounge-bar/52c9f58b498ea923935cba83","categoryId":"4bf58dd8d48988d1d5941735","category":"Hotel Bar","checkinsCount":70,"usersCount":60,"tipCount":2,"visitsCount":70,"tier":"","message":"","currency":"","rating":7},{"name":"Jolly Scholar","phone":"2163680090","address":"11111 Euclid Ave","lat":41.50756496031581,"lng":-81.60839796066284,"neighborhood":"University Circle","city_fetched":"Cleveland,US","state":"OH","country":"United States","canonicalUrl":"https://foursquare.com/v/jolly-scholar/4ae20e8bf964a520448a21e3","categoryId":"4bf58dd8d48988d116941735","category":"Bar","checkinsCount":3724,"usersCount":631,"tipCount":19,"visitsCount":3884,"url":"http://thejollyscholar.com","tier":1,"message":"Cheap","currency":"$","rating":7},{"name":"The Hawk","phone":"2165215443","twitter":"thehawkbar","address":"11217 Detroit Ave","lat":41.48275724420358,"lng":-81.76566813648516,"neighborhood":"Edgewater","city_fetched":"Cleveland,US","state":"OH","country":"United States","canonicalUrl":"https://foursquare.com/v/the-hawk/4ae05d68f964a520db7e21e3","categoryId":"4bf58dd8d48988d1d8941735","category":"Gay Bar","checkinsCount":5884,"usersCount":782,"tipCount":23,"visitsCount":6961,"url":"http://www.thehawkbar.com","tier":1,"message":"Cheap","currency":"$","rating":6.9},{"name":"Diamond's Mens Club","phone":"2166211840","address":"1628 Fall St","lat":41.493172,"lng":-81.70212507247925,"neighborhood":"Downtown Cleveland","city_fetched":"Cleveland,US","state":"OH","country":"United States","canonicalUrl":"https://foursquare.com/v/diamonds-mens-club/4b611456f964a520f0082ae3","categoryId":"4bf58dd8d48988d1d6941735","category":"Strip Club","checkinsCount":685,"usersCount":407,"tipCount":6,"visitsCount":715,"url":"http://www.dmclubs.com/diamondmensclub","tier":"","message":"","currency":"","rating":6.9},{"name":"Whiskey Island Still & Eatery","phone":"2166311800","address":"2800 Whiskey Is","lat":41.497745,"lng":-81.71617,"neighborhood":"Ohio City","city_fetched":"Cleveland,US","state":"OH","country":"United States","canonicalUrl":"https://foursquare.com/v/whiskey-island-still--eatery/5558e43c498e15772ecfc870","categoryId":"4bf58dd8d48988d116941735","category":"Bar","checkinsCount":229,"usersCount":111,"tipCount":0,"visitsCount":240,"url":"http://www.whiskeyislandstillandeatery.net","tier":"","message":"","currency":"","rating":6.9},{"name":"Thirst & Ten Sports Grille","phone":"2163628000","address":"15299 Sheldon Rd","lat":41.38840965531863,"lng":-81.80604163370175,"city_fetched":"Cleveland,US","state":"OH","country":"United States","canonicalUrl":"https://foursquare.com/v/thirst--ten-sports-grille/4cc32a8e82388cfad8ed6535","categoryId":"4bf58dd8d48988d11d941735","category":"Sports Bar","checkinsCount":2604,"usersCount":218,"tipCount":7,"visitsCount":2656,"tier":"","message":"","currency":"","rating":6.9},{"name":"Grayton Road Tavern","phone":"2162657770","address":"4760 Grayton Rd","lat":41.42682684973753,"lng":-81.84429611715625,"city_fetched":"Cleveland,US","state":"OH","country":"United States","canonicalUrl":"https://foursquare.com/v/grayton-road-tavern/4ddc12ee1f6e54b34d823285","categoryId":"4bf58dd8d48988d116941735","category":"Bar","checkinsCount":1725,"usersCount":963,"tipCount":28,"visitsCount":2444,"url":"http://www.graytonroadtavern.com","tier":"","message":"","currency":"","rating":6.9},{"name":"Tina's Nite Club","phone":"2166518057","address":"5400 Herman Ave","lat":41.487747649955935,"lng":-81.72430519451378,"neighborhood":"Detroit - Shoreway","city_fetched":"Cleveland,US","state":"OH","country":"United States","canonicalUrl":"https://foursquare.com/v/tinas-nite-club/4b738be6f964a52077b32de3","categoryId":"4bf58dd8d48988d120941735","category":"Karaoke Bar","checkinsCount":1217,"usersCount":605,"tipCount":9,"visitsCount":1399,"tier":1,"message":"Cheap","currency":"$","rating":6.8},{"name":"Gino's","address":"Denison","lat":41.45188012369487,"lng":-81.68949579190908,"neighborhood":"Brooklyn - Centre","city_fetched":"Cleveland,US","state":"OH","country":"United States","canonicalUrl":"https://foursquare.com/v/ginos/4bd508755631c9b6439ea330","categoryId":"4bf58dd8d48988d116941735","category":"Bar","checkinsCount":412,"usersCount":88,"tipCount":6,"visitsCount":421,"tier":"","message":"","currency":"","rating":6.8},{"name":"Panini's Bar and Grill","phone":"2165237070","address":"1290 W 6th St","lat":41.50011848128781,"lng":-81.69914057673994,"neighborhood":"Downtown Cleveland","city_fetched":"Cleveland,US","state":"OH","country":"United States","canonicalUrl":"https://foursquare.com/v/paninis-bar-and-grill/4ad4d8dbf964a52035fc20e3","categoryId":"4bf58dd8d48988d11d941735","category":"Sports Bar","checkinsCount":4273,"usersCount":2124,"tipCount":11,"visitsCount":4343,"url":"http://www.paninisgrill.com/locations/cleveland-west-6th","tier":"","message":"","currency":"","rating":6.8},{"name":"Steelyard Tavern","phone":"2167410930","address":"4497 Broadview Rd","lat":41.4340132017317,"lng":-81.69569768237261,"neighborhood":"Old Brooklyn","city_fetched":"Cleveland,US","state":"OH","country":"United States","canonicalUrl":"https://foursquare.com/v/steelyard-tavern/4c41ed91d7fad13add4708da","categoryId":"4bf58dd8d48988d116941735","category":"Bar","checkinsCount":317,"usersCount":65,"tipCount":4,"visitsCount":317,"tier":"","message":"","currency":"","rating":6.8},{"name":"Blue Fig Hookah Cafe","phone":"2162294747","address":"11621 Euclid Ave","lat":41.51086515492327,"lng":-81.60315021245668,"neighborhood":"University Circle","city_fetched":"Cleveland,US","state":"OH","country":"United States","canonicalUrl":"https://foursquare.com/v/blue-fig-hookah-cafe/4b5a6f52f964a520ebc428e3","categoryId":"4bf58dd8d48988d119941735","category":"Hookah Bar","checkinsCount":999,"usersCount":405,"tipCount":18,"visitsCount":1033,"url":"http://www.bluefighookah.com","tier":"","message":"","currency":"","rating":6.8},{"name":"The Clevelander Sports Bar & Grill","phone":"2167713723","address":"834 Huron Rd E","lat":41.498866878940575,"lng":-81.68598293922592,"neighborhood":"Downtown Cleveland","city_fetched":"Cleveland,US","state":"OH","country":"United States","canonicalUrl":"https://foursquare.com/v/the-clevelander-sports-bar--grill/4ae753bff964a52072aa21e3","categoryId":"4bf58dd8d48988d11d941735","category":"Sports Bar","checkinsCount":5572,"usersCount":2328,"tipCount":32,"visitsCount":5748,"url":"http://www.clevelanderbar.com","tier":2,"message":"Moderate","currency":"$","rating":6.8},{"name":"Harry Buffalo","phone":"2166218887","twitter":"harrybuffalooh","address":"2120 E 4th St","lat":41.49779429011205,"lng":-81.68997466564178,"neighborhood":"Downtown Cleveland","city_fetched":"Cleveland,US","state":"OH","country":"United States","canonicalUrl":"https://foursquare.com/v/harry-buffalo/4adb6d37f964a520532721e3","categoryId":"4bf58dd8d48988d11d941735","category":"Sports Bar","checkinsCount":9014,"usersCount":5122,"tipCount":50,"visitsCount":9692,"url":"http://www.harrybuffalo.com","tier":2,"message":"Moderate","currency":"$","rating":6.8},{"name":"The Brickhouse Bar & Grill","phone":"2162060501","address":"5504 Harvard Ave","lat":41.448218302998015,"lng":-81.65078106982835,"city_fetched":"Cleveland,US","state":"OH","country":"United States","canonicalUrl":"https://foursquare.com/v/the-brickhouse-bar--grill/4c35d2af3ffc95218c3f91f5","categoryId":"4bf58dd8d48988d118941735","category":"Dive Bar","checkinsCount":445,"usersCount":152,"tipCount":3,"visitsCount":505,"tier":"","message":"","currency":"","rating":6.8},{"name":"Crop Rocks","lat":41.499596233608266,"lng":-81.7064161048183,"neighborhood":"Downtown Cleveland","city_fetched":"Cleveland,US","state":"OH","country":"United States","canonicalUrl":"https://foursquare.com/v/crop-rocks/55e4f66f498ebe456a32467b","categoryId":"4bf58dd8d48988d116941735","category":"Bar","checkinsCount":322,"usersCount":235,"tipCount":3,"visitsCount":343,"tier":"","message":"","currency":"","rating":6.7},{"name":"Great Lakes Brewing Company","phone":"2167714404","twitter":"glbc_cleveland","address":"Concourse C","lat":41.40830328605662,"lng":-81.84094548225403,"city_fetched":"Cleveland,US","state":"OH","country":"United States","canonicalUrl":"https://foursquare.com/v/great-lakes-brewing-company/4bd06fffcaff95219fc5cef0","categoryId":"4bf58dd8d48988d116941735","category":"Bar","checkinsCount":5072,"usersCount":3683,"tipCount":76,"visitsCount":5186,"url":"http://www.greatlakesbrewing.com","tier":2,"message":"Moderate","currency":"$","rating":6.7},{"name":"Murphy's Law","phone":"2167411088","address":"5303 Memphis Ave","lat":41.43966085,"lng":-81.72268233,"neighborhood":"Old Brooklyn","city_fetched":"Cleveland,US","state":"OH","country":"United States","canonicalUrl":"https://foursquare.com/v/murphys-law/4bf020ad3a002d7f71b285a4","categoryId":"4bf58dd8d48988d116941735","category":"Bar","checkinsCount":474,"usersCount":147,"tipCount":10,"visitsCount":492,"url":"http://murphyslawpub.com","tier":"","message":"","currency":"","rating":6.7},{"name":"Babe's Sports Grill","phone":"4408870900","twitter":"babessportsgril","address":"7768 W 130th St","lat":41.3521506685371,"lng":-81.78545862436295,"city_fetched":"Cleveland,US","state":"OH","country":"United States","canonicalUrl":"https://foursquare.com/v/babes-sports-grill/4bc51c3669369521e9b88388","categoryId":"4bf58dd8d48988d11d941735","category":"Sports Bar","checkinsCount":983,"usersCount":497,"tipCount":7,"visitsCount":1085,"tier":"","message":"","currency":"","rating":6.7},{"name":"Liquid","phone":"2164797717","twitter":"liquidcleveland","address":"1212 W 6th St","lat":41.500928136048245,"lng":-81.70021265745163,"neighborhood":"Downtown Cleveland","city_fetched":"Cleveland,US","state":"OH","country":"United States","canonicalUrl":"https://foursquare.com/v/liquid/4b50caf5f964a520c93227e3","categoryId":"4bf58dd8d48988d11f941735","category":"Nightclub","checkinsCount":6954,"usersCount":2228,"tipCount":31,"visitsCount":7140,"url":"http://www.liquidcleveland.com","tier":2,"message":"Moderate","currency":"$","rating":6.7},{"name":"Crazy Horse Cabaret","phone":"2164331144","address":"16600 Brookpark Rd","lat":41.41922874677578,"lng":-81.81469974077173,"city_fetched":"Cleveland,US","state":"OH","country":"United States","canonicalUrl":"https://foursquare.com/v/crazy-horse-cabaret/4c2ed16ea0ced13a1a9d0f6e","categoryId":"4bf58dd8d48988d1d6941735","category":"Strip Club","checkinsCount":760,"usersCount":306,"tipCount":6,"visitsCount":808,"tier":"","message":"","currency":"","rating":6.6},{"name":"BG's Highlander","lat":41.539540490736115,"lng":-81.47848489365806,"city_fetched":"Cleveland,US","state":"OH","country":"United States","canonicalUrl":"https://foursquare.com/v/bgs-highlander/4b74b46ff964a52078ed2de3","categoryId":"4bf58dd8d48988d116941735","category":"Bar","checkinsCount":508,"usersCount":93,"tipCount":3,"visitsCount":523,"tier":"","message":"","currency":"","rating":6.6},{"name":"Gateway bar & grill","phone":"2166587300","address":"651 Huron Rd E","lat":41.49796817804381,"lng":-81.68777414061896,"neighborhood":"Downtown Cleveland","city_fetched":"Cleveland,US","state":"OH","country":"United States","canonicalUrl":"https://foursquare.com/v/gateway-bar--grill/530bd560498e308af42f1716","categoryId":"4bf58dd8d48988d116941735","category":"Bar","checkinsCount":218,"usersCount":140,"tipCount":2,"visitsCount":224,"url":"http://www.thegatewaybarandgrill.com","tier":"","message":"","currency":"","rating":6.6},{"name":"Sloane Pub","phone":"2162212237","address":"18196 Sloane Ave","lat":41.48654909813834,"lng":-81.82369305367322,"city_fetched":"Cleveland,US","state":"OH","country":"United States","canonicalUrl":"https://foursquare.com/v/sloane-pub/4cca0f1d7965b60cd95a838a","categoryId":"4bf58dd8d48988d116941735","category":"Bar","checkinsCount":1491,"usersCount":173,"tipCount":7,"visitsCount":1518,"tier":"","message":"","currency":"","rating":6.6},{"name":"Woody's Bar and Grille","phone":"2166714242","address":"13932 Triskett Rd","lat":41.46399782247098,"lng":-81.78957132827223,"neighborhood":"Kamm's Corners","city_fetched":"Cleveland,US","state":"OH","country":"United States","canonicalUrl":"https://foursquare.com/v/woodys-bar-and-grille/4c3f742a3735be9a196715a4","categoryId":"4bf58dd8d48988d118941735","category":"Dive Bar","checkinsCount":652,"usersCount":136,"tipCount":8,"visitsCount":694,"tier":"","message":"","currency":"","rating":6.6},{"name":"Brew Garden","phone":"4402341001","address":"18590 Bagley Rd","lat":41.37256973935856,"lng":-81.83118760585783,"city_fetched":"Cleveland,US","state":"OH","country":"United States","canonicalUrl":"https://foursquare.com/v/brew-garden/4f63cbd8e4b0aa8f667d4e15","categoryId":"4bf58dd8d48988d11d941735","category":"Sports Bar","checkinsCount":2448,"usersCount":1899,"tipCount":32,"visitsCount":3605,"url":"http://www.brewgarden.com","tier":2,"message":"Moderate","currency":"$","rating":6.6},{"name":"The Library VIP Lounge","phone":"2162974777","twitter":"jackclecasino","address":"JACK Cleveland Casino","lat":41.4979668487228,"lng":-81.69248452634218,"neighborhood":"Downtown Cleveland","city_fetched":"Cleveland,US","state":"OH","country":"United States","canonicalUrl":"https://foursquare.com/v/the-library-vip-lounge/4fb4400be4b0bc649c302170","categoryId":"4bf58dd8d48988d121941735","category":"Lounge","checkinsCount":819,"usersCount":229,"tipCount":5,"visitsCount":844,"url":"http://www.jackentertainment.com/cleveland","tier":"","message":"","currency":"","rating":6.6},{"name":"Rookies","phone":"4408420834","address":"6913 W 130th St","lat":41.37709809986302,"lng":-81.78401276744056,"city_fetched":"Cleveland,US","state":"OH","country":"United States","canonicalUrl":"https://foursquare.com/v/rookies/4b10a820f964a5206f7423e3","categoryId":"4bf58dd8d48988d11d941735","category":"Sports Bar","checkinsCount":864,"usersCount":321,"tipCount":4,"visitsCount":900,"tier":"","message":"","currency":"","rating":6.6},{"name":"Blue Bar","phone":"2166157500","address":"1260 Euclid Ave","lat":41.50059428181625,"lng":-81.68326664678251,"neighborhood":"Downtown Cleveland","city_fetched":"Cleveland,US","state":"OH","country":"United States","canonicalUrl":"https://foursquare.com/v/blue-bar/4b606d24f964a52040e529e3","categoryId":"4bf58dd8d48988d1d5941735","category":"Hotel Bar","checkinsCount":348,"usersCount":187,"tipCount":2,"visitsCount":350,"tier":"","message":"","currency":"","rating":6.5},{"name":"Thirsty Parrot","phone":"2166853200","address":"812 Huron Rd E","lat":41.49796906227019,"lng":-81.68546963174417,"neighborhood":"Downtown Cleveland","city_fetched":"Cleveland,US","state":"OH","country":"United States","canonicalUrl":"https://foursquare.com/v/thirsty-parrot/4be9e30a61aca593bb208300","categoryId":"4bf58dd8d48988d116941735","category":"Bar","checkinsCount":3535,"usersCount":2246,"tipCount":15,"visitsCount":3637,"url":"http://www.thirstyparrot.com","tier":"","message":"","currency":"","rating":6.5},{"name":"Parnell's Pub","address":"1400 Euclid Ave","lat":41.50082785303737,"lng":-81.68136839122927,"neighborhood":"Downtown Cleveland","city_fetched":"Cleveland,US","state":"OH","country":"United States","canonicalUrl":"https://foursquare.com/v/parnells-pub/51391b5be4b00f5c5bb58902","categoryId":"4bf58dd8d48988d11b941735","category":"Pub","checkinsCount":783,"usersCount":427,"tipCount":6,"visitsCount":792,"tier":1,"message":"Cheap","currency":"$","rating":6.4},{"name":"Wild Eagle Saloon","address":"921 Huron Rd E","lat":41.49955308367176,"lng":-81.68512742478197,"neighborhood":"Downtown Cleveland","city_fetched":"Cleveland,US","state":"OH","country":"United States","canonicalUrl":"https://foursquare.com/v/wild-eagle-saloon/56d5955acd10926492bfcfe6","categoryId":"56aa371ce4b08b9a8d57356c","category":"Beer Bar","checkinsCount":244,"usersCount":199,"tipCount":2,"visitsCount":322,"tier":"","message":"","currency":"","rating":6.4},{"name":"ANATOMY | Nightclub  Ultralounge","phone":"2163631113","twitter":"anatomyclevelnd","address":"1299 W 9th St","lat":41.49932909001836,"lng":-81.70053452253342,"neighborhood":"Downtown Cleveland","city_fetched":"Cleveland,US","state":"OH","country":"United States","canonicalUrl":"https://foursquare.com/v/anatomy--nightclub--ultralounge/4ae13672f964a520b28521e3","categoryId":"4bf58dd8d48988d11f941735","category":"Nightclub","checkinsCount":893,"usersCount":537,"tipCount":7,"visitsCount":898,"url":"http://www.anatomycleveland.com","tier":"","message":"","currency":"","rating":6.4},{"name":"Corks Wine Bar","phone":"2166879463","address":"1415 Euclid Ave","lat":41.50084007327635,"lng":-81.68152346181517,"neighborhood":"Downtown Cleveland","city_fetched":"Cleveland,US","state":"OH","country":"United States","canonicalUrl":"https://foursquare.com/v/corks-wine-bar/4ce45870637c6ea809d15742","categoryId":"4bf58dd8d48988d123941735","category":"Wine Bar","checkinsCount":394,"usersCount":198,"tipCount":12,"visitsCount":394,"url":"http://www.playhousesquare.com","tier":"","message":"","currency":"","rating":6.4},{"name":"Slim & Chubby's","phone":"2166717167","address":"15024 Puritas Ave","lat":41.43455807178883,"lng":-81.80152534727807,"city_fetched":"Cleveland,US","state":"OH","country":"United States","canonicalUrl":"https://foursquare.com/v/slim--chubbys/4b4a493cf964a520548226e3","categoryId":"4bf58dd8d48988d116941735","category":"Bar","checkinsCount":847,"usersCount":328,"tipCount":9,"visitsCount":869,"url":"http://www.slimandchubbys.com","tier":"","message":"","currency":"","rating":6.4},{"name":"Panini's Bar and Grill","phone":"2162658465","address":"in Concourse C","lat":41.40932522039857,"lng":-81.83956146240234,"city_fetched":"Cleveland,US","state":"OH","country":"United States","canonicalUrl":"https://foursquare.com/v/paninis-bar-and-grill/4ba1336af964a52079a137e3","categoryId":"4bf58dd8d48988d11d941735","category":"Sports Bar","checkinsCount":1868,"usersCount":1224,"tipCount":18,"visitsCount":1928,"url":"http://www.paninisgrill.com/locations/cleveland-hopkins-airport","tier":"","message":"","currency":"","rating":6.4},{"name":"Velvet Dog","phone":"2166641116","twitter":"velvetdogcle","address":"1280 W 6th St","lat":41.500106520595125,"lng":-81.69939994812012,"neighborhood":"Downtown Cleveland","city_fetched":"Cleveland,US","state":"OH","country":"United States","canonicalUrl":"https://foursquare.com/v/velvet-dog/4ad4e0bbf964a52063fc20e3","categoryId":"4bf58dd8d48988d11f941735","category":"Nightclub","checkinsCount":6120,"usersCount":3014,"tipCount":19,"visitsCount":6164,"url":"http://www.velvetdogcleveland.com","tier":2,"message":"Moderate","currency":"$","rating":6.4},{"name":"Bounce Night Club","lat":41.490660127652966,"lng":-81.70988522677526,"neighborhood":"Ohio City","city_fetched":"Cleveland,US","state":"OH","country":"United States","canonicalUrl":"https://foursquare.com/v/bounce-night-club/54a743bb498ea5a4460f2c2c","categoryId":"4bf58dd8d48988d1d8941735","category":"Gay Bar","checkinsCount":202,"usersCount":188,"tipCount":2,"visitsCount":346,"tier":"","message":"","currency":"","rating":6.4},{"name":"Casey Jones Tavern","phone":"2164761164","address":"14026 Triskett Rd","lat":41.46370365838696,"lng":-81.7906819220966,"city_fetched":"Cleveland,US","state":"OH","country":"United States","canonicalUrl":"https://foursquare.com/v/casey-jones-tavern/4b6512abf964a520cfe22ae3","categoryId":"4bf58dd8d48988d116941735","category":"Bar","checkinsCount":1097,"usersCount":206,"tipCount":5,"visitsCount":1220,"tier":"","message":"","currency":"","rating":6.4},{"name":"3D Lounge","phone":"2165389099","address":"6201 Saint Clair Ave","lat":41.524192288472356,"lng":-81.64810628683749,"neighborhood":"St. Clair - Superior","city_fetched":"Cleveland,US","state":"OH","country":"United States","canonicalUrl":"https://foursquare.com/v/3d-lounge/515e4955e4b02caa218597ce","categoryId":"4bf58dd8d48988d116941735","category":"Bar","checkinsCount":476,"usersCount":29,"tipCount":2,"visitsCount":494,"tier":"","message":"","currency":"","rating":6.4},{"name":"The Spotted Dog","twitter":"spotted_dog_nc","address":"9617 Clinton Rd","lat":41.451029777526855,"lng":-81.75117194652557,"city_fetched":"Cleveland,US","state":"OH","country":"United States","canonicalUrl":"https://foursquare.com/v/the-spotted-dog/4c22b8bd99282d7f42aa67b0","categoryId":"4bf58dd8d48988d118941735","category":"Dive Bar","checkinsCount":414,"usersCount":188,"tipCount":6,"visitsCount":522,"tier":"","message":"","currency":"","rating":6.4},{"name":"The Pub","phone":"2162656000","address":"in Main Terminal","lat":41.411202244116886,"lng":-81.83874704145573,"city_fetched":"Cleveland,US","state":"OH","country":"United States","canonicalUrl":"https://foursquare.com/v/the-pub/4c769d02604a370416e58549","categoryId":"4bf58dd8d48988d11b941735","category":"Pub","checkinsCount":2441,"usersCount":1858,"tipCount":45,"visitsCount":2446,"tier":2,"message":"Moderate","currency":"$","rating":6.3},{"name":"DNA Level C","phone":"2162989009","twitter":"dnanightclub","address":"618 Prospect Ave E","lat":41.49837285769872,"lng":-81.68848067522049,"neighborhood":"Downtown Cleveland","city_fetched":"Cleveland,US","state":"OH","country":"United States","canonicalUrl":"https://foursquare.com/v/dna-level-c/4ee43ecae5faffd731817b31","categoryId":"4bf58dd8d48988d11f941735","category":"Nightclub","checkinsCount":357,"usersCount":225,"tipCount":3,"visitsCount":357,"tier":"","message":"","currency":"","rating":6.3},{"name":"Uncle Joe's Bar & Grill","phone":"2162674447","address":"6211 W 130th St","lat":41.39482351411186,"lng":-81.7842972278595,"city_fetched":"Cleveland,US","state":"OH","country":"United States","canonicalUrl":"https://foursquare.com/v/uncle-joes-bar--grill/4c25e0efa852c9288496e56c","categoryId":"4bf58dd8d48988d11d941735","category":"Sports Bar","checkinsCount":541,"usersCount":210,"tipCount":3,"visitsCount":677,"url":"http://www.unclejoesbar.com","tier":"","message":"","currency":"","rating":6.3},{"name":"Jinna's Hookah Caf","phone":"2163863185","twitter":"jinnashookah","address":"11626 Madison Ave","lat":41.47709286740734,"lng":-81.76844549239233,"neighborhood":"Edgewater","city_fetched":"Cleveland,US","state":"OH","country":"United States","canonicalUrl":"https://foursquare.com/v/jinnas-hookah-caf%C3%A9/4e6cfc3d7d8b2c711b839c88","categoryId":"4bf58dd8d48988d119941735","category":"Hookah Bar","checkinsCount":167,"usersCount":43,"tipCount":10,"visitsCount":167,"tier":"","message":"","currency":"","rating":6.2},{"name":"S S & W Boardwalk","phone":"2164810077","address":"16011 Waterloo Rd","lat":41.571147,"lng":-81.569023,"neighborhood":"Waterloo Art District","city_fetched":"Cleveland,US","state":"OH","country":"United States","canonicalUrl":"https://foursquare.com/v/s-s--w-boardwalk/4d27f776068e8cfafcbdc04c","categoryId":"4bf58dd8d48988d116941735","category":"Bar","checkinsCount":254,"usersCount":101,"tipCount":1,"visitsCount":255,"tier":"","message":"","currency":"","rating":6.1},{"name":"Cebar's Euclid Tavern","phone":"2164819509","address":"591 E 185th St","lat":41.59137691169093,"lng":-81.54966644080322,"neighborhood":"Euclid - Green","city_fetched":"Cleveland,US","state":"OH","country":"United States","canonicalUrl":"https://foursquare.com/v/cebars-euclid-tavern/4c27f459ed0ac9b6069b5faa","categoryId":"4bf58dd8d48988d116941735","category":"Bar","checkinsCount":420,"usersCount":237,"tipCount":5,"visitsCount":536,"url":"http://www.cebars.com","tier":"","message":"","currency":"","rating":6.1},{"name":"Jake's Lounge","phone":"2166969200","twitter":"marriottintl","address":"127 Public Sq","lat":41.50166753906654,"lng":-81.69414725842566,"neighborhood":"Downtown Cleveland","city_fetched":"Cleveland,US","state":"OH","country":"United States","canonicalUrl":"https://foursquare.com/v/jakes-lounge/4b5e4c95f964a520628829e3","categoryId":"4bf58dd8d48988d1d5941735","category":"Hotel Bar","checkinsCount":903,"usersCount":425,"tipCount":7,"visitsCount":905,"url":"http://www.marriott.com/hotels/hotel-information/restaurant/clesc-cleveland-marriott-downtown-at-key-center","tier":"","message":"","currency":"","rating":6.1},{"name":"The Ugly Broad","phone":"2163519826","address":"3908 Denison Ave","lat":41.4513452555052,"lng":-81.71131772891124,"neighborhood":"Brooklyn - Centre","city_fetched":"Cleveland,US","state":"OH","country":"United States","canonicalUrl":"https://foursquare.com/v/the-ugly-broad/4c0b1ff26071a59344e3e032","categoryId":"4bf58dd8d48988d118941735","category":"Dive Bar","checkinsCount":348,"usersCount":119,"tipCount":3,"visitsCount":410,"url":"http://uglybroad.com","tier":"","message":"","currency":"","rating":6},{"name":"The Third Place","phone":"2169411333","twitter":"3rdplacetavern","address":"3314 Warren Rd","lat":41.463123037029725,"lng":-81.80225193500519,"neighborhood":"Kamm's Corners","city_fetched":"Cleveland,US","state":"OH","country":"United States","canonicalUrl":"https://foursquare.com/v/the-third-place/4b3d6521f964a5208e9325e3","categoryId":"4bf58dd8d48988d11d941735","category":"Sports Bar","checkinsCount":2378,"usersCount":547,"tipCount":13,"visitsCount":2423,"url":"http://www.thethirdplacesportsbar.com","tier":1,"message":"Cheap","currency":"$","rating":6},{"name":"Skeet's VSP","address":"3555 E 93rd St","lat":41.46192491054535,"lng":-81.6212402,"neighborhood":"Union - Miles Park","city_fetched":"Cleveland,US","state":"OH","country":"United States","canonicalUrl":"https://foursquare.com/v/skeets-vsp/4c0439a139d476b07a3831a7","categoryId":"4bf58dd8d48988d121941735","category":"Lounge","checkinsCount":236,"usersCount":162,"tipCount":5,"visitsCount":414,"tier":"","message":"","currency":"","rating":5.9},{"name":"Paddy Rock Super Pub","phone":"2169389646","address":"16700 Lorain Ave #A","lat":41.45085305331668,"lng":-81.81415530301071,"neighborhood":"Kamm's Corners","city_fetched":"Cleveland,US","state":"OH","country":"United States","canonicalUrl":"https://foursquare.com/v/paddy-rock-super-pub/50bfc5cce4b06e3ca758afd6","categoryId":"4bf58dd8d48988d11b941735","category":"Pub","checkinsCount":332,"usersCount":204,"tipCount":8,"visitsCount":336,"url":"http://www.paddyrockcleveland.com","tier":"","message":"","currency":"","rating":5.8},{"name":"Vada Restaurant and Lounge","phone":"2162984726","twitter":"vada_cleveland","address":"1437 St Clair Ave NE, Cleveland, OH 44114","lat":41.506528314176954,"lng":-81.68576906154043,"neighborhood":"Downtown Cleveland","city_fetched":"Cleveland,US","state":"OH","country":"United States","canonicalUrl":"https://foursquare.com/v/vada-restaurant-and-lounge/51b7cc8c498e85a03e70d08a","categoryId":"4bf58dd8d48988d11f941735","category":"Nightclub","checkinsCount":250,"usersCount":108,"tipCount":3,"visitsCount":281,"tier":"","message":"","currency":"","rating":5.8},{"name":"VAULT","phone":"2162391200","twitter":"vault_cle","address":"2017 E 9th St","lat":41.50007331848248,"lng":-81.68636257059812,"neighborhood":"Downtown Cleveland","city_fetched":"Cleveland,US","state":"OH","country":"United States","canonicalUrl":"https://foursquare.com/v/vault/54122ee0498e8fde9fc35e33","categoryId":"4bf58dd8d48988d11e941735","category":"Cocktail Bar","checkinsCount":228,"usersCount":186,"tipCount":1,"visitsCount":235,"url":"http://www.vault9cle.com","tier":"","message":"","currency":"","rating":5.8},{"name":"Stevenson's Bar & Grille","phone":"2169997156","address":"800 E 200th St","lat":41.615303,"lng":-81.51680052280426,"neighborhood":"Euclid - Green","city_fetched":"Cleveland,US","state":"OH","country":"United States","canonicalUrl":"https://foursquare.com/v/stevensons-bar--grille/4c74646dd8948cfac4ff64da","categoryId":"4bf58dd8d48988d116941735","category":"Bar","checkinsCount":113,"usersCount":65,"tipCount":5,"visitsCount":113,"tier":"","message":"","currency":"","rating":5.8},{"name":"Yuengling Bar","address":"Concourse A","lat":41.41225986195598,"lng":-81.8386990187702,"city_fetched":"Cleveland,US","state":"OH","country":"United States","canonicalUrl":"https://foursquare.com/v/yuengling-bar/502e8e3fe4b0a20c887b0cd0","categoryId":"4bf58dd8d48988d116941735","category":"Bar","checkinsCount":246,"usersCount":197,"tipCount":7,"visitsCount":246,"tier":"","message":"","currency":"","rating":5.7},{"name":"Wonder Bar","phone":"2162984050","twitter":"wonderbaroh","address":"2044 E 4th St","lat":41.49902072672655,"lng":-81.6902643442154,"neighborhood":"Downtown Cleveland","city_fetched":"Cleveland,US","state":"OH","country":"United States","canonicalUrl":"https://foursquare.com/wonderbaroh","categoryId":"4bf58dd8d48988d116941735","category":"Bar","checkinsCount":4147,"usersCount":1764,"tipCount":24,"visitsCount":4175,"url":"http://www.wonderbarcleveland.com","tier":2,"message":"Moderate","currency":"$","rating":5.7},{"name":"Brookview Tavern & Eatery","address":"2168 Brookpark Rd","lat":41.41986280658328,"lng":-81.6966118826635,"neighborhood":"Old Brooklyn","city_fetched":"Cleveland,US","state":"OH","country":"United States","canonicalUrl":"https://foursquare.com/v/brookview-tavern--eatery/4b8354eff964a520c30231e3","categoryId":"4bf58dd8d48988d116941735","category":"Bar","checkinsCount":871,"usersCount":189,"tipCount":8,"visitsCount":875,"tier":1,"message":"Cheap","currency":"$","rating":5.7},{"name":"Pat's in the Flats","phone":"2166218044","twitter":"patsintheflats","address":"2233 W 3rd St","lat":41.4859288,"lng":-81.683213,"neighborhood":"Tremont","city_fetched":"Cleveland,US","state":"OH","country":"United States","canonicalUrl":"https://foursquare.com/v/pats-in-the-flats/4ad4bff0f964a5201ee920e3","categoryId":"4bf58dd8d48988d116941735","category":"Bar","checkinsCount":119,"usersCount":92,"tipCount":2,"visitsCount":124,"url":"http://www.patsintheflats.com","tier":"","message":"","currency":"","rating":5.7},{"name":"Tower 230 Bar and Grill","phone":"2163480023","address":"230 W Prospect Ave","lat":41.49783446858369,"lng":-81.69398188591003,"neighborhood":"Downtown Cleveland","city_fetched":"Cleveland,US","state":"OH","country":"United States","canonicalUrl":"https://foursquare.com/v/tower-230-bar-and-grill/4bb10f7ff964a520da763ce3","categoryId":"4bf58dd8d48988d11d941735","category":"Sports Bar","checkinsCount":1377,"usersCount":391,"tipCount":11,"visitsCount":1377,"url":"http://www.tower230.com","tier":"","message":"","currency":"","rating":5.6},{"name":"Holy Craft Brewery","address":"1276 West 6th At","lat":41.500401348944074,"lng":-81.69917265264299,"neighborhood":"Downtown Cleveland","city_fetched":"Cleveland,US","state":"OH","country":"United States","canonicalUrl":"https://foursquare.com/v/holy-craft-brewery/53d1acda498ea512b7bbd2a3","categoryId":"50327c8591d4c4b30a586d5d","category":"Brewery","checkinsCount":132,"usersCount":87,"tipCount":4,"visitsCount":136,"tier":"","message":"","currency":"","rating":5.5},{"name":"Tequila Ranch","phone":"2165668226","twitter":"w6tequilaranch","address":"1229 W 6th St","lat":41.500859,"lng":-81.699591,"neighborhood":"Downtown Cleveland","city_fetched":"Cleveland,US","state":"OH","country":"United States","canonicalUrl":"https://foursquare.com/v/tequila-ranch/4ad4e0f7f964a52065fc20e3","categoryId":"4bf58dd8d48988d11f941735","category":"Nightclub","checkinsCount":2003,"usersCount":888,"tipCount":16,"visitsCount":2011,"tier":"","message":"","currency":"","rating":5.5},{"name":"21 Lounge","phone":"2166859464","twitter":"21lounge","address":"2123 E 2nd St","lat":41.497601433101266,"lng":-81.69060230255127,"neighborhood":"Downtown Cleveland","city_fetched":"Cleveland,US","state":"OH","country":"United States","canonicalUrl":"https://foursquare.com/v/21-lounge/4fca907ae4b0de80423a2409","categoryId":"4bf58dd8d48988d11d941735","category":"Sports Bar","checkinsCount":404,"usersCount":187,"tipCount":3,"visitsCount":412,"url":"http://www.21lounge.com","tier":"","message":"","currency":"","rating":5.5},{"name":"City & East Hookah Bar","phone":"4403340012","address":"2781 Euclid Heights Blvd","lat":41.50812669168456,"lng":-81.58061650467292,"city_fetched":"Cleveland,US","state":"OH","country":"United States","canonicalUrl":"https://foursquare.com/v/city--east-hookah-bar/4adb42bef964a520562521e3","categoryId":"4bf58dd8d48988d119941735","category":"Hookah Bar","checkinsCount":1208,"usersCount":618,"tipCount":18,"visitsCount":1216,"tier":"","message":"","currency":"","rating":5.4},{"name":"Drop Bar","phone":"2166962767","address":"1392 W 6th St","lat":41.499067030489094,"lng":-81.69787356745617,"neighborhood":"Downtown Cleveland","city_fetched":"Cleveland,US","state":"OH","country":"United States","canonicalUrl":"https://foursquare.com/v/drop-bar/4e45fb46fa76a07fde546df1","categoryId":"4bf58dd8d48988d11f941735","category":"Nightclub","checkinsCount":974,"usersCount":531,"tipCount":6,"visitsCount":986,"url":"http://www.cropbistro.com","tier":"","message":"","currency":"","rating":5.3},{"name":"Xecutive Ultra Lounge","phone":"2164430509","address":"1222 Prospect Ave E","lat":41.4994790242376,"lng":-81.68187103264033,"neighborhood":"Downtown Cleveland","city_fetched":"Cleveland,US","state":"OH","country":"United States","canonicalUrl":"https://foursquare.com/v/xecutive-ultra-lounge/4d96876c744f37047472bd57","categoryId":"4bf58dd8d48988d121941735","category":"Lounge","checkinsCount":148,"usersCount":119,"tipCount":1,"visitsCount":148,"tier":"","message":"","currency":"","rating":5.2},{"name":"Highland Square Tavern","address":"11614 Madison Ave","lat":41.47713101,"lng":-81.76863578333334,"neighborhood":"Edgewater","city_fetched":"Cleveland,US","state":"OH","country":"United States","canonicalUrl":"https://foursquare.com/v/highland-square-tavern/4bda2752c79cc92867ca7de9","categoryId":"4bf58dd8d48988d118941735","category":"Dive Bar","checkinsCount":532,"usersCount":189,"tipCount":5,"visitsCount":538,"tier":"","message":"","currency":"","rating":4.9},{"name":"Winners Sports Bar & Grill","address":"at Concourse C","lat":41.40734954846664,"lng":-81.84173505763206,"city_fetched":"Cleveland,US","state":"OH","country":"United States","canonicalUrl":"https://foursquare.com/v/winners-sports-bar--grill/4fe856dee4b047eaea11e7ca","categoryId":"4bf58dd8d48988d11d941735","category":"Sports Bar","checkinsCount":560,"usersCount":419,"tipCount":8,"visitsCount":561,"tier":"","message":"","currency":"","rating":4.9},{"name":"Nick's Sports Corner","phone":"2167810966","address":"615 Prospect Ave E","lat":41.49835879535338,"lng":-81.68856114149094,"neighborhood":"Downtown Cleveland","city_fetched":"Cleveland,US","state":"OH","country":"United States","canonicalUrl":"https://foursquare.com/v/nicks-sports-corner/4b7dd5b1f964a52040d72fe3","categoryId":"4bf58dd8d48988d11d941735","category":"Sports Bar","checkinsCount":540,"usersCount":403,"tipCount":6,"visitsCount":541,"tier":"","message":"","currency":"","rating":4.8}]