[{"name":"Tecumseh Brewing Company","address":"128 W Chicago Blvd","lat":42.00396827004055,"lng":-83.94593455856003,"city_fetched":"Clinton,US","state":"MI","country":"United States","canonicalUrl":"https://foursquare.com/v/tecumseh-brewing-company/54a61e26498ed3ace1a2d4df","categoryId":"50327c8591d4c4b30a586d5d","category":"Brewery","checkinsCount":829,"usersCount":181,"tipCount":5,"visitsCount":1091,"tier":"","message":"","currency":"","rating":8.8},{"name":"Brooksy's Sports Bar and Grill","phone":"5864215273","address":"38730 Harper Ave","lat":42.58203659330539,"lng":-82.86858153457972,"city_fetched":"Clinton,US","state":"MI","country":"United States","canonicalUrl":"https://foursquare.com/v/brooksys-sports-bar-and-grill/5350559d498ef2f18c544479","categoryId":"4bf58dd8d48988d11d941735","category":"Sports Bar","checkinsCount":100,"usersCount":48,"tipCount":4,"visitsCount":132,"url":"http://www.brooksyssportsbar.com","tier":2,"message":"Moderate","currency":"$","rating":8},{"name":"Wiseguys Bar & Grill","phone":"5869616510","address":"37208 Harper Ave","lat":42.57114194704787,"lng":-82.87126294025087,"city_fetched":"Clinton,US","state":"MI","country":"United States","canonicalUrl":"https://foursquare.com/v/wiseguys-bar--grill/51c62849498e613d83eb1467","categoryId":"4bf58dd8d48988d116941735","category":"Bar","checkinsCount":386,"usersCount":275,"tipCount":8,"visitsCount":658,"url":"http://wiseguysbarandgrill.com","tier":2,"message":"Moderate","currency":"$","rating":7.8},{"name":"Freddy's","phone":"5864167777","address":"40000 Garfield Rd","lat":42.59090490695098,"lng":-82.95181778010075,"city_fetched":"Clinton,US","state":"MI","country":"United States","canonicalUrl":"https://foursquare.com/v/freddys/4ccf6fc56200b1f70f83ce28","categoryId":"4bf58dd8d48988d116941735","category":"Bar","checkinsCount":839,"usersCount":526,"tipCount":9,"visitsCount":1359,"url":"http://freddysbarrocks.com","tier":"","message":"","currency":"","rating":7.7},{"name":"Great Baraboo Brewing Company","phone":"5867927397","address":"35905 Utica Rd","lat":42.56024778427255,"lng":-82.96543273052144,"city_fetched":"Clinton,US","state":"MI","country":"United States","canonicalUrl":"https://foursquare.com/v/great-baraboo-brewing-company/4b5292e2f964a520be8227e3","categoryId":"50327c8591d4c4b30a586d5d","category":"Brewery","checkinsCount":4752,"usersCount":2209,"tipCount":43,"visitsCount":5770,"url":"http://greatbaraboo.com","tier":2,"message":"Moderate","currency":"$","rating":7.7},{"name":"Wiseguys Bar & Grill","phone":"5862630300","address":"42305 Garfield Rd","lat":42.607824560319926,"lng":-82.95328284726664,"city_fetched":"Clinton,US","state":"MI","country":"United States","canonicalUrl":"https://foursquare.com/v/wiseguys-bar--grill/4ab599d2f964a5209a7520e3","categoryId":"4bf58dd8d48988d11d941735","category":"Sports Bar","checkinsCount":2623,"usersCount":801,"tipCount":14,"visitsCount":2883,"url":"http://wiseguysbarandgrill.com","tier":"","message":"","currency":"","rating":7.5},{"name":"Winner's","phone":"5867919050","address":"34540 Harper Ave","lat":42.55156359798226,"lng":-82.87254051333268,"city_fetched":"Clinton,US","state":"MI","country":"United States","canonicalUrl":"https://foursquare.com/v/winners/4b8a044ff964a520d15b32e3","categoryId":"4bf58dd8d48988d116941735","category":"Bar","checkinsCount":781,"usersCount":404,"tipCount":2,"visitsCount":983,"tier":"","message":"","currency":"","rating":7.5},{"name":"Stray Cat Lounge","phone":"5867418544","twitter":"straycatlounge","address":"40813 Garfield Rd","lat":42.59714500379418,"lng":-82.95434355670588,"city_fetched":"Clinton,US","state":"MI","country":"United States","canonicalUrl":"https://foursquare.com/v/stray-cat-lounge/5352f3e6498eb5a763b07fad","categoryId":"4bf58dd8d48988d121941735","category":"Lounge","checkinsCount":149,"usersCount":96,"tipCount":5,"visitsCount":180,"url":"http://www.thestraycatlounge.com","tier":3,"message":"Expensive","currency":"$","rating":7.2},{"name":"Dan's Clinton Tavern","phone":"5174567940","address":"124 West Michigan Avenue","lat":42.0720899105072,"lng":-83.972196,"city_fetched":"Clinton,US","state":"MI","country":"United States","canonicalUrl":"https://foursquare.com/v/dans-clinton-tavern/4b5cf0b7f964a520be4b29e3","categoryId":"4bf58dd8d48988d116941735","category":"Bar","checkinsCount":763,"usersCount":195,"tipCount":3,"visitsCount":862,"tier":"","message":"","currency":"","rating":6.7},{"name":"Jager's Castle Rock","phone":"5864939910","address":"43785 N Gratiot Ave","lat":42.61769413948059,"lng":-82.86757171154022,"city_fetched":"Clinton,US","state":"MI","country":"United States","canonicalUrl":"https://foursquare.com/v/jagers-castle-rock/4ba9247ff964a520c80e3ae3","categoryId":"4bf58dd8d48988d116941735","category":"Bar","checkinsCount":344,"usersCount":156,"tipCount":4,"visitsCount":344,"url":"http://www.myspace.com/jagerscastlerock","tier":"","message":"","currency":"","rating":6.5},{"name":"Pub 1281","phone":"5864630270","address":"1281 Gratiot Ave.","lat":42.580641,"lng":-82.88548350334167,"city_fetched":"Clinton,US","state":"MI","country":"United States","canonicalUrl":"https://foursquare.com/v/pub-1281/4b5bb4b2f964a520321129e3","categoryId":"4bf58dd8d48988d116941735","category":"Bar","checkinsCount":689,"usersCount":316,"tipCount":7,"visitsCount":771,"url":"http://www.pub1281.com","tier":"","message":"","currency":"","rating":6.5},{"name":"Clancy's Irish Pub","phone":"5862860008","address":"42012 Hayes Rd","lat":42.60468400572354,"lng":-82.97175407409668,"city_fetched":"Clinton,US","state":"MI","country":"United States","canonicalUrl":"https://foursquare.com/v/clancys-irish-pub/4c6a07f91a6620a1cd46658c","categoryId":"4bf58dd8d48988d116941735","category":"Bar","checkinsCount":1906,"usersCount":706,"tipCount":13,"visitsCount":2022,"url":"http://clancysirishpub1.com","tier":"","message":"","currency":"","rating":6.5},{"name":"Traffic Light Limited","phone":"5864688900","address":"24500 Henry B Joy Blvd","lat":42.60951305564466,"lng":-82.86041047034462,"city_fetched":"Clinton,US","state":"MI","country":"United States","canonicalUrl":"https://foursquare.com/v/traffic-light-limited/4c509b3f9426c928ba6a5e72","categoryId":"4bf58dd8d48988d1d6941735","category":"Strip Club","checkinsCount":753,"usersCount":347,"tipCount":9,"visitsCount":878,"tier":"","message":"","currency":"","rating":6.3},{"name":"The Detroit Pub","phone":"5867911288","address":"33401 Harper Ave","lat":42.54055714292635,"lng":-82.88244481858598,"city_fetched":"Clinton,US","state":"MI","country":"United States","canonicalUrl":"https://foursquare.com/v/the-detroit-pub/4bb7ed9d53649c74658246fb","categoryId":"4bf58dd8d48988d11b941735","category":"Pub","checkinsCount":2084,"usersCount":921,"tipCount":11,"visitsCount":2221,"tier":2,"message":"Moderate","currency":"$","rating":6.2},{"name":"Rusty Nail","phone":"5867904311","twitter":"openmicdetroit","address":"35703 Groesbeck Hwy","lat":42.56037758938343,"lng":-82.91952558423425,"city_fetched":"Clinton,US","state":"MI","country":"United States","canonicalUrl":"https://foursquare.com/v/rusty-nail/4bf73bb44a67c928a65e23cf","categoryId":"4bf58dd8d48988d116941735","category":"Bar","checkinsCount":411,"usersCount":242,"tipCount":2,"visitsCount":487,"url":"http://thenewrustynal.com","tier":"","message":"","currency":"","rating":5.9},{"name":"Piper's Alley Bar & Grill","address":"34802 S Gratiot Ave","lat":42.55275878333333,"lng":-82.90016864,"city_fetched":"Clinton,US","state":"MI","country":"United States","canonicalUrl":"https://foursquare.com/v/pipers-alley-bar--grill/4ba80d48f964a52051c939e3","categoryId":"4bf58dd8d48988d116941735","category":"Bar","checkinsCount":839,"usersCount":436,"tipCount":11,"visitsCount":863,"tier":"","message":"","currency":"","rating":5.8}]