[{"name":"I Love Sushi","phone":"5592971117","address":"465 W Shaw Ave","lat":36.808728,"lng":-119.71960008144379,"city_fetched":"Clovis","state":"CA","country":"United States","canonicalUrl":"https://foursquare.com/v/i-love-sushi/4b55162ff964a520b2da27e3","category":"Sushi Restaurant","checkinsCount":1331,"usersCount":700,"tipCount":25,"visitsCount":1536,"url":"http://ilovesushiclovis.com","tier":"","message":"","currency":"","rating":8.8},{"name":"House of Pendragon Brewing Co.","twitter":"hopbeer","address":"1345 N Willow Ave #192","lat":36.853600904860016,"lng":-119.72840549297436,"city_fetched":"Clovis","state":"CA","country":"United States","canonicalUrl":"https://foursquare.com/hopbeer","category":"Brewery","checkinsCount":347,"usersCount":142,"tipCount":5,"visitsCount":377,"url":"http://hopbeer.com","tier":1,"message":"Cheap","currency":"$","rating":7.9},{"name":"The Mad Duck Neighborhood Grill & Taphouse","phone":"5592983825","address":"765 W Herndon Ave #200","lat":36.838400066666665,"lng":-119.727622,"city_fetched":"Clovis","state":"CA","country":"United States","canonicalUrl":"https://foursquare.com/v/the-mad-duck-neighborhood-grill--taphouse/4ba844bef964a52039d439e3","category":"American Restaurant","checkinsCount":4453,"usersCount":1051,"tipCount":47,"visitsCount":4681,"url":"http://madduckfresno.com","tier":2,"message":"Moderate","currency":"$","rating":7.9},{"name":"Groggs Traditional Irish Pub","phone":"5593230433","address":"1225 N Willow Ave Ste 180","lat":36.8526444,"lng":-119.728727,"city_fetched":"Clovis","state":"CA","country":"United States","canonicalUrl":"https://foursquare.com/v/groggs-traditional-irish-pub/4b49704df964a520ce6f26e3","category":"Restaurant","checkinsCount":1087,"usersCount":464,"tipCount":8,"visitsCount":1190,"tier":"","message":"","currency":"","rating":7.7},{"name":"Old Town Saloon","address":"450 Clovis Ave","lat":36.824244,"lng":-119.700692,"neighborhood":"Downtown Clovis","city_fetched":"Clovis","state":"CA","country":"United States","canonicalUrl":"https://foursquare.com/v/old-town-saloon/4b4ea6ecf964a5206cf326e3","category":"Nightclub","checkinsCount":978,"usersCount":440,"tipCount":4,"visitsCount":1035,"url":"http://oldtownsaloonclovis.com","tier":"","message":"","currency":"","rating":7.3},{"name":"Neighbor's Tap & Cook House","phone":"5592984020","twitter":"neighbors_tandc","address":"1175 N Fowler Ave #800","lat":36.851239800453186,"lng":-119.68294372,"city_fetched":"Clovis","state":"CA","country":"United States","canonicalUrl":"https://foursquare.com/v/neighbors-tap--cook-house/4bcb658e937ca593997fa992","category":"Bar","checkinsCount":1381,"usersCount":492,"tipCount":7,"visitsCount":1772,"url":"http://neighborscookhouse.com","tier":"","message":"","currency":"","rating":6.9},{"name":"500 Club Restaurant Bar & Grill","phone":"5592992797","address":"500 Clovis Ave","lat":36.823913,"lng":-119.70085515932438,"neighborhood":"Downtown Clovis","city_fetched":"Clovis","state":"CA","country":"United States","canonicalUrl":"https://foursquare.com/v/500-club-restaurant-bar--grill/4b46cdd0f964a520742826e3","category":"Casino","checkinsCount":585,"usersCount":238,"tipCount":9,"visitsCount":592,"tier":"","message":"","currency":"","rating":6.2},{"name":"Jimbo's","phone":"5592999924","address":"451 Herndon Ave","lat":36.83785021305084,"lng":-119.705921,"city_fetched":"Clovis","state":"CA","country":"United States","canonicalUrl":"https://foursquare.com/v/jimbos/4ba56aa8f964a5200a0539e3","category":"Dive Bar","checkinsCount":628,"usersCount":358,"tipCount":6,"visitsCount":838,"tier":"","message":"","currency":"","rating":5.9}]