[{"name":"Crafted Tap House & Kitchen","phone":"2082924813","address":"523 E Sherman Ave","lat":47.673538,"lng":-116.778529,"neighborhood":"Downtown Coeur d'Alene","city_fetched":"Coeur d'Alene","state":"ID","country":"United States","canonicalUrl":"https://foursquare.com/v/crafted-tap-house--kitchen/539e3e49498e06f4cc82c47f","category":"Gastropub","checkinsCount":498,"usersCount":533,"tipCount":24,"visitsCount":764,"url":"http://www.craftedtaphouse.com","tier":"","message":"","currency":"","rating":9.2},{"name":"Bardenay","phone":"2087651540","address":"1710 W Riverstone Dr","lat":47.695612188414614,"lng":-116.81073682996306,"neighborhood":"Riverstone","city_fetched":"Coeur d'Alene","state":"ID","country":"United States","canonicalUrl":"https://foursquare.com/v/bardenay/4ba7c4f6f964a520beb139e3","category":"Burger Joint","checkinsCount":1139,"usersCount":899,"tipCount":20,"visitsCount":1570,"url":"http://www.bardenay.com","tier":2,"message":"Moderate","currency":"$","rating":8.9},{"name":"The Cellar at 317","phone":"2086649463","twitter":"thecellarcda","address":"317 E Sherman Ave","lat":47.673508111689976,"lng":-116.78168535232544,"neighborhood":"Downtown Coeur d'Alene","city_fetched":"Coeur d'Alene","state":"ID","country":"United States","canonicalUrl":"https://foursquare.com/v/the-cellar-at-317/52d5eba5498e79678706eaef","category":"Wine Bar","checkinsCount":378,"usersCount":299,"tipCount":14,"visitsCount":382,"url":"http://www.thewinecellarcda.com","tier":2,"message":"Moderate","currency":"$","rating":8.7},{"name":"Daft Badger Brewery","address":"1710 N 2nd St","lat":47.69155502319336,"lng":-116.78300476074219,"city_fetched":"Coeur d'Alene","state":"ID","country":"United States","canonicalUrl":"https://foursquare.com/v/daft-badger-brewery/54c31d83498efefa00e10d48","category":"Brewery","checkinsCount":137,"usersCount":155,"tipCount":7,"visitsCount":373,"tier":"","message":"","currency":"","rating":8.5},{"name":"Moon Time","phone":"2086672331","address":"1602 E Sherman Ave","lat":47.673190241115336,"lng":-116.76265239715576,"city_fetched":"Coeur d'Alene","state":"ID","country":"United States","canonicalUrl":"https://foursquare.com/v/moon-time/4b610377f964a52013062ae3","category":"American Restaurant","checkinsCount":1014,"usersCount":629,"tipCount":28,"visitsCount":1168,"url":"http://wedonthaveone.com","tier":"","message":"","currency":"","rating":8.5},{"name":"Fort Ground Grill","phone":"2086646186","address":"705 River Ave","lat":47.6791,"lng":-116.79407403333333,"city_fetched":"Coeur d'Alene","state":"ID","country":"United States","canonicalUrl":"https://foursquare.com/v/fort-ground-grill/4c518b0e5ee81b8dbc746a00","category":"American Restaurant","checkinsCount":185,"usersCount":122,"tipCount":7,"visitsCount":223,"tier":"","message":"","currency":"","rating":8},{"name":"The Unchained Taphouse","address":"210 E Sherman Ave","lat":47.67348603277399,"lng":-116.7836405054829,"neighborhood":"Downtown Coeur d'Alene","city_fetched":"Coeur d'Alene","state":"ID","country":"United States","canonicalUrl":"https://foursquare.com/v/the-unchained-taphouse/554acee2498ef6d4d82990c7","category":"Pub","checkinsCount":77,"usersCount":68,"tipCount":2,"visitsCount":81,"tier":"","message":"","currency":"","rating":7.8},{"name":"Trickster's Brewing Company","phone":"2089664232","twitter":"tricksters_brew","address":"3850 N Schreiber Way","lat":47.71189393920584,"lng":-116.80329085851898,"city_fetched":"Coeur d'Alene","state":"ID","country":"United States","canonicalUrl":"https://foursquare.com/v/tricksters-brewing-company/50ba54d5e4b0e015e55e20dc","category":"Brewery","checkinsCount":189,"usersCount":128,"tipCount":2,"visitsCount":239,"url":"http://www.trickstersbrewing.com","tier":1,"message":"Cheap","currency":"$","rating":7.8},{"name":"315 Martinis and Tapas","phone":"2086679660","twitter":"greenbriarinn","address":"315 E Wallace Ave","lat":47.676997,"lng":-116.78179,"neighborhood":"Downtown Coeur d'Alene","city_fetched":"Coeur d'Alene","state":"ID","country":"United States","canonicalUrl":"https://foursquare.com/v/315-martinis-and-tapas/4be33f0a2ff376b0d54c4fed","category":"Tapas Restaurant","checkinsCount":173,"usersCount":123,"tipCount":8,"visitsCount":197,"url":"http://www.315martinisandtapas.com","tier":"","message":"","currency":"","rating":7.8},{"name":"Caddyshack Sports Pub","lat":47.74398805240708,"lng":-116.80148503986142,"city_fetched":"Coeur d'Alene","state":"ID","country":"United States","canonicalUrl":"https://foursquare.com/v/caddyshack-sports-pub/4e27702da809ec0663e48e04","category":"Sports Bar","checkinsCount":274,"usersCount":88,"tipCount":6,"visitsCount":283,"tier":"","message":"","currency":"","rating":7.7},{"name":"Slate Creek Brewing Company","lat":47.69128978750857,"lng":-116.77968297186439,"city_fetched":"Coeur d'Alene","state":"ID","country":"United States","canonicalUrl":"https://foursquare.com/v/slate-creek-brewing-company/516771b2e4b0cb93541a4149","category":"Brewery","checkinsCount":135,"usersCount":87,"tipCount":4,"visitsCount":181,"tier":"","message":"","currency":"","rating":7.5},{"name":"Moose Market Lounge","phone":"2086647901","address":"401 Sherman Ave.","lat":47.6735364,"lng":-116.781146,"neighborhood":"Downtown Coeur d'Alene","city_fetched":"Coeur d'Alene","state":"ID","country":"United States","canonicalUrl":"https://foursquare.com/v/moose-market-lounge/4baa1f4ef964a5205a4c3ae3","category":"Bar","checkinsCount":1271,"usersCount":517,"tipCount":14,"visitsCount":1302,"url":"http://www.moosemarket.com","tier":"","message":"","currency":"","rating":7.3},{"name":"The Fedora Pub & Grille","phone":"2087658888","address":"1726 W Kathleen Ave","lat":47.71514223171623,"lng":-116.80944953726342,"city_fetched":"Coeur d'Alene","state":"ID","country":"United States","canonicalUrl":"https://foursquare.com/v/the-fedora-pub--grille/4c72dc714bc4236af469cc7a","category":"Pub","checkinsCount":423,"usersCount":175,"tipCount":11,"visitsCount":456,"url":"http://fedorapubandgrille.com","tier":"","message":"","currency":"","rating":7.2},{"name":"Mik's","phone":"2086660450","address":"406 N 4th St","lat":47.67644771151171,"lng":-116.78097684868777,"neighborhood":"Downtown Coeur d'Alene","city_fetched":"Coeur d'Alene","state":"ID","country":"United States","canonicalUrl":"https://foursquare.com/v/miks/4d86c9870a0d14567c0f17cc","category":"Nightclub","checkinsCount":931,"usersCount":177,"tipCount":4,"visitsCount":1141,"tier":"","message":"","currency":"","rating":7},{"name":"Paddys","phone":"2087650701","address":"601 W Appleway Ave","lat":47.700955483853114,"lng":-116.79460401611678,"city_fetched":"Coeur d'Alene","state":"ID","country":"United States","canonicalUrl":"https://foursquare.com/v/paddys/4c26adfc5c5ca5937dab46fe","category":"Sports Bar","checkinsCount":496,"usersCount":177,"tipCount":4,"visitsCount":569,"tier":"","message":"","currency":"","rating":7},{"name":"Hogfish","phone":"2086671896","address":"1920 E Sherman Ave","lat":47.67299317269085,"lng":-116.75826591633322,"city_fetched":"Coeur d'Alene","state":"ID","country":"United States","canonicalUrl":"https://foursquare.com/v/hogfish/4cf0b4fb8333224bdf0a068e","category":"Dive Bar","checkinsCount":378,"usersCount":128,"tipCount":8,"visitsCount":492,"url":"http://www.hogfishcda.com","tier":"","message":"","currency":"","rating":6.9},{"name":"Whispers","phone":"2087654000","address":"115 S 2nd St","lat":47.671686384460266,"lng":-116.78464363771684,"neighborhood":"Downtown Coeur d'Alene","city_fetched":"Coeur d'Alene","state":"ID","country":"United States","canonicalUrl":"https://foursquare.com/v/whispers/4b9c2488f964a520704e36e3","category":"Lounge","checkinsCount":278,"usersCount":188,"tipCount":3,"visitsCount":279,"tier":"","message":"","currency":"","rating":6.9},{"name":"The Beacon","address":"315 E Sherman Ave","lat":47.673529,"lng":-116.781273,"neighborhood":"Downtown Coeur d'Alene","city_fetched":"Coeur d'Alene","state":"ID","country":"United States","canonicalUrl":"https://foursquare.com/v/the-beacon/4bd9f98c2a3a0f47ff23a9b6","category":"Pub","checkinsCount":720,"usersCount":422,"tipCount":9,"visitsCount":727,"tier":"","message":"","currency":"","rating":6.7},{"name":"Iron Horse","phone":"2086677314","address":"407 E Sherman Ave.","lat":47.67356108333333,"lng":-116.78060173988342,"neighborhood":"Downtown Coeur d'Alene","city_fetched":"Coeur d'Alene","state":"ID","country":"United States","canonicalUrl":"https://foursquare.com/v/iron-horse/4be4cb55910020a16c4cd214","category":"Dive Bar","checkinsCount":1310,"usersCount":620,"tipCount":9,"visitsCount":1414,"url":"http://www.ironhorsecda.com","tier":3,"message":"Expensive","currency":"$","rating":6.6},{"name":"Toro Viejo","phone":"2086677676","address":"117 N 2nd St","lat":47.674171,"lng":-116.78432011,"neighborhood":"Downtown Coeur d'Alene","city_fetched":"Coeur d'Alene","state":"ID","country":"United States","canonicalUrl":"https://foursquare.com/v/toro-viejo/4c32467b16adc928ebdec19c","category":"Mexican Restaurant","checkinsCount":307,"usersCount":163,"tipCount":3,"visitsCount":310,"tier":"","message":"","currency":"","rating":6.6},{"name":"Iron Horse Bar and Grill","address":"Sherman Ave","lat":47.67361527848004,"lng":-116.78065388851485,"neighborhood":"Downtown Coeur d'Alene","city_fetched":"Coeur d'Alene","state":"ID","country":"United States","canonicalUrl":"https://foursquare.com/v/iron-horse-bar-and-grill/4ce0176f70bba1cdf74d6ac4","category":"American Restaurant","checkinsCount":547,"usersCount":234,"tipCount":3,"visitsCount":550,"tier":"","message":"","currency":"","rating":5.3}]