[{"name":"Willows Bar & Grill","phone":"5172798490","address":"716 W Chicago Rd","lat":41.945594,"lng":-85.030381,"city_fetched":"Coldwater,US","state":"MI","country":"United States","canonicalUrl":"https://foursquare.com/v/willows-bar--grill/4bd1f44f77b29c74e8a68d82","categoryId":"4bf58dd8d48988d116941735","category":"Bar","checkinsCount":296,"usersCount":190,"tipCount":2,"visitsCount":430,"tier":"","message":"","currency":"","rating":8.1},{"name":"JT's Billiard Bar & Grill","phone":"5172275877","twitter":"jtsbilliardbar","address":"50 E Chicago St","lat":41.940147399902344,"lng":-84.9988021850586,"city_fetched":"Coldwater,US","state":"MI","country":"United States","canonicalUrl":"https://foursquare.com/v/jts-billiard-bar--grill/50417139e4b0c996b2ad7e0b","categoryId":"4bf58dd8d48988d116941735","category":"Bar","checkinsCount":202,"usersCount":114,"tipCount":6,"visitsCount":256,"url":"http://www.jtsbilliardbar.com","tier":"","message":"","currency":"","rating":7.2},{"name":"Lamplighter","phone":"5172785555","address":"33 N Hanchett St","lat":41.94225495884515,"lng":-85.0035810470581,"city_fetched":"Coldwater,US","state":"MI","country":"United States","canonicalUrl":"https://foursquare.com/v/lamplighter/4baee014f964a520dbde3be3","categoryId":"4bf58dd8d48988d116941735","category":"Bar","checkinsCount":149,"usersCount":83,"tipCount":1,"visitsCount":152,"tier":"","message":"","currency":"","rating":7.2}]