[{"name":"Veritas Wine & Bistro","phone":"9792683251","address":"830 University Dr E","lat":30.634288903594516,"lng":-96.32510738358694,"city_fetched":"College Station,US","state":"TX","country":"United States","canonicalUrl":"https://foursquare.com/v/veritas-wine--bistro/4ae24c54f964a520f88c21e3","categoryId":"4bf58dd8d48988d123941735","category":"Wine Bar","checkinsCount":767,"usersCount":389,"tipCount":11,"visitsCount":792,"url":"http://www.veritaswineandbistro.com","tier":3,"message":"Expensive","currency":"$","rating":8.7},{"name":"Carney's Pub","phone":"9798231294","address":"3410 S College Ave","lat":30.636406448072933,"lng":-96.35603122476182,"city_fetched":"College Station,US","state":"TX","country":"United States","canonicalUrl":"https://foursquare.com/v/carneys-pub/4c93e7b282b56dcb7f0fcaaa","categoryId":"4bf58dd8d48988d11b941735","category":"Pub","checkinsCount":1441,"usersCount":506,"tipCount":12,"visitsCount":1853,"url":"http://www.carneyspub.com","tier":2,"message":"Moderate","currency":"$","rating":8.6},{"name":"Rebel Draft House","lat":30.6189518756508,"lng":-96.34665481329934,"neighborhood":"Northgate","city_fetched":"College Station,US","state":"TX","country":"United States","canonicalUrl":"https://foursquare.com/v/rebel-draft-house/54fb65ea498ed2b260f5fec4","categoryId":"4bf58dd8d48988d116941735","category":"Bar","checkinsCount":145,"usersCount":109,"tipCount":1,"visitsCount":202,"tier":"","message":"","currency":"","rating":8.6},{"name":"Blackwater Draw Brewing Company (303 CSTX)","phone":"9797036170","twitter":"blackwaterbrew","address":"303 Boyett St","lat":30.61797993498883,"lng":-96.34789288043976,"neighborhood":"Northgate","city_fetched":"College Station,US","state":"TX","country":"United States","canonicalUrl":"https://foursquare.com/blackwaterbrew","categoryId":"50327c8591d4c4b30a586d5d","category":"Brewery","checkinsCount":1746,"usersCount":812,"tipCount":12,"visitsCount":2392,"url":"http://blackwaterbrew.com","tier":1,"message":"Cheap","currency":"$","rating":8.5},{"name":"Dixie Chicken","phone":"9792607344","address":"307 University Dr","lat":30.61805628680732,"lng":-96.34663403610882,"neighborhood":"Northgate","city_fetched":"College Station,US","state":"TX","country":"United States","canonicalUrl":"https://foursquare.com/v/dixie-chicken/4a330393f964a520ec9a1fe3","categoryId":"4bf58dd8d48988d116941735","category":"Bar","checkinsCount":5099,"usersCount":3009,"tipCount":30,"visitsCount":5246,"url":"http://www.dixiechicken.com","tier":1,"message":"Cheap","currency":"$","rating":8.4},{"name":"New Republic Brewing Co","twitter":"newrepublicbeer","address":"11405 N Dowling Rd","lat":30.565499424337045,"lng":-96.34954810447933,"city_fetched":"College Station,US","state":"TX","country":"United States","canonicalUrl":"https://foursquare.com/v/new-republic-brewing-co/4da8f1e26a2303012ee963f3","categoryId":"50327c8591d4c4b30a586d5d","category":"Brewery","checkinsCount":448,"usersCount":195,"tipCount":1,"visitsCount":511,"url":"http://newrepublicbrewing.com","tier":"","message":"","currency":"","rating":8.4},{"name":"World of Beer at North Point Crossing","address":"425 Northpoint Xing Ste 700","lat":30.627842198690328,"lng":-96.3352959144604,"city_fetched":"College Station,US","state":"TX","country":"United States","canonicalUrl":"https://foursquare.com/v/world-of-beer-at-north-point-crossing/55807c1b498e3cad934ea480","categoryId":"4bf58dd8d48988d116941735","category":"Bar","checkinsCount":346,"usersCount":274,"tipCount":0,"visitsCount":561,"tier":"","message":"","currency":"","rating":8.2},{"name":"Tipsy Turtle","phone":"9792609282","address":"113 Boyett St","lat":30.6176644954327,"lng":-96.34719502267528,"neighborhood":"Northgate","city_fetched":"College Station,US","state":"TX","country":"United States","canonicalUrl":"https://foursquare.com/v/tipsy-turtle/4bb43b7a737d76b0a0413b7c","categoryId":"4bf58dd8d48988d116941735","category":"Bar","checkinsCount":1111,"usersCount":489,"tipCount":1,"visitsCount":1117,"tier":"","message":"","currency":"","rating":8.2},{"name":"The Dry Bean","phone":"9798464300","address":"315 University Dr","lat":30.61793625354767,"lng":-96.34649276733398,"neighborhood":"Northgate","city_fetched":"College Station,US","state":"TX","country":"United States","canonicalUrl":"https://foursquare.com/v/the-dry-bean/4b5a9ad6f964a5206acd28e3","categoryId":"4bf58dd8d48988d122941735","category":"Whisky Bar","checkinsCount":2061,"usersCount":1060,"tipCount":16,"visitsCount":2065,"url":"http://www.dixiechicken.com/drybean","tier":"","message":"","currency":"","rating":8.2},{"name":"West End Elixir Company","lat":30.61656950295122,"lng":-96.34892476293199,"neighborhood":"Northgate","city_fetched":"College Station,US","state":"TX","country":"United States","canonicalUrl":"https://foursquare.com/v/west-end-elixir-company/55ece218498ea5bab3eba360","categoryId":"4bf58dd8d48988d1d4941735","category":"Speakeasy","checkinsCount":156,"usersCount":173,"tipCount":6,"visitsCount":348,"tier":"","message":"","currency":"","rating":8},{"name":"The Corner","phone":"9792681406","address":"401 University Dr","lat":30.61854,"lng":-96.34553253650665,"neighborhood":"Northgate","city_fetched":"College Station,US","state":"TX","country":"United States","canonicalUrl":"https://foursquare.com/v/the-corner/4b3d5c91f964a520139325e3","categoryId":"4bf58dd8d48988d116941735","category":"Bar","checkinsCount":5748,"usersCount":1969,"tipCount":18,"visitsCount":5953,"url":"http://www.thecornerbcs.com","tier":1,"message":"Cheap","currency":"$","rating":7.7},{"name":"The Backyard","lat":30.617775442332185,"lng":-96.34656651028736,"neighborhood":"Northgate","city_fetched":"College Station,US","state":"TX","country":"United States","canonicalUrl":"https://foursquare.com/v/the-backyard/5214482911d228d8f30e8755","categoryId":"4bf58dd8d48988d116941735","category":"Bar","checkinsCount":672,"usersCount":391,"tipCount":4,"visitsCount":710,"tier":1,"message":"Cheap","currency":"$","rating":7.6},{"name":"Obannon's Tap House","phone":"9798469214","twitter":"obannons","address":"103 Boyett St","lat":30.61732900307173,"lng":-96.34729206562042,"neighborhood":"Northgate","city_fetched":"College Station,US","state":"TX","country":"United States","canonicalUrl":"https://foursquare.com/obannons","categoryId":"4bf58dd8d48988d11b941735","category":"Pub","checkinsCount":7092,"usersCount":1655,"tipCount":33,"visitsCount":7448,"url":"http://obannonstaphouse.com","tier":2,"message":"Moderate","currency":"$","rating":7.6},{"name":"Mad Hatters","phone":"9798467476","twitter":"madhattersng","address":"317 University Dr","lat":30.61810161276818,"lng":-96.34615616263248,"neighborhood":"Northgate","city_fetched":"College Station,US","state":"TX","country":"United States","canonicalUrl":"https://foursquare.com/v/mad-hatters/4b52a625f964a520fa8427e3","categoryId":"4bf58dd8d48988d116941735","category":"Bar","checkinsCount":4046,"usersCount":1319,"tipCount":20,"visitsCount":4073,"url":"http://mhatters.tripod.com","tier":2,"message":"Moderate","currency":"$","rating":7.5},{"name":"Kyoto Sushi & Sake Bar","address":"113 College Main","lat":30.61865852826463,"lng":-96.346057471826,"neighborhood":"Northgate","city_fetched":"College Station,US","state":"TX","country":"United States","canonicalUrl":"https://foursquare.com/v/kyoto-sushi--sake-bar/4b5be9ecf964a520ff1c29e3","categoryId":"4bf58dd8d48988d116941735","category":"Bar","checkinsCount":1060,"usersCount":533,"tipCount":4,"visitsCount":1067,"tier":"","message":"","currency":"","rating":7.4},{"name":"The Gates Of The North","lat":30.618349331154853,"lng":-96.34654053883699,"neighborhood":"Northgate","city_fetched":"College Station,US","state":"Texas","country":"United States","canonicalUrl":"https://foursquare.com/v/the-gates-of-the-north/4d44dc640349224b2b08ff4e","categoryId":"4bf58dd8d48988d11a941735","category":"Other Nightlife","checkinsCount":2001,"usersCount":443,"tipCount":1,"visitsCount":2013,"tier":"","message":"","currency":"","rating":7.3},{"name":"Fast Eddies","phone":"9792609264","twitter":"fasteddies_","address":"700 University Dr E #101","lat":30.63312319161863,"lng":-96.32753752439534,"city_fetched":"College Station,US","state":"TX","country":"United States","canonicalUrl":"https://foursquare.com/v/fast-eddies/4be605b2477d9c74a8b8e62d","categoryId":"4bf58dd8d48988d116941735","category":"Bar","checkinsCount":311,"usersCount":164,"tipCount":1,"visitsCount":311,"url":"http://fasteddiesbilliards.com","tier":"","message":"","currency":"","rating":7.3},{"name":"La Salle Hotel","phone":"9798222000","address":"120 S Main St","lat":30.672966003418,"lng":-96.3738403320313,"neighborhood":"Downtown Bryan","city_fetched":"College Station,US","state":"TX","country":"United States","canonicalUrl":"https://foursquare.com/v/la-salle-hotel/4b91b237f964a52095d033e3","categoryId":"4bf58dd8d48988d1d5941735","category":"Hotel Bar","checkinsCount":713,"usersCount":397,"tipCount":15,"visitsCount":733,"url":"http://www.lasalle-hotel.com","tier":"","message":"","currency":"","rating":7.3},{"name":"Murphy's Law","phone":"9797754014","twitter":"murphysbryan","address":"107 N Main St","lat":30.673965734730814,"lng":-96.37325007731414,"neighborhood":"Downtown Bryan","city_fetched":"College Station,US","state":"TX","country":"United States","canonicalUrl":"https://foursquare.com/v/murphys-law/4b651b84f964a52080e42ae3","categoryId":"4bf58dd8d48988d116941735","category":"Bar","checkinsCount":2279,"usersCount":716,"tipCount":15,"visitsCount":2387,"url":"http://murphyslaw-hub.com","tier":1,"message":"Cheap","currency":"$","rating":7.3},{"name":"Benjamin Knox Wine Depot","address":"405 University Dr E","lat":30.631018392930372,"lng":-96.33201899360155,"city_fetched":"College Station,US","state":"TX","country":"United States","canonicalUrl":"https://foursquare.com/v/benjamin-knox-wine-depot/4f222faee4b03bdcfa7f5e94","categoryId":"4bf58dd8d48988d123941735","category":"Wine Bar","checkinsCount":147,"usersCount":97,"tipCount":2,"visitsCount":154,"tier":"","message":"","currency":"","rating":7},{"name":"Cedar Lane","twitter":"cedarlanebar","address":"303 College Main","lat":30.619215,"lng":-96.3466773,"neighborhood":"Northgate","city_fetched":"College Station,US","state":"TX","country":"United States","canonicalUrl":"https://foursquare.com/v/cedar-lane/4b91dcbcf964a52033dc33e3","categoryId":"4bf58dd8d48988d116941735","category":"Bar","checkinsCount":1071,"usersCount":543,"tipCount":8,"visitsCount":1131,"tier":"","message":"","currency":"","rating":7},{"name":"Halo Bar","phone":"9798236174","address":"121 N Main St","lat":30.674521618965006,"lng":-96.37294868072156,"neighborhood":"Downtown Bryan","city_fetched":"College Station,US","state":"TX","country":"United States","canonicalUrl":"https://foursquare.com/v/halo-bar/4b6e3d7cf964a520a9b32ce3","categoryId":"4bf58dd8d48988d1d8941735","category":"Gay Bar","checkinsCount":2966,"usersCount":465,"tipCount":10,"visitsCount":3071,"tier":"","message":"","currency":"","rating":7},{"name":"Paddock Lane","address":"107 Boyett St","lat":30.617495616955043,"lng":-96.34724177178296,"neighborhood":"Northgate","city_fetched":"College Station,US","state":"TX","country":"United States","canonicalUrl":"https://foursquare.com/v/paddock-lane/4b5ab972f964a52029d228e3","categoryId":"4bf58dd8d48988d120941735","category":"Karaoke Bar","checkinsCount":1960,"usersCount":647,"tipCount":10,"visitsCount":1980,"tier":"","message":"","currency":"","rating":6.9},{"name":"Wolfie's","phone":"9797031820","address":"1102 Harvey Rd","lat":30.623798767644534,"lng":-96.3081353849664,"neighborhood":"Wolf Pen Creek District","city_fetched":"College Station,US","state":"TX","country":"United States","canonicalUrl":"https://foursquare.com/v/wolfies/4f77af95e4b09a0a5412a36c","categoryId":"4bf58dd8d48988d11d941735","category":"Sports Bar","checkinsCount":428,"usersCount":258,"tipCount":9,"visitsCount":516,"url":"http://www.wolfiesusa.com","tier":"","message":"","currency":"","rating":6.9},{"name":"Prospector's Grill and Saloon","phone":"9794852804","twitter":"prospectorsbcs","address":"2501 Texas Ave S Ste 101D","lat":30.60672020155993,"lng":-96.30693106256076,"city_fetched":"College Station,US","state":"TX","country":"United States","canonicalUrl":"https://foursquare.com/v/prospectors-grill-and-saloon/5311391211d2df5db7bcf4bb","categoryId":"4bf58dd8d48988d116941735","category":"Bar","checkinsCount":125,"usersCount":69,"tipCount":4,"visitsCount":133,"url":"http://www.prosperctorsbcs.com","tier":"","message":"","currency":"","rating":6.8},{"name":"The Tap","phone":"9796965570","address":"815 Harvey Rd","lat":30.622030380102196,"lng":-96.31208074199786,"neighborhood":"Wolf Pen Creek District","city_fetched":"College Station,US","state":"TX","country":"United States","canonicalUrl":"https://foursquare.com/v/the-tap/4b5a33f3f964a520f9b328e3","categoryId":"4bf58dd8d48988d116941735","category":"Bar","checkinsCount":1928,"usersCount":959,"tipCount":9,"visitsCount":2192,"url":"http://tapbcs.com","tier":"","message":"","currency":"","rating":6.8},{"name":"Izzys","lat":30.622783,"lng":-96.311309,"neighborhood":"Wolf Pen Creek District","city_fetched":"College Station,US","state":"TX","country":"United States","canonicalUrl":"https://foursquare.com/v/izzys/5229dd9611d2adfd1bbfedf2","categoryId":"4bf58dd8d48988d11d941735","category":"Sports Bar","checkinsCount":198,"usersCount":90,"tipCount":7,"visitsCount":216,"tier":"","message":"","currency":"","rating":6.8},{"name":"Fox & Hound","phone":"9798460211","twitter":"the_foxandhound","address":"505 University Drive","lat":30.631614522213148,"lng":-96.33143737109565,"city_fetched":"College Station,US","state":"TX","country":"United States","canonicalUrl":"https://foursquare.com/v/fox--hound/4b71efbff964a52043652de3","categoryId":"4bf58dd8d48988d11b941735","category":"Pub","checkinsCount":2916,"usersCount":1211,"tipCount":21,"visitsCount":3354,"url":"http://t.co/6Wlr3nrgdg","tier":2,"message":"Moderate","currency":"$","rating":6.7},{"name":"Gatsby's","phone":"9792602900","address":"111 College Main","lat":30.61858931409369,"lng":-96.34598851203918,"neighborhood":"Northgate","city_fetched":"College Station,US","state":"TX","country":"United States","canonicalUrl":"https://foursquare.com/v/gatsbys/4b9350bff964a520b93f34e3","categoryId":"4bf58dd8d48988d11f941735","category":"Nightclub","checkinsCount":898,"usersCount":319,"tipCount":5,"visitsCount":899,"url":"http://www.gatsbysbcs.com","tier":"","message":"","currency":"","rating":6.6},{"name":"Duddley's Draw","address":"311 University Dr","lat":30.618894002207718,"lng":-96.34554862976074,"neighborhood":"Northgate","city_fetched":"College Station,US","state":"TX","country":"United States","canonicalUrl":"https://foursquare.com/v/duddleys-draw/4b5a8b5ef964a52098ca28e3","categoryId":"4bf58dd8d48988d116941735","category":"Bar","checkinsCount":1598,"usersCount":576,"tipCount":7,"visitsCount":1607,"tier":2,"message":"Moderate","currency":"$","rating":6.6},{"name":"Poets Billiards & Bar","phone":"9796963351","address":"1637 Texas Ave S","lat":30.6166003537244,"lng":-96.3207288883268,"neighborhood":"Wolf Pen Creek District","city_fetched":"College Station,US","state":"TX","country":"United States","canonicalUrl":"https://foursquare.com/v/poets-billiards--bar/4b5a9914f964a5201fcd28e3","categoryId":"4bf58dd8d48988d116941735","category":"Bar","checkinsCount":982,"usersCount":306,"tipCount":8,"visitsCount":1074,"url":"http://www.poetsbilliardsbcs.com","tier":"","message":"","currency":"","rating":6.5},{"name":"Hookah Station","phone":"9796918899","address":"106 College Main","lat":30.618652,"lng":-96.3457202911377,"neighborhood":"Northgate","city_fetched":"College Station,US","state":"TX","country":"United States","canonicalUrl":"https://foursquare.com/v/hookah-station/4ba9a268f964a52027323ae3","categoryId":"4bf58dd8d48988d119941735","category":"Hookah Bar","checkinsCount":703,"usersCount":313,"tipCount":2,"visitsCount":704,"tier":"","message":"","currency":"","rating":6.4},{"name":"Ptarmigan Club","phone":"9798222263","address":"2005 S College Ave","lat":30.65046621084458,"lng":-96.36610009370966,"city_fetched":"College Station,US","state":"TX","country":"United States","canonicalUrl":"https://foursquare.com/v/ptarmigan-club/4b89e66af964a520e85432e3","categoryId":"4bf58dd8d48988d118941735","category":"Dive Bar","checkinsCount":720,"usersCount":276,"tipCount":3,"visitsCount":833,"tier":"","message":"","currency":"","rating":6.4},{"name":"Schotzi's","address":"205 University Dr","lat":30.616956033786323,"lng":-96.34759498839266,"neighborhood":"Northgate","city_fetched":"College Station,US","state":"TX","country":"United States","canonicalUrl":"https://foursquare.com/v/schotzis/4b4ff3eff964a5203b1a27e3","categoryId":"4bf58dd8d48988d116941735","category":"Bar","checkinsCount":1785,"usersCount":446,"tipCount":7,"visitsCount":1787,"url":"http://schotzisbcs.com","tier":"","message":"","currency":"","rating":6},{"name":"Basil Whippet's Pub","phone":"9792686792","address":"329 University Dr","lat":30.618193333416556,"lng":-96.3458289252932,"neighborhood":"Northgate","city_fetched":"College Station,US","state":"TX","country":"United States","canonicalUrl":"https://foursquare.com/v/basil-whippets-pub/4b996f82f964a520587b35e3","categoryId":"4bf58dd8d48988d11b941735","category":"Pub","checkinsCount":851,"usersCount":353,"tipCount":0,"visitsCount":853,"tier":"","message":"","currency":"","rating":5.7},{"name":"Logan's on Campus","phone":"9796910190","address":"201 College Main","lat":30.618708422696724,"lng":-96.34620810522475,"neighborhood":"Northgate","city_fetched":"College Station,US","state":"TX","country":"United States","canonicalUrl":"https://foursquare.com/v/logans-on-campus/4bca9588b6c49c7408ec9091","categoryId":"4bf58dd8d48988d116941735","category":"Bar","checkinsCount":2088,"usersCount":816,"tipCount":6,"visitsCount":2095,"tier":"","message":"","currency":"","rating":5.2},{"name":"Foundation Room","lat":30.618737842484403,"lng":-96.34574581767019,"neighborhood":"Northgate","city_fetched":"College Station,US","state":"TX","country":"United States","canonicalUrl":"https://foursquare.com/v/foundation-room/4e50a461d4c0b6da5d9034db","categoryId":"4bf58dd8d48988d116941735","category":"Bar","checkinsCount":350,"usersCount":161,"tipCount":4,"visitsCount":355,"tier":"","message":"","currency":"","rating":5}]