[{"name":"Hooked on Hookah","phone":"7198867107","twitter":"hookedonhookah","address":"6406 N Academy Blvd","lat":38.922387,"lng":-104.793959,"neighborhood":"Pulpit Rock","city_fetched":"Colorado Springs","state":"CO","country":"United States","canonicalUrl":"https://foursquare.com/hookedonhookah","category":"Hookah Bar","checkinsCount":12652,"usersCount":501,"tipCount":30,"visitsCount":12976,"url":"http://www.hohstore.com","tier":1,"message":"Cheap","currency":"$","rating":9.4},{"name":"Shuga's Restaurant & Bar","phone":"7193281412","twitter":"shugasbar","address":"702 S Cascade Ave","lat":38.82432482048391,"lng":-104.82617570574632,"neighborhood":"Downtown Colorado Springs","city_fetched":"Colorado Springs","state":"CO","country":"United States","canonicalUrl":"https://foursquare.com/v/shugas-restaurant--bar/4b6dc5f7f964a5207b8e2ce3","category":"Gastropub","checkinsCount":3447,"usersCount":1278,"tipCount":51,"visitsCount":4029,"url":"http://www.shugas.com","tier":2,"message":"Moderate","currency":"$","rating":9.2},{"name":"Phantom Canyon Brewing Company","phone":"7196352800","address":"2 E Pikes Peak Ave","lat":38.834256822399304,"lng":-104.82516115722561,"neighborhood":"Downtown Colorado Springs","city_fetched":"Colorado Springs","state":"CO","country":"United States","canonicalUrl":"https://foursquare.com/v/phantom-canyon-brewing-company/4ab97703f964a5207e7f20e3","category":"Brewery","checkinsCount":9493,"usersCount":5161,"tipCount":121,"visitsCount":10460,"url":"http://www.phantomcanyon.com/phantom.html","tier":2,"message":"Moderate","currency":"$","rating":9.1},{"name":"Brewer's Republic","phone":"7196332105","twitter":"brewersbroads","address":"112 N Nevada Ave","lat":38.83569851839347,"lng":-104.82176417737492,"neighborhood":"Downtown Colorado Springs","city_fetched":"Colorado Springs","state":"CO","country":"United States","canonicalUrl":"https://foursquare.com/brewersbroads","category":"Bar","checkinsCount":3060,"usersCount":878,"tipCount":22,"visitsCount":3498,"url":"http://www.brewersrepublic.com","tier":2,"message":"Moderate","currency":"$","rating":9.1},{"name":"Bristol Brewing Company","phone":"7196332555","twitter":"bristolbrewing","address":"1604 S Cascade Ave","lat":38.811192125414024,"lng":-104.82731565573278,"neighborhood":"Ivywild","city_fetched":"Colorado Springs","state":"CO","country":"United States","canonicalUrl":"https://foursquare.com/v/bristol-brewing-company/4af49ef4f964a5206af421e3","category":"Brewery","checkinsCount":4243,"usersCount":2015,"tipCount":57,"visitsCount":4740,"url":"http://www.bristolbrewing.com","tier":2,"message":"Moderate","currency":"$","rating":9},{"name":"McCabe's Tavern","phone":"7196333300","twitter":"mccabestavern","address":"520 S Tejon St","lat":38.826120210970714,"lng":-104.82414661526762,"neighborhood":"Downtown Colorado Springs","city_fetched":"Colorado Springs","state":"CO","country":"United States","canonicalUrl":"https://foursquare.com/v/mccabes-tavern/4b8f00a8f964a520c34333e3","category":"Pub","checkinsCount":4845,"usersCount":1038,"tipCount":56,"visitsCount":5285,"url":"http://www.mccabestavern.com","tier":2,"message":"Moderate","currency":"$","rating":9},{"name":"Burrowing Owl","phone":"7194343864","twitter":"burrowingthe","address":"Mobile-friendly - Mar 18, 2015 - The Burrowing Owl. 1791 S. Eighth St., Suite H Colorado Springs, Colorado Cheyenne Mountain","lat":38.80389928797116,"lng":-104.84010076184013,"neighborhood":"Ivywild","city_fetched":"Colorado Springs","state":"CO","country":"United States","canonicalUrl":"https://foursquare.com/v/burrowing-owl/557cef08498e7644779c2a03","category":"Bar","checkinsCount":142,"usersCount":93,"tipCount":6,"visitsCount":210,"url":"http://burrowingowllounge.com","tier":"","message":"","currency":"","rating":8.9},{"name":"Urban Steam","phone":"7194737832","twitter":"urbansteamer","address":"1025 S Sierra Madre St","lat":38.819138255081384,"lng":-104.82945308428062,"neighborhood":"Downtown Colorado Springs","city_fetched":"Colorado Springs","state":"CO","country":"United States","canonicalUrl":"https://foursquare.com/v/urban-steam/50871650fe7092063637d366","category":"Café","checkinsCount":708,"usersCount":375,"tipCount":19,"visitsCount":918,"url":"http://www.urbansteamcoffee.com","tier":"","message":"","currency":"","rating":8.7},{"name":"Manitou Brewing Company","phone":"7192827709","twitter":"manitoubrewingc","address":"725 Manitou Ave","lat":38.85702735219287,"lng":-104.91581233455841,"neighborhood":"Downtown","city_fetched":"Colorado Springs","state":"CO","country":"United States","canonicalUrl":"https://foursquare.com/v/manitou-brewing-company/53138f74498e349943bc3cde","category":"Brewery","checkinsCount":791,"usersCount":743,"tipCount":17,"visitsCount":977,"url":"http://www.manitou-brewing.com","tier":2,"message":"Moderate","currency":"$","rating":8.6},{"name":"Iron Bird Brewing Company","phone":"7194247002","twitter":"ironbirdbrewing","address":"402 S Nevada Ave","lat":38.827985,"lng":-104.822361,"neighborhood":"Downtown Colorado Springs","city_fetched":"Colorado Springs","state":"CO","country":"United States","canonicalUrl":"https://foursquare.com/v/iron-bird-brewing-company/53ee9e1d498ecc3317281bd9","category":"Brewery","checkinsCount":426,"usersCount":314,"tipCount":8,"visitsCount":615,"url":"http://ironbirdbrewing.com","tier":"","message":"","currency":"","rating":8.6},{"name":"Oscar's Oyster Bar","phone":"7194718070","twitter":"oscarstejonst","address":"333 S Tejon St","lat":38.828399,"lng":-104.82343535,"neighborhood":"Downtown Colorado Springs","city_fetched":"Colorado Springs","state":"CO","country":"United States","canonicalUrl":"https://foursquare.com/v/oscars-oyster-bar/4b5277ecf964a520b87e27e3","category":"Bar","checkinsCount":1877,"usersCount":605,"tipCount":6,"visitsCount":2058,"url":"http://www.oscarstejonstreet.com","tier":2,"message":"Moderate","currency":"$","rating":8.6},{"name":"Back East Bar & Grill","phone":"7192646161","twitter":"backeastbar","address":"9475 Briar Village Pt","lat":38.96786801505691,"lng":-104.78215148991052,"neighborhood":"Pine Creek","city_fetched":"Colorado Springs","state":"CO","country":"United States","canonicalUrl":"https://foursquare.com/v/back-east-bar--grill/4b696e92f964a5200fa22be3","category":"Bar","checkinsCount":1572,"usersCount":862,"tipCount":21,"visitsCount":2200,"url":"http://backeastbarandgrill.com","tier":2,"message":"Moderate","currency":"$","rating":8.6},{"name":"Springs Orleans","phone":"7195200123","twitter":"springorleans","address":"123 E Pikes Peak Ave","lat":38.833841,"lng":-104.82231296666667,"neighborhood":"Downtown Colorado Springs","city_fetched":"Colorado Springs","state":"CO","country":"United States","canonicalUrl":"https://foursquare.com/springorleans","category":"Cajun / Creole Restaurant","checkinsCount":1519,"usersCount":774,"tipCount":33,"visitsCount":1577,"url":"http://www.springsorleans.com","tier":2,"message":"Moderate","currency":"$","rating":8.6},{"name":"Rock Bottom Restaurant & Brewery","phone":"7195503586","twitter":"rockbottom","address":"3316 Cinema Pt","lat":38.880990984594,"lng":-104.71828295474204,"neighborhood":"Springs Ranch","city_fetched":"Colorado Springs","state":"CO","country":"United States","canonicalUrl":"https://foursquare.com/v/rock-bottom-restaurant--brewery/4b63290ef964a52054672ae3","category":"American Restaurant","checkinsCount":3378,"usersCount":1989,"tipCount":41,"visitsCount":4126,"url":"http://www.rockbottom.com","tier":2,"message":"Moderate","currency":"$","rating":8.6},{"name":"Red Leg Brewing Company","phone":"7195983776","twitter":"redlegbrewco","address":"4630 Forge Rd","lat":38.898105,"lng":-104.841429,"city_fetched":"Colorado Springs","state":"CO","country":"United States","canonicalUrl":"https://foursquare.com/redlegbrewco","category":"Brewery","checkinsCount":1004,"usersCount":454,"tipCount":23,"visitsCount":1411,"url":"http://redlegbrewing.com","tier":2,"message":"Moderate","currency":"$","rating":8.6},{"name":"Famous Steak House","phone":"7192277333","address":"31 N Tejon St","lat":38.83520083008573,"lng":-104.82334296590359,"neighborhood":"Downtown Colorado Springs","city_fetched":"Colorado Springs","state":"CO","country":"United States","canonicalUrl":"https://foursquare.com/v/famous-steak-house/4bdba706f1499c74615738f3","category":"Steakhouse","checkinsCount":1967,"usersCount":732,"tipCount":29,"visitsCount":2027,"url":"http://www.thefamoussteakhouse.net","tier":4,"message":"Very Expensive","currency":"$","rating":8.5},{"name":"Rocky Mountain Brewery","phone":"7195281651","address":"625 Paonia St","lat":38.84113790849278,"lng":-104.71629514128787,"city_fetched":"Colorado Springs","state":"CO","country":"United States","canonicalUrl":"https://foursquare.com/v/rocky-mountain-brewery/4c5ce07585a1e21ee9215811","category":"Brewery","checkinsCount":833,"usersCount":469,"tipCount":11,"visitsCount":1055,"url":"http://therockymountainbrewery.com","tier":"","message":"","currency":"","rating":8.5},{"name":"BJ's Restaurant and Brewhouse","phone":"7192680505","twitter":"bjsrestaurants","address":"5150 N Nevada Ave","lat":38.90348624,"lng":-104.8178828,"neighborhood":"Pulpit Rock","city_fetched":"Colorado Springs","state":"CO","country":"United States","canonicalUrl":"https://foursquare.com/v/bjs-restaurant-and-brewhouse/4c731e737121a1cdd58464d1","category":"American Restaurant","checkinsCount":3759,"usersCount":2485,"tipCount":60,"visitsCount":4773,"url":"http://t.co/bl46gcjDLN","tier":2,"message":"Moderate","currency":"$","rating":8.5},{"name":"The Hotel Bar","address":"1 Lake Ave","lat":38.790878022365,"lng":-104.85071495689773,"neighborhood":"Broadmoor","city_fetched":"Colorado Springs","state":"CO","country":"United States","canonicalUrl":"https://foursquare.com/v/the-hotel-bar/4b9733d2f964a520fafb34e3","category":"Hotel Bar","checkinsCount":1159,"usersCount":784,"tipCount":3,"visitsCount":1172,"tier":2,"message":"Moderate","currency":"$","rating":8.5},{"name":"Motif Westside Jazz Bar","phone":"7196355635","address":"2432 W Cucharras","lat":38.8463888,"lng":-104.86297096,"neighborhood":"Old Colorado City","city_fetched":"Colorado Springs","state":"CO","country":"United States","canonicalUrl":"https://foursquare.com/v/motif-westside-jazz-bar/4c1c38bab9f876b059ac7b46","category":"Tapas Restaurant","checkinsCount":399,"usersCount":198,"tipCount":14,"visitsCount":409,"url":"http://motifwest.com","tier":"","message":"","currency":"","rating":8.4},{"name":"Old Chicago","phone":"7195360633","twitter":"oldchicagopizza","address":"4110 N Academy Blvd","lat":38.89129975122153,"lng":-104.7576457870404,"neighborhood":"Garden Ranch","city_fetched":"Colorado Springs","state":"CO","country":"United States","canonicalUrl":"https://foursquare.com/v/old-chicago/4b4b72fef964a520169c26e3","category":"Pizza Place","checkinsCount":4556,"usersCount":1741,"tipCount":32,"visitsCount":5320,"url":"http://oldchicago.com","tier":2,"message":"Moderate","currency":"$","rating":8.4},{"name":"Mother Muffs","phone":"7193448727","address":"West Colorado Ave","lat":38.84727241605432,"lng":-104.86248717534687,"neighborhood":"Old Colorado City","city_fetched":"Colorado Springs","state":"CO","country":"United States","canonicalUrl":"https://foursquare.com/v/mother-muffs/54811ef0498ebb1006bacdb3","category":"Sports Bar","checkinsCount":255,"usersCount":139,"tipCount":8,"visitsCount":300,"tier":"","message":"","currency":"","rating":8.4},{"name":"Johnny's Navajo Hogan","phone":"7193449593","address":"2817 N Nevada Ave","lat":38.87255563384356,"lng":-104.81928488452232,"city_fetched":"Colorado Springs","state":"CO","country":"United States","canonicalUrl":"https://foursquare.com/v/johnnys-navajo-hogan/4e02bc97e4cdbd9a51756e3c","category":"Bar","checkinsCount":1889,"usersCount":832,"tipCount":27,"visitsCount":2321,"url":"http://johnnyshogan.com","tier":"","message":"","currency":"","rating":8.3},{"name":"2 South Food & Wine Bar","phone":"7193512806","address":"2 S 25th St","lat":38.84793253284802,"lng":-104.8622762368223,"neighborhood":"Old Colorado City","city_fetched":"Colorado Springs","state":"CO","country":"United States","canonicalUrl":"https://foursquare.com/v/2-south-food--wine-bar/50678eb8e4b02d0d17bc6906","category":"Wine Bar","checkinsCount":327,"usersCount":211,"tipCount":1,"visitsCount":332,"url":"http://2southwinebar.com","tier":"","message":"","currency":"","rating":8.3},{"name":"Storybook Brewing","twitter":"storybookbrewco","address":"3121 N El Paso St Ste A","lat":38.87764355049721,"lng":-104.81255964400978,"city_fetched":"Colorado Springs","state":"CO","country":"United States","canonicalUrl":"https://foursquare.com/v/storybook-brewing/54750b26498e21a5eda35f5d","category":"Brewery","checkinsCount":243,"usersCount":179,"tipCount":2,"visitsCount":445,"tier":"","message":"","currency":"","rating":8.3},{"name":"The Zodiac","phone":"7196325059","address":"230 Pueblo Ave","lat":38.82737935516823,"lng":-104.81870353877176,"neighborhood":"Downtown Colorado Springs","city_fetched":"Colorado Springs","state":"CO","country":"United States","canonicalUrl":"https://foursquare.com/v/the-zodiac/4d5f628114963704a71fd794","category":"Music Venue","checkinsCount":1671,"usersCount":354,"tipCount":10,"visitsCount":1818,"tier":"","message":"","currency":"","rating":8.3},{"name":"Trinity Brewing Company","phone":"7196340029","twitter":"trinitybrewing","address":"1466 Garden of the Gods Rd #184","lat":38.89736237313919,"lng":-104.85439002513885,"neighborhood":"Northwest Colorado Springs","city_fetched":"Colorado Springs","state":"CO","country":"United States","canonicalUrl":"https://foursquare.com/v/trinity-brewing-company/4b118eadf964a5203c7f23e3","category":"Brewery","checkinsCount":4160,"usersCount":2423,"tipCount":60,"visitsCount":4979,"url":"http://trinitybrew.com","tier":2,"message":"Moderate","currency":"$","rating":8.2},{"name":"Old Chicago North","phone":"7195937678","twitter":"oldchicagopizza","address":"7115 Commerce Center Dr","lat":38.93499970436096,"lng":-104.81398522853851,"city_fetched":"Colorado Springs","state":"CO","country":"United States","canonicalUrl":"https://foursquare.com/v/old-chicago-north/4b29c2ddf964a52037a324e3","category":"Pizza Place","checkinsCount":3393,"usersCount":1840,"tipCount":26,"visitsCount":3981,"url":"http://oldchicago.com","tier":2,"message":"Moderate","currency":"$","rating":8.2},{"name":"Supernova","phone":"7194183484","address":"111 E Boulder","lat":38.83937423741462,"lng":-104.82264191343923,"neighborhood":"Downtown Colorado Springs","city_fetched":"Colorado Springs","state":"CO","country":"United States","canonicalUrl":"https://foursquare.com/v/supernova/502dbcf7e4b047efec9de934","category":"Bar","checkinsCount":1753,"usersCount":428,"tipCount":5,"visitsCount":2006,"url":"http://supernovabar.com","tier":1,"message":"Cheap","currency":"$","rating":8.2},{"name":"Smiling Toad Brewing","phone":"7194182936","address":"1757 S 8th St","lat":38.80675063148061,"lng":-104.83837930039776,"neighborhood":"Ivywild","city_fetched":"Colorado Springs","state":"CO","country":"United States","canonicalUrl":"https://foursquare.com/v/smiling-toad-brewing/50e374bce4b0a6d1deb767d4","category":"Brewery","checkinsCount":334,"usersCount":211,"tipCount":6,"visitsCount":492,"url":"http://smilingtoadbrewery.com","tier":"","message":"","currency":"","rating":8.2},{"name":"Great Storm Brewery","phone":"7192664200","address":"204 Mount View Ln","lat":38.89043104667806,"lng":-104.81816209123821,"city_fetched":"Colorado Springs","state":"CO","country":"United States","canonicalUrl":"https://foursquare.com/v/great-storm-brewery/4f628ad2e4b0272f2a4fd03e","category":"Brewery","checkinsCount":552,"usersCount":304,"tipCount":7,"visitsCount":623,"url":"http://www.greatstormbrewing.com","tier":2,"message":"Moderate","currency":"$","rating":8.2},{"name":"Rico's Cafe & Wine Bar","phone":"7195785549","address":"322 N Tejon St","lat":38.83901203333333,"lng":-104.823352,"neighborhood":"Downtown Colorado Springs","city_fetched":"Colorado Springs","state":"CO","country":"United States","canonicalUrl":"https://foursquare.com/v/ricos-cafe--wine-bar/4bc3aca674a9a59383ebd4f6","category":"Café","checkinsCount":1572,"usersCount":436,"tipCount":11,"visitsCount":1600,"url":"http://poorrichardsdowntown.com","tier":1,"message":"Cheap","currency":"$","rating":8.1},{"name":"Swirl Wine Bar","phone":"7193452652","address":"717 Manitou Ave","lat":38.85718677817225,"lng":-104.9152819597607,"city_fetched":"Colorado Springs","state":"CO","country":"United States","canonicalUrl":"https://foursquare.com/v/swirl-wine-bar/4c3f3ce515e8ef3b2363300e","category":"Winery","checkinsCount":756,"usersCount":353,"tipCount":13,"visitsCount":768,"url":"http://tapasbarmanitousprings.com","tier":"","message":"","currency":"","rating":8.1},{"name":"Southside Johnny's","phone":"7194448487","address":"528 S Tejon St","lat":38.825817704200745,"lng":-104.82431335,"neighborhood":"Downtown Colorado Springs","city_fetched":"Colorado Springs","state":"CO","country":"United States","canonicalUrl":"https://foursquare.com/v/southside-johnnys/4b529f06f964a5202c8427e3","category":"Bar","checkinsCount":2670,"usersCount":1058,"tipCount":29,"visitsCount":2889,"url":"http://www.peakradar.com/event/detail/www.southsidejohnnys.biz","tier":1,"message":"Cheap","currency":"$","rating":8},{"name":"The Public House","phone":"7194653079","address":"445 E Cheyenne Mountain Blvd","lat":38.788493,"lng":-104.82044,"neighborhood":"Cheyenne Hills","city_fetched":"Colorado Springs","state":"CO","country":"United States","canonicalUrl":"https://foursquare.com/v/the-public-house/529ab15711d2a2b061a0637f","category":"Bar","checkinsCount":300,"usersCount":255,"tipCount":8,"visitsCount":551,"tier":"","message":"","currency":"","rating":8},{"name":"Tony's Bar","phone":"7192286566","address":"311 N Tejon St","lat":38.839197,"lng":-104.823394,"neighborhood":"Downtown Colorado Springs","city_fetched":"Colorado Springs","state":"CO","country":"United States","canonicalUrl":"https://foursquare.com/v/tonys-bar/4b527074f964a520657d27e3","category":"Bar","checkinsCount":3350,"usersCount":973,"tipCount":27,"visitsCount":3511,"url":"http://tonysdowntownbar.com","tier":1,"message":"Cheap","currency":"$","rating":8},{"name":"Golden Bee","phone":"7195775776","twitter":"thebeebuzzz","address":"1 Lake Ave","lat":38.791946934347564,"lng":-104.84767085566216,"neighborhood":"Broadmoor","city_fetched":"Colorado Springs","state":"CO","country":"United States","canonicalUrl":"https://foursquare.com/v/golden-bee/40e0b100f964a52079031fe3","category":"Pub","checkinsCount":2434,"usersCount":2140,"tipCount":35,"visitsCount":3008,"url":"http://www.broadmoor.com/colorado-dining-golden-bee.php","tier":3,"message":"Expensive","currency":"$","rating":8},{"name":"Gold Camp Brewing Co.","address":"1007 S Tejon St","lat":38.819589,"lng":-104.823514,"neighborhood":"Downtown Colorado Springs","city_fetched":"Colorado Springs","state":"CO","country":"United States","canonicalUrl":"https://foursquare.com/v/gold-camp-brewing-co/54a5ff5e498e3dc75acd6ea4","category":"Brewery","checkinsCount":172,"usersCount":131,"tipCount":2,"visitsCount":280,"tier":"","message":"","currency":"","rating":7.9},{"name":"503 west","address":"503 W Colorado Ave","lat":38.832619962456654,"lng":-104.83453173124408,"neighborhood":"Westside","city_fetched":"Colorado Springs","state":"CO","country":"United States","canonicalUrl":"https://foursquare.com/v/503-west/52cf487311d2c0defa27002b","category":"Bar","checkinsCount":497,"usersCount":343,"tipCount":8,"visitsCount":674,"tier":2,"message":"Moderate","currency":"$","rating":7.9},{"name":"15 C","address":"15 E Bijou St Ste C","lat":38.83644478064503,"lng":-104.82436320232563,"neighborhood":"Downtown Colorado Springs","city_fetched":"Colorado Springs","state":"CO","country":"United States","canonicalUrl":"https://foursquare.com/v/15-c/4b7790acf964a520cea12ee3","category":"Bar","checkinsCount":316,"usersCount":142,"tipCount":6,"visitsCount":336,"tier":2,"message":"Moderate","currency":"$","rating":7.9},{"name":"Benny's","phone":"7196349309","address":"513 W Colorado Ave","lat":38.832599,"lng":-104.83534293333334,"neighborhood":"Westside","city_fetched":"Colorado Springs","state":"CO","country":"United States","canonicalUrl":"https://foursquare.com/v/bennys/4bca731068f976b0c5885f83","category":"Bar","checkinsCount":770,"usersCount":283,"tipCount":4,"visitsCount":884,"tier":1,"message":"Cheap","currency":"$","rating":7.9},{"name":"Blondies","address":"25 N Tejon St","lat":38.834911261995465,"lng":-104.82350255552048,"neighborhood":"Downtown Colorado Springs","city_fetched":"Colorado Springs","state":"CO","country":"United States","canonicalUrl":"https://foursquare.com/v/blondies/4c3937b30a71c9b6c83d42c9","category":"Bar","checkinsCount":1786,"usersCount":826,"tipCount":7,"visitsCount":1815,"url":"http://blondiescs.com","tier":"","message":"","currency":"","rating":7.8},{"name":"Colorado Mountain Brewery at the Roundhouse","phone":"7194668240","twitter":"cmbrew","address":"600 S 21st St","lat":38.8401923021306,"lng":-104.859459400177,"city_fetched":"Colorado Springs","state":"CO","country":"United States","canonicalUrl":"https://foursquare.com/v/colorado-mountain-brewery-at-the-roundhouse/504998e4e8891a6a2ccf22fc","category":"Brewery","checkinsCount":2213,"usersCount":2032,"tipCount":46,"visitsCount":2936,"url":"http://cmbreweryroadhouse-hub.com","tier":2,"message":"Moderate","currency":"$","rating":7.8},{"name":"Nano 108 Brewing Co","phone":"7195962337","address":"2402 Waynoka Rd","lat":38.866812942922564,"lng":-104.71811777729,"city_fetched":"Colorado Springs","state":"CO","country":"United States","canonicalUrl":"https://foursquare.com/v/nano-108-brewing-co/5274485711d283dea3d0fa0a","category":"Brewery","checkinsCount":380,"usersCount":238,"tipCount":11,"visitsCount":533,"url":"http://nano108brewing.com","tier":1,"message":"Cheap","currency":"$","rating":7.7},{"name":"Rawkus","phone":"7195960000","twitter":"rawkusnation","address":"3506 N Academy Blvd","lat":38.8825989367047,"lng":-104.75870547476922,"neighborhood":"Palmer Park","city_fetched":"Colorado Springs","state":"CO","country":"United States","canonicalUrl":"https://foursquare.com/rawkusnation","category":"Nightclub","checkinsCount":183,"usersCount":88,"tipCount":0,"visitsCount":184,"url":"http://www.rawkusnation.com","tier":"","message":"","currency":"","rating":7.7},{"name":"Colorado Cobalt Club","phone":"7195780502","address":"530 S Nevada Ave","lat":38.82573357361702,"lng":-104.82259631663955,"neighborhood":"Downtown Colorado Springs","city_fetched":"Colorado Springs","state":"CO","country":"United States","canonicalUrl":"https://foursquare.com/v/colorado-cobalt-club/4ddbfdb4fa766a6d79326b74","category":"Lounge","checkinsCount":713,"usersCount":34,"tipCount":6,"visitsCount":769,"tier":"","message":"","currency":"","rating":7.7},{"name":"The Wobbly Olive","phone":"7192479504","twitter":"wobblyolive","address":"3317 Cinema Pt","lat":38.88121172738919,"lng":-104.71661567687988,"neighborhood":"Springs Ranch","city_fetched":"Colorado Springs","state":"CO","country":"United States","canonicalUrl":"https://foursquare.com/v/the-wobbly-olive/53765cf8498e5bd0ee436fef","category":"Cocktail Bar","checkinsCount":122,"usersCount":80,"tipCount":9,"visitsCount":123,"url":"http://wobblyolive.com","tier":"","message":"","currency":"","rating":7.7},{"name":"Bloom's Mill Hill Saloon","phone":"7196326932","address":"1668 S 21st St","lat":38.829580662910246,"lng":-104.85961957576986,"city_fetched":"Colorado Springs","state":"CO","country":"United States","canonicalUrl":"https://foursquare.com/v/blooms-mill-hill-saloon/4b555983f964a52033e227e3","category":"Bar","checkinsCount":698,"usersCount":174,"tipCount":6,"visitsCount":739,"tier":"","message":"","currency":"","rating":7.7},{"name":"Cleats Bar & Grill","phone":"7195488267","address":"6624 Delmonico Dr","lat":38.927064815859886,"lng":-104.83137394490376,"neighborhood":"Rockrimmon","city_fetched":"Colorado Springs","state":"CO","country":"United States","canonicalUrl":"https://foursquare.com/v/cleats-bar--grill/4bcf2fad77b29c74fd8e8882","category":"Sports Bar","checkinsCount":433,"usersCount":186,"tipCount":5,"visitsCount":492,"url":"http://cleats.homestead.com","tier":"","message":"","currency":"","rating":7.7},{"name":"Thunder & Buttons II","phone":"7194479888","address":"2415 W Colorado Ave","lat":38.8464679573006,"lng":-104.86175744327257,"neighborhood":"Old Colorado City","city_fetched":"Colorado Springs","state":"CO","country":"United States","canonicalUrl":"https://foursquare.com/v/thunder--buttons-ii/4b6e1704f964a520b2a92ce3","category":"Bar","checkinsCount":2278,"usersCount":839,"tipCount":24,"visitsCount":2474,"url":"http://thunderandbuttons.com","tier":2,"message":"Moderate","currency":"$","rating":7.6},{"name":"Triple Nickel Tavern","phone":"7194779555","address":"26 S Wahsatch Ave","lat":38.83252236,"lng":-104.81838,"neighborhood":"Downtown Colorado Springs","city_fetched":"Colorado Springs","state":"CO","country":"United States","canonicalUrl":"https://foursquare.com/v/triple-nickel-tavern/4b6d0885f964a52000642ce3","category":"Rock Club","checkinsCount":918,"usersCount":291,"tipCount":5,"visitsCount":949,"tier":"","message":"","currency":"","rating":7.5},{"name":"Bernie's Place","phone":"7196357865","address":"1106 N Circle Dr","lat":38.84773159122185,"lng":-104.77612299104771,"neighborhood":"Divine Redeemer","city_fetched":"Colorado Springs","state":"CO","country":"United States","canonicalUrl":"https://foursquare.com/v/bernies-place/4c2520e5db51952170202c3a","category":"Bar","checkinsCount":598,"usersCount":65,"tipCount":5,"visitsCount":610,"url":"http://berniesplacecsprings.com","tier":"","message":"","currency":"","rating":7.5},{"name":"Odyssey Gastropub","phone":"7199995127","address":"Tejon","lat":38.83878259210094,"lng":-104.82300098870012,"neighborhood":"Downtown Colorado Springs","city_fetched":"Colorado Springs","state":"CO","country":"United States","canonicalUrl":"https://foursquare.com/v/odyssey-gastropub/546fd2b3498e6e2065b5f0c3","category":"Gastropub","checkinsCount":405,"usersCount":271,"tipCount":4,"visitsCount":564,"url":"http://www.odysseygastropub.com","tier":"","message":"","currency":"","rating":7.5},{"name":"The Summit at The Broadmoor","phone":"7195775896","address":"19 Lake Circle","lat":38.79182417693575,"lng":-104.84922409057617,"neighborhood":"Broadmoor","city_fetched":"Colorado Springs","state":"CO","country":"United States","canonicalUrl":"https://foursquare.com/v/the-summit-at-the-broadmoor/4be9ea2362c0c928bb44e0d4","category":"Gastropub","checkinsCount":917,"usersCount":597,"tipCount":12,"visitsCount":940,"url":"http://www.broadmoor.com/summit","tier":3,"message":"Expensive","currency":"$","rating":7.5},{"name":"Red Martini","address":"20 N Tejon St","lat":38.83486196934087,"lng":-104.82349115625674,"neighborhood":"Downtown Colorado Springs","city_fetched":"Colorado Springs","state":"CO","country":"United States","canonicalUrl":"https://foursquare.com/v/red-martini/4bd28e7977b29c7430178f82","category":"Cocktail Bar","checkinsCount":390,"usersCount":210,"tipCount":6,"visitsCount":392,"tier":"","message":"","currency":"","rating":7.4},{"name":"Alchemy","phone":"7194710887","address":"2625 W Colorado Ave","lat":38.84873526341414,"lng":-104.86520089611143,"neighborhood":"Old Colorado City","city_fetched":"Colorado Springs","state":"CO","country":"United States","canonicalUrl":"https://foursquare.com/v/alchemy/5280383611d2365c93c78045","category":"Pub","checkinsCount":232,"usersCount":200,"tipCount":6,"visitsCount":310,"url":"http://www.alchemypubcolorado.com","tier":"","message":"","currency":"","rating":7.4},{"name":"Colorado Mountain Brewery","phone":"7194345750","twitter":"cmbrew","address":"1110 Interquest Pwky","lat":38.99335525352214,"lng":-104.81167316436768,"neighborhood":"Interquest","city_fetched":"Colorado Springs","state":"CO","country":"United States","canonicalUrl":"https://foursquare.com/v/colorado-mountain-brewery/4c464d00f1d80f4714a8a33c","category":"Brewery","checkinsCount":2660,"usersCount":1919,"tipCount":58,"visitsCount":3322,"url":"http://cmbreweryinterquest-hub.com","tier":2,"message":"Moderate","currency":"$","rating":7.4},{"name":"Fox & Hound","phone":"7195700500","twitter":"the_foxandhound","address":"3101 New Center Point Drive","lat":38.87785224,"lng":-104.7167633,"neighborhood":"Springs Ranch","city_fetched":"Colorado Springs","state":"CO","country":"United States","canonicalUrl":"https://foursquare.com/v/fox--hound/4b764679f964a52037462ee3","category":"Bar","checkinsCount":2273,"usersCount":1369,"tipCount":35,"visitsCount":2842,"url":"http://t.co/6Wlr3nrgdg","tier":1,"message":"Cheap","currency":"$","rating":7.4},{"name":"Briarhurst Manor","phone":"7196851864","twitter":"briarhurstmanor","address":"404 Manitou Ave","lat":38.858342382576154,"lng":-104.90446954313522,"city_fetched":"Colorado Springs","state":"CO","country":"United States","canonicalUrl":"https://foursquare.com/v/briarhurst-manor/4b9c5e35f964a520456336e3","category":"American Restaurant","checkinsCount":540,"usersCount":403,"tipCount":8,"visitsCount":624,"url":"http://www.briarhurst.com","tier":4,"message":"Very Expensive","currency":"$","rating":7.4},{"name":"Keg Bar & Grill","phone":"7196859531","address":"730 Manitou Ave","lat":38.857353,"lng":-104.91553902626038,"city_fetched":"Colorado Springs","state":"CO","country":"United States","canonicalUrl":"https://foursquare.com/v/keg-bar--grill/4bdb9c0ef1499c742b5638f3","category":"Pub","checkinsCount":1042,"usersCount":799,"tipCount":15,"visitsCount":1072,"tier":"","message":"","currency":"","rating":7.4},{"name":"Club Q","phone":"7195701429","twitter":"clubq","address":"3430 N Academy Blvd","lat":38.88107434758615,"lng":-104.75819272173898,"neighborhood":"Palmer Park","city_fetched":"Colorado Springs","state":"CO","country":"United States","canonicalUrl":"https://foursquare.com/v/club-q/4bb8268e98c7ef3bfbe63002","category":"Gay Bar","checkinsCount":1299,"usersCount":339,"tipCount":18,"visitsCount":1478,"url":"http://clubqonline.com","tier":"","message":"","currency":"","rating":7.3},{"name":"O'Furry's","phone":"7196343106","address":"900 E Fillmore St","lat":38.874606782204594,"lng":-104.80836506401516,"city_fetched":"Colorado Springs","state":"CO","country":"United States","canonicalUrl":"https://foursquare.com/v/ofurrys/4b872156f964a52047b231e3","category":"Sports Bar","checkinsCount":453,"usersCount":197,"tipCount":8,"visitsCount":474,"url":"http://ofurrys.com","tier":"","message":"","currency":"","rating":7.3},{"name":"Kelly O'Brian's","phone":"7195731976","address":"239 N Academy Blvd","lat":38.8371602,"lng":-104.75674791,"neighborhood":"Eastborough","city_fetched":"Colorado Springs","state":"CO","country":"United States","canonicalUrl":"https://foursquare.com/v/kelly-obrians/4c662edd19f3c9b6285c9fff","category":"Sports Bar","checkinsCount":487,"usersCount":219,"tipCount":4,"visitsCount":592,"tier":2,"message":"Moderate","currency":"$","rating":7.3},{"name":"40 Thieves Hookah Lounge","phone":"7195918315","address":"1524 N Academy Blvd","lat":38.855968,"lng":-104.7569105,"neighborhood":"Rustic Hills","city_fetched":"Colorado Springs","state":"CO","country":"United States","canonicalUrl":"https://foursquare.com/v/40-thieves-hookah-lounge/4b72486cf964a520a0762de3","category":"Hookah Bar","checkinsCount":679,"usersCount":139,"tipCount":7,"visitsCount":698,"url":"http://www.40thievesonline.com","tier":"","message":"","currency":"","rating":7.2},{"name":"Carey-On Saloon","phone":"7195910300","address":"6829 Space Village Ave","lat":38.837986781034026,"lng":-104.70057580046686,"neighborhood":"Peterson Air Force Base","city_fetched":"Colorado Springs","state":"CO","country":"United States","canonicalUrl":"https://foursquare.com/v/careyon-saloon/4dbb6af45da3ff58ec31dc7b","category":"Bar","checkinsCount":985,"usersCount":77,"tipCount":5,"visitsCount":999,"url":"http://carey-onsaloon.com","tier":"","message":"","currency":"","rating":7.2},{"name":"joe's bar","phone":"7195998382","address":"4763 Flintridge Dr","lat":38.9002501,"lng":-104.76699847,"neighborhood":"Garden Ranch","city_fetched":"Colorado Springs","state":"CO","country":"United States","canonicalUrl":"https://foursquare.com/v/joes-bar/4dafa403b94edb8748a396d2","category":"Bar","checkinsCount":207,"usersCount":106,"tipCount":3,"visitsCount":215,"url":"http://www.joesbar.com","tier":1,"message":"Cheap","currency":"$","rating":7.1},{"name":"Hatch Cover Restaurant","phone":"7195765223","twitter":"hatch_cover","address":"252 E Cheyenne Mountain Blvd","lat":38.78988408568852,"lng":-104.82345342636108,"neighborhood":"Broadmoor","city_fetched":"Colorado Springs","state":"CO","country":"United States","canonicalUrl":"https://foursquare.com/v/hatch-cover-restaurant/4c65f057c2ead13a6d9eb280","category":"Sports Bar","checkinsCount":968,"usersCount":663,"tipCount":16,"visitsCount":1354,"url":"http://www.hatchcover.biz","tier":2,"message":"Moderate","currency":"$","rating":7},{"name":"Good Company Bar","phone":"7195288877","address":"7625 N Union Blvd","lat":38.94356982383726,"lng":-104.77412873751659,"neighborhood":"Briargate","city_fetched":"Colorado Springs","state":"CO","country":"United States","canonicalUrl":"https://foursquare.com/v/good-company-bar/4bad62c0f964a520744c3be3","category":"Sports Bar","checkinsCount":912,"usersCount":474,"tipCount":9,"visitsCount":1028,"url":"http://goodcompanybar.com","tier":2,"message":"Moderate","currency":"$","rating":6.9},{"name":"V Bar","phone":"7194718622","address":"19 E Kiowa St","lat":38.83517616666666,"lng":-104.824248,"neighborhood":"Downtown Colorado Springs","city_fetched":"Colorado Springs","state":"CO","country":"United States","canonicalUrl":"https://foursquare.com/v/v-bar/4ba1ca05f964a5205fcc37e3","category":"Bar","checkinsCount":812,"usersCount":346,"tipCount":13,"visitsCount":828,"tier":"","message":"","currency":"","rating":6.8}]