[{"name":"Curio","phone":"6148241769","address":"491 S 4th St","lat":39.952595,"lng":-82.994579,"neighborhood":"German Village","city_fetched":"Columbus,US","state":"OH","country":"United States","canonicalUrl":"https://foursquare.com/v/curio/4fa5b19be4b094b946900117","categoryId":"4bf58dd8d48988d11e941735","category":"Cocktail Bar","checkinsCount":2649,"usersCount":1137,"tipCount":20,"visitsCount":2975,"url":"http://curioatharvest.com","tier":"","message":"","currency":"","rating":9.5},{"name":"Cooper's Hawk","phone":"6144286999","address":"4230 The Strand","lat":40.05428985881217,"lng":-82.91491788786136,"neighborhood":"Easton","city_fetched":"Columbus,US","state":"OH","country":"United States","canonicalUrl":"https://foursquare.com/v/coopers-hawk/50841e9ee4b0f71a2766c5dc","categoryId":"4bf58dd8d48988d123941735","category":"Wine Bar","checkinsCount":4696,"usersCount":2439,"tipCount":57,"visitsCount":5439,"url":"https://coopershawkwinery.com","tier":3,"message":"Expensive","currency":"$","rating":9.2},{"name":"Land-Grant Brewing Company","phone":"6144273946","twitter":"landgrantbeer","address":"424 W Town St","lat":39.957619986030835,"lng":-83.0115258693695,"neighborhood":"Franklinton","city_fetched":"Columbus,US","state":"OH","country":"United States","canonicalUrl":"https://foursquare.com/v/landgrant-brewing-company/5328a24a498ec1898da17c80","categoryId":"50327c8591d4c4b30a586d5d","category":"Brewery","checkinsCount":1322,"usersCount":897,"tipCount":13,"visitsCount":1830,"url":"https://landgrantbrewing.com","tier":2,"message":"Moderate","currency":"$","rating":9.1},{"name":"North High Brewing Company","phone":"6144075278","address":"1288 N High St","lat":39.9887400532684,"lng":-83.00562949385494,"neighborhood":"University District","city_fetched":"Columbus,US","state":"OH","country":"United States","canonicalUrl":"https://foursquare.com/v/north-high-brewing-company/506a523ae4b07f06b0d4de1f","categoryId":"50327c8591d4c4b30a586d5d","category":"Brewery","checkinsCount":2719,"usersCount":1760,"tipCount":32,"visitsCount":3658,"url":"http://northhighbrewing.com","tier":2,"message":"Moderate","currency":"$","rating":9.1},{"name":"The Ohio Taproom","phone":"6145852212","twitter":"theohiotaproom","address":"1291 W 3rd Ave","lat":39.98489721236076,"lng":-83.04007530212402,"city_fetched":"Columbus,US","state":"OH","country":"United States","canonicalUrl":"https://foursquare.com/theohiotaproom","categoryId":"4bf58dd8d48988d116941735","category":"Bar","checkinsCount":714,"usersCount":325,"tipCount":7,"visitsCount":916,"url":"http://theohiotaproom.com","tier":"","message":"","currency":"","rating":8.9},{"name":"16-Bit Bar+Arcade","phone":"6142221616","twitter":"16bitbar","address":"254 S 4th St","lat":39.957426724952946,"lng":-82.99503028392792,"neighborhood":"Downtown Columbus","city_fetched":"Columbus,US","state":"OH","country":"United States","canonicalUrl":"https://foursquare.com/v/16bit-bararcade/516835b5e4b09d81860db41a","categoryId":"4bf58dd8d48988d116941735","category":"Bar","checkinsCount":4862,"usersCount":2574,"tipCount":67,"visitsCount":5030,"url":"http://16-bitbar.com","tier":1,"message":"Cheap","currency":"$","rating":8.9},{"name":"Seventh Son Brewing","phone":"6144212337","twitter":"seventhsonbrew","address":"1101 N 4th St","lat":39.985375,"lng":-82.999552,"neighborhood":"Italian Village","city_fetched":"Columbus,US","state":"OH","country":"United States","canonicalUrl":"https://foursquare.com/v/seventh-son-brewing/5089c7fde4b0a533dfeb5603","categoryId":"50327c8591d4c4b30a586d5d","category":"Brewery","checkinsCount":4804,"usersCount":2745,"tipCount":37,"visitsCount":6471,"url":"http://seventhsonbrewing.com","tier":2,"message":"Moderate","currency":"$","rating":8.9},{"name":"Wolf's Ridge Brewing","phone":"6144293936","twitter":"wolfsridgebrew","address":"215 N 4th St","lat":39.9673198670411,"lng":-82.99757139292281,"neighborhood":"Uptown District","city_fetched":"Columbus,US","state":"OH","country":"United States","canonicalUrl":"https://foursquare.com/wolfsridgebrew","categoryId":"50327c8591d4c4b30a586d5d","category":"Brewery","checkinsCount":2812,"usersCount":2052,"tipCount":49,"visitsCount":3855,"url":"http://www.wolfsridgebrewing.com","tier":2,"message":"Moderate","currency":"$","rating":8.8},{"name":"The Rossi Bar & Kitchen","phone":"6142992810","address":"895 N High St","lat":39.98078259889754,"lng":-83.00432466721442,"neighborhood":"Short North","city_fetched":"Columbus,US","state":"OH","country":"United States","canonicalUrl":"https://foursquare.com/v/the-rossi-bar--kitchen/4b05f0a2f964a5203ce622e3","categoryId":"4bf58dd8d48988d123941735","category":"Wine Bar","checkinsCount":4861,"usersCount":2000,"tipCount":50,"visitsCount":5330,"url":"http://rossibarandkitchen.com","tier":2,"message":"Moderate","currency":"$","rating":8.8},{"name":"Mouton","phone":"6147324660","address":"954 N High St","lat":39.981792,"lng":-83.004434,"neighborhood":"Short North","city_fetched":"Columbus,US","state":"OH","country":"United States","canonicalUrl":"https://foursquare.com/v/mouton/4c11773b17002d7fbf49e609","categoryId":"4bf58dd8d48988d11e941735","category":"Cocktail Bar","checkinsCount":2684,"usersCount":1220,"tipCount":27,"visitsCount":2795,"url":"http://mouton954.com","tier":"","message":"","currency":"","rating":8.8},{"name":"The Wine Bistro","phone":"6144364000","address":"8231 N High St","lat":40.13256114667245,"lng":-83.01762455156023,"city_fetched":"Columbus,US","state":"OH","country":"United States","canonicalUrl":"https://foursquare.com/v/the-wine-bistro/4c2e863d09a99c7488960a2a","categoryId":"4bf58dd8d48988d123941735","category":"Wine Bar","checkinsCount":1892,"usersCount":769,"tipCount":19,"visitsCount":1956,"url":"http://www.thewinerywineshop.com","tier":"","message":"","currency":"","rating":8.8},{"name":"Hale's Ales & Kitchen","phone":"6147777344","twitter":"gotohalesak","address":"3641 Fishinger Blvd","lat":40.02884214368222,"lng":-83.11876782819654,"neighborhood":"Mill Run","city_fetched":"Columbus,US","state":"OH","country":"United States","canonicalUrl":"https://foursquare.com/v/hales-ales--kitchen/53c2d1c2498ecd1b58062057","categoryId":"4bf58dd8d48988d116941735","category":"Bar","checkinsCount":463,"usersCount":246,"tipCount":13,"visitsCount":710,"url":"http://www.barhilliardohio.com","tier":"","message":"","currency":"","rating":8.7},{"name":"Standard Hall","address":"1100 N High St","lat":39.984819,"lng":-83.004905,"neighborhood":"Short North","city_fetched":"Columbus,US","state":"OH","country":"United States","canonicalUrl":"https://foursquare.com/v/standard-hall/57757a4e498e47abfbe19e71","categoryId":"4bf58dd8d48988d116941735","category":"Bar","checkinsCount":206,"usersCount":293,"tipCount":1,"visitsCount":396,"tier":"","message":"","currency":"","rating":8.7},{"name":"Old North Arcade","twitter":"oldnortharcade","address":"2591 N High St","lat":40.015000922685786,"lng":-83.01168059519156,"neighborhood":"Old North Columbus","city_fetched":"Columbus,US","state":"OH","country":"United States","canonicalUrl":"https://foursquare.com/oldnortharcade","categoryId":"4bf58dd8d48988d116941735","category":"Bar","checkinsCount":505,"usersCount":232,"tipCount":6,"visitsCount":639,"url":"http://oldnortharcade.com","tier":"","message":"","currency":"","rating":8.7},{"name":"Vino Vino","phone":"6144818200","address":"1371 Grandview Ave","lat":39.9857389,"lng":-83.044885,"city_fetched":"Columbus,US","state":"OH","country":"United States","canonicalUrl":"https://foursquare.com/v/vino-vino/4b3d00e7f964a520aa8b25e3","categoryId":"4bf58dd8d48988d123941735","category":"Wine Bar","checkinsCount":824,"usersCount":544,"tipCount":19,"visitsCount":832,"url":"http://www.vinovinocolumbus.com","tier":2,"message":"Moderate","currency":"$","rating":8.7},{"name":"Matt The Miller's Tavern Grandview","phone":"6147541026","twitter":"mtmtavern","address":"1400 Grandview Ave","lat":39.986231,"lng":-83.044684,"city_fetched":"Columbus,US","state":"OH","country":"United States","canonicalUrl":"https://foursquare.com/v/matt-the-millers-tavern-grandview/4d9757f661a3a1cd3492b242","categoryId":"4bf58dd8d48988d116941735","category":"Bar","checkinsCount":5432,"usersCount":2840,"tipCount":32,"visitsCount":6095,"url":"http://mtmtavern.com","tier":2,"message":"Moderate","currency":"$","rating":8.6},{"name":"Woodlands Tavern","phone":"6142994987","twitter":"woodlandstavern","address":"1200 W 3rd Ave","lat":39.985034906983806,"lng":-83.03768277168274,"city_fetched":"Columbus,US","state":"OH","country":"United States","canonicalUrl":"https://foursquare.com/v/woodlands-tavern/4b4a83c3f964a520ba8926e3","categoryId":"4bf58dd8d48988d116941735","category":"Bar","checkinsCount":8460,"usersCount":3099,"tipCount":46,"visitsCount":9474,"url":"http://www.woodlandstavern.com","tier":1,"message":"Cheap","currency":"$","rating":8.6},{"name":"Lineage Brewing","phone":"6144613622","twitter":"lineagebrew","address":"2971 North High St","lat":40.022483891119386,"lng":-83.01398899134819,"neighborhood":"Clintonville","city_fetched":"Columbus,US","state":"OH","country":"United States","canonicalUrl":"https://foursquare.com/v/lineage-brewing/550ebbf9498e28d81abc3db6","categoryId":"50327c8591d4c4b30a586d5d","category":"Brewery","checkinsCount":801,"usersCount":512,"tipCount":12,"visitsCount":1118,"url":"http://lineagebrew.com","tier":"","message":"","currency":"","rating":8.6},{"name":"Mango's Cafe","phone":"6144293694","twitter":"mangoscafecbus","address":"21 Smith Pl","lat":39.98796463012695,"lng":-83.00630950927734,"neighborhood":"Dennison Place","city_fetched":"Columbus,US","state":"OH","country":"United States","canonicalUrl":"https://foursquare.com/v/mangos-cafe/4f867241e4b02900b71c763a","categoryId":"4bf58dd8d48988d119941735","category":"Hookah Bar","checkinsCount":1974,"usersCount":351,"tipCount":24,"visitsCount":2177,"url":"http://www.mangoscafe.org","tier":"","message":"","currency":"","rating":8.6},{"name":"Union Cafe","phone":"6144212233","twitter":"unioncafe","address":"782 N High St","lat":39.978416226689994,"lng":-83.00353760784952,"neighborhood":"Short North","city_fetched":"Columbus,US","state":"OH","country":"United States","canonicalUrl":"https://foursquare.com/unioncafe","categoryId":"4bf58dd8d48988d1d8941735","category":"Gay Bar","checkinsCount":25267,"usersCount":5601,"tipCount":94,"visitsCount":26483,"url":"http://www.unioncafe.com","tier":1,"message":"Cheap","currency":"$","rating":8.5},{"name":"The Old Bag of Nails Pub","phone":"6147770713","address":"4066 Main St","lat":40.0348107837326,"lng":-83.15884351730347,"neighborhood":"Northwest Columbus","city_fetched":"Columbus,US","state":"OH","country":"United States","canonicalUrl":"https://foursquare.com/v/the-old-bag-of-nails-pub/4bede70de24d20a1f2347214","categoryId":"4bf58dd8d48988d11b941735","category":"Pub","checkinsCount":2031,"usersCount":1113,"tipCount":24,"visitsCount":2398,"url":"http://www.oldbagofnails.com","tier":2,"message":"Moderate","currency":"$","rating":8.5},{"name":"Dick's Den","address":"2417 N High St","lat":40.011555469278775,"lng":-83.01077485084534,"neighborhood":"Old North Columbus","city_fetched":"Columbus,US","state":"OH","country":"United States","canonicalUrl":"https://foursquare.com/v/dicks-den/4b058649f964a520ba5a22e3","categoryId":"4bf58dd8d48988d116941735","category":"Bar","checkinsCount":1641,"usersCount":763,"tipCount":15,"visitsCount":1720,"url":"http://dicksdencolumbus.com","tier":"","message":"","currency":"","rating":8.5},{"name":"High Beck Corner Tavern","phone":"6142240886","twitter":"highbeck","address":"564 S High St","lat":39.95056868214075,"lng":-82.99821159306174,"neighborhood":"Brewery District","city_fetched":"Columbus,US","state":"OH","country":"United States","canonicalUrl":"https://foursquare.com/v/high-beck-corner-tavern/4b070cb4f964a5203ef622e3","categoryId":"4bf58dd8d48988d116941735","category":"Bar","checkinsCount":4594,"usersCount":1841,"tipCount":23,"visitsCount":5021,"url":"http://highbeck.com","tier":1,"message":"Cheap","currency":"$","rating":8.5},{"name":"Bodega","phone":"6142999399","twitter":"columbusbodega","address":"1044 N High St","lat":39.98370316227553,"lng":-83.00461649894714,"neighborhood":"Short North","city_fetched":"Columbus,US","state":"OH","country":"United States","canonicalUrl":"https://foursquare.com/v/bodega/4af8c7c0f964a520dd0f22e3","categoryId":"4bf58dd8d48988d116941735","category":"Bar","checkinsCount":16302,"usersCount":4931,"tipCount":96,"visitsCount":17374,"url":"http://www.columbusbodega.com","tier":2,"message":"Moderate","currency":"$","rating":8.5},{"name":"The Wine Bistro","phone":"6142624416","address":"4416 N High St","lat":40.05219060659433,"lng":-83.01973342895508,"neighborhood":"Clintonville","city_fetched":"Columbus,US","state":"OH","country":"United States","canonicalUrl":"https://foursquare.com/v/the-wine-bistro/51275c77e4b0f6765751ea18","categoryId":"4bf58dd8d48988d123941735","category":"Wine Bar","checkinsCount":757,"usersCount":474,"tipCount":11,"visitsCount":920,"url":"http://clintonville.winebistrocolumbus.com","tier":2,"message":"Moderate","currency":"$","rating":8.5},{"name":"O'Reilly's Pub","phone":"6142626343","address":"2822 N High St","lat":40.01997986860678,"lng":-83.01252002131726,"neighborhood":"Clintonville","city_fetched":"Columbus,US","state":"OH","country":"United States","canonicalUrl":"https://foursquare.com/v/oreillys-pub/4b0aa265f964a520d12523e3","categoryId":"4bf58dd8d48988d11b941735","category":"Pub","checkinsCount":2917,"usersCount":898,"tipCount":24,"visitsCount":3086,"tier":1,"message":"Cheap","currency":"$","rating":8.5},{"name":"Four String Brewing","phone":"6147251282","address":"985 W 6th Ave","lat":39.98910818407901,"lng":-83.03264206533936,"city_fetched":"Columbus,US","state":"OH","country":"United States","canonicalUrl":"https://foursquare.com/v/four-string-brewing/4e613f0162e13e3bce1fa6f4","categoryId":"50327c8591d4c4b30a586d5d","category":"Brewery","checkinsCount":724,"usersCount":431,"tipCount":13,"visitsCount":926,"url":"http://fourstringbrewing.com","tier":"","message":"","currency":"","rating":8.4},{"name":"Elevator Brewery & Draught Haus","phone":"6142280500","twitter":"elevatorbrewing","address":"161 N High St","lat":39.965748259312825,"lng":-83.00173258295706,"neighborhood":"Uptown District","city_fetched":"Columbus,US","state":"OH","country":"United States","canonicalUrl":"https://foursquare.com/v/elevator-brewery--draught-haus/4b0b04b2f964a5209e2b23e3","categoryId":"50327c8591d4c4b30a586d5d","category":"Brewery","checkinsCount":5584,"usersCount":4033,"tipCount":64,"visitsCount":6135,"url":"http://elevatorbrewing.com","tier":2,"message":"Moderate","currency":"$","rating":8.4},{"name":"Zauber Brewing Co.","phone":"6144567074","twitter":"zauberbrewing","address":"909 W 5th Ave","lat":39.98795872149125,"lng":-83.03029760727001,"city_fetched":"Columbus,US","state":"OH","country":"United States","canonicalUrl":"https://foursquare.com/v/zauber-brewing-co/4efb31ddd3e354f0c075c23e","categoryId":"50327c8591d4c4b30a586d5d","category":"Brewery","checkinsCount":1972,"usersCount":1356,"tipCount":21,"visitsCount":3079,"url":"http://zbeers.com","tier":2,"message":"Moderate","currency":"$","rating":8.4},{"name":"World of Beer","phone":"6147452317","twitter":"wobhighstreet","address":"1568 North High Street","lat":39.994119134677845,"lng":-83.0062555464592,"neighborhood":"University District","city_fetched":"Columbus,US","state":"OH","country":"United States","canonicalUrl":"https://foursquare.com/v/world-of-beer/56156edf498eb623733df86f","categoryId":"4bf58dd8d48988d116941735","category":"Bar","checkinsCount":317,"usersCount":211,"tipCount":2,"visitsCount":323,"url":"http://worldofbeer.com/Locations/HighStreet","tier":"","message":"","currency":"","rating":8.4},{"name":"Grass Skirt Tiki Room","phone":"6144293650","twitter":"grassskirttiki","address":"105 N Grant Ave","lat":39.96557459215065,"lng":-82.99183030470952,"neighborhood":"Downtown Columbus","city_fetched":"Columbus,US","state":"OH","country":"United States","canonicalUrl":"https://foursquare.com/v/grass-skirt-tiki-room/502830d2e4b064c42cf32a6e","categoryId":"4bf58dd8d48988d11e941735","category":"Cocktail Bar","checkinsCount":2221,"usersCount":1156,"tipCount":24,"visitsCount":2372,"url":"http://www.grassskirttiki.com","tier":2,"message":"Moderate","currency":"$","rating":8.4},{"name":"4th Street Patio Bar & Grill","phone":"6142911420","twitter":"fourthstreetbar","address":"1810 N 4th St","lat":40.00034219970752,"lng":-82.9985002058502,"neighborhood":"University District","city_fetched":"Columbus,US","state":"OH","country":"United States","canonicalUrl":"https://foursquare.com/v/4th-street-patio-bar--grill/4c6dbf8d6af58cfa50788a17","categoryId":"4bf58dd8d48988d11b941735","category":"Pub","checkinsCount":10242,"usersCount":3094,"tipCount":43,"visitsCount":11575,"url":"http://fourthstreetcolumbus.com","tier":2,"message":"Moderate","currency":"$","rating":8.4},{"name":"Denmark","phone":"6149146700","address":"463 North High, 2nd Floor","lat":39.971786111162686,"lng":-83.00252491100358,"neighborhood":"Short North","city_fetched":"Columbus,US","state":"OH","country":"United States","canonicalUrl":"https://foursquare.com/v/denmark/5323760f498e51e76d26fc24","categoryId":"4bf58dd8d48988d116941735","category":"Bar","checkinsCount":772,"usersCount":433,"tipCount":13,"visitsCount":803,"url":"http://www.denmarkonhigh.com","tier":2,"message":"Moderate","currency":"$","rating":8.3},{"name":"Luckys Grille & Billiards","phone":"6147717766","address":"5387 Roberts Rd","lat":40.00296399416552,"lng":-83.15103581902056,"neighborhood":"Hilliard Green","city_fetched":"Columbus,US","state":"OH","country":"United States","canonicalUrl":"https://foursquare.com/v/luckys-grille--billiards/4b0df846f964a520505323e3","categoryId":"4bf58dd8d48988d116941735","category":"Bar","checkinsCount":4203,"usersCount":1249,"tipCount":29,"visitsCount":4657,"url":"http://luckysgrill.com","tier":2,"message":"Moderate","currency":"$","rating":8.3},{"name":"Short North Gallery Hop","address":"600-1300 N High St","lat":39.97783164132658,"lng":-83.00368452630958,"neighborhood":"Short North","city_fetched":"Columbus,US","state":"OH","country":"United States","canonicalUrl":"https://foursquare.com/v/short-north-gallery-hop/4b6e0700f964a5207ea42ce3","categoryId":"4bf58dd8d48988d11a941735","category":"Other Nightlife","checkinsCount":1022,"usersCount":737,"tipCount":3,"visitsCount":1050,"url":"http://shortnorth.org","tier":"","message":"","currency":"","rating":8.3},{"name":"Hoof Hearted Bar & Kitchen","address":"850 N 4th St","lat":39.980435168759996,"lng":-82.99802792972186,"neighborhood":"Italian Village","city_fetched":"Columbus,US","state":"OH","country":"United States","canonicalUrl":"https://foursquare.com/v/hoof-hearted-bar--kitchen/56bcf349498e3348d8670dc0","categoryId":"50327c8591d4c4b30a586d5d","category":"Brewery","checkinsCount":573,"usersCount":521,"tipCount":11,"visitsCount":840,"tier":"","message":"","currency":"","rating":8.3},{"name":"House Beer","phone":"6146708095","twitter":"myhousebeer","address":"843 N High St","lat":39.979629393582215,"lng":-83.00408330333958,"neighborhood":"Short North","city_fetched":"Columbus,US","state":"OH","country":"United States","canonicalUrl":"https://foursquare.com/v/house-beer/502594d8e4b0fe423cf09568","categoryId":"4bf58dd8d48988d116941735","category":"Bar","checkinsCount":1595,"usersCount":666,"tipCount":11,"visitsCount":1617,"url":"http://www.myhousebeer.com","tier":"","message":"","currency":"","rating":8.3},{"name":"Sideswipe Brewing","phone":"6147199654","twitter":"sideswipebrew","address":"2419 Scioto Harper Dr","lat":39.967434463364086,"lng":-83.06709051132202,"city_fetched":"Columbus,US","state":"OH","country":"United States","canonicalUrl":"https://foursquare.com/v/sideswipe-brewing/53c004aa498e19233399f0d3","categoryId":"50327c8591d4c4b30a586d5d","category":"Brewery","checkinsCount":214,"usersCount":179,"tipCount":3,"visitsCount":421,"url":"http://www.sideswipebrewing.com","tier":"","message":"","currency":"","rating":8.3},{"name":"The Thirsty Scholar","phone":"6142989805","twitter":"thirstyscholar","address":"2201 Neil Ave","lat":40.00664241,"lng":-83.01434755325317,"neighborhood":"North Campus","city_fetched":"Columbus,US","state":"OH","country":"United States","canonicalUrl":"https://foursquare.com/v/the-thirsty-scholar/4b480115f964a520354626e3","categoryId":"4bf58dd8d48988d116941735","category":"Bar","checkinsCount":1781,"usersCount":697,"tipCount":10,"visitsCount":1817,"tier":"","message":"","currency":"","rating":8.3},{"name":"The Wine Guy Wine Shop, Wine Bar & Bistro","phone":"6145360411","twitter":"wineguybistro","address":"500 Creekside Plz","lat":40.02045313112563,"lng":-82.87969026546973,"neighborhood":"East Columbus","city_fetched":"Columbus,US","state":"OH","country":"United States","canonicalUrl":"https://foursquare.com/v/the-wine-guy-wine-shop-wine-bar--bistro/4b2d3616f964a5202ad124e3","categoryId":"4bf58dd8d48988d123941735","category":"Wine Bar","checkinsCount":1099,"usersCount":603,"tipCount":6,"visitsCount":1113,"url":"http://www.thewineguywineshop.com/gahanna.htm","tier":"","message":"","currency":"","rating":8.3},{"name":"Meister's Bar","phone":"6147251131","address":"1168 Chambers Rd","lat":39.99378070217147,"lng":-83.0389092785206,"city_fetched":"Columbus,US","state":"OH","country":"United States","canonicalUrl":"https://foursquare.com/v/meisters-bar/4b872ea6f964a52021b531e3","categoryId":"4bf58dd8d48988d116941735","category":"Bar","checkinsCount":3047,"usersCount":960,"tipCount":21,"visitsCount":3556,"tier":"","message":"","currency":"","rating":8.2},{"name":"Double Happiness","phone":"6142205558","address":"482 S Front St","lat":39.95206668,"lng":-83.00018101666667,"neighborhood":"Brewery District","city_fetched":"Columbus,US","state":"OH","country":"United States","canonicalUrl":"https://foursquare.com/v/double-happiness/4df033917d8ba370a00e5c00","categoryId":"4bf58dd8d48988d116941735","category":"Bar","checkinsCount":2087,"usersCount":911,"tipCount":21,"visitsCount":2146,"url":"http://doublehappinessohio.com","tier":"","message":"","currency":"","rating":8.2},{"name":"Sidebar","phone":"6142289041","twitter":"sidebarcolumbus","address":"122 E Main St","lat":39.95666189915951,"lng":-82.99602270126343,"neighborhood":"Downtown Columbus","city_fetched":"Columbus,US","state":"OH","country":"United States","canonicalUrl":"https://foursquare.com/v/sidebar/4de7bd4cfa763961426e8abf","categoryId":"4bf58dd8d48988d11e941735","category":"Cocktail Bar","checkinsCount":2072,"usersCount":1053,"tipCount":30,"visitsCount":2248,"url":"http://www.sidebarcolumbus.com","tier":2,"message":"Moderate","currency":"$","rating":8.2},{"name":"Hickory House","phone":"6144287427","address":"550 Officenter Pl","lat":40.0038011,"lng":-82.86114395,"neighborhood":"East Columbus","city_fetched":"Columbus,US","state":"OH","country":"United States","canonicalUrl":"https://foursquare.com/v/hickory-house/4b718813f964a5207b4b2de3","categoryId":"4bf58dd8d48988d116941735","category":"Bar","checkinsCount":1122,"usersCount":731,"tipCount":19,"visitsCount":1384,"url":"http://thehickoryhouse.com","tier":"","message":"","currency":"","rating":8.2},{"name":"Out-R-Inn","phone":"6142949259","twitter":"outrinn","address":"20 E Frambes Ave","lat":40.00512978566697,"lng":-83.00848543185865,"neighborhood":"University District","city_fetched":"Columbus,US","state":"OH","country":"United States","canonicalUrl":"https://foursquare.com/outrinn","categoryId":"4bf58dd8d48988d116941735","category":"Bar","checkinsCount":6628,"usersCount":2728,"tipCount":16,"visitsCount":7160,"tier":1,"message":"Cheap","currency":"$","rating":8.2},{"name":"Arch City Tavern","phone":"6147255620","address":"862 N High St","lat":39.97989357865507,"lng":-83.00409379743944,"neighborhood":"Short North","city_fetched":"Columbus,US","state":"OH","country":"United States","canonicalUrl":"https://foursquare.com/v/arch-city-tavern/5109b7cee4b0ab4bd227ac84","categoryId":"4bf58dd8d48988d116941735","category":"Bar","checkinsCount":2878,"usersCount":1789,"tipCount":32,"visitsCount":3527,"url":"http://archcitytavern.com","tier":2,"message":"Moderate","currency":"$","rating":8.2},{"name":"Cavan Irish Pub","phone":"6147255502","twitter":"cavanirishpub","address":"1409 S High St","lat":39.933188058365715,"lng":-82.99629097403944,"neighborhood":"Merion Village","city_fetched":"Columbus,US","state":"OH","country":"United States","canonicalUrl":"https://foursquare.com/v/cavan-irish-pub/4b0dd85cf964a520365123e3","categoryId":"4bf58dd8d48988d1d8941735","category":"Gay Bar","checkinsCount":2074,"usersCount":736,"tipCount":18,"visitsCount":2577,"url":"http://cavanirishpub.com","tier":1,"message":"Cheap","currency":"$","rating":8.2},{"name":"Strongwater","phone":"6149283170","address":"401 W Town St","lat":39.95745431400667,"lng":-83.01104577209469,"neighborhood":"Franklinton","city_fetched":"Columbus,US","state":"OH","country":"United States","canonicalUrl":"https://foursquare.com/v/strongwater/520fccc5498ed9ce6b244ea0","categoryId":"4bf58dd8d48988d116941735","category":"Bar","checkinsCount":1433,"usersCount":995,"tipCount":24,"visitsCount":1829,"url":"http://strongwatercolumbus.com","tier":1,"message":"Cheap","currency":"$","rating":8.2},{"name":"Wine on High","phone":"6142948466","address":"789 N High St","lat":39.978462,"lng":-83.00406,"neighborhood":"Short North","city_fetched":"Columbus,US","state":"OH","country":"United States","canonicalUrl":"https://foursquare.com/v/wine-on-high/4dc344af45dd2645523a35f7","categoryId":"4bf58dd8d48988d123941735","category":"Wine Bar","checkinsCount":932,"usersCount":552,"tipCount":6,"visitsCount":940,"tier":"","message":"","currency":"","rating":8.2},{"name":"Axis Nightclub & Lounge","phone":"6142914008","twitter":"axisclub","address":"775 N High St","lat":39.97792299878385,"lng":-83.0039500363249,"neighborhood":"Short North","city_fetched":"Columbus,US","state":"OH","country":"United States","canonicalUrl":"https://foursquare.com/axisclub","categoryId":"4bf58dd8d48988d11f941735","category":"Nightclub","checkinsCount":6558,"usersCount":2323,"tipCount":27,"visitsCount":6931,"url":"http://www.axisonhigh.com","tier":2,"message":"Moderate","currency":"$","rating":8.2},{"name":"Prost Beer and Wine Cafe","phone":"6146940975","address":"7354 E Main St","lat":39.955424,"lng":-82.801704,"neighborhood":"East Columbus","city_fetched":"Columbus,US","state":"OH","country":"United States","canonicalUrl":"https://foursquare.com/v/prost-beer-and-wine-cafe/54a9fbda498eb8a23a467105","categoryId":"4bf58dd8d48988d116941735","category":"Bar","checkinsCount":232,"usersCount":184,"tipCount":9,"visitsCount":403,"url":"http://prostcafe.com","tier":"","message":"","currency":"","rating":8.1},{"name":"Bossy Girls Pin-up Joint","address":"2598 N High St","lat":40.0152097082486,"lng":-83.01140253293363,"neighborhood":"Old North Columbus","city_fetched":"Columbus,US","state":"OH","country":"United States","canonicalUrl":"https://foursquare.com/v/bossy-girls-pinup-joint/5137df4ee4b09f62109eb64c","categoryId":"4bf58dd8d48988d11e941735","category":"Cocktail Bar","checkinsCount":1090,"usersCount":340,"tipCount":14,"visitsCount":1161,"tier":2,"message":"Moderate","currency":"$","rating":8.1},{"name":"Claddagh Irish Pub","phone":"6142241560","twitter":"claddagh_cbus","address":"585 S Front St","lat":39.94998897836849,"lng":-83.00022660875274,"neighborhood":"Brewery District","city_fetched":"Columbus,US","state":"OH","country":"United States","canonicalUrl":"https://foursquare.com/v/claddagh-irish-pub/4b061570f964a52070e822e3","categoryId":"4bf58dd8d48988d11b941735","category":"Pub","checkinsCount":2941,"usersCount":1545,"tipCount":34,"visitsCount":3067,"url":"http://www.claddaghirishpubs.com","tier":2,"message":"Moderate","currency":"$","rating":8.1},{"name":"El Camino Inn","phone":"6142208877","address":"238 S 4th St","lat":39.95775567965277,"lng":-82.99509465694427,"neighborhood":"Downtown Columbus","city_fetched":"Columbus,US","state":"OH","country":"United States","canonicalUrl":"https://foursquare.com/v/el-camino-inn/4fe4fe44e4b0ed119c098027","categoryId":"4bf58dd8d48988d116941735","category":"Bar","checkinsCount":2994,"usersCount":1037,"tipCount":30,"visitsCount":3044,"url":"http://elcaminoinn.co","tier":2,"message":"Moderate","currency":"$","rating":8.1},{"name":"Varsity Club","phone":"6142996269","twitter":"myvarsityclub","address":"278 W Lane Ave","lat":40.00655706840849,"lng":-83.01699221134186,"neighborhood":"North Campus","city_fetched":"Columbus,US","state":"OH","country":"United States","canonicalUrl":"https://foursquare.com/v/varsity-club/4b187705f964a52012d323e3","categoryId":"4bf58dd8d48988d116941735","category":"Bar","checkinsCount":6560,"usersCount":3559,"tipCount":15,"visitsCount":7216,"url":"http://www.myvarsityclub.com","tier":1,"message":"Cheap","currency":"$","rating":8.1},{"name":"Level Dining Lounge","phone":"6147541342","twitter":"levelcolumbus","address":"700 N High St","lat":39.976829007289695,"lng":-83.00330148821125,"neighborhood":"Short North","city_fetched":"Columbus,US","state":"OH","country":"United States","canonicalUrl":"https://foursquare.com/v/level-dining-lounge/4b05f811f964a520b0e622e3","categoryId":"4bf58dd8d48988d121941735","category":"Lounge","checkinsCount":13525,"usersCount":3541,"tipCount":61,"visitsCount":13703,"url":"http://www.levelcolumbus.com","tier":2,"message":"Moderate","currency":"$","rating":8.1},{"name":"The Brazenhead","phone":"6147373738","address":"1027 W 5th Ave","lat":39.988111463277626,"lng":-83.03368576816035,"city_fetched":"Columbus,US","state":"OH","country":"United States","canonicalUrl":"https://foursquare.com/v/the-brazenhead/4b2acfedf964a52020b024e3","categoryId":"4bf58dd8d48988d11b941735","category":"Pub","checkinsCount":5045,"usersCount":2944,"tipCount":36,"visitsCount":5692,"url":"http://www.hdrestaurants.com/brazenhead/5thavenue/","tier":2,"message":"Moderate","currency":"$","rating":8.1},{"name":"Betty's Bar","phone":"6142259195","address":"435 W Nationwide Blvd","lat":39.96744223333334,"lng":-83.01360065,"neighborhood":"Downtown Columbus","city_fetched":"Columbus,US","state":"OH","country":"United States","canonicalUrl":"https://foursquare.com/v/bettys-bar/4b622975f964a52060392ae3","categoryId":"4bf58dd8d48988d116941735","category":"Bar","checkinsCount":1405,"usersCount":607,"tipCount":9,"visitsCount":1694,"tier":1,"message":"Cheap","currency":"$","rating":8.1},{"name":"St. James Tavern","phone":"6142940064","address":"1057 N 4th St","lat":39.98465826,"lng":-82.99936758333334,"neighborhood":"Italian Village","city_fetched":"Columbus,US","state":"OH","country":"United States","canonicalUrl":"https://foursquare.com/v/st-james-tavern/4b077d7cf964a5201ffe22e3","categoryId":"4bf58dd8d48988d118941735","category":"Dive Bar","checkinsCount":3030,"usersCount":948,"tipCount":29,"visitsCount":3163,"url":"http://stjamestavern.com","tier":1,"message":"Cheap","currency":"$","rating":8.1},{"name":"Local Bar","phone":"6146708958","address":"913 N High St","lat":39.981145454556035,"lng":-83.00499103681143,"neighborhood":"Short North","city_fetched":"Columbus,US","state":"OH","country":"United States","canonicalUrl":"https://foursquare.com/v/local-bar/4e6e8853483bbf438c492106","categoryId":"4bf58dd8d48988d116941735","category":"Bar","checkinsCount":6369,"usersCount":1714,"tipCount":21,"visitsCount":6551,"url":"http://localbarshortnorth.com","tier":2,"message":"Moderate","currency":"$","rating":8.1},{"name":"club princeton","lat":39.94933624677128,"lng":-83.0335651400361,"neighborhood":"Franklinton","city_fetched":"Columbus,US","state":"Ohio","country":"United States","canonicalUrl":"https://foursquare.com/v/club-princeton/4c09a64e009a0f47ff34e8bf","categoryId":"4bf58dd8d48988d11f941735","category":"Nightclub","checkinsCount":97,"usersCount":134,"tipCount":7,"visitsCount":254,"tier":"","message":"","currency":"","rating":8.1},{"name":"Flatiron Bar And Diner","phone":"6144610033","twitter":"flatironbar","address":"129 E Nationwide Blvd","lat":39.968820923210544,"lng":-82.99816436539452,"neighborhood":"Uptown District","city_fetched":"Columbus,US","state":"OH","country":"United States","canonicalUrl":"https://foursquare.com/v/flatiron-bar-and-diner/4b282f8df964a5207a9024e3","categoryId":"4bf58dd8d48988d116941735","category":"Bar","checkinsCount":1690,"usersCount":1265,"tipCount":40,"visitsCount":1962,"url":"http://flatironcolumbus.com","tier":2,"message":"Moderate","currency":"$","rating":8.1},{"name":"The Shrunken Head","phone":"6142992295","address":"251 W 5th Ave","lat":39.98714961491547,"lng":-83.01248073577881,"neighborhood":"Victorian Village","city_fetched":"Columbus,US","state":"OH","country":"United States","canonicalUrl":"https://foursquare.com/v/the-shrunken-head/4b9325abf964a520be3734e3","categoryId":"4bf58dd8d48988d116941735","category":"Bar","checkinsCount":3095,"usersCount":907,"tipCount":28,"visitsCount":3458,"url":"http://www.theshrunkenhead.netâ€Ž","tier":1,"message":"Cheap","currency":"$","rating":8},{"name":"Ace of Cups","twitter":"aceofcupsbar","address":"2619 N High St","lat":40.01559618215002,"lng":-83.01179601691688,"neighborhood":"Old North Columbus","city_fetched":"Columbus,US","state":"OH","country":"United States","canonicalUrl":"https://foursquare.com/v/ace-of-cups/52ef00d611d26e76bd097a2a","categoryId":"4bf58dd8d48988d116941735","category":"Bar","checkinsCount":828,"usersCount":408,"tipCount":3,"visitsCount":981,"tier":1,"message":"Cheap","currency":"$","rating":8},{"name":"North City Tavern","phone":"6148460796","address":"46 Dillmont Dr","lat":40.13449071471406,"lng":-83.01545792868174,"city_fetched":"Columbus,US","state":"OH","country":"United States","canonicalUrl":"https://foursquare.com/v/north-city-tavern/509c6476e4b070da08b5d34f","categoryId":"4bf58dd8d48988d116941735","category":"Bar","checkinsCount":219,"usersCount":134,"tipCount":7,"visitsCount":246,"tier":"","message":"","currency":"","rating":8},{"name":"Kindred Artisan Ales","phone":"6147726430","twitter":"kindredales","address":"505 Morrison Rd","lat":40.00580493538246,"lng":-82.86448035306368,"neighborhood":"East Columbus","city_fetched":"Columbus,US","state":"OH","country":"United States","canonicalUrl":"https://foursquare.com/v/kindred-artisan-ales/56f56a1d498e552f75a67c8b","categoryId":"50327c8591d4c4b30a586d5d","category":"Brewery","checkinsCount":144,"usersCount":156,"tipCount":2,"visitsCount":250,"tier":"","message":"","currency":"","rating":8},{"name":"Bob's Bar","phone":"6148889073","twitter":"bobsbarcbus","address":"4961 N High St","lat":40.063622779941824,"lng":-83.01971241621321,"neighborhood":"Clintonville","city_fetched":"Columbus,US","state":"OH","country":"United States","canonicalUrl":"https://foursquare.com/v/bobs-bar/4b130b08f964a520299323e3","categoryId":"4bf58dd8d48988d116941735","category":"Bar","checkinsCount":5388,"usersCount":1433,"tipCount":35,"visitsCount":5708,"url":"http://bobsbar.com","tier":2,"message":"Moderate","currency":"$","rating":8},{"name":"The Walrus","twitter":"thewalruscbus","address":"143 E Main St","lat":39.95660609105465,"lng":-82.99559827807424,"neighborhood":"Downtown Columbus","city_fetched":"Columbus,US","state":"OH","country":"United States","canonicalUrl":"https://foursquare.com/v/the-walrus/552bc404498e7f5385b0384a","categoryId":"4bf58dd8d48988d116941735","category":"Bar","checkinsCount":922,"usersCount":837,"tipCount":9,"visitsCount":1633,"url":"http://thewalruscolumbus.com","tier":"","message":"","currency":"","rating":8},{"name":"Hamilton's Pub","phone":"6147750007","twitter":"hamiltonspub","address":"4866 Thompson Rd","lat":40.06530985979501,"lng":-82.86177764204537,"city_fetched":"Columbus,US","state":"OH","country":"United States","canonicalUrl":"https://foursquare.com/v/hamiltons-pub/4c6f0fff9c6d6dcb2b75ce7a","categoryId":"4bf58dd8d48988d116941735","category":"Bar","checkinsCount":4848,"usersCount":1149,"tipCount":25,"visitsCount":5236,"url":"http://www.columbusbarandgrill.com","tier":2,"message":"Moderate","currency":"$","rating":8},{"name":"Roosters","phone":"6142623185","twitter":"roosters","address":"3370 Olentangy River Rd","lat":40.02797813735804,"lng":-83.02790585940457,"city_fetched":"Columbus,US","state":"OH","country":"United States","canonicalUrl":"https://foursquare.com/v/roosters/4b0874d1f964a520440c23e3","categoryId":"4bf58dd8d48988d11d941735","category":"Sports Bar","checkinsCount":5132,"usersCount":2786,"tipCount":24,"visitsCount":6403,"url":"http://www.roosterswings.com","tier":2,"message":"Moderate","currency":"$","rating":7.9},{"name":"Short North Pint House","phone":"6144293986","twitter":"pinthouse614","address":"780 N High St","lat":39.97829481853442,"lng":-83.00355859622097,"neighborhood":"Short North","city_fetched":"Columbus,US","state":"OH","country":"United States","canonicalUrl":"https://foursquare.com/v/short-north-pint-house/5174177ae4b0106170060475","categoryId":"4bf58dd8d48988d117941735","category":"Beer Garden","checkinsCount":6299,"usersCount":3011,"tipCount":32,"visitsCount":6771,"url":"http://shortnorthpinthouse.com","tier":2,"message":"Moderate","currency":"$","rating":7.9},{"name":"Barrel On High","phone":"6145649058","twitter":"barrelonhigh","address":"1120 N High St","lat":39.985206375291014,"lng":-83.00500677774424,"neighborhood":"Short North","city_fetched":"Columbus,US","state":"OH","country":"United States","canonicalUrl":"https://foursquare.com/barrelonhigh","categoryId":"4bf58dd8d48988d122941735","category":"Whisky Bar","checkinsCount":4697,"usersCount":2092,"tipCount":59,"visitsCount":4817,"url":"http://www.barrelonhigh.com","tier":2,"message":"Moderate","currency":"$","rating":7.9},{"name":"Byrne's Pub","phone":"6144864722","address":"1248 W 3rd Ave","lat":39.984959511910446,"lng":-83.03898794267893,"city_fetched":"Columbus,US","state":"OH","country":"United States","canonicalUrl":"https://foursquare.com/v/byrnes-pub/4b1b4851f964a52080fa23e3","categoryId":"4bf58dd8d48988d116941735","category":"Bar","checkinsCount":4608,"usersCount":1687,"tipCount":26,"visitsCount":5255,"url":"http://www.byrnespub.com","tier":1,"message":"Cheap","currency":"$","rating":7.9},{"name":"The Goat","phone":"6148761427","address":"5730 Silver Falls S","lat":40.06194101871963,"lng":-83.17342865512713,"neighborhood":"Tuttle West","city_fetched":"Columbus,US","state":"OH","country":"United States","canonicalUrl":"https://foursquare.com/v/the-goat/4dd82cfc52b1a5c644602024","categoryId":"4bf58dd8d48988d116941735","category":"Bar","checkinsCount":2845,"usersCount":1060,"tipCount":9,"visitsCount":3513,"url":"http://lcgoat.com","tier":"","message":"","currency":"","rating":7.9},{"name":"Savor Pint","address":"4440 Indianola Ave","lat":40.05532420005742,"lng":-83.00015314571833,"neighborhood":"Clintonville","city_fetched":"Columbus,US","state":"OH","country":"United States","canonicalUrl":"https://foursquare.com/v/savor-pint/55c8f978498ec482a6fd8a71","categoryId":"4bf58dd8d48988d116941735","category":"Bar","checkinsCount":267,"usersCount":66,"tipCount":3,"visitsCount":321,"tier":"","message":"","currency":"","rating":7.9},{"name":"The Pub Polaris","phone":"6147817829","twitter":"pubpolaris","address":"1554 Polaris Pkwy","lat":40.14574036299528,"lng":-82.97805190086365,"neighborhood":"Polaris","city_fetched":"Columbus,US","state":"OH","country":"United States","canonicalUrl":"https://foursquare.com/v/the-pub-polaris/4a749405f964a520b6de1fe3","categoryId":"4bf58dd8d48988d11b941735","category":"Pub","checkinsCount":9093,"usersCount":3371,"tipCount":69,"visitsCount":9379,"url":"http://www.experiencethepub.com","tier":2,"message":"Moderate","currency":"$","rating":7.9},{"name":"Short North Tavern","phone":"6142212432","address":"674 N High St","lat":39.976127,"lng":-83.003364,"neighborhood":"Short North","city_fetched":"Columbus,US","state":"OH","country":"United States","canonicalUrl":"https://foursquare.com/v/short-north-tavern/4b0755f5f964a52034fc22e3","categoryId":"4bf58dd8d48988d116941735","category":"Bar","checkinsCount":5233,"usersCount":2198,"tipCount":21,"visitsCount":5442,"url":"http://shortnorth.org/dining/short-north-tavern/","tier":1,"message":"Cheap","currency":"$","rating":7.9},{"name":"Char Bar","phone":"6142259439","address":"439 N High St","lat":39.97129086194489,"lng":-83.0024881807744,"neighborhood":"Short North","city_fetched":"Columbus,US","state":"OH","country":"United States","canonicalUrl":"https://foursquare.com/v/char-bar/4b3c1bb9f964a520e38125e3","categoryId":"4bf58dd8d48988d118941735","category":"Dive Bar","checkinsCount":3446,"usersCount":1844,"tipCount":21,"visitsCount":3544,"url":"http://www.columbusunderground.com","tier":1,"message":"Cheap","currency":"$","rating":7.9},{"name":"The Old Bag of Nails","phone":"6142834392","address":"797 Hill Rd N","lat":39.90325606264754,"lng":-82.77242167541735,"neighborhood":"South Columbus","city_fetched":"Columbus,US","state":"OH","country":"United States","canonicalUrl":"https://foursquare.com/v/the-old-bag-of-nails/4deea307c65bebb0611daa10","categoryId":"4bf58dd8d48988d116941735","category":"Bar","checkinsCount":1746,"usersCount":661,"tipCount":20,"visitsCount":1908,"url":"http://www.oldbagofnails.com","tier":2,"message":"Moderate","currency":"$","rating":7.8},{"name":"Gresso's Restaurant & Bar","phone":"6144440131","twitter":"gressoscbus","address":"961 S High St","lat":39.94243030706728,"lng":-82.99705188169439,"neighborhood":"Brewery District","city_fetched":"Columbus,US","state":"OH","country":"United States","canonicalUrl":"https://foursquare.com/gressoscbus","categoryId":"4bf58dd8d48988d11b941735","category":"Pub","checkinsCount":4163,"usersCount":2007,"tipCount":28,"visitsCount":4624,"url":"http://www.gressos.com","tier":1,"message":"Cheap","currency":"$","rating":7.8},{"name":"The Actual Brewing Company","phone":"6146363825","twitter":"actualbrewing","address":"655 N James Rd","lat":39.98675553901092,"lng":-82.90790327926379,"neighborhood":"Port Columbus International Airport","city_fetched":"Columbus,US","state":"OH","country":"United States","canonicalUrl":"https://foursquare.com/v/the-actual-brewing-company/4f74fea6e4b09b1012713111","categoryId":"50327c8591d4c4b30a586d5d","category":"Brewery","checkinsCount":458,"usersCount":265,"tipCount":8,"visitsCount":626,"url":"http://www.actualbrewing.com","tier":"","message":"","currency":"","rating":7.8},{"name":"Pigskin Brewing Company","phone":"6149449311","twitter":"pigskinbrewco","address":"81 Mill St","lat":40.020000859672145,"lng":-82.87987951321351,"neighborhood":"East Columbus","city_fetched":"Columbus,US","state":"OH","country":"United States","canonicalUrl":"https://foursquare.com/v/pigskin-brewing-company/54dff01b498e07cde6d54c99","categoryId":"50327c8591d4c4b30a586d5d","category":"Brewery","checkinsCount":555,"usersCount":384,"tipCount":11,"visitsCount":706,"url":"http://pigskinbrewingcompany.com","tier":"","message":"","currency":"","rating":7.8},{"name":"Yogi's Bar And Grill","phone":"6147981772","address":"5857 Karric Square Dr","lat":40.072726923973875,"lng":-83.12319695949554,"neighborhood":"Northwest Columbus","city_fetched":"Columbus,US","state":"OH","country":"United States","canonicalUrl":"https://foursquare.com/v/yogis-bar-and-grill/4b080ff5f964a5201e0323e3","categoryId":"4bf58dd8d48988d11d941735","category":"Sports Bar","checkinsCount":5201,"usersCount":1868,"tipCount":21,"visitsCount":6361,"url":"http://www.yogisdublin.com","tier":2,"message":"Moderate","currency":"$","rating":7.8},{"name":"Rehab Tavern","phone":"6142205655","twitter":"rehabtavern","address":"456 W Town St","lat":39.95754185927787,"lng":-83.01222324371338,"neighborhood":"Franklinton","city_fetched":"Columbus,US","state":"OH","country":"United States","canonicalUrl":"https://foursquare.com/v/rehab-tavern/4ff4543345b019248cbc9aa9","categoryId":"4bf58dd8d48988d116941735","category":"Bar","checkinsCount":708,"usersCount":378,"tipCount":9,"visitsCount":826,"url":"http://rehabtavern.com","tier":2,"message":"Moderate","currency":"$","rating":7.8},{"name":"Red Brick Tap and Grill","phone":"6144447637","address":"292 E Gates St","lat":39.937519131311234,"lng":-82.98785743171345,"neighborhood":"Merion Village","city_fetched":"Columbus,US","state":"OH","country":"United States","canonicalUrl":"https://foursquare.com/v/red-brick-tap-and-grill/4be47ff6910020a155cdd114","categoryId":"4bf58dd8d48988d116941735","category":"Bar","checkinsCount":1200,"usersCount":625,"tipCount":12,"visitsCount":1791,"url":"http://theredbricktapandgrill.com","tier":"","message":"","currency":"","rating":7.8},{"name":"Level One Bar + Arcade","phone":"6146810518","twitter":"levelone_bar","address":"130 Hutchinson Ave","lat":40.11476167449956,"lng":-83.01116617523354,"neighborhood":"Crosswoods","city_fetched":"Columbus,US","state":"OH","country":"United States","canonicalUrl":"https://foursquare.com/v/level-one-bar--arcade/55e8e7f2498e345b2feb6fe8","categoryId":"4bf58dd8d48988d116941735","category":"Bar","checkinsCount":242,"usersCount":156,"tipCount":2,"visitsCount":264,"url":"http://level1bar.com","tier":"","message":"","currency":"","rating":7.8},{"name":"India Oak Grill","phone":"6143951722","twitter":"indiaoakgrill","address":"590 Oakland Park Ave","lat":40.033131794981706,"lng":-82.999932756125,"neighborhood":"Central Clintonville","city_fetched":"Columbus,US","state":"OH","country":"United States","canonicalUrl":"https://foursquare.com/v/india-oak-grill/4b0ddd4df964a520955123e3","categoryId":"4bf58dd8d48988d116941735","category":"Bar","checkinsCount":1247,"usersCount":503,"tipCount":12,"visitsCount":1463,"url":"http://indiaoakgrill.com","tier":"","message":"","currency":"","rating":7.8},{"name":"Oldfield's North Fourth Tavern","phone":"6142915598","twitter":"oldfieldsosu","address":"1571 N 4th St","lat":39.99553623235263,"lng":-82.99916663420042,"neighborhood":"University District","city_fetched":"Columbus,US","state":"OH","country":"United States","canonicalUrl":"https://foursquare.com/oldfieldsosu","categoryId":"4bf58dd8d48988d116941735","category":"Bar","checkinsCount":1548,"usersCount":686,"tipCount":13,"visitsCount":1933,"url":"http://oldfieldsosu.com","tier":1,"message":"Cheap","currency":"$","rating":7.8},{"name":"Winking Lizard Tavern","phone":"6144512647","address":"1380 Bethel Rd","lat":40.064157801458066,"lng":-83.0558408819264,"city_fetched":"Columbus,US","state":"OH","country":"United States","canonicalUrl":"https://foursquare.com/v/winking-lizard-tavern/4b2d3667f964a52032d124e3","categoryId":"4bf58dd8d48988d116941735","category":"Bar","checkinsCount":10346,"usersCount":3050,"tipCount":40,"visitsCount":11499,"url":"http://winkinglizard.com","tier":2,"message":"Moderate","currency":"$","rating":7.7},{"name":"The Barn","phone":"6145277800","address":"5451 Edwards Farms Rd","lat":40.062931683851914,"lng":-83.128502368927,"neighborhood":"Northwest Columbus","city_fetched":"Columbus,US","state":"OH","country":"United States","canonicalUrl":"https://foursquare.com/v/the-barn/4b17edebf964a520cdc923e3","categoryId":"4bf58dd8d48988d116941735","category":"Bar","checkinsCount":2137,"usersCount":929,"tipCount":6,"visitsCount":2461,"url":"http://thebarncolumbus.com","tier":2,"message":"Moderate","currency":"$","rating":7.7},{"name":"Club Diversity","phone":"6142244050","address":"863 S High St","lat":39.944385233333335,"lng":-82.997686,"neighborhood":"Brewery District","city_fetched":"Columbus,US","state":"OH","country":"United States","canonicalUrl":"https://foursquare.com/v/club-diversity/4b2831f7f964a5209f9024e3","categoryId":"4bf58dd8d48988d116941735","category":"Bar","checkinsCount":1486,"usersCount":521,"tipCount":17,"visitsCount":1611,"url":"http://www.clubdiversity.com","tier":1,"message":"Cheap","currency":"$","rating":7.7},{"name":"Brew-Stirs Clintonville Tavern","phone":"6142675515","address":"3028 N High St","lat":40.02418315038833,"lng":-83.0136951999577,"neighborhood":"Clintonville","city_fetched":"Columbus,US","state":"OH","country":"United States","canonicalUrl":"https://foursquare.com/v/brewstirs-clintonville-tavern/4b19e6d7f964a520f4e523e3","categoryId":"4bf58dd8d48988d116941735","category":"Bar","checkinsCount":1747,"usersCount":368,"tipCount":13,"visitsCount":1977,"tier":"","message":"","currency":"","rating":7.7},{"name":"Gallo's Tap Room","phone":"6144572394","address":"5019 Olentagy River Rd.","lat":40.06108814816462,"lng":-83.0398847074423,"city_fetched":"Columbus,US","state":"OH","country":"United States","canonicalUrl":"https://foursquare.com/v/gallos-tap-room/4b089de6f964a5208b0f23e3","categoryId":"4bf58dd8d48988d11d941735","category":"Sports Bar","checkinsCount":6156,"usersCount":1657,"tipCount":35,"visitsCount":6641,"url":"http://gallosfoodgroup.com","tier":2,"message":"Moderate","currency":"$","rating":7.7},{"name":"Mac's Cafe","phone":"6142216227","address":"693 N High St","lat":39.976743,"lng":-83.0037,"neighborhood":"Short North","city_fetched":"Columbus,US","state":"OH","country":"United States","canonicalUrl":"https://foursquare.com/v/macs-cafe/4b74fbc1f964a52020fa2de3","categoryId":"4bf58dd8d48988d11b941735","category":"Pub","checkinsCount":7512,"usersCount":2658,"tipCount":37,"visitsCount":7611,"url":"http://www.macscafe.com","tier":1,"message":"Cheap","currency":"$","rating":7.7},{"name":"Oddfellows Liquor Bar","phone":"6149239631","address":"1038 N High St","lat":39.98355853221421,"lng":-83.0047811573487,"neighborhood":"Short North","city_fetched":"Columbus,US","state":"OH","country":"United States","canonicalUrl":"https://foursquare.com/v/oddfellows-liquor-bar/53d97821498e00d3a5adf097","categoryId":"4bf58dd8d48988d118941735","category":"Dive Bar","checkinsCount":1084,"usersCount":589,"tipCount":5,"visitsCount":1327,"url":"http://oddfellowsliquorbar.com","tier":"","message":"","currency":"","rating":7.7},{"name":"Savor Growl","phone":"6142616112","address":"2991 Indianola Ave","lat":40.024530808150665,"lng":-83.00189524710608,"neighborhood":"Clintonville","city_fetched":"Columbus,US","state":"OH","country":"United States","canonicalUrl":"https://foursquare.com/v/savor-growl/51684be9498ee6354b3e8ebe","categoryId":"4bf58dd8d48988d116941735","category":"Bar","checkinsCount":810,"usersCount":387,"tipCount":10,"visitsCount":1036,"url":"http://savorgrowl.com","tier":"","message":"","currency":"","rating":7.7},{"name":"Beck Tavern","phone":"6142281841","address":"284 E Beck St","lat":39.95057911,"lng":-82.990639,"neighborhood":"German Village","city_fetched":"Columbus,US","state":"OH","country":"United States","canonicalUrl":"https://foursquare.com/v/beck-tavern/4b070b04f964a5201af622e3","categoryId":"4bf58dd8d48988d118941735","category":"Dive Bar","checkinsCount":1062,"usersCount":619,"tipCount":7,"visitsCount":1326,"tier":1,"message":"Cheap","currency":"$","rating":7.6},{"name":"Nyoh's Buckeye Bar & Grill","phone":"6142462810","twitter":"nyohs","address":"2871 Olentangy River Rd","lat":40.01936974477833,"lng":-83.02613854408264,"city_fetched":"Columbus,US","state":"OH","country":"United States","canonicalUrl":"https://foursquare.com/v/nyohs-buckeye-bar--grill/4b47ff18f964a5200c4626e3","categoryId":"4bf58dd8d48988d116941735","category":"Bar","checkinsCount":2270,"usersCount":854,"tipCount":22,"visitsCount":2325,"tier":"","message":"","currency":"","rating":7.6},{"name":"Hey Hey Bar & Grill","phone":"6144459512","twitter":"nestewart1","address":"361 E Whittier St","lat":39.94433233348134,"lng":-82.98730110548071,"neighborhood":"Merion Village","city_fetched":"Columbus,US","state":"OH","country":"United States","canonicalUrl":"https://foursquare.com/v/hey-hey-bar--grill/4b070f05f964a52073f622e3","categoryId":"4bf58dd8d48988d116941735","category":"Bar","checkinsCount":1376,"usersCount":696,"tipCount":14,"visitsCount":1769,"url":"http://www.heyheycolumbus.com","tier":"","message":"","currency":"","rating":7.6},{"name":"AWOL","phone":"6146218779","address":"49 Parsons Ave","lat":39.96328599360118,"lng":-82.98190891742706,"neighborhood":"Olde Town East","city_fetched":"Columbus,US","state":"OH","country":"United States","canonicalUrl":"https://foursquare.com/v/awol/4b088aacf964a520080e23e3","categoryId":"4bf58dd8d48988d116941735","category":"Bar","checkinsCount":3393,"usersCount":886,"tipCount":19,"visitsCount":3916,"url":"http://awolbar.com","tier":1,"message":"Cheap","currency":"$","rating":7.6},{"name":"R Bar Arena","phone":"6142214950","twitter":"rbar_ad","address":"413 N Front St","lat":39.97047700876297,"lng":-83.00462001701955,"neighborhood":"Downtown Columbus","city_fetched":"Columbus,US","state":"OH","country":"United States","canonicalUrl":"https://foursquare.com/v/r-bar-arena/4b08a523f964a520291023e3","categoryId":"4bf58dd8d48988d116941735","category":"Bar","checkinsCount":8588,"usersCount":3263,"tipCount":45,"visitsCount":9426,"url":"http://www.rbararena.com","tier":1,"message":"Cheap","currency":"$","rating":7.6},{"name":"The eXile Bar","phone":"6142990069","address":"893 N 4th St","lat":39.98130108611941,"lng":-82.99872584769774,"neighborhood":"Italian Village","city_fetched":"Columbus,US","state":"OH","country":"United States","canonicalUrl":"https://foursquare.com/v/the-exile-bar/4b3eac6af964a520a1a025e3","categoryId":"4bf58dd8d48988d1d8941735","category":"Gay Bar","checkinsCount":5992,"usersCount":1327,"tipCount":16,"visitsCount":6913,"url":"http://exilebar.com","tier":1,"message":"Cheap","currency":"$","rating":7.6},{"name":"M.I.Hookah Cafe","phone":"6145172779","address":"132 E 5th Ave","lat":39.98692558058555,"lng":-83.00190049433003,"neighborhood":"Italian Village","city_fetched":"Columbus,US","state":"OH","country":"United States","canonicalUrl":"https://foursquare.com/v/mihookah-cafe/51b3bd3b498e525ed62150d5","categoryId":"4bf58dd8d48988d119941735","category":"Hookah Bar","checkinsCount":96,"usersCount":57,"tipCount":3,"visitsCount":117,"tier":"","message":"","currency":"","rating":7.6},{"name":"Ethyl and Tank","phone":"6149470140","twitter":"ethyltank","address":"19 E 13th St","lat":39.997642036965416,"lng":-83.00695002079009,"neighborhood":"University","city_fetched":"Columbus,US","state":"OH","country":"United States","canonicalUrl":"https://foursquare.com/v/ethyl-and-tank/52e8577f498e78ac004d9543","categoryId":"4bf58dd8d48988d116941735","category":"Bar","checkinsCount":1272,"usersCount":837,"tipCount":13,"visitsCount":1744,"url":"http://www.ethylandtank.com","tier":1,"message":"Cheap","currency":"$","rating":7.6},{"name":"Little Rock Bar","phone":"6148245602","address":"944 N 4th St","lat":39.98232979075859,"lng":-82.99854743327741,"neighborhood":"Italian Village","city_fetched":"Columbus,US","state":"OH","country":"United States","canonicalUrl":"https://foursquare.com/v/little-rock-bar/51cb73cd498efbcc84a7fe53","categoryId":"4bf58dd8d48988d116941735","category":"Bar","checkinsCount":1426,"usersCount":588,"tipCount":13,"visitsCount":1871,"url":"http://www.littlerockbar.net","tier":2,"message":"Moderate","currency":"$","rating":7.6},{"name":"Winking Lizard Tavern","phone":"6147859755","twitter":"winkinglizard","address":"100 Hutchinson Ave","lat":40.11402499488154,"lng":-83.01261445608833,"neighborhood":"Crosswoods","city_fetched":"Columbus,US","state":"OH","country":"United States","canonicalUrl":"https://foursquare.com/v/winking-lizard-tavern/4b08a560f964a5202c1023e3","categoryId":"4bf58dd8d48988d11b941735","category":"Pub","checkinsCount":10421,"usersCount":4122,"tipCount":68,"visitsCount":11865,"url":"http://winkinglizard.com","tier":1,"message":"Cheap","currency":"$","rating":7.6},{"name":"Shisha Lounge","phone":"6142992434","address":"2369 N High St","lat":40.01065145098619,"lng":-83.01029027218851,"neighborhood":"Old North Columbus","city_fetched":"Columbus,US","state":"OH","country":"United States","canonicalUrl":"https://foursquare.com/v/shisha-lounge/4b4d2bb4f964a5203bcd26e3","categoryId":"4bf58dd8d48988d119941735","category":"Hookah Bar","checkinsCount":2438,"usersCount":689,"tipCount":14,"visitsCount":2471,"tier":"","message":"","currency":"","rating":7.5},{"name":"The Pub in Gahanna","phone":"6144714510","address":"207 W Johnstown Rd","lat":40.01732534806252,"lng":-82.88548310600017,"neighborhood":"East Columbus","city_fetched":"Columbus,US","state":"OH","country":"United States","canonicalUrl":"https://foursquare.com/v/the-pub-in-gahanna/4f32886c19836c91c7e1139c","categoryId":"4bf58dd8d48988d11b941735","category":"Pub","checkinsCount":1036,"usersCount":374,"tipCount":7,"visitsCount":1278,"url":"http://gahannapub.com","tier":"","message":"","currency":"","rating":7.5},{"name":"Suzi-Cue Pool Hall","phone":"6142997665","address":"1950 N 4th St","lat":40.002935433333334,"lng":-82.99823159,"neighborhood":"University District","city_fetched":"Columbus,US","state":"OH","country":"United States","canonicalUrl":"https://foursquare.com/v/suzicue-pool-hall/4b4d01adf964a52082c726e3","categoryId":"4bf58dd8d48988d11d941735","category":"Sports Bar","checkinsCount":4206,"usersCount":621,"tipCount":17,"visitsCount":4326,"url":"http://suzi-cue.com","tier":"","message":"","currency":"","rating":7.5},{"name":"Mugsy's Pub and Patio","phone":"6148530107","address":"1040 Hilliard Rome Rd","lat":39.97213194862694,"lng":-83.14934478997866,"city_fetched":"Columbus,US","state":"OH","country":"United States","canonicalUrl":"https://foursquare.com/v/mugsys-pub-and-patio/4b436556f964a52085df25e3","categoryId":"4bf58dd8d48988d118941735","category":"Dive Bar","checkinsCount":1002,"usersCount":334,"tipCount":10,"visitsCount":1075,"url":"http://www.mugsyspubandpatio.com","tier":"","message":"","currency":"","rating":7.5},{"name":"Westies Gastropub","address":"940 S Front St","lat":39.94285733204926,"lng":-82.99833753334262,"neighborhood":"Brewery District","city_fetched":"Columbus,US","state":"OH","country":"United States","canonicalUrl":"https://foursquare.com/v/westies-gastropub/52db1cf711d20cf49f86804f","categoryId":"4bf58dd8d48988d11d941735","category":"Sports Bar","checkinsCount":1002,"usersCount":778,"tipCount":20,"visitsCount":1572,"url":"http://westiesgastropub.com","tier":2,"message":"Moderate","currency":"$","rating":7.5},{"name":"Jillys","address":"6842 E Main St","lat":39.955413,"lng":-82.81424403190613,"neighborhood":"East Columbus","city_fetched":"Columbus,US","state":"OH","country":"United States","canonicalUrl":"https://foursquare.com/v/jillys/4c85332174d7b60c2c6599d8","categoryId":"4bf58dd8d48988d116941735","category":"Bar","checkinsCount":498,"usersCount":93,"tipCount":3,"visitsCount":546,"tier":"","message":"","currency":"","rating":7.5},{"name":"Johnnie's Tavern","phone":"6144880110","address":"3503 Trabue Rd","lat":39.99325451310612,"lng":-83.09026743217356,"neighborhood":"Northwest Columbus","city_fetched":"Columbus,US","state":"OH","country":"United States","canonicalUrl":"https://foursquare.com/v/johnnies-tavern/4b622efdf964a520bc3a2ae3","categoryId":"4bf58dd8d48988d116941735","category":"Bar","checkinsCount":489,"usersCount":348,"tipCount":16,"visitsCount":673,"tier":1,"message":"Cheap","currency":"$","rating":7.5},{"name":"Skully's Music Diner","phone":"6142918856","twitter":"skullyscolumbus","address":"1151 N High St","lat":39.98591865298398,"lng":-83.00534258341727,"neighborhood":"Short North","city_fetched":"Columbus,US","state":"OH","country":"United States","canonicalUrl":"https://foursquare.com/v/skullys-music-diner/4b50eb6cf964a520b93827e3","categoryId":"4bf58dd8d48988d11f941735","category":"Nightclub","checkinsCount":9512,"usersCount":3315,"tipCount":49,"visitsCount":9794,"url":"http://skullys.org","tier":2,"message":"Moderate","currency":"$","rating":7.5},{"name":"Village Idiot","phone":"6142302544","address":"1439 N High St","lat":39.991697063352774,"lng":-83.00651788982641,"neighborhood":"South Campus","city_fetched":"Columbus,US","state":"OH","country":"United States","canonicalUrl":"https://foursquare.com/v/village-idiot/4c11792bd917c928d8d1b562","categoryId":"4bf58dd8d48988d116941735","category":"Bar","checkinsCount":1944,"usersCount":945,"tipCount":17,"visitsCount":2282,"url":"http://villageidiotmaumee.com","tier":1,"message":"Cheap","currency":"$","rating":7.5},{"name":"Filling Station Bar & Grill","phone":"6147619766","address":"8765 Smoky Row Rd","lat":40.13549796821559,"lng":-83.07188753544601,"city_fetched":"Columbus,US","state":"OH","country":"United States","canonicalUrl":"https://foursquare.com/v/filling-station-bar--grill/4b3061f9f964a52044f924e3","categoryId":"4bf58dd8d48988d11d941735","category":"Sports Bar","checkinsCount":2913,"usersCount":550,"tipCount":8,"visitsCount":3147,"url":"http://www.yourfillingstation.com","tier":2,"message":"Moderate","currency":"$","rating":7.5},{"name":"Harrison's on Third","phone":"6142942510","twitter":"harrisononthird","address":"335 W 3rd Ave","lat":39.98366489103107,"lng":-83.01396800629223,"neighborhood":"Victorian Village","city_fetched":"Columbus,US","state":"OH","country":"United States","canonicalUrl":"https://foursquare.com/v/harrisons-on-third/4b4e792cf964a52005ef26e3","categoryId":"4bf58dd8d48988d116941735","category":"Bar","checkinsCount":6124,"usersCount":1992,"tipCount":29,"visitsCount":6851,"url":"http://harrisonsonthird.com","tier":1,"message":"Cheap","currency":"$","rating":7.5},{"name":"Harrison's On Kenny","lat":40.05099280060832,"lng":-83.0493393258952,"city_fetched":"Columbus,US","state":"OH","country":"United States","canonicalUrl":"https://foursquare.com/v/harrisons-on-kenny/53962fdc498e6a4f58a4d209","categoryId":"4bf58dd8d48988d116941735","category":"Bar","checkinsCount":325,"usersCount":193,"tipCount":2,"visitsCount":535,"tier":"","message":"","currency":"","rating":7.5},{"name":"The Goat","phone":"6149395065","twitter":"lcgoat","address":"5940 New Albany Rd W","lat":40.104608,"lng":-82.82585178,"neighborhood":"Central College","city_fetched":"Columbus,US","state":"OH","country":"United States","canonicalUrl":"https://foursquare.com/v/the-goat/4c83025ddc018cfab662d56c","categoryId":"4bf58dd8d48988d116941735","category":"Bar","checkinsCount":2187,"usersCount":860,"tipCount":15,"visitsCount":2547,"url":"http://lcgoat.com/newalbany/","tier":2,"message":"Moderate","currency":"$","rating":7.4},{"name":"Murphy McFlips","phone":"6144330083","twitter":"murphymcflips","address":"1037 Polaris Pkwy","lat":40.14563326792998,"lng":-82.99310031415503,"neighborhood":"Polaris","city_fetched":"Columbus,US","state":"OH","country":"United States","canonicalUrl":"https://foursquare.com/v/murphy-mcflips/4b3197f6f964a5207d0925e3","categoryId":"4bf58dd8d48988d11b941735","category":"Pub","checkinsCount":2237,"usersCount":590,"tipCount":10,"visitsCount":2261,"url":"http://murphymcflips.com","tier":1,"message":"Cheap","currency":"$","rating":7.4},{"name":"Middle West Spirits","phone":"6142992460","address":"1230 Courtland Ave","lat":39.987568,"lng":-83.00468182,"neighborhood":"University District","city_fetched":"Columbus,US","state":"OH","country":"United States","canonicalUrl":"https://foursquare.com/v/middle-west-spirits/4c1ba9373855c9b6265fcc71","categoryId":"50327c8591d4c4b30a586d5d","category":"Brewery","checkinsCount":443,"usersCount":328,"tipCount":7,"visitsCount":443,"url":"http://www.middlewestspirits.com","tier":"","message":"","currency":"","rating":7.4},{"name":"Montecristo Lounge","address":"1088 N High St","lat":39.98457,"lng":-83.004562,"neighborhood":"Short North","city_fetched":"Columbus,US","state":"OH","country":"United States","canonicalUrl":"https://foursquare.com/v/montecristo-lounge/4dcf1b707d8b975f18e0c4f9","categoryId":"4bf58dd8d48988d119941735","category":"Hookah Bar","checkinsCount":871,"usersCount":313,"tipCount":5,"visitsCount":924,"tier":"","message":"","currency":"","rating":7.4},{"name":"Galloway Tavern","address":"1954 Main St","lat":39.91386461229796,"lng":-83.16284038844711,"city_fetched":"Columbus,US","state":"OH","country":"United States","canonicalUrl":"https://foursquare.com/v/galloway-tavern/4bd9930d0115c9b6a4bf7780","categoryId":"4bf58dd8d48988d118941735","category":"Dive Bar","checkinsCount":340,"usersCount":202,"tipCount":4,"visitsCount":441,"tier":"","message":"","currency":"","rating":7.4},{"name":"Adobe Gilas","phone":"6144187134","address":"3978 Easton Sta","lat":40.050216982719014,"lng":-82.91540651844909,"neighborhood":"Easton","city_fetched":"Columbus,US","state":"OH","country":"United States","canonicalUrl":"https://foursquare.com/v/adobe-gilas/4b4a8cc0f964a520688a26e3","categoryId":"4bf58dd8d48988d116941735","category":"Bar","checkinsCount":6664,"usersCount":3195,"tipCount":40,"visitsCount":6763,"url":"http://adobegilas.com","tier":2,"message":"Moderate","currency":"$","rating":7.4},{"name":"Front Street Bar & Grill","address":"460 S Front St","lat":39.9521614811599,"lng":-83.00003770364208,"neighborhood":"Brewery District","city_fetched":"Columbus,US","state":"OH","country":"United States","canonicalUrl":"https://foursquare.com/v/front-street-bar--grill/530b7eaf498ec46ceeaab7cb","categoryId":"4bf58dd8d48988d11b941735","category":"Pub","checkinsCount":135,"usersCount":83,"tipCount":2,"visitsCount":142,"tier":"","message":"","currency":"","rating":7.3},{"name":"Pastimes Pub &  Grill","phone":"6148960289","twitter":"pastimes_pub","address":"6481 N Hamilton Rd","lat":40.091882745769624,"lng":-82.8509604463726,"neighborhood":"West Albany","city_fetched":"Columbus,US","state":"OH","country":"United States","canonicalUrl":"https://foursquare.com/v/pastimes-pub---grill/522a479011d26dea8217d55d","categoryId":"4bf58dd8d48988d116941735","category":"Bar","checkinsCount":1053,"usersCount":343,"tipCount":10,"visitsCount":1441,"url":"http://www.pastimespubandgrill.com","tier":2,"message":"Moderate","currency":"$","rating":7.3},{"name":"Bar 145","address":"955 W 5th Ave","lat":39.987363866624655,"lng":-83.03157736653256,"city_fetched":"Columbus,US","state":"OH","country":"United States","canonicalUrl":"https://foursquare.com/v/bar-145/52a0f429498ef6432536ee71","categoryId":"4bf58dd8d48988d122941735","category":"Whisky Bar","checkinsCount":1556,"usersCount":1134,"tipCount":31,"visitsCount":2176,"tier":2,"message":"Moderate","currency":"$","rating":7.3},{"name":"O'Nelly's","lat":40.151906882387884,"lng":-82.99647988986092,"neighborhood":"Polaris North","city_fetched":"Columbus,US","state":"OH","country":"United States","canonicalUrl":"https://foursquare.com/v/onellys/519ffc39498ed4463d74e607","categoryId":"4bf58dd8d48988d11d941735","category":"Sports Bar","checkinsCount":452,"usersCount":149,"tipCount":6,"visitsCount":540,"tier":"","message":"","currency":"","rating":7.3},{"name":"Plank's Bier Garten","phone":"6144434570","address":"888 S High St","lat":39.944117835482174,"lng":-82.99683148175764,"neighborhood":"Brewery District","city_fetched":"Columbus,US","state":"OH","country":"United States","canonicalUrl":"https://foursquare.com/v/planks-bier-garten/4b070c17f964a52030f622e3","categoryId":"4bf58dd8d48988d116941735","category":"Bar","checkinsCount":2561,"usersCount":1684,"tipCount":20,"visitsCount":2945,"url":"http://www.planksbiergarten.com","tier":2,"message":"Moderate","currency":"$","rating":7.3},{"name":"Point Tavern","phone":"6144870006","address":"1991 Riverside Dr","lat":39.995315627482526,"lng":-83.07211292605677,"neighborhood":"Northwest Columbus","city_fetched":"Columbus,US","state":"OH","country":"United States","canonicalUrl":"https://foursquare.com/v/point-tavern/4b0e194cf964a520f65423e3","categoryId":"4bf58dd8d48988d118941735","category":"Dive Bar","checkinsCount":962,"usersCount":392,"tipCount":3,"visitsCount":1070,"tier":"","message":"","currency":"","rating":7.3},{"name":"Gordon Biersch Brewery Restaurant","phone":"6142462900","twitter":"gb_columbus","address":"401 N Front St","lat":39.969952020006204,"lng":-83.00471294637971,"neighborhood":"Arena District","city_fetched":"Columbus,US","state":"OH","country":"United States","canonicalUrl":"https://foursquare.com/v/gordon-biersch-brewery-restaurant/4b058648f964a520b05a22e3","categoryId":"50327c8591d4c4b30a586d5d","category":"Brewery","checkinsCount":5952,"usersCount":3758,"tipCount":38,"visitsCount":6053,"url":"http://gordonbiersch.com","tier":2,"message":"Moderate","currency":"$","rating":7.3},{"name":"Pastimes Pub & Grill","phone":"6144681519","twitter":"pastimes_pub","address":"1333 Worthington Centre Dr","lat":40.123618501921285,"lng":-82.98112347054874,"neighborhood":"Worthington Woods","city_fetched":"Columbus,US","state":"OH","country":"United States","canonicalUrl":"https://foursquare.com/v/pastimes-pub--grill/4ce769d78ef78cfab37c939b","categoryId":"4bf58dd8d48988d116941735","category":"Bar","checkinsCount":2183,"usersCount":588,"tipCount":13,"visitsCount":2344,"url":"http://www.pastimespubandgrill.com","tier":2,"message":"Moderate","currency":"$","rating":7.3},{"name":"Cork Wine and Dine","phone":"6144762675","address":"4782 Morse Rd","lat":40.055656,"lng":-82.865037,"city_fetched":"Columbus,US","state":"OH","country":"United States","canonicalUrl":"https://foursquare.com/v/cork-wine-and-dine/52758689498e3d838b3d6404","categoryId":"4bf58dd8d48988d123941735","category":"Wine Bar","checkinsCount":171,"usersCount":89,"tipCount":7,"visitsCount":175,"url":"http://corkwinedine.com","tier":2,"message":"Moderate","currency":"$","rating":7.3},{"name":"Slammers","phone":"6142218880","address":"202 E Long St","lat":39.965787770680656,"lng":-82.99565075529546,"neighborhood":"Downtown Columbus","city_fetched":"Columbus,US","state":"OH","country":"United States","canonicalUrl":"https://foursquare.com/v/slammers/4b4fafe7f964a520ed1027e3","categoryId":"4bf58dd8d48988d1d8941735","category":"Gay Bar","checkinsCount":1065,"usersCount":502,"tipCount":7,"visitsCount":1138,"tier":"","message":"","currency":"","rating":7.3},{"name":"Triple Shotz","lat":39.926676542452036,"lng":-82.830878002731,"neighborhood":"South Columbus","city_fetched":"Columbus,US","state":"OH","country":"United States","canonicalUrl":"https://foursquare.com/v/triple-shotz/54a71afd498e9c8f4ca362b3","categoryId":"4bf58dd8d48988d116941735","category":"Bar","checkinsCount":103,"usersCount":86,"tipCount":2,"visitsCount":219,"tier":"","message":"","currency":"","rating":7.3},{"name":"Heineken Star Lounge","phone":"6144472739","address":"1 Black and Gold Blvd","lat":40.00843881428337,"lng":-82.99106408886537,"neighborhood":"Fairgrounds","city_fetched":"Columbus,US","state":"OH","country":"United States","canonicalUrl":"https://foursquare.com/v/heineken-star-lounge/4c9007c87f3d76b0573fd1d2","categoryId":"4bf58dd8d48988d121941735","category":"Lounge","checkinsCount":283,"usersCount":114,"tipCount":1,"visitsCount":287,"tier":"","message":"","currency":"","rating":7.3},{"name":"Victory's","address":"S High St, Columbus, OH","lat":39.95089781713266,"lng":-82.99868386787747,"neighborhood":"Brewery District","city_fetched":"Columbus,US","state":"OH","country":"United States","canonicalUrl":"https://foursquare.com/v/victorys/4ee298359adf48bc1a3764a8","categoryId":"4bf58dd8d48988d116941735","category":"Bar","checkinsCount":644,"usersCount":437,"tipCount":6,"visitsCount":667,"tier":"","message":"","currency":"","rating":7.2},{"name":"Tilted Kilt Pub & Eatery","phone":"6148885458","twitter":"tiltedkiltpub","address":"8665 Sancus Blvd","lat":40.13954817725793,"lng":-82.99203157424927,"neighborhood":"Polaris","city_fetched":"Columbus,US","state":"OH","country":"United States","canonicalUrl":"https://foursquare.com/v/tilted-kilt-pub--eatery/4cd216dff6378cfab9d6bfd6","categoryId":"4bf58dd8d48988d11b941735","category":"Pub","checkinsCount":5961,"usersCount":2878,"tipCount":38,"visitsCount":6404,"url":"http://www.tiltedkilt.com","tier":2,"message":"Moderate","currency":"$","rating":7.2},{"name":"Miller's Columbus Ale House","phone":"6142992587","address":"1201 Olentangy River Rd","lat":39.98482934289777,"lng":-83.0232952058118,"city_fetched":"Columbus,US","state":"OH","country":"United States","canonicalUrl":"https://foursquare.com/v/millers-columbus-ale-house/528fe6c811d22f9fc94c000f","categoryId":"4bf58dd8d48988d11d941735","category":"Sports Bar","checkinsCount":2118,"usersCount":1745,"tipCount":25,"visitsCount":3317,"url":"http://www.millersalehouse.com","tier":2,"message":"Moderate","currency":"$","rating":7.2},{"name":"Tommy O'Bryan's Pub","phone":"6148468090","address":"8270 Sancus Blvd","lat":40.13501090341561,"lng":-82.99149967841376,"city_fetched":"Columbus,US","state":"OH","country":"United States","canonicalUrl":"https://foursquare.com/v/tommy-obryans-pub/50f6dac8e4b0ce1a45ccb7c3","categoryId":"4bf58dd8d48988d11b941735","category":"Pub","checkinsCount":311,"usersCount":122,"tipCount":11,"visitsCount":333,"tier":"","message":"","currency":"","rating":7.2},{"name":"Robey's Pub","address":"Aida","lat":39.95580555661731,"lng":-82.80864248744402,"neighborhood":"East Columbus","city_fetched":"Columbus,US","state":"OH","country":"United States","canonicalUrl":"https://foursquare.com/v/robeys-pub/4cbba30a7148f04d6b9ce3ab","categoryId":"4bf58dd8d48988d11b941735","category":"Pub","checkinsCount":120,"usersCount":57,"tipCount":1,"visitsCount":120,"url":"http://robeyspub.com","tier":"","message":"","currency":"","rating":7.2},{"name":"The Three-Legged Mare","phone":"6142224950","twitter":"3leggedmare_ad","address":"401 N Front St","lat":39.96956986453215,"lng":-83.00465522935093,"neighborhood":"Arena District","city_fetched":"Columbus,US","state":"OH","country":"United States","canonicalUrl":"https://foursquare.com/v/the-threelegged-mare/4ee687604690f8894278af9d","categoryId":"4bf58dd8d48988d116941735","category":"Bar","checkinsCount":3854,"usersCount":2020,"tipCount":34,"visitsCount":3955,"url":"http://www.threeleggedmare.com","tier":2,"message":"Moderate","currency":"$","rating":7.2},{"name":"King Avenue Five","phone":"6142978060","address":"945 King Ave","lat":39.990941586900426,"lng":-83.03207562673649,"city_fetched":"Columbus,US","state":"OH","country":"United States","canonicalUrl":"https://foursquare.com/v/king-avenue-five/4b107fc4f964a520c57123e3","categoryId":"4bf58dd8d48988d11d941735","category":"Sports Bar","checkinsCount":4792,"usersCount":2060,"tipCount":18,"visitsCount":5444,"url":"http://www.kingavenuefive.com","tier":2,"message":"Moderate","currency":"$","rating":7.2},{"name":"Jimmy V's Grill & Pub","phone":"6144459090","address":"912 S High St","lat":39.943648,"lng":-82.99684,"neighborhood":"Brewery District","city_fetched":"Columbus,US","state":"OH","country":"United States","canonicalUrl":"https://foursquare.com/v/jimmy-vs-grill--pub/4ba0ebbbf964a520358737e3","categoryId":"4bf58dd8d48988d116941735","category":"Bar","checkinsCount":1477,"usersCount":772,"tipCount":28,"visitsCount":1571,"tier":2,"message":"Moderate","currency":"$","rating":7.2},{"name":"Grumpy Troll","phone":"6144428311","address":"5213 Bethel Center Mall","lat":40.063818486121356,"lng":-83.05930137634277,"city_fetched":"Columbus,US","state":"OH","country":"United States","canonicalUrl":"https://foursquare.com/v/grumpy-troll/4b58ed05f964a520717328e3","categoryId":"4bf58dd8d48988d116941735","category":"Bar","checkinsCount":1561,"usersCount":412,"tipCount":11,"visitsCount":1592,"tier":"","message":"","currency":"","rating":7.2},{"name":"Harry Buffalo","lat":40.08453941870487,"lng":-82.89483364480893,"neighborhood":"Little Turtle","city_fetched":"Columbus,US","state":"OH","country":"United States","canonicalUrl":"https://foursquare.com/v/harry-buffalo/54ca4a80498eca7d109d918b","categoryId":"4bf58dd8d48988d116941735","category":"Bar","checkinsCount":338,"usersCount":278,"tipCount":7,"visitsCount":568,"tier":"","message":"","currency":"","rating":7.2},{"name":"Johnny's Glenn Avenue Grill","address":"1491 Glenn Ave","lat":39.98709695909357,"lng":-83.05432041429867,"city_fetched":"Columbus,US","state":"OH","country":"United States","canonicalUrl":"https://foursquare.com/v/johnnys-glenn-avenue-grill/4e454cfaae60fa7232e37a31","categoryId":"4bf58dd8d48988d116941735","category":"Bar","checkinsCount":1305,"usersCount":525,"tipCount":15,"visitsCount":1524,"tier":1,"message":"Cheap","currency":"$","rating":7.2},{"name":"Tremont Lounge","address":"708 S High St","lat":39.947722033080005,"lng":-82.99765535395012,"neighborhood":"Brewery District","city_fetched":"Columbus,US","state":"OH","country":"United States","canonicalUrl":"https://foursquare.com/v/tremont-lounge/4c47859f417b20a141f4dda9","categoryId":"4bf58dd8d48988d116941735","category":"Bar","checkinsCount":953,"usersCount":338,"tipCount":7,"visitsCount":1105,"url":"http://www.tremontlounge.com","tier":1,"message":"Cheap","currency":"$","rating":7.2},{"name":"Novak's Tavern & Patio","phone":"6142248821","twitter":"novakstavern","address":"475 N High St","lat":39.97208206995216,"lng":-83.00308110912067,"neighborhood":"Short North","city_fetched":"Columbus,US","state":"OH","country":"United States","canonicalUrl":"https://foursquare.com/v/novaks-tavern--patio/529fc84311d25cdb76613567","categoryId":"4bf58dd8d48988d116941735","category":"Bar","checkinsCount":3295,"usersCount":1502,"tipCount":22,"visitsCount":3340,"url":"http://novakstavern.com","tier":2,"message":"Moderate","currency":"$","rating":7.2},{"name":"Prime Ultra Lounge","lat":39.951876795475265,"lng":-82.90551236365332,"neighborhood":"Eastmoor","city_fetched":"Columbus,US","state":"OH","country":"United States","canonicalUrl":"https://foursquare.com/v/prime-ultra-lounge/4e8f87fbf79014e2ce281779","categoryId":"4bf58dd8d48988d121941735","category":"Lounge","checkinsCount":470,"usersCount":163,"tipCount":8,"visitsCount":700,"tier":"","message":"","currency":"","rating":7.1},{"name":"Three Sheets","lat":39.95061193409968,"lng":-82.99824307815446,"neighborhood":"Brewery District","city_fetched":"Columbus,US","state":"OH","country":"United States","canonicalUrl":"https://foursquare.com/v/three-sheets/53e58676498e6a14dc1349de","categoryId":"4bf58dd8d48988d117941735","category":"Beer Garden","checkinsCount":208,"usersCount":108,"tipCount":2,"visitsCount":219,"tier":"","message":"","currency":"","rating":7.1},{"name":"Eldorado's Food & Spirits","phone":"6147850030","address":"4968 N High St","lat":40.06345219122273,"lng":-83.01897799899497,"neighborhood":"Clintonville","city_fetched":"Columbus,US","state":"OH","country":"United States","canonicalUrl":"https://foursquare.com/v/eldorados-food--spirits/4bf60a4c94b2a59335e8acee","categoryId":"4bf58dd8d48988d120941735","category":"Karaoke Bar","checkinsCount":467,"usersCount":196,"tipCount":4,"visitsCount":488,"tier":"","message":"","currency":"","rating":7.1},{"name":"Sahara Shisha","phone":"6142626666","address":"20 E Arcadia Ave","lat":40.01790565688448,"lng":-83.01155468035196,"neighborhood":"Old North Columbus","city_fetched":"Columbus,US","state":"OH","country":"United States","canonicalUrl":"https://foursquare.com/v/sahara-shisha/4ba04470f964a5201d6537e3","categoryId":"4bf58dd8d48988d119941735","category":"Hookah Bar","checkinsCount":678,"usersCount":362,"tipCount":14,"visitsCount":704,"url":"http://www.saharashishacafe.com","tier":"","message":"","currency":"","rating":7.1},{"name":"Ringside Cafe","phone":"6142287464","address":"19 N Pearl St","lat":39.962761,"lng":-82.99985826015472,"neighborhood":"Uptown District","city_fetched":"Columbus,US","state":"OH","country":"United States","canonicalUrl":"https://foursquare.com/v/ringside-cafe/4b06d1c3f964a520cff022e3","categoryId":"4bf58dd8d48988d116941735","category":"Bar","checkinsCount":1058,"usersCount":637,"tipCount":27,"visitsCount":1067,"tier":"","message":"","currency":"","rating":7.1},{"name":"The Library Bar","phone":"6142993245","address":"2169 N High St","lat":40.00656614445695,"lng":-83.00938261156207,"neighborhood":"North Campus","city_fetched":"Columbus,US","state":"OH","country":"United States","canonicalUrl":"https://foursquare.com/v/the-library-bar/4b36e432f964a520de3d25e3","categoryId":"4bf58dd8d48988d116941735","category":"Bar","checkinsCount":3772,"usersCount":1235,"tipCount":17,"visitsCount":3864,"url":"http://librarybar.com","tier":1,"message":"Cheap","currency":"$","rating":7.1},{"name":"Rick's Coaches","phone":"6144764496","address":"230 Granville St","lat":40.018941997045786,"lng":-82.87342375944861,"neighborhood":"East Columbus","city_fetched":"Columbus,US","state":"OH","country":"United States","canonicalUrl":"https://foursquare.com/v/ricks-coaches/4c102d1481e976b035c80eeb","categoryId":"4bf58dd8d48988d11d941735","category":"Sports Bar","checkinsCount":1317,"usersCount":701,"tipCount":14,"visitsCount":1451,"url":"http://www.coachesgahanna.com","tier":"","message":"","currency":"","rating":7.1},{"name":"The Main Bar","phone":"6142283129","address":"16 W Main St","lat":39.9562401949704,"lng":-83.00011641417049,"neighborhood":"Downtown Columbus","city_fetched":"Columbus,US","state":"OH","country":"United States","canonicalUrl":"https://foursquare.com/v/the-main-bar/4b173471f964a520bec323e3","categoryId":"4bf58dd8d48988d116941735","category":"Bar","checkinsCount":787,"usersCount":325,"tipCount":7,"visitsCount":813,"tier":"","message":"","currency":"","rating":7.1},{"name":"Hampton's on King","phone":"6142992099","address":"234 King Ave","lat":39.99051880608691,"lng":-83.01263544157466,"neighborhood":"South Campus","city_fetched":"Columbus,US","state":"OH","country":"United States","canonicalUrl":"https://foursquare.com/v/hamptons-on-king/4b1b382df964a520c2f923e3","categoryId":"4bf58dd8d48988d116941735","category":"Bar","checkinsCount":5578,"usersCount":1689,"tipCount":28,"visitsCount":6149,"url":"http://bhamptonsonking.com","tier":2,"message":"Moderate","currency":"$","rating":7.1},{"name":"Too's Spirits Under High","phone":"6142992962","address":"1880 N High St","lat":40.00065519290837,"lng":-83.00813914871225,"neighborhood":"University","city_fetched":"Columbus,US","state":"OH","country":"United States","canonicalUrl":"https://foursquare.com/v/toos-spirits-under-high/4b4692e6f964a520b62426e3","categoryId":"4bf58dd8d48988d118941735","category":"Dive Bar","checkinsCount":3201,"usersCount":1050,"tipCount":30,"visitsCount":3248,"tier":"","message":"","currency":"","rating":7},{"name":"The Old Bag of Nails","phone":"6143379430","address":"63 Mill St","lat":40.01925851477555,"lng":-82.879911054452,"neighborhood":"East Columbus","city_fetched":"Columbus,US","state":"OH","country":"United States","canonicalUrl":"https://foursquare.com/v/the-old-bag-of-nails/4b648f1df964a520a1bd2ae3","categoryId":"4bf58dd8d48988d11b941735","category":"Pub","checkinsCount":1845,"usersCount":1236,"tipCount":16,"visitsCount":1897,"url":"http://oldbagofnails.com","tier":2,"message":"Moderate","currency":"$","rating":7},{"name":"Midnight Hookah","phone":"6142990000","twitter":"superpages","address":"1167 Mount Pleasant Ave","lat":39.986324,"lng":-83.00433101,"neighborhood":"Italian Village","city_fetched":"Columbus,US","state":"OH","country":"United States","canonicalUrl":"https://foursquare.com/v/midnight-hookah/4ba0433bf964a520df6437e3","categoryId":"4bf58dd8d48988d119941735","category":"Hookah Bar","checkinsCount":1446,"usersCount":496,"tipCount":9,"visitsCount":1653,"url":"http://midnighthookah.com","tier":2,"message":"Moderate","currency":"$","rating":7},{"name":"O'Manny's Pub","address":"2524 Bethel Rd","lat":40.066029353456535,"lng":-83.08731190229378,"city_fetched":"Columbus,US","state":"OH","country":"United States","canonicalUrl":"https://foursquare.com/v/omannys-pub/4d3340bec6cba35dbffc287a","categoryId":"4bf58dd8d48988d116941735","category":"Bar","checkinsCount":1023,"usersCount":241,"tipCount":11,"visitsCount":1070,"tier":"","message":"","currency":"","rating":7},{"name":"Gallerie Bar & Bistro","address":"401 N High St","lat":39.97108438037079,"lng":-83.00247243924136,"neighborhood":"Short North","city_fetched":"Columbus,US","state":"OH","country":"United States","canonicalUrl":"https://foursquare.com/v/gallerie-bar--bistro/509d8cefe4b038882485bf6b","categoryId":"4bf58dd8d48988d11e941735","category":"Cocktail Bar","checkinsCount":681,"usersCount":493,"tipCount":13,"visitsCount":692,"tier":2,"message":"Moderate","currency":"$","rating":7},{"name":"Heritage Lounge","address":"2087 State Route 256 Ste T","lat":39.94047297,"lng":-82.792319,"neighborhood":"East Columbus","city_fetched":"Columbus,US","state":"OH","country":"United States","canonicalUrl":"https://foursquare.com/v/heritage-lounge/4c2fd319ed37a5938f006803","categoryId":"4bf58dd8d48988d116941735","category":"Bar","checkinsCount":304,"usersCount":138,"tipCount":0,"visitsCount":334,"tier":"","message":"","currency":"","rating":7},{"name":"Fairweathers Cafe","address":"3747 Trabue Rd","lat":39.99087554518476,"lng":-83.09696928378499,"neighborhood":"Northwest Columbus","city_fetched":"Columbus,US","state":"OH","country":"United States","canonicalUrl":"https://foursquare.com/v/fairweathers-cafe/4bd23b9077b29c747c5b8e82","categoryId":"4bf58dd8d48988d116941735","category":"Bar","checkinsCount":1358,"usersCount":201,"tipCount":11,"visitsCount":1473,"tier":"","message":"","currency":"","rating":7},{"name":"The Little Bar","phone":"6142918887","twitter":"thelittlebar","address":"2195 N High St","lat":40.006913,"lng":-83.009588,"neighborhood":"North Campus","city_fetched":"Columbus,US","state":"OH","country":"United States","canonicalUrl":"https://foursquare.com/v/the-little-bar/4b511f50f964a520934327e3","categoryId":"4bf58dd8d48988d116941735","category":"Bar","checkinsCount":7088,"usersCount":2864,"tipCount":14,"visitsCount":7585,"url":"http://www.thelittlebar.com","tier":"","message":"","currency":"","rating":7},{"name":"Vanity Gentlemen's Club","phone":"6147641700","twitter":"vanitycolumbus","address":"2880 Bethel Rd","lat":40.065466544645545,"lng":-83.09482099315265,"city_fetched":"Columbus,US","state":"OH","country":"United States","canonicalUrl":"https://foursquare.com/v/vanity-gentlemens-club/4bc021b84cdfc9b6818c9221","categoryId":"4bf58dd8d48988d1d6941735","category":"Strip Club","checkinsCount":1042,"usersCount":441,"tipCount":13,"visitsCount":1063,"url":"http://vanitygentlemensclub.com","tier":"","message":"","currency":"","rating":7},{"name":"Park Street Cantina","phone":"6148842108","twitter":"parkstcantina","address":"491 Park St","lat":39.97228271643769,"lng":-83.00487035620185,"neighborhood":"Downtown Columbus","city_fetched":"Columbus,US","state":"OH","country":"United States","canonicalUrl":"https://foursquare.com/parkstcantina","categoryId":"4bf58dd8d48988d116941735","category":"Bar","checkinsCount":12053,"usersCount":5344,"tipCount":52,"visitsCount":12123,"url":"http://www.parkstreetcantina.com","tier":2,"message":"Moderate","currency":"$","rating":6.9},{"name":"Crown Sports Lounge","phone":"6148461122","address":"511 Lazelle Rd","lat":40.13559911682428,"lng":-82.99308981830919,"city_fetched":"Columbus,US","state":"OH","country":"United States","canonicalUrl":"https://foursquare.com/v/crown-sports-lounge/4c37cdd218e72d7fa34b17f5","categoryId":"4bf58dd8d48988d116941735","category":"Bar","checkinsCount":1971,"usersCount":596,"tipCount":9,"visitsCount":2085,"tier":2,"message":"Moderate","currency":"$","rating":6.9},{"name":"Moose Lodge 1427","lat":40.10725245993566,"lng":-82.96347965835439,"neighborhood":"Northgate","city_fetched":"Columbus,US","state":"Ohio","country":"United States","canonicalUrl":"https://foursquare.com/v/moose-lodge-1427/4e28aaa9483baa8651584cb8","categoryId":"4bf58dd8d48988d116941735","category":"Bar","checkinsCount":353,"usersCount":132,"tipCount":0,"visitsCount":658,"tier":"","message":"","currency":"","rating":6.9},{"name":"Thirsty Turtle","phone":"6148613511","address":"2683 Independence Village Ctr","lat":39.92619120933982,"lng":-82.827584707043,"neighborhood":"South Columbus","city_fetched":"Columbus,US","state":"OH","country":"United States","canonicalUrl":"https://foursquare.com/v/thirsty-turtle/4b8892a0f964a5209e0132e3","categoryId":"4bf58dd8d48988d116941735","category":"Bar","checkinsCount":539,"usersCount":170,"tipCount":4,"visitsCount":629,"tier":"","message":"","currency":"","rating":6.9},{"name":"Park Street Patio","phone":"6144414331","twitter":"parkst_patio","address":"533 Park St","lat":39.97299496594895,"lng":-83.0049543079536,"neighborhood":"Downtown Columbus","city_fetched":"Columbus,US","state":"OH","country":"United States","canonicalUrl":"https://foursquare.com/parkst_patio","categoryId":"4bf58dd8d48988d116941735","category":"Bar","checkinsCount":6788,"usersCount":3314,"tipCount":25,"visitsCount":6862,"url":"http://patio.thecgsgroup.com","tier":"","message":"","currency":"","rating":6.9},{"name":"The Tree Bar","phone":"6147250955","address":"887 Chambers Rd","lat":39.99168687577222,"lng":-83.03056509998999,"city_fetched":"Columbus,US","state":"OH","country":"United States","canonicalUrl":"https://foursquare.com/v/the-tree-bar/4b070acef964a52014f622e3","categoryId":"4bf58dd8d48988d118941735","category":"Dive Bar","checkinsCount":1238,"usersCount":632,"tipCount":8,"visitsCount":1302,"url":"http://treebarcolumbus.com","tier":1,"message":"Cheap","currency":"$","rating":6.9},{"name":"Patrick J's Bar & Grill","phone":"6147840660","address":"2711 N High St","lat":40.0175976605256,"lng":-83.01247280388105,"neighborhood":"Old North Columbus","city_fetched":"Columbus,US","state":"OH","country":"United States","canonicalUrl":"https://foursquare.com/v/patrick-js-bar--grill/4b4cf883f964a5200dc626e3","categoryId":"4bf58dd8d48988d116941735","category":"Bar","checkinsCount":2375,"usersCount":818,"tipCount":28,"visitsCount":2517,"tier":1,"message":"Cheap","currency":"$","rating":6.9},{"name":"Leen O Cafe","phone":"6142629212","address":"2498 Summit St","lat":40.014529039929144,"lng":-82.99998522990438,"neighborhood":"Old North Columbus","city_fetched":"Columbus,US","state":"OH","country":"United States","canonicalUrl":"https://foursquare.com/v/leen-o-cafe/4ba042edf964a520d56437e3","categoryId":"4bf58dd8d48988d119941735","category":"Hookah Bar","checkinsCount":465,"usersCount":258,"tipCount":8,"visitsCount":471,"tier":"","message":"","currency":"","rating":6.9},{"name":"Southbend Tavern","phone":"6144443386","address":"126 E Moler St","lat":39.935181058823694,"lng":-82.99253878406174,"neighborhood":"Merion Village","city_fetched":"Columbus,US","state":"OH","country":"United States","canonicalUrl":"https://foursquare.com/v/southbend-tavern/4b49585ff964a520f56d26e3","categoryId":"4bf58dd8d48988d1d8941735","category":"Gay Bar","checkinsCount":1430,"usersCount":498,"tipCount":11,"visitsCount":1820,"tier":1,"message":"Cheap","currency":"$","rating":6.9},{"name":"Woodlands Backyard","phone":"6144882114","twitter":"woodlandsbkyard","address":"668 Grandview Ave","lat":39.9704542186876,"lng":-83.04455188239737,"neighborhood":"Grandview South","city_fetched":"Columbus,US","state":"OH","country":"United States","canonicalUrl":"https://foursquare.com/v/woodlands-backyard/4ef2064b775bf265c37a034e","categoryId":"4bf58dd8d48988d11d941735","category":"Sports Bar","checkinsCount":4227,"usersCount":1715,"tipCount":35,"visitsCount":4948,"tier":1,"message":"Cheap","currency":"$","rating":6.9},{"name":"Bernard's Tavern","address":"630 High St.","lat":39.97525378825388,"lng":-83.00309300422668,"neighborhood":"Short North","city_fetched":"Columbus,US","state":"OH","country":"United States","canonicalUrl":"https://foursquare.com/v/bernards-tavern/4b7c2d80f964a52052822fe3","categoryId":"4bf58dd8d48988d11b941735","category":"Pub","checkinsCount":9695,"usersCount":3804,"tipCount":54,"visitsCount":9996,"url":"http://bernardstavern.com","tier":2,"message":"Moderate","currency":"$","rating":6.9},{"name":"The Goat","address":"6400 Preserve Crossing Blvd N","lat":40.06088979156691,"lng":-82.84875682650537,"city_fetched":"Columbus,US","state":"OH","country":"United States","canonicalUrl":"https://foursquare.com/v/the-goat/4b64f768f964a520c2dc2ae3","categoryId":"4bf58dd8d48988d116941735","category":"Bar","checkinsCount":1257,"usersCount":493,"tipCount":10,"visitsCount":1307,"tier":"","message":"","currency":"","rating":6.9},{"name":"Zeno's","phone":"6142949158","address":"384 W 3rd Ave","lat":39.98392057601951,"lng":-83.01544219024075,"neighborhood":"Harrison West","city_fetched":"Columbus,US","state":"OH","country":"United States","canonicalUrl":"https://foursquare.com/v/zenos/4b345dddf964a520352725e3","categoryId":"4bf58dd8d48988d116941735","category":"Bar","checkinsCount":4672,"usersCount":1312,"tipCount":25,"visitsCount":5053,"url":"http://www.zenosbar.com","tier":1,"message":"Cheap","currency":"$","rating":6.9},{"name":"Hilton Columbus/Polaris Executive Lounge","address":"8700 Lyra Dr","lat":40.143270334620425,"lng":-82.97518672914197,"neighborhood":"Polaris","city_fetched":"Columbus,US","state":"OH","country":"United States","canonicalUrl":"https://foursquare.com/v/hilton-columbuspolaris-executive-lounge/4f8c91b2e4b01276902b1467","categoryId":"4bf58dd8d48988d1d5941735","category":"Hotel Bar","checkinsCount":414,"usersCount":276,"tipCount":3,"visitsCount":421,"tier":"","message":"","currency":"","rating":6.9},{"name":"Nike Sports Lounge","phone":"6147716116","address":"2165 Hilliard Rome Rd","lat":39.9954286262053,"lng":-83.15288909461732,"neighborhood":"Northwest Columbus","city_fetched":"Columbus,US","state":"OH","country":"United States","canonicalUrl":"https://foursquare.com/v/nike-sports-lounge/4c461fea342c1b8d45afb589","categoryId":"4bf58dd8d48988d11d941735","category":"Sports Bar","checkinsCount":915,"usersCount":351,"tipCount":5,"visitsCount":1064,"url":"http://fullthrottle.cc","tier":1,"message":"Cheap","currency":"$","rating":6.8},{"name":"UA Pub","phone":"6144575467","address":"2096 Henderson Rd","lat":40.057251099369395,"lng":-83.07445065281277,"city_fetched":"Columbus,US","state":"OH","country":"United States","canonicalUrl":"https://foursquare.com/v/ua-pub/4dd9cd201838b8561d227e9f","categoryId":"4bf58dd8d48988d116941735","category":"Bar","checkinsCount":1760,"usersCount":517,"tipCount":9,"visitsCount":1928,"tier":2,"message":"Moderate","currency":"$","rating":6.8},{"name":"Park Street Tavern","phone":"6142214099","address":"501 Park St","lat":39.972395422980036,"lng":-83.0049228260592,"neighborhood":"Arena District","city_fetched":"Columbus,US","state":"OH","country":"United States","canonicalUrl":"https://foursquare.com/v/park-street-tavern/4b19bcfff964a5201de323e3","categoryId":"4bf58dd8d48988d116941735","category":"Bar","checkinsCount":3601,"usersCount":1731,"tipCount":18,"visitsCount":3656,"tier":2,"message":"Moderate","currency":"$","rating":6.8},{"name":"Average Joe's","phone":"6148786978","address":"1515 Hilliard Rome Rd","lat":39.98230507896264,"lng":-83.15220851930167,"neighborhood":"Northwest Columbus","city_fetched":"Columbus,US","state":"OH","country":"United States","canonicalUrl":"https://foursquare.com/v/average-joes/4e925d2cd3e30d4e8cc7a9f8","categoryId":"4bf58dd8d48988d116941735","category":"Bar","checkinsCount":3050,"usersCount":910,"tipCount":16,"visitsCount":3334,"tier":2,"message":"Moderate","currency":"$","rating":6.8},{"name":"The Big Bang","phone":"6142339999","twitter":"bigbangcolumbus","address":"401 N Front St","lat":39.9699,"lng":-83.004682,"neighborhood":"Arena District","city_fetched":"Columbus,US","state":"OH","country":"United States","canonicalUrl":"https://foursquare.com/v/the-big-bang/4b11e013f964a520588623e3","categoryId":"4bf58dd8d48988d116941735","category":"Bar","checkinsCount":4005,"usersCount":2463,"tipCount":28,"visitsCount":4042,"url":"http://www.thebigbangbar.com","tier":2,"message":"Moderate","currency":"$","rating":6.8},{"name":"The Social Room","twitter":"thesocialroom","address":"527 Park St","lat":39.97293572460336,"lng":-83.00477591035359,"neighborhood":"Downtown Columbus","city_fetched":"Columbus,US","state":"OH","country":"United States","canonicalUrl":"https://foursquare.com/v/the-social-room/4b19f163f964a5206ce623e3","categoryId":"4bf58dd8d48988d121941735","category":"Lounge","checkinsCount":2825,"usersCount":1328,"tipCount":4,"visitsCount":2835,"url":"http://social.thecgsgroup.com","tier":"","message":"","currency":"","rating":6.8},{"name":"Coaches Bar and Grill","phone":"6144573353","twitter":"coachesbargrill","address":"1480 Bethel Rd","lat":40.065053,"lng":-83.05808431666667,"city_fetched":"Columbus,US","state":"OH","country":"United States","canonicalUrl":"https://foursquare.com/v/coaches-bar-and-grill/4c3d258ea97bbe9a6b92fbdd","categoryId":"4bf58dd8d48988d11d941735","category":"Sports Bar","checkinsCount":1854,"usersCount":719,"tipCount":21,"visitsCount":1963,"url":"http://www.coachesbarandgrill.com","tier":1,"message":"Cheap","currency":"$","rating":6.8},{"name":"Classics Sports Bar","phone":"6142251577","address":"543 S High St","lat":39.950802598628414,"lng":-82.99875208507187,"neighborhood":"Brewery District","city_fetched":"Columbus,US","state":"OH","country":"United States","canonicalUrl":"https://foursquare.com/v/classics-sports-bar/4b23d6f4f964a520f05a24e3","categoryId":"4bf58dd8d48988d11d941735","category":"Sports Bar","checkinsCount":1501,"usersCount":617,"tipCount":8,"visitsCount":1527,"url":"http://www.classicssportsbar.com","tier":"","message":"","currency":"","rating":6.8},{"name":"Club 20","address":"20 E Duncan St","lat":40.0157404,"lng":-83.0110515,"neighborhood":"Old North Columbus","city_fetched":"Columbus,US","state":"OH","country":"United States","canonicalUrl":"https://foursquare.com/v/club-20/4bb90e71b35776b03391c901","categoryId":"4bf58dd8d48988d116941735","category":"Bar","checkinsCount":1513,"usersCount":424,"tipCount":10,"visitsCount":1584,"tier":"","message":"","currency":"","rating":6.7},{"name":"Buffalo Wild Wings","phone":"6148809348","twitter":"bwwings","address":"152 Graceland Blvd","lat":40.066372083732865,"lng":-83.02355021238327,"neighborhood":"Clintonville","city_fetched":"Columbus,US","state":"OH","country":"United States","canonicalUrl":"https://foursquare.com/v/buffalo-wild-wings/4b08a512f964a520261023e3","categoryId":"4bf58dd8d48988d11d941735","category":"Sports Bar","checkinsCount":2948,"usersCount":1341,"tipCount":13,"visitsCount":3551,"url":"http://www.buffalowildwings.com","tier":2,"message":"Moderate","currency":"$","rating":6.7},{"name":"The Pour House","phone":"6144140841","address":"57 Mill St","lat":40.019159,"lng":-82.87978631,"neighborhood":"East Columbus","city_fetched":"Columbus,US","state":"OH","country":"United States","canonicalUrl":"https://foursquare.com/v/the-pour-house/4c955c9b82b56dcb1e5bd8aa","categoryId":"4bf58dd8d48988d116941735","category":"Bar","checkinsCount":472,"usersCount":264,"tipCount":5,"visitsCount":472,"url":"http://www.pourhousetavern.com","tier":"","message":"","currency":"","rating":6.6},{"name":"Jordan's Pub & Deli","phone":"6144785478","address":"471 Morrison Rd","lat":40.00835348333333,"lng":-82.865357,"neighborhood":"East Columbus","city_fetched":"Columbus,US","state":"OH","country":"United States","canonicalUrl":"https://foursquare.com/v/jordans-pub--deli/4b1d4aecf964a520490e24e3","categoryId":"4bf58dd8d48988d116941735","category":"Bar","checkinsCount":1593,"usersCount":501,"tipCount":10,"visitsCount":1909,"url":"http://www.jordansdeli.com","tier":"","message":"","currency":"","rating":6.6},{"name":"Eleven","phone":"6142242204","address":"591 N High St","lat":39.974438,"lng":-83.0030875,"neighborhood":"Short North","city_fetched":"Columbus,US","state":"OH","country":"United States","canonicalUrl":"https://foursquare.com/v/eleven/4c7c7102f56a3704a4250846","categoryId":"4bf58dd8d48988d121941735","category":"Lounge","checkinsCount":2860,"usersCount":1392,"tipCount":24,"visitsCount":2896,"tier":"","message":"","currency":"","rating":6.6},{"name":"TT Murph's","phone":"6142312996","twitter":"ttmurphs","address":"2996 E Livingston Ave","lat":39.947253749926254,"lng":-82.91647834072066,"neighborhood":"Eastmoor","city_fetched":"Columbus,US","state":"OH","country":"United States","canonicalUrl":"https://foursquare.com/v/tt-murphs/4b17fe83f964a5200ccb23e3","categoryId":"4bf58dd8d48988d116941735","category":"Bar","checkinsCount":1016,"usersCount":223,"tipCount":5,"visitsCount":1230,"url":"http://ttmurphs.com","tier":"","message":"","currency":"","rating":6.6},{"name":"On Tap Pub","phone":"6143261518","address":"1514 Bethel Rd","lat":40.06505103240215,"lng":-83.05931685343923,"city_fetched":"Columbus,US","state":"OH","country":"United States","canonicalUrl":"https://foursquare.com/v/on-tap-pub/4b097862f964a520c61723e3","categoryId":"4bf58dd8d48988d116941735","category":"Bar","checkinsCount":890,"usersCount":266,"tipCount":2,"visitsCount":894,"tier":"","message":"","currency":"","rating":6.6},{"name":"Classic's Pizza","phone":"6148688000","address":"12968 Stonecreek Dr","lat":39.92365447397879,"lng":-82.78380430188255,"neighborhood":"South Columbus","city_fetched":"Columbus,US","state":"OH","country":"United States","canonicalUrl":"https://foursquare.com/v/classics-pizza/4bda5485c79cc928dd967ee9","categoryId":"4bf58dd8d48988d116941735","category":"Bar","checkinsCount":1306,"usersCount":428,"tipCount":18,"visitsCount":1497,"url":"http://www.classicspizzanow.com","tier":"","message":"","currency":"","rating":6.6},{"name":"My Bar 161","phone":"6147340417","twitter":"mybar161","address":"3534 W Dublin Granville Rd","lat":40.093432789783506,"lng":-83.083674950472,"city_fetched":"Columbus,US","state":"OH","country":"United States","canonicalUrl":"https://foursquare.com/v/my-bar-161/4b5bb4c2f964a520381129e3","categoryId":"4bf58dd8d48988d120941735","category":"Karaoke Bar","checkinsCount":1701,"usersCount":503,"tipCount":16,"visitsCount":1768,"tier":1,"message":"Cheap","currency":"$","rating":6.6},{"name":"The Bier Stube","phone":"6142995467","address":"1479 N High St","lat":39.99251202680877,"lng":-83.00718423729346,"neighborhood":"South Campus","city_fetched":"Columbus,US","state":"OH","country":"United States","canonicalUrl":"https://foursquare.com/v/the-bier-stube/4b2127d7f964a5206f3724e3","categoryId":"4bf58dd8d48988d118941735","category":"Dive Bar","checkinsCount":2356,"usersCount":1158,"tipCount":25,"visitsCount":2504,"tier":1,"message":"Cheap","currency":"$","rating":6.6},{"name":"Traditions Tavern","address":"4514 Kenny Rd","lat":40.05117494046451,"lng":-83.04954906353913,"city_fetched":"Columbus,US","state":"OH","country":"United States","canonicalUrl":"https://foursquare.com/v/traditions-tavern/4b32f177f964a520401625e3","categoryId":"4bf58dd8d48988d116941735","category":"Bar","checkinsCount":554,"usersCount":182,"tipCount":5,"visitsCount":600,"tier":"","message":"","currency":"","rating":6.6},{"name":"Average Joe's","address":"1126 Henderson Rd","lat":40.053679,"lng":-83.050294,"neighborhood":"Governours Square","city_fetched":"Columbus,US","state":"OH","country":"United States","canonicalUrl":"https://foursquare.com/v/average-joes/5171e80de4b0d23a0f393cd0","categoryId":"4bf58dd8d48988d116941735","category":"Bar","checkinsCount":496,"usersCount":293,"tipCount":0,"visitsCount":654,"tier":2,"message":"Moderate","currency":"$","rating":6.5},{"name":"Brothers Bar & Grill","phone":"6142210673","twitter":"brotherscbus","address":"477 Park St","lat":39.97169298534703,"lng":-83.00513004059626,"neighborhood":"Downtown Columbus","city_fetched":"Columbus,US","state":"OH","country":"United States","canonicalUrl":"https://foursquare.com/v/brothers-bar--grill/4b0787cff964a5207efe22e3","categoryId":"4bf58dd8d48988d116941735","category":"Bar","checkinsCount":8976,"usersCount":4437,"tipCount":40,"visitsCount":9301,"url":"http://brothersbar.com","tier":2,"message":"Moderate","currency":"$","rating":6.5},{"name":"Chumley's","phone":"6142942180","twitter":"chumleyscbus","address":"1918 N High St","lat":40.00141003585238,"lng":-83.00849592525898,"neighborhood":"The Ohio State University","city_fetched":"Columbus,US","state":"OH","country":"United States","canonicalUrl":"https://foursquare.com/chumleyscbus","categoryId":"4bf58dd8d48988d11d941735","category":"Sports Bar","checkinsCount":4007,"usersCount":1369,"tipCount":9,"visitsCount":4416,"tier":2,"message":"Moderate","currency":"$","rating":6.5},{"name":"Kicks","phone":"6144364984","twitter":"kickscolumbus","address":"8333 Market Exchange Dr","lat":40.1352470647771,"lng":-82.9892324821362,"city_fetched":"Columbus,US","state":"OH","country":"United States","canonicalUrl":"https://foursquare.com/v/kicks/4bc3cabd920eb71339091e2c","categoryId":"4bf58dd8d48988d11b941735","category":"Pub","checkinsCount":1800,"usersCount":652,"tipCount":6,"visitsCount":1828,"url":"http://www.kickscolumbus.com","tier":2,"message":"Moderate","currency":"$","rating":6.5},{"name":"o h Lounge","phone":"8556174206","twitter":"hollywoodcbus","address":"Hollywood Casino Columbus","lat":39.94903092325801,"lng":-83.10786684385339,"city_fetched":"Columbus,US","state":"OH","country":"United States","canonicalUrl":"https://foursquare.com/v/o-h-lounge/54878b1a498e2db911aac036","categoryId":"4bf58dd8d48988d11d941735","category":"Sports Bar","checkinsCount":323,"usersCount":183,"tipCount":8,"visitsCount":324,"url":"http://www.hollywoodcolumbus.com","tier":"","message":"","currency":"","rating":6.5},{"name":"Nasty's Sports Bar & Grill","phone":"6142191531","address":"4561 Scioto Darby Rd","lat":40.01813160425729,"lng":-83.13728643034747,"neighborhood":"Northwest Columbus","city_fetched":"Columbus,US","state":"OH","country":"United States","canonicalUrl":"https://foursquare.com/v/nastys-sports-bar--grill/4f6e5eb8e4b04cb294b87376","categoryId":"4bf58dd8d48988d11d941735","category":"Sports Bar","checkinsCount":1528,"usersCount":577,"tipCount":11,"visitsCount":1841,"url":"http://nastyssportsbar.com","tier":2,"message":"Moderate","currency":"$","rating":6.5},{"name":"Tequilla Cowboy","address":"1069 Polaris Pkwy","lat":40.14498025540048,"lng":-82.99295862009541,"neighborhood":"Polaris","city_fetched":"Columbus,US","state":"OH","country":"United States","canonicalUrl":"https://foursquare.com/v/tequilla-cowboy/546fcacb498e7612e18f0eb6","categoryId":"4bf58dd8d48988d116941735","category":"Bar","checkinsCount":337,"usersCount":445,"tipCount":3,"visitsCount":703,"url":"http://tequilacowboy.com","tier":"","message":"","currency":"","rating":6.5},{"name":"Max & Erma's","phone":"6143670370","twitter":"maxermas","address":"8050 E Broad St","lat":39.986343762830664,"lng":-82.78732083895164,"neighborhood":"East Broad","city_fetched":"Columbus,US","state":"OH","country":"United States","canonicalUrl":"https://foursquare.com/v/max--ermas/4b637830f964a520437c2ae3","categoryId":"4bf58dd8d48988d11d941735","category":"Sports Bar","checkinsCount":2047,"usersCount":1172,"tipCount":27,"visitsCount":2529,"url":"http://www.maxandermas.com","tier":"","message":"","currency":"","rating":6.5},{"name":"Signatures Mill Stone Tavern","phone":"6144752220","twitter":"sigscafes","address":"94 Mill St","lat":40.020049327124745,"lng":-82.87939587902413,"neighborhood":"East Columbus","city_fetched":"Columbus,US","state":"OH","country":"United States","canonicalUrl":"https://foursquare.com/sigscafes","categoryId":"4bf58dd8d48988d116941735","category":"Bar","checkinsCount":1655,"usersCount":690,"tipCount":16,"visitsCount":1868,"url":"http://signaturesmillstonetavern.com","tier":1,"message":"Cheap","currency":"$","rating":6.5},{"name":"Shamrocks Pub & Grub","lat":40.10042936677395,"lng":-82.9525739478394,"city_fetched":"Columbus,US","state":"OH","country":"United States","canonicalUrl":"https://foursquare.com/v/shamrocks-pub--grub/4ec44477e5fa74ea52d9b96a","categoryId":"4bf58dd8d48988d116941735","category":"Bar","checkinsCount":578,"usersCount":125,"tipCount":8,"visitsCount":732,"tier":"","message":"","currency":"","rating":6.5},{"name":"The Blarney Stone Tavern","address":"2151 W Dublin Granville Rd","lat":40.08977778521622,"lng":-83.04770859290693,"neighborhood":"Indian Hills","city_fetched":"Columbus,US","state":"OH","country":"United States","canonicalUrl":"https://foursquare.com/v/the-blarney-stone-tavern/51daf13b498ece0af215b776","categoryId":"4bf58dd8d48988d116941735","category":"Bar","checkinsCount":170,"usersCount":141,"tipCount":1,"visitsCount":212,"tier":"","message":"","currency":"","rating":6.5},{"name":"Cafe Bourbon Street","phone":"6142689377","address":"2216 Summit St","lat":40.00865440240612,"lng":-83.00028432965104,"neighborhood":"Old North Columbus","city_fetched":"Columbus,US","state":"OH","country":"United States","canonicalUrl":"https://foursquare.com/v/cafe-bourbon-street/4b29379cf964a520239b24e3","categoryId":"4bf58dd8d48988d120941735","category":"Karaoke Bar","checkinsCount":1438,"usersCount":549,"tipCount":10,"visitsCount":1503,"url":"http://profile.myspace.com/index.cfm?fuseaction=user.viewprofile&friendid=52974979","tier":1,"message":"Cheap","currency":"$","rating":6.4},{"name":"Ruby Tuesday","phone":"6142918313","twitter":"rubytuesdaylive","address":"1978 Summit St","lat":40.003520131022434,"lng":-83.00073560039046,"neighborhood":"University District","city_fetched":"Columbus,US","state":"OH","country":"United States","canonicalUrl":"https://foursquare.com/v/ruby-tuesday/4b12cc76f964a520608e23e3","categoryId":"4bf58dd8d48988d118941735","category":"Dive Bar","checkinsCount":1576,"usersCount":780,"tipCount":15,"visitsCount":1844,"url":"http://www.rubytuesdaylive.com","tier":1,"message":"Cheap","currency":"$","rating":6.4},{"name":"Sports on Tap","phone":"6149219559","address":"4030 Main St","lat":40.033896,"lng":-83.15942823886871,"neighborhood":"Northwest Columbus","city_fetched":"Columbus,US","state":"OH","country":"United States","canonicalUrl":"https://foursquare.com/v/sports-on-tap/4b7dc2a3f964a520f2d22fe3","categoryId":"4bf58dd8d48988d11d941735","category":"Sports Bar","checkinsCount":966,"usersCount":240,"tipCount":4,"visitsCount":1001,"tier":"","message":"","currency":"","rating":6.4},{"name":"Dub Pub","phone":"6147612728","address":"5736 Frantz Rd","lat":40.07070600986481,"lng":-83.11849506666667,"neighborhood":"Northwest Columbus","city_fetched":"Columbus,US","state":"OH","country":"United States","canonicalUrl":"https://foursquare.com/v/dub-pub/4b0db127f964a520024e23e3","categoryId":"4bf58dd8d48988d116941735","category":"Bar","checkinsCount":2506,"usersCount":974,"tipCount":18,"visitsCount":2584,"url":"http://www.dub-pub.com","tier":"","message":"","currency":"","rating":6.4},{"name":"Kahoots","address":"4522 Kenny Rd","lat":40.05245506993884,"lng":-83.04821721814362,"neighborhood":"Governours Square","city_fetched":"Columbus,US","state":"OH","country":"United States","canonicalUrl":"https://foursquare.com/v/kahoots/4bc603a0d35d9c743e01e23a","categoryId":"4bf58dd8d48988d1d6941735","category":"Strip Club","checkinsCount":935,"usersCount":520,"tipCount":6,"visitsCount":1141,"tier":"","message":"","currency":"","rating":6.4},{"name":"The O Patio & Pub","phone":"6142988000","twitter":"opatiocbus","address":"12 E 15th Ave","lat":40.00020528564508,"lng":-83.00767218826032,"neighborhood":"University","city_fetched":"Columbus,US","state":"OH","country":"United States","canonicalUrl":"https://foursquare.com/v/the-o-patio--pub/4b4940c6f964a5208b6b26e3","categoryId":"4bf58dd8d48988d116941735","category":"Bar","checkinsCount":6601,"usersCount":2114,"tipCount":20,"visitsCount":6781,"url":"http://theopatio.com","tier":"","message":"","currency":"","rating":6.4},{"name":"Champps","phone":"6142980833","twitter":"champps","address":"1827 Olentangy River Road","lat":39.99661282,"lng":-83.02651405,"city_fetched":"Columbus,US","state":"OH","country":"United States","canonicalUrl":"https://foursquare.com/v/champps/4b0b43ccf964a520a42f23e3","categoryId":"4bf58dd8d48988d116941735","category":"Bar","checkinsCount":6696,"usersCount":3582,"tipCount":37,"visitsCount":7251,"url":"http://t.co/9OBCSXZCsI","tier":2,"message":"Moderate","currency":"$","rating":6.4},{"name":"Turtle Creek Tavern","phone":"6144768836","address":"5571 N Hamilton Rd","lat":40.069854057912124,"lng":-82.86414909280303,"city_fetched":"Columbus,US","state":"OH","country":"United States","canonicalUrl":"https://foursquare.com/v/turtle-creek-tavern/4cede0067db3224b82f8242e","categoryId":"4bf58dd8d48988d11d941735","category":"Sports Bar","checkinsCount":2434,"usersCount":472,"tipCount":18,"visitsCount":2497,"tier":"","message":"","currency":"","rating":6.3},{"name":"Blind Lady Tavern","phone":"6145914526","twitter":"blindladytavern","address":"22 E Mound St","lat":39.955039209746154,"lng":-82.99825357318204,"neighborhood":"Downtown Columbus","city_fetched":"Columbus,US","state":"OH","country":"United States","canonicalUrl":"https://foursquare.com/v/blind-lady-tavern/54cd7b82498e4249448c1afa","categoryId":"4bf58dd8d48988d116941735","category":"Bar","checkinsCount":136,"usersCount":143,"tipCount":5,"visitsCount":214,"url":"http://www.blindladytavern.com","tier":"","message":"","currency":"","rating":6.3},{"name":"The Draught Haus","twitter":"draughthouse","address":"6694 Sawmill Rd","lat":40.10444381665095,"lng":-83.08912506230423,"city_fetched":"Columbus,US","state":"OH","country":"United States","canonicalUrl":"https://foursquare.com/v/the-draught-haus/4b148b7df964a52074a423e3","categoryId":"4bf58dd8d48988d116941735","category":"Bar","checkinsCount":1098,"usersCount":375,"tipCount":9,"visitsCount":1116,"tier":"","message":"","currency":"","rating":6.3},{"name":"Front Row Sports Bar","address":"2170 Henderson Rd","lat":40.0579647065661,"lng":-83.07607548112229,"city_fetched":"Columbus,US","state":"OH","country":"United States","canonicalUrl":"https://foursquare.com/v/front-row-sports-bar/4b508fa9f964a520632727e3","categoryId":"4bf58dd8d48988d11d941735","category":"Sports Bar","checkinsCount":766,"usersCount":197,"tipCount":3,"visitsCount":778,"tier":"","message":"","currency":"","rating":6.3},{"name":"Podunk's","phone":"6148957920","twitter":"podunksbar","address":"1644 E Dublin Granville Rd","lat":40.087954780255,"lng":-82.97441482543945,"neighborhood":"Northgate","city_fetched":"Columbus,US","state":"OH","country":"United States","canonicalUrl":"https://foursquare.com/podunksbar","categoryId":"4bf58dd8d48988d116941735","category":"Bar","checkinsCount":1031,"usersCount":143,"tipCount":3,"visitsCount":1071,"url":"http://www.podunksbar.com","tier":"","message":"","currency":"","rating":6.3},{"name":"BBR","phone":"6143657625","address":"106 Vine St","lat":39.97159691899826,"lng":-83.00554196722776,"neighborhood":"Arena District","city_fetched":"Columbus,US","state":"OH","country":"United States","canonicalUrl":"https://foursquare.com/v/bbr/4e38695ae4cdedd4a1bbcec7","categoryId":"4bf58dd8d48988d116941735","category":"Bar","checkinsCount":6194,"usersCount":2711,"tipCount":47,"visitsCount":6858,"url":"http://www.bbrcolumbus.com","tier":2,"message":"Moderate","currency":"$","rating":6.3},{"name":"Flannagan's Dublin","phone":"6147667788","address":"6835 Caine Rd","lat":40.10637962521703,"lng":-83.09028625488281,"city_fetched":"Columbus,US","state":"OH","country":"United States","canonicalUrl":"https://foursquare.com/v/flannagans-dublin/4b9b93ddf964a520e01036e3","categoryId":"4bf58dd8d48988d116941735","category":"Bar","checkinsCount":6366,"usersCount":1826,"tipCount":20,"visitsCount":6886,"url":"http://flannagans.com","tier":"","message":"","currency":"","rating":6.3},{"name":"Rosie O`Grady`s","phone":"6144717220","address":"2411 Morse Rd","lat":40.05922318034445,"lng":-82.9545063373463,"city_fetched":"Columbus,US","state":"OH","country":"United States","canonicalUrl":"https://foursquare.com/v/rosie-ogradys/4c01ac6d3f0a9c74c25ba0ec","categoryId":"4bf58dd8d48988d118941735","category":"Dive Bar","checkinsCount":561,"usersCount":193,"tipCount":4,"visitsCount":632,"tier":"","message":"","currency":"","rating":6.3},{"name":"Spud's Bar and Grill","address":"1810 Henderson Rd","lat":40.055951,"lng":-83.067697,"city_fetched":"Columbus,US","state":"OH","country":"United States","canonicalUrl":"https://foursquare.com/v/spuds-bar-and-grill/4b6e0385f964a52078a32ce3","categoryId":"4bf58dd8d48988d116941735","category":"Bar","checkinsCount":484,"usersCount":156,"tipCount":4,"visitsCount":505,"tier":"","message":"","currency":"","rating":6.2},{"name":"Rack","address":"1605 W 5th Ave","lat":39.988983132042875,"lng":-83.04944419480074,"city_fetched":"Columbus,US","state":"OH","country":"United States","canonicalUrl":"https://foursquare.com/v/rack/4b5378a6f964a520989e27e3","categoryId":"4bf58dd8d48988d118941735","category":"Dive Bar","checkinsCount":693,"usersCount":360,"tipCount":9,"visitsCount":724,"tier":"","message":"","currency":"","rating":6.2},{"name":"The Garage","phone":"6142054317","address":"40 E Long St","lat":39.965501467168714,"lng":-83.00000097203007,"neighborhood":"Uptown District","city_fetched":"Columbus,US","state":"OH","country":"United States","canonicalUrl":"https://foursquare.com/v/the-garage/51c3197c498eae3398334e2c","categoryId":"4bf58dd8d48988d1d8941735","category":"Gay Bar","checkinsCount":286,"usersCount":171,"tipCount":4,"visitsCount":286,"url":"http://garage.thecgsgroup.com","tier":"","message":"","currency":"","rating":6.2},{"name":"Bar 23","phone":"6142242323","address":"584 N High St","lat":39.97442344,"lng":-83.003013,"neighborhood":"Short North","city_fetched":"Columbus,US","state":"OH","country":"United States","canonicalUrl":"https://foursquare.com/v/bar-23/4b07785df964a520edfd22e3","categoryId":"4bf58dd8d48988d116941735","category":"Bar","checkinsCount":5005,"usersCount":2252,"tipCount":20,"visitsCount":5095,"url":"http://www.bar23.net","tier":2,"message":"Moderate","currency":"$","rating":6.2},{"name":"Mike's Grill","address":"724 N High St","lat":39.977165,"lng":-83.003537,"neighborhood":"Short North","city_fetched":"Columbus,US","state":"OH","country":"United States","canonicalUrl":"https://foursquare.com/v/mikes-grill/4b357f30f964a520932d25e3","categoryId":"4bf58dd8d48988d118941735","category":"Dive Bar","checkinsCount":1284,"usersCount":664,"tipCount":10,"visitsCount":1290,"tier":1,"message":"Cheap","currency":"$","rating":6.2},{"name":"14 Twenty","phone":"6144861900","address":"1420 Presidential Dr","lat":39.99739239742865,"lng":-83.04490321813118,"city_fetched":"Columbus,US","state":"OH","country":"United States","canonicalUrl":"https://foursquare.com/v/14-twenty/4db605766a23c31a0336da18","categoryId":"4bf58dd8d48988d11d941735","category":"Sports Bar","checkinsCount":817,"usersCount":154,"tipCount":2,"visitsCount":825,"url":"http://www.14twenty.com","tier":"","message":"","currency":"","rating":6.2},{"name":"Cheers Too","phone":"6148189821","address":"6176 Cleveland Ave","lat":40.09953531973265,"lng":-82.94835190102816,"city_fetched":"Columbus,US","state":"OH","country":"United States","canonicalUrl":"https://foursquare.com/v/cheers-too/4b8038e7f964a520105e30e3","categoryId":"4bf58dd8d48988d118941735","category":"Dive Bar","checkinsCount":415,"usersCount":96,"tipCount":4,"visitsCount":435,"tier":"","message":"","currency":"","rating":6.2},{"name":"Trafik Bar & Nightclub","phone":"6142222401","address":"205 N 5th St","lat":39.967133593375316,"lng":-82.9959866085246,"neighborhood":"Downtown Columbus","city_fetched":"Columbus,US","state":"OH","country":"United States","canonicalUrl":"https://foursquare.com/v/trafik-bar--nightclub/4bb969253db7b713aa4e229a","categoryId":"4bf58dd8d48988d1d8941735","category":"Gay Bar","checkinsCount":1316,"usersCount":405,"tipCount":8,"visitsCount":1319,"tier":"","message":"","currency":"","rating":6.1},{"name":"Hendoc's Pub","phone":"6142971217","twitter":"hendocs","address":"2375 N High St","lat":40.010710616666664,"lng":-83.01038873333333,"neighborhood":"Old North Columbus","city_fetched":"Columbus,US","state":"OH","country":"United States","canonicalUrl":"https://foursquare.com/v/hendocs-pub/4be11450d816c9288849efd9","categoryId":"4bf58dd8d48988d116941735","category":"Bar","checkinsCount":4833,"usersCount":975,"tipCount":19,"visitsCount":5410,"url":"http://hendocspub.bzzp.net","tier":2,"message":"Moderate","currency":"$","rating":6.1},{"name":"Mickey's","phone":"6144883566","address":"1230 W 5th Ave","lat":39.98866,"lng":-83.039178,"city_fetched":"Columbus,US","state":"OH","country":"United States","canonicalUrl":"https://foursquare.com/v/mickeys/4b08a201f964a520e70f23e3","categoryId":"4bf58dd8d48988d116941735","category":"Bar","checkinsCount":2926,"usersCount":1116,"tipCount":23,"visitsCount":3217,"tier":1,"message":"Cheap","currency":"$","rating":6.1},{"name":"Chubby's","phone":"6147349831","address":"1846 Hard Rd","lat":40.11756,"lng":-83.06536853313446,"city_fetched":"Columbus,US","state":"OH","country":"United States","canonicalUrl":"https://foursquare.com/v/chubbys/4b64fa68f964a52069dd2ae3","categoryId":"4bf58dd8d48988d11d941735","category":"Sports Bar","checkinsCount":1120,"usersCount":509,"tipCount":17,"visitsCount":1266,"tier":"","message":"","currency":"","rating":6},{"name":"Bier Stube North","phone":"6149320214","address":"2382 W Dublin Granville Rd","lat":40.090607396033,"lng":-83.0536283277367,"city_fetched":"Columbus,US","state":"OH","country":"United States","canonicalUrl":"https://foursquare.com/v/bier-stube-north/4be3415ef07b0f47cf84f743","categoryId":"4bf58dd8d48988d116941735","category":"Bar","checkinsCount":228,"usersCount":61,"tipCount":3,"visitsCount":287,"tier":"","message":"","currency":"","rating":6},{"name":"Evolution Social Lounge","twitter":"djjshocka","address":"5610 Hall Rd","lat":39.93166559363622,"lng":-83.14630292152484,"city_fetched":"Columbus,US","state":"OH","country":"United States","canonicalUrl":"https://foursquare.com/djjshocka","categoryId":"4bf58dd8d48988d121941735","category":"Lounge","checkinsCount":1562,"usersCount":99,"tipCount":5,"visitsCount":1563,"tier":"","message":"","currency":"","rating":6},{"name":"Park Street Saloon","phone":"6142455115","twitter":"parkstsaloon","address":"525 Park St","lat":39.97282952120906,"lng":-83.00482838028597,"neighborhood":"Downtown Columbus","city_fetched":"Columbus,US","state":"OH","country":"United States","canonicalUrl":"https://foursquare.com/parkstsaloon","categoryId":"4bf58dd8d48988d116941735","category":"Bar","checkinsCount":3198,"usersCount":1533,"tipCount":10,"visitsCount":3217,"tier":"","message":"","currency":"","rating":6},{"name":"Paddy Mac's Pub","phone":"6149859500","address":"5316 N High St","lat":40.07072048540826,"lng":-83.01898849072708,"neighborhood":"Clintonville","city_fetched":"Columbus,US","state":"OH","country":"United States","canonicalUrl":"https://foursquare.com/v/paddy-macs-pub/4d7542a2d0c73704153afc17","categoryId":"4bf58dd8d48988d11b941735","category":"Pub","checkinsCount":915,"usersCount":208,"tipCount":5,"visitsCount":1064,"tier":"","message":"","currency":"","rating":6},{"name":"Ruckmoor Lounge","address":"7496 N High St","lat":40.11691486114632,"lng":-83.01569400484614,"neighborhood":"Crosswoods","city_fetched":"Columbus,US","state":"OH","country":"United States","canonicalUrl":"https://foursquare.com/v/ruckmoor-lounge/4b4ce150f964a520cbc226e3","categoryId":"4bf58dd8d48988d116941735","category":"Bar","checkinsCount":1334,"usersCount":660,"tipCount":10,"visitsCount":1519,"tier":1,"message":"Cheap","currency":"$","rating":5.9},{"name":"Lucky's Stout House","phone":"6142995825","twitter":"luckyscbus","address":"1475 N High St","lat":39.99238921579566,"lng":-83.00679072582271,"neighborhood":"South Campus","city_fetched":"Columbus,US","state":"OH","country":"United States","canonicalUrl":"https://foursquare.com/v/luckys-stout-house/4b639849f964a520b4852ae3","categoryId":"4bf58dd8d48988d116941735","category":"Bar","checkinsCount":3735,"usersCount":1452,"tipCount":18,"visitsCount":3844,"tier":"","message":"","currency":"","rating":5.9},{"name":"Ledo's Tavern","phone":"6142631009","twitter":"ledosbar","address":"2608 N High St","lat":40.01554465647808,"lng":-83.01142351880527,"neighborhood":"Old North Columbus","city_fetched":"Columbus,US","state":"OH","country":"United States","canonicalUrl":"https://foursquare.com/v/ledos-tavern/4b4942d3f964a520c56b26e3","categoryId":"4bf58dd8d48988d116941735","category":"Bar","checkinsCount":2939,"usersCount":766,"tipCount":19,"visitsCount":2990,"tier":1,"message":"Cheap","currency":"$","rating":5.9},{"name":"Keystone Pub","phone":"6148470007","twitter":"keystone_pub","address":"1081 Gemini Pl","lat":40.14722449245995,"lng":-82.98624141653289,"neighborhood":"Polaris","city_fetched":"Columbus,US","state":"OH","country":"United States","canonicalUrl":"https://foursquare.com/v/keystone-pub/4b060430f964a5207be722e3","categoryId":"4bf58dd8d48988d116941735","category":"Bar","checkinsCount":5406,"usersCount":1373,"tipCount":25,"visitsCount":5519,"url":"http://www.keystonepolaris.com","tier":2,"message":"Moderate","currency":"$","rating":5.9},{"name":"Crazee Mule Saloon","phone":"6148189007","address":"Cleveland Ave","lat":40.09970395647054,"lng":-82.94848843908352,"city_fetched":"Columbus,US","state":"OH","country":"United States","canonicalUrl":"https://foursquare.com/v/crazee-mule-saloon/4d31015eb6093704daebe6df","categoryId":"4bf58dd8d48988d116941735","category":"Bar","checkinsCount":707,"usersCount":215,"tipCount":9,"visitsCount":711,"url":"http://crazeemule.com","tier":"","message":"","currency":"","rating":5.9},{"name":"Thurber's Bar","address":"310 S High St","lat":39.955751,"lng":-82.999359,"neighborhood":"Downtown Columbus","city_fetched":"Columbus,US","state":"OH","country":"United States","canonicalUrl":"https://foursquare.com/v/thurbers-bar/4b5fa14af964a52077c529e3","categoryId":"4bf58dd8d48988d1d5941735","category":"Hotel Bar","checkinsCount":532,"usersCount":365,"tipCount":4,"visitsCount":533,"tier":"","message":"","currency":"","rating":5.9},{"name":"Columbus Gold Gentlemen's Club","phone":"6147640500","twitter":"columbusgoldxxx","address":"5411 Bethel Sawmill Ctr","lat":40.065316816695166,"lng":-83.09428652942246,"city_fetched":"Columbus,US","state":"OH","country":"United States","canonicalUrl":"https://foursquare.com/v/columbus-gold-gentlemens-club/4bb6a6edf562ef3b548d3097","categoryId":"4bf58dd8d48988d1d6941735","category":"Strip Club","checkinsCount":631,"usersCount":343,"tipCount":7,"visitsCount":634,"tier":"","message":"","currency":"","rating":5.8},{"name":"Half Time Tavern","address":"1532 Bethel Rd","lat":40.06514917338339,"lng":-83.05992499849484,"city_fetched":"Columbus,US","state":"OH","country":"United States","canonicalUrl":"https://foursquare.com/v/half-time-tavern/4b2d9cf9f964a52091d924e3","categoryId":"4bf58dd8d48988d116941735","category":"Bar","checkinsCount":2016,"usersCount":663,"tipCount":13,"visitsCount":2147,"tier":"","message":"","currency":"","rating":5.8},{"name":"Cbus Sports Bar","address":"2280 Henderson Rd","lat":40.059328526985446,"lng":-83.07939270039778,"city_fetched":"Columbus,US","state":"OH","country":"United States","canonicalUrl":"https://foursquare.com/v/cbus-sports-bar/4e7bb8f5149507aff785491a","categoryId":"4bf58dd8d48988d116941735","category":"Bar","checkinsCount":438,"usersCount":168,"tipCount":5,"visitsCount":515,"tier":"","message":"","currency":"","rating":5.8},{"name":"Puckers","phone":"6148665194","address":"5200 Riding Club Ln","lat":39.95385825634003,"lng":-82.8577558,"neighborhood":"East Columbus","city_fetched":"Columbus,US","state":"OH","country":"United States","canonicalUrl":"https://foursquare.com/v/puckers/4c80705951ada1cd04260a10","categoryId":"4bf58dd8d48988d116941735","category":"Bar","checkinsCount":246,"usersCount":142,"tipCount":4,"visitsCount":305,"tier":"","message":"","currency":"","rating":5.8},{"name":"Classics","phone":"6147349520","address":"5490 Tuttle Crossing Blvd","lat":40.075609,"lng":-83.14295264,"neighborhood":"Tuttle West","city_fetched":"Columbus,US","state":"OH","country":"United States","canonicalUrl":"https://foursquare.com/v/classics/4b89efeef964a520655732e3","categoryId":"4bf58dd8d48988d116941735","category":"Bar","checkinsCount":1715,"usersCount":636,"tipCount":12,"visitsCount":1919,"tier":2,"message":"Moderate","currency":"$","rating":5.7},{"name":"Toolbox Saloon","address":"744 Frebis Ave","lat":39.93525910156373,"lng":-82.97540195187972,"neighborhood":"South Columbus","city_fetched":"Columbus,US","state":"OH","country":"United States","canonicalUrl":"https://foursquare.com/v/toolbox-saloon/50494218e4b0a7a32d565557","categoryId":"4bf58dd8d48988d116941735","category":"Bar","checkinsCount":617,"usersCount":203,"tipCount":8,"visitsCount":843,"tier":"","message":"","currency":"","rating":5.7},{"name":"Centerfold Club","phone":"6144758911","twitter":"centerfoldclub","address":"2830 Johnstown Rd","lat":40.00603860115524,"lng":-82.91285824423525,"neighborhood":"Port Columbus International Airport","city_fetched":"Columbus,US","state":"OH","country":"United States","canonicalUrl":"https://foursquare.com/v/centerfold-club/4bb16068f964a520c18f3ce3","categoryId":"4bf58dd8d48988d1d6941735","category":"Strip Club","checkinsCount":242,"usersCount":146,"tipCount":7,"visitsCount":248,"url":"http://www.centerfoldclubcolumbus.com","tier":"","message":"","currency":"","rating":5.7},{"name":"Top of the Flint Bar","address":"225 Park","lat":40.127210955752325,"lng":-83.00511696416892,"city_fetched":"Columbus,US","state":"OH","country":"United States","canonicalUrl":"https://foursquare.com/v/top-of-the-flint-bar/4bc9197b511f95210e32adc7","categoryId":"4bf58dd8d48988d116941735","category":"Bar","checkinsCount":360,"usersCount":141,"tipCount":5,"visitsCount":453,"tier":"","message":"","currency":"","rating":5.7},{"name":"Dick's Last Resort","lat":39.969022224770654,"lng":-83.00430892611904,"neighborhood":"Arena District","city_fetched":"Columbus,US","state":"OH","country":"United States","canonicalUrl":"https://foursquare.com/v/dicks-last-resort/5589d706498e364f97aeb39a","categoryId":"4bf58dd8d48988d11d941735","category":"Sports Bar","checkinsCount":235,"usersCount":198,"tipCount":3,"visitsCount":240,"tier":"","message":"","currency":"","rating":5.7},{"name":"Anheuser-Busch Columbus Brewery","phone":"6148886644","address":"700 Schrock Rd","lat":40.10446761274666,"lng":-82.99325466156006,"neighborhood":"Busch","city_fetched":"Columbus,US","state":"OH","country":"United States","canonicalUrl":"https://foursquare.com/v/anheuserbusch-columbus-brewery/4ba373a4f964a5202b3e38e3","categoryId":"50327c8591d4c4b30a586d5d","category":"Brewery","checkinsCount":3967,"usersCount":930,"tipCount":17,"visitsCount":4161,"url":"http://www.anheuser-busch.com","tier":"","message":"","currency":"","rating":5.7},{"name":"Slapsy Maxies","phone":"6145057475","address":"158 Hutchinson Ave","lat":40.114866270385626,"lng":-83.01080443278677,"neighborhood":"Crosswoods","city_fetched":"Columbus,US","state":"OH","country":"United States","canonicalUrl":"https://foursquare.com/v/slapsy-maxies/52816abc11d2562682dd8ff2","categoryId":"4bf58dd8d48988d116941735","category":"Bar","checkinsCount":220,"usersCount":106,"tipCount":4,"visitsCount":227,"url":"http://www.slapsymaxies.com","tier":"","message":"","currency":"","rating":5.7},{"name":"Sirens","phone":"6147972000","address":"6190 Cleveland ave","lat":40.100236239204634,"lng":-82.94951246554434,"city_fetched":"Columbus,US","state":"OH","country":"United States","canonicalUrl":"https://foursquare.com/v/sirens/4e98f0297ee571e1ee61c460","categoryId":"4bf58dd8d48988d1d6941735","category":"Strip Club","checkinsCount":485,"usersCount":187,"tipCount":4,"visitsCount":526,"tier":"","message":"","currency":"","rating":5.6},{"name":"Big Bar on 2","phone":"6144631234","address":"350 N High St","lat":39.9694593642522,"lng":-83.00109241693251,"neighborhood":"Downtown Columbus","city_fetched":"Columbus,US","state":"OH","country":"United States","canonicalUrl":"https://foursquare.com/v/big-bar-on-2/4b663d96f964a520501a2be3","categoryId":"4bf58dd8d48988d116941735","category":"Bar","checkinsCount":1320,"usersCount":654,"tipCount":9,"visitsCount":1328,"tier":"","message":"","currency":"","rating":5.5},{"name":"Average Joe's Pub and Grill","phone":"6144765637","twitter":"averagejoespub","address":"4949 E Dublin Granville Rd.","lat":40.07831770782302,"lng":-82.86386489868164,"city_fetched":"Columbus,US","state":"OH","country":"United States","canonicalUrl":"https://foursquare.com/v/average-joes-pub-and-grill/4b1d4828f964a520240e24e3","categoryId":"4bf58dd8d48988d116941735","category":"Bar","checkinsCount":4936,"usersCount":1565,"tipCount":43,"visitsCount":5155,"tier":2,"message":"Moderate","currency":"$","rating":5.5},{"name":"Sloopy's Pub","phone":"6147715534","address":"5488 Roberts Rd","lat":40.00387638385748,"lng":-83.1546323820689,"neighborhood":"Northwest Columbus","city_fetched":"Columbus,US","state":"OH","country":"United States","canonicalUrl":"https://foursquare.com/v/sloopys-pub/4c1534521b5cef3bcd41eec4","categoryId":"4bf58dd8d48988d116941735","category":"Bar","checkinsCount":798,"usersCount":205,"tipCount":4,"visitsCount":816,"tier":"","message":"","currency":"","rating":5.5},{"name":"O'Malley's","address":"Norton Road","lat":39.94148560735854,"lng":-83.14196762127555,"neighborhood":"Cherry Creek","city_fetched":"Columbus,US","state":"OH","country":"United States","canonicalUrl":"https://foursquare.com/v/omalleys/4ccde60772106dcba8d4a599","categoryId":"4bf58dd8d48988d116941735","category":"Bar","checkinsCount":342,"usersCount":150,"tipCount":3,"visitsCount":439,"tier":"","message":"","currency":"","rating":5.5},{"name":"Bethel Road Pub","phone":"6144599987","address":"1375 Bethel Rd","lat":40.0632933843751,"lng":-83.05592476877224,"city_fetched":"Columbus,US","state":"OH","country":"United States","canonicalUrl":"https://foursquare.com/v/bethel-road-pub/4c00986cad15a593983d8e73","categoryId":"4bf58dd8d48988d116941735","category":"Bar","checkinsCount":966,"usersCount":312,"tipCount":6,"visitsCount":969,"tier":"","message":"","currency":"","rating":5.4},{"name":"Gaswerks","phone":"6142281988","address":"477 Park St","lat":39.971985,"lng":-83.00502698680093,"neighborhood":"Downtown Columbus","city_fetched":"Columbus,US","state":"OH","country":"United States","canonicalUrl":"https://foursquare.com/v/gaswerks/4b12054df964a520488823e3","categoryId":"4bf58dd8d48988d116941735","category":"Bar","checkinsCount":4553,"usersCount":2313,"tipCount":24,"visitsCount":4609,"tier":"","message":"","currency":"","rating":5.3},{"name":"Donerick's Pub","phone":"6148486786","address":"1137 Worthington Woods Blvd","lat":40.117922777929934,"lng":-82.98701244379913,"city_fetched":"Columbus,US","state":"OH","country":"United States","canonicalUrl":"https://foursquare.com/v/donericks-pub/4c6f3d18d7fab1f71e085bc9","categoryId":"4bf58dd8d48988d11b941735","category":"Pub","checkinsCount":446,"usersCount":113,"tipCount":7,"visitsCount":454,"tier":2,"message":"Moderate","currency":"$","rating":5.3},{"name":"Fitzwilly's Pub","phone":"6147941237","address":"161","lat":40.08778536287331,"lng":-82.97448331336346,"neighborhood":"Northgate","city_fetched":"Columbus,US","state":"OH","country":"United States","canonicalUrl":"https://foursquare.com/v/fitzwillys-pub/4d1ad02295d5f04df828b882","categoryId":"4bf58dd8d48988d118941735","category":"Dive Bar","checkinsCount":331,"usersCount":122,"tipCount":3,"visitsCount":339,"tier":"","message":"","currency":"","rating":5.2},{"name":"The Big Bar & Grill","phone":"6142941800","twitter":"thebigbar","address":"1716 N High St","lat":39.99752509329693,"lng":-83.00750429156035,"neighborhood":"University","city_fetched":"Columbus,US","state":"OH","country":"United States","canonicalUrl":"https://foursquare.com/v/the-big-bar--grill/4c7ec1b2fb13a1cd09a59ea4","categoryId":"4bf58dd8d48988d116941735","category":"Bar","checkinsCount":4670,"usersCount":1944,"tipCount":17,"visitsCount":4694,"url":"http://www.thebigbar.net","tier":2,"message":"Moderate","currency":"$","rating":5.2},{"name":"Garden Inn","address":"6091 Cleveland Ave","lat":40.09724025969378,"lng":-82.95087255830761,"city_fetched":"Columbus,US","state":"OH","country":"United States","canonicalUrl":"https://foursquare.com/v/garden-inn/4b1d98a5f964a520d71224e3","categoryId":"4bf58dd8d48988d1d4941735","category":"Speakeasy","checkinsCount":407,"usersCount":50,"tipCount":6,"visitsCount":452,"tier":"","message":"","currency":"","rating":5.1}]