[{"name":"Speakeasy","phone":"8032550869","address":"711 Saluda Ave","lat":33.998703265581184,"lng":-81.0176146030426,"neighborhood":"Five Points","city_fetched":"Columbia,US","state":"SC","country":"United States","canonicalUrl":"https://foursquare.com/v/speakeasy/4b47ef31f964a5206b4426e3","categoryId":"4bf58dd8d48988d116941735","category":"Bar","checkinsCount":3453,"usersCount":992,"tipCount":28,"visitsCount":3636,"url":"http://delaneysspeakeasy.com","tier":2,"message":"Moderate","currency":"$","rating":9.2},{"name":"Publick House","phone":"8032562207","address":"2307 Devine St","lat":33.99885250856262,"lng":-81.01172270877578,"city_fetched":"Columbia,US","state":"SC","country":"United States","canonicalUrl":"https://foursquare.com/v/publick-house/4b43ea31f964a520f2ed25e3","categoryId":"4bf58dd8d48988d116941735","category":"Bar","checkinsCount":2940,"usersCount":1068,"tipCount":33,"visitsCount":3637,"url":"http://publick-house.com","tier":2,"message":"Moderate","currency":"$","rating":9.1},{"name":"Hunter-Gatherer Brewery & Ale House","phone":"8037480540","twitter":"hgbrewery","address":"900 Main St","lat":33.997386,"lng":-81.031569,"neighborhood":"University of South Carolina","city_fetched":"Columbia,US","state":"SC","country":"United States","canonicalUrl":"https://foursquare.com/v/huntergatherer-brewery--ale-house/4b4e2860f964a52062e326e3","categoryId":"50327c8591d4c4b30a586d5d","category":"Brewery","checkinsCount":3629,"usersCount":1836,"tipCount":40,"visitsCount":3928,"url":"http://huntergathererbrewery.com","tier":2,"message":"Moderate","currency":"$","rating":8.9},{"name":"The Whig","phone":"8039318852","twitter":"whigsc","address":"1200 Main St","lat":34.001585113746614,"lng":-81.0334825515747,"neighborhood":"Downtown Columbia","city_fetched":"Columbia,US","state":"SC","country":"United States","canonicalUrl":"https://foursquare.com/v/the-whig/4b456168f964a520b70b26e3","categoryId":"4bf58dd8d48988d118941735","category":"Dive Bar","checkinsCount":5282,"usersCount":1398,"tipCount":34,"visitsCount":5724,"url":"http://thewhig.org","tier":2,"message":"Moderate","currency":"$","rating":8.7},{"name":"Flying Saucer Draught Emporium","phone":"8032562055","address":"931 Senate St","lat":33.99931032968888,"lng":-81.03675216436386,"neighborhood":"The Congaree Vista","city_fetched":"Columbia,US","state":"SC","country":"United States","canonicalUrl":"https://foursquare.com/v/flying-saucer-draught-emporium/4adfbab3f964a5200e7d21e3","categoryId":"4bf58dd8d48988d117941735","category":"Beer Garden","checkinsCount":18367,"usersCount":4173,"tipCount":64,"visitsCount":19446,"url":"http://www.beerknurd.com","tier":2,"message":"Moderate","currency":"$","rating":8.6},{"name":"River Rat Brewery","phone":"8037245712","twitter":"riverratbrewery","address":"1231 Shop Rd","lat":33.97281352031239,"lng":-81.0110646009699,"neighborhood":"Southeastern Columbia","city_fetched":"Columbia,US","state":"SC","country":"United States","canonicalUrl":"https://foursquare.com/v/river-rat-brewery/5300d915498e74fe0537e72e","categoryId":"50327c8591d4c4b30a586d5d","category":"Brewery","checkinsCount":655,"usersCount":517,"tipCount":5,"visitsCount":1067,"url":"http://riverratbrewery.com","tier":"","message":"","currency":"","rating":8.5},{"name":"Liberty Tap Room & Grill","phone":"8034614677","address":"828 Gervais St","lat":33.99928903170189,"lng":-81.03849999259725,"neighborhood":"The Congaree Vista","city_fetched":"Columbia,US","state":"SC","country":"United States","canonicalUrl":"https://foursquare.com/v/liberty-tap-room--grill/4cae595175ebb60c0ccfb3ad","categoryId":"4bf58dd8d48988d116941735","category":"Bar","checkinsCount":7731,"usersCount":3767,"tipCount":57,"visitsCount":7904,"url":"http://libertytaproom.com","tier":2,"message":"Moderate","currency":"$","rating":8.4},{"name":"Delaney's Music Pub & Eatery","phone":"8037792345","address":"741 Saluda Ave","lat":33.99942480993582,"lng":-81.01724681348855,"neighborhood":"Five Points","city_fetched":"Columbia,US","state":"SC","country":"United States","canonicalUrl":"https://foursquare.com/v/delaneys-music-pub--eatery/4b4cd7f8f964a5204cc126e3","categoryId":"4bf58dd8d48988d116941735","category":"Bar","checkinsCount":4484,"usersCount":1623,"tipCount":22,"visitsCount":4531,"url":"http://www.delaneyspub.com","tier":2,"message":"Moderate","currency":"$","rating":8.4},{"name":"The Bird Dog","lat":33.99917941648919,"lng":-81.0161944598298,"neighborhood":"Five Points","city_fetched":"Columbia,US","state":"SC","country":"United States","canonicalUrl":"https://foursquare.com/v/the-bird-dog/51304a66e4b016451f48dade","categoryId":"4bf58dd8d48988d116941735","category":"Bar","checkinsCount":328,"usersCount":143,"tipCount":3,"visitsCount":332,"tier":"","message":"","currency":"","rating":8.3},{"name":"Art Bar","phone":"8039290198","twitter":"artbarsc","address":"1211 Park St","lat":34.00071062677428,"lng":-81.03728216952825,"neighborhood":"Arsenal Hill","city_fetched":"Columbia,US","state":"SC","country":"United States","canonicalUrl":"https://foursquare.com/v/art-bar/4b454d04f964a520330a26e3","categoryId":"4bf58dd8d48988d116941735","category":"Bar","checkinsCount":6401,"usersCount":1458,"tipCount":17,"visitsCount":6905,"url":"http://www.artbarsc.com","tier":1,"message":"Cheap","currency":"$","rating":8.3},{"name":"Jake's Bar & Grill","phone":"8032525253","twitter":"jakesofcolumbia","address":"2112 Devine St","lat":33.99857191201041,"lng":-81.01505631805696,"neighborhood":"Five Points","city_fetched":"Columbia,US","state":"SC","country":"United States","canonicalUrl":"https://foursquare.com/v/jakes-bar--grill/4e45a369d4c065cb6b94a30b","categoryId":"4bf58dd8d48988d117941735","category":"Beer Garden","checkinsCount":3548,"usersCount":1231,"tipCount":17,"visitsCount":3896,"url":"http://jakesofcolumbia.com","tier":1,"message":"Cheap","currency":"$","rating":8.2},{"name":"Cock & Bull Pub Grill","phone":"8032514474","twitter":"cocknbullsc","address":"326 S Edisto Ave","lat":33.98565384415465,"lng":-81.01167955433377,"neighborhood":"Hollywood - Rosehill","city_fetched":"Columbia,US","state":"SC","country":"United States","canonicalUrl":"https://foursquare.com/v/cock--bull-pub-grill/4b49504af964a520356d26e3","categoryId":"4bf58dd8d48988d116941735","category":"Bar","checkinsCount":2408,"usersCount":687,"tipCount":17,"visitsCount":2676,"url":"http://www.cnbpub.net","tier":1,"message":"Cheap","currency":"$","rating":8.1},{"name":"Wet Willie's","phone":"8037795650","address":"800 Gervais St","lat":33.99906515,"lng":-81.04010906,"neighborhood":"The Congaree Vista","city_fetched":"Columbia,US","state":"SC","country":"United States","canonicalUrl":"https://foursquare.com/v/wet-willies/4b80a79cf964a520f48330e3","categoryId":"4bf58dd8d48988d116941735","category":"Bar","checkinsCount":2643,"usersCount":1520,"tipCount":24,"visitsCount":2665,"url":"http://www.wetwillies.com","tier":2,"message":"Moderate","currency":"$","rating":8.1},{"name":"Conquest Brewing Company","phone":"8037123063","twitter":"conquestbrewing","address":"847 S Stadium Rd","lat":33.96987475894847,"lng":-81.02496461251592,"city_fetched":"Columbia,US","state":"SC","country":"United States","canonicalUrl":"https://foursquare.com/v/conquest-brewing-company/5023e3b5e4b0e6fe1a72aa3c","categoryId":"50327c8591d4c4b30a586d5d","category":"Brewery","checkinsCount":867,"usersCount":480,"tipCount":5,"visitsCount":1218,"url":"http://www.conquestbrewing.com","tier":1,"message":"Cheap","currency":"$","rating":8},{"name":"World of Beer","phone":"8035096020","address":"902 Gervais St","lat":33.9990029012441,"lng":-81.03798319842836,"neighborhood":"The Congaree Vista","city_fetched":"Columbia,US","state":"SC","country":"United States","canonicalUrl":"https://foursquare.com/v/world-of-beer/4ef126b14690c916cc5c43cc","categoryId":"4bf58dd8d48988d116941735","category":"Bar","checkinsCount":5843,"usersCount":2195,"tipCount":43,"visitsCount":6090,"url":"http://worldofbeer.com/Locations/TheVista","tier":2,"message":"Moderate","currency":"$","rating":8},{"name":"Bar None","phone":"8032543354","address":"620 Harden St","lat":33.99801836753352,"lng":-81.01530253887177,"neighborhood":"Five Points","city_fetched":"Columbia,US","state":"SC","country":"United States","canonicalUrl":"https://foursquare.com/v/bar-none/4b4cd98bf964a52099c126e3","categoryId":"4bf58dd8d48988d116941735","category":"Bar","checkinsCount":2605,"usersCount":778,"tipCount":15,"visitsCount":2699,"tier":"","message":"","currency":"","rating":8},{"name":"Polliwogs","phone":"8037365775","address":"10009 Two Notch Rd","lat":34.112895,"lng":-80.89469365,"city_fetched":"Columbia,US","state":"SC","country":"United States","canonicalUrl":"https://foursquare.com/v/polliwogs/4db4fce70cb6729b6a9dd2be","categoryId":"4bf58dd8d48988d116941735","category":"Bar","checkinsCount":955,"usersCount":456,"tipCount":11,"visitsCount":1119,"url":"http://polliwogsc.com","tier":2,"message":"Moderate","currency":"$","rating":7.8},{"name":"PT's 1109","phone":"8032538900","address":"1109 Assembly St","lat":33.999916222249816,"lng":-81.03518983075271,"neighborhood":"The Congaree Vista","city_fetched":"Columbia,US","state":"SC","country":"United States","canonicalUrl":"https://foursquare.com/v/pts-1109/4baef5dff964a52018e43be3","categoryId":"4bf58dd8d48988d1d8941735","category":"Gay Bar","checkinsCount":6687,"usersCount":587,"tipCount":12,"visitsCount":6779,"url":"http://www.pts1109.com","tier":2,"message":"Moderate","currency":"$","rating":7.7},{"name":"Tin Roof","phone":"8037711558","address":"1022 Senate St","lat":33.99878598,"lng":-81.035429,"neighborhood":"The Congaree Vista","city_fetched":"Columbia,US","state":"SC","country":"United States","canonicalUrl":"https://foursquare.com/v/tin-roof/4c92a8456cfea0934caab38b","categoryId":"4bf58dd8d48988d116941735","category":"Bar","checkinsCount":6082,"usersCount":2384,"tipCount":28,"visitsCount":6577,"url":"http://tinroofbars.com/home/columbia/","tier":2,"message":"Moderate","currency":"$","rating":7.7},{"name":"Swamp Cabbage Brewing","twitter":"swampcabbagebru","address":"921 Brookwood Dr","lat":33.97142885137886,"lng":-81.02804418241114,"city_fetched":"Columbia,US","state":"SC","country":"United States","canonicalUrl":"https://foursquare.com/v/swamp-cabbage-brewing/53bdbfbb498e3a98e0307d22","categoryId":"50327c8591d4c4b30a586d5d","category":"Brewery","checkinsCount":128,"usersCount":144,"tipCount":3,"visitsCount":263,"tier":"","message":"","currency":"","rating":7.7},{"name":"The Loose Cockaboose","address":"936 S Stadium Rd","lat":33.970313088968325,"lng":-81.02371872779378,"city_fetched":"Columbia,US","state":"SC","country":"United States","canonicalUrl":"https://foursquare.com/v/the-loose-cockaboose/4b9e91d1f964a5200df036e3","categoryId":"4bf58dd8d48988d116941735","category":"Bar","checkinsCount":1083,"usersCount":571,"tipCount":6,"visitsCount":1168,"tier":"","message":"","currency":"","rating":7.7},{"name":"Capital Club","phone":"8032566464","address":"1002 Gervais St","lat":34.000302,"lng":-81.036563,"neighborhood":"The Congaree Vista","city_fetched":"Columbia,US","state":"SC","country":"United States","canonicalUrl":"https://foursquare.com/v/capital-club/4b497eaff964a520917026e3","categoryId":"4bf58dd8d48988d1d4941735","category":"Speakeasy","checkinsCount":3508,"usersCount":395,"tipCount":16,"visitsCount":3800,"url":"http://capitalclubsc.com","tier":2,"message":"Moderate","currency":"$","rating":7.6},{"name":"L Word Bar","phone":"8037942111","address":"625 Frink St","lat":33.97304222280582,"lng":-81.05379782831521,"neighborhood":"West Columbia","city_fetched":"Columbia,US","state":"SC","country":"United States","canonicalUrl":"https://foursquare.com/v/l-word-bar/4c15615ea5eb76b09948c3b7","categoryId":"4bf58dd8d48988d1d8941735","category":"Gay Bar","checkinsCount":944,"usersCount":153,"tipCount":6,"visitsCount":1096,"tier":"","message":"","currency":"","rating":7.6},{"name":"The Ale House","phone":"8033760069","address":"12 Tommy Cir","lat":34.031344,"lng":-80.99704914,"neighborhood":"Southeastern Columbia","city_fetched":"Columbia,US","state":"SC","country":"United States","canonicalUrl":"https://foursquare.com/v/the-ale-house/4b7c8e00f964a520bd9a2fe3","categoryId":"4bf58dd8d48988d116941735","category":"Bar","checkinsCount":195,"usersCount":71,"tipCount":4,"visitsCount":213,"tier":"","message":"","currency":"","rating":7.6},{"name":"Hickory Tavern","lat":33.999113,"lng":-81.037703,"neighborhood":"The Congaree Vista","city_fetched":"Columbia,US","state":"SC","country":"United States","canonicalUrl":"https://foursquare.com/v/hickory-tavern/5494d25b498e91080c1bec40","categoryId":"4bf58dd8d48988d11d941735","category":"Sports Bar","checkinsCount":421,"usersCount":324,"tipCount":7,"visitsCount":560,"tier":"","message":"","currency":"","rating":7.6},{"name":"Sharky's","phone":"8034665566","twitter":"sharkyssc","address":"636 Harden St","lat":33.999080802342355,"lng":-81.01615670183541,"neighborhood":"Five Points","city_fetched":"Columbia,US","state":"SC","country":"United States","canonicalUrl":"https://foursquare.com/sharkyssc","categoryId":"4bf58dd8d48988d116941735","category":"Bar","checkinsCount":2029,"usersCount":737,"tipCount":8,"visitsCount":2030,"tier":"","message":"","currency":"","rating":7.6},{"name":"Carolina Ale House","phone":"8034076996","address":"277 Columbiana Dr","lat":34.08070874840558,"lng":-81.16050124168396,"neighborhood":"Northwest Columbia","city_fetched":"Columbia,US","state":"SC","country":"United States","canonicalUrl":"https://foursquare.com/v/carolina-ale-house/4b5a4708f964a52092b928e3","categoryId":"4bf58dd8d48988d116941735","category":"Bar","checkinsCount":4338,"usersCount":1992,"tipCount":43,"visitsCount":5057,"url":"http://www.carolinaalehouse.com","tier":2,"message":"Moderate","currency":"$","rating":7.6},{"name":"Group Therapy","phone":"8032561203","address":"2107 Greene St","lat":34.000649019257395,"lng":-81.01633470365068,"neighborhood":"Five Points","city_fetched":"Columbia,US","state":"SC","country":"United States","canonicalUrl":"https://foursquare.com/v/group-therapy/4b53efacf964a52007af27e3","categoryId":"4bf58dd8d48988d116941735","category":"Bar","checkinsCount":3987,"usersCount":849,"tipCount":14,"visitsCount":4007,"url":"http://grouptherapybar.com","tier":"","message":"","currency":"","rating":7.6},{"name":"Hampton Street Vineyard","phone":"8032520850","twitter":"papajohns","address":"1201 Hampton St","lat":34.00540607,"lng":-81.035075,"neighborhood":"Downtown Columbia","city_fetched":"Columbia,US","state":"SC","country":"United States","canonicalUrl":"https://foursquare.com/v/hampton-street-vineyard/4b6a00cff964a52010c12be3","categoryId":"4bf58dd8d48988d123941735","category":"Wine Bar","checkinsCount":431,"usersCount":261,"tipCount":6,"visitsCount":438,"url":"http://hamptonstreetvineyard.com","tier":"","message":"","currency":"","rating":7.5},{"name":"Nightcaps","phone":"8037716575","address":"2722 Devine St","lat":33.998157143834234,"lng":-81.00445085217542,"neighborhood":"Shandon","city_fetched":"Columbia,US","state":"SC","country":"United States","canonicalUrl":"https://foursquare.com/v/nightcaps/4b4cd6fef964a5201ec126e3","categoryId":"4bf58dd8d48988d116941735","category":"Bar","checkinsCount":1255,"usersCount":453,"tipCount":3,"visitsCount":1518,"tier":"","message":"","currency":"","rating":7.5},{"name":"Carolina Ale House","phone":"8032277151","address":"708 Lady St","lat":34.00021145632357,"lng":-81.04140197293965,"neighborhood":"Arsenal Hill","city_fetched":"Columbia,US","state":"SC","country":"United States","canonicalUrl":"https://foursquare.com/v/carolina-ale-house/4b564baaf964a520d10928e3","categoryId":"4bf58dd8d48988d116941735","category":"Bar","checkinsCount":8404,"usersCount":3764,"tipCount":54,"visitsCount":8851,"url":"http://www.carolinaalehouse.com","tier":2,"message":"Moderate","currency":"$","rating":7.5},{"name":"Wine Down On Main","address":"Main Street","lat":34.005726384994844,"lng":-81.03564281603033,"neighborhood":"Downtown Columbia","city_fetched":"Columbia,US","state":"SC","country":"United States","canonicalUrl":"https://foursquare.com/v/wine-down-on-main/4efbce21f790d5546d77b285","categoryId":"4bf58dd8d48988d123941735","category":"Wine Bar","checkinsCount":318,"usersCount":151,"tipCount":3,"visitsCount":321,"tier":"","message":"","currency":"","rating":7.4},{"name":"Tsubaki Restaurant Lounge","phone":"8037367474","address":"224 Oneil Ct #10","lat":34.06915455685314,"lng":-80.95483548614536,"city_fetched":"Columbia,US","state":"SC","country":"United States","canonicalUrl":"https://foursquare.com/v/tsubaki-restaurant-lounge/4ba6ca06f964a520ba6f39e3","categoryId":"4bf58dd8d48988d120941735","category":"Karaoke Bar","checkinsCount":347,"usersCount":186,"tipCount":6,"visitsCount":353,"url":"http://tsubakikaraoke.net","tier":"","message":"","currency":"","rating":7.3},{"name":"Social Bar And Lounge","phone":"8036034313","twitter":"barsocial","address":"918 Gervais St","lat":33.99950136241298,"lng":-81.03746551615139,"neighborhood":"The Congaree Vista","city_fetched":"Columbia,US","state":"SC","country":"United States","canonicalUrl":"https://foursquare.com/barsocial","categoryId":"4bf58dd8d48988d116941735","category":"Bar","checkinsCount":1250,"usersCount":561,"tipCount":16,"visitsCount":1264,"url":"http://www.socialcolumbiasc.com","tier":"","message":"","currency":"","rating":7.3},{"name":"Heartbreakers Gentlemen's Club","phone":"8037987788","address":"800 Bush River Rd","lat":34.02986981733463,"lng":-81.10015035744483,"neighborhood":"Northwest Columbia","city_fetched":"Columbia,US","state":"SC","country":"United States","canonicalUrl":"https://foursquare.com/v/heartbreakers-gentlemens-club/4b870e2cf964a520f5ad31e3","categoryId":"4bf58dd8d48988d1d6941735","category":"Strip Club","checkinsCount":775,"usersCount":232,"tipCount":3,"visitsCount":787,"tier":"","message":"","currency":"","rating":7.2},{"name":"Jillian's","phone":"8037797789","address":"800 Gervais St","lat":33.99853723861661,"lng":-81.039854375753,"neighborhood":"The Congaree Vista","city_fetched":"Columbia,US","state":"SC","country":"United States","canonicalUrl":"https://foursquare.com/v/jillians/4b80926bf964a520ce7d30e3","categoryId":"4bf58dd8d48988d11d941735","category":"Sports Bar","checkinsCount":2870,"usersCount":1645,"tipCount":13,"visitsCount":2935,"url":"http://jillianscolumbia.com","tier":2,"message":"Moderate","currency":"$","rating":7.2},{"name":"Uncle Fester's","phone":"8037489897","address":"522 Devine St","lat":33.990979,"lng":-81.040827,"neighborhood":"The Congaree Vista","city_fetched":"Columbia,US","state":"SC","country":"United States","canonicalUrl":"https://foursquare.com/v/uncle-festers/4b4c9d49f964a520a2b726e3","categoryId":"4bf58dd8d48988d120941735","category":"Karaoke Bar","checkinsCount":2330,"usersCount":412,"tipCount":12,"visitsCount":2551,"tier":2,"message":"Moderate","currency":"$","rating":7.2},{"name":"Red Hots Bar","twitter":"redhotbar","address":"634 Harden St","lat":33.99840567447349,"lng":-81.01541772030517,"neighborhood":"Five Points","city_fetched":"Columbia,US","state":"SC","country":"United States","canonicalUrl":"https://foursquare.com/v/red-hots-bar/50f4f669e4b0e684b763b707","categoryId":"4bf58dd8d48988d11f941735","category":"Nightclub","checkinsCount":77,"usersCount":40,"tipCount":1,"visitsCount":77,"tier":"","message":"","currency":"","rating":7},{"name":"CJ's","phone":"8037488694","address":"749 Saluda Ave","lat":33.999929,"lng":-81.01704,"neighborhood":"Five Points","city_fetched":"Columbia,US","state":"SC","country":"United States","canonicalUrl":"https://foursquare.com/v/cjs/4b4ca0dcf964a52016b826e3","categoryId":"4bf58dd8d48988d116941735","category":"Bar","checkinsCount":1142,"usersCount":361,"tipCount":8,"visitsCount":1168,"tier":1,"message":"Cheap","currency":"$","rating":7},{"name":"The Vault","address":"1400 Main St","lat":34.004066,"lng":-81.03448744,"neighborhood":"Downtown Columbia","city_fetched":"Columbia,US","state":"SC","country":"United States","canonicalUrl":"https://foursquare.com/v/the-vault/4d129b27957fa1cd92406f9f","categoryId":"4bf58dd8d48988d121941735","category":"Lounge","checkinsCount":255,"usersCount":204,"tipCount":5,"visitsCount":256,"tier":"","message":"","currency":"","rating":7},{"name":"Kelly's Deli & Pub","phone":"8032544464","address":"1001 Washington St","lat":34.003153120734574,"lng":-81.037935,"neighborhood":"Arsenal Hill","city_fetched":"Columbia,US","state":"SC","country":"United States","canonicalUrl":"https://foursquare.com/v/kellys-deli--pub/4b5a0e95f964a52083aa28e3","categoryId":"4bf58dd8d48988d116941735","category":"Bar","checkinsCount":2804,"usersCount":818,"tipCount":13,"visitsCount":3244,"tier":"","message":"","currency":"","rating":7},{"name":"Platinum Plus","phone":"8037310555","address":"362 Jacob Rd","lat":34.0164654101251,"lng":-81.08073952918534,"neighborhood":"Northwest Columbia","city_fetched":"Columbia,US","state":"SC","country":"United States","canonicalUrl":"https://foursquare.com/v/platinum-plus/4b80c79ef964a520a58b30e3","categoryId":"4bf58dd8d48988d1d6941735","category":"Strip Club","checkinsCount":1320,"usersCount":672,"tipCount":8,"visitsCount":1853,"tier":"","message":"","currency":"","rating":6.9},{"name":"East Room","phone":"8037316078","address":"3315 Broad River Rd","lat":34.05258,"lng":-81.108696,"neighborhood":"Northwest Columbia","city_fetched":"Columbia,US","state":"SC","country":"United States","canonicalUrl":"https://foursquare.com/v/east-room/4bad90d4f964a520fe5b3be3","categoryId":"4bf58dd8d48988d116941735","category":"Bar","checkinsCount":360,"usersCount":109,"tipCount":3,"visitsCount":365,"tier":"","message":"","currency":"","rating":6.8},{"name":"Uncle Louie's","phone":"8039339833","twitter":"unclelouie","address":"1125 Park St","lat":33.99955715671191,"lng":-81.03704452514648,"neighborhood":"The Congaree Vista","city_fetched":"Columbia,US","state":"SC","country":"United States","canonicalUrl":"https://foursquare.com/v/uncle-louies/4b4c9d04f964a52098b726e3","categoryId":"4bf58dd8d48988d118941735","category":"Dive Bar","checkinsCount":2266,"usersCount":550,"tipCount":10,"visitsCount":2275,"tier":1,"message":"Cheap","currency":"$","rating":6.8},{"name":"Cover 3","lat":33.99926247568767,"lng":-81.01624839979043,"neighborhood":"Five Points","city_fetched":"Columbia,US","state":"SC","country":"United States","canonicalUrl":"https://foursquare.com/v/cover-3/524504d811d2536c68fbdeea","categoryId":"4bf58dd8d48988d116941735","category":"Bar","checkinsCount":113,"usersCount":59,"tipCount":3,"visitsCount":114,"tier":"","message":"","currency":"","rating":6.8},{"name":"Pinch","address":"Harden St","lat":33.99849,"lng":-81.015608,"neighborhood":"Five Points","city_fetched":"Columbia,US","state":"SC","country":"United States","canonicalUrl":"https://foursquare.com/v/pinch/4f2ca7a2e4b0118a85033686","categoryId":"4bf58dd8d48988d116941735","category":"Bar","checkinsCount":1191,"usersCount":337,"tipCount":5,"visitsCount":1221,"tier":1,"message":"Cheap","currency":"$","rating":6.8},{"name":"Pavlov's","address":"2000B Greene St","lat":33.999201369783876,"lng":-81.01824760437012,"neighborhood":"Five Points","city_fetched":"Columbia,US","state":"SC","country":"United States","canonicalUrl":"https://foursquare.com/v/pavlovs/4be8c3946af1ef3b63b01b96","categoryId":"4bf58dd8d48988d116941735","category":"Bar","checkinsCount":2497,"usersCount":591,"tipCount":10,"visitsCount":2505,"tier":"","message":"","currency":"","rating":6.8},{"name":"Foxfield Bar and Grille","phone":"8037280420","address":"406 Howard St","lat":33.98688420167073,"lng":-81.00532480508801,"neighborhood":"Central Rosewood","city_fetched":"Columbia,US","state":"SC","country":"United States","canonicalUrl":"https://foursquare.com/v/foxfield-bar-and-grille/4e1b8d07cc3f5923601f4679","categoryId":"4bf58dd8d48988d118941735","category":"Dive Bar","checkinsCount":344,"usersCount":99,"tipCount":4,"visitsCount":345,"tier":"","message":"","currency":"","rating":6.7},{"name":"Kildare's Irish Pub","address":"724 Harden St","lat":33.9995281188858,"lng":-81.0160218517078,"neighborhood":"Five Points","city_fetched":"Columbia,US","state":"SC","country":"United States","canonicalUrl":"https://foursquare.com/v/kildares-irish-pub/507e154de4b0db330d528852","categoryId":"4bf58dd8d48988d116941735","category":"Bar","checkinsCount":301,"usersCount":124,"tipCount":3,"visitsCount":302,"tier":"","message":"","currency":"","rating":6.7},{"name":"The Thirsty Parrot","address":"734 Harden St","lat":33.999903366666665,"lng":-81.01617275,"neighborhood":"Five Points","city_fetched":"Columbia,US","state":"SC","country":"United States","canonicalUrl":"https://foursquare.com/v/the-thirsty-parrot/4c2d8cb24e132d7f91ae9cdf","categoryId":"4bf58dd8d48988d116941735","category":"Bar","checkinsCount":555,"usersCount":231,"tipCount":8,"visitsCount":558,"tier":"","message":"","currency":"","rating":6.6},{"name":"Blue Tapas Bar & Cocktail Lounge","phone":"8032514447","twitter":"blueinthevista","address":"721A Lady St","lat":34.00090774723099,"lng":-81.04143971883214,"neighborhood":"Arsenal Hill","city_fetched":"Columbia,US","state":"SC","country":"United States","canonicalUrl":"https://foursquare.com/v/blue-tapas-bar--cocktail-lounge/4b998506f964a520fa8035e3","categoryId":"4bf58dd8d48988d11e941735","category":"Cocktail Bar","checkinsCount":4038,"usersCount":842,"tipCount":34,"visitsCount":4103,"url":"http://www.blueinthevista.org","tier":2,"message":"Moderate","currency":"$","rating":6.4},{"name":"The Wild Hare Sports Cafe","phone":"8039290374","address":"902 Gervais St","lat":33.99929577137322,"lng":-81.03811801096238,"neighborhood":"The Congaree Vista","city_fetched":"Columbia,US","state":"SC","country":"United States","canonicalUrl":"https://foursquare.com/v/the-wild-hare-sports-cafe/4b4bd984f964a5208aa926e3","categoryId":"4bf58dd8d48988d116941735","category":"Bar","checkinsCount":5756,"usersCount":1649,"tipCount":43,"visitsCount":5786,"url":"http://www.wildharesportscafe.com","tier":"","message":"","currency":"","rating":6.3},{"name":"The Woody In The Vista","phone":"8037799663","address":"808 Lady St","lat":34.00041813944638,"lng":-81.03971417380701,"neighborhood":"Arsenal Hill","city_fetched":"Columbia,US","state":"SC","country":"United States","canonicalUrl":"https://foursquare.com/v/the-woody-in-the-vista/4e9b5c208b81c0254eb7daa6","categoryId":"4bf58dd8d48988d11f941735","category":"Nightclub","checkinsCount":1533,"usersCount":498,"tipCount":10,"visitsCount":1652,"tier":"","message":"","currency":"","rating":6.2},{"name":"Pour House","phone":"8034090004","address":"800 Harden St","lat":34.000660086718696,"lng":-81.01635932922363,"neighborhood":"Five Points","city_fetched":"Columbia,US","state":"SC","country":"United States","canonicalUrl":"https://foursquare.com/v/pour-house/4ba83fb7f964a5204cd339e3","categoryId":"4bf58dd8d48988d11b941735","category":"Pub","checkinsCount":2114,"usersCount":646,"tipCount":8,"visitsCount":2128,"url":"http://www.pourhousecolumbia.com","tier":"","message":"","currency":"","rating":6.2},{"name":"The Saloon","phone":"8037794445","address":"812 Harden St","lat":34.000873555388495,"lng":-81.01663827896118,"neighborhood":"Five Points","city_fetched":"Columbia,US","state":"SC","country":"United States","canonicalUrl":"https://foursquare.com/v/the-saloon/4ba44f11f964a520e19438e3","categoryId":"4bf58dd8d48988d116941735","category":"Bar","checkinsCount":1236,"usersCount":593,"tipCount":8,"visitsCount":1252,"url":"http://www.delaneyssaloon.com","tier":"","message":"","currency":"","rating":6.1},{"name":"Schooners bar and grill","address":"6226 Bush River Rd","lat":34.06438696575567,"lng":-81.21881129285046,"neighborhood":"Northwest Columbia","city_fetched":"Columbia,US","state":"SC","country":"United States","canonicalUrl":"https://foursquare.com/v/schooners-bar-and-grill/4c16cda2daf42d7f4ecb4466","categoryId":"4bf58dd8d48988d11d941735","category":"Sports Bar","checkinsCount":709,"usersCount":218,"tipCount":1,"visitsCount":771,"tier":"","message":"","currency":"","rating":6.1},{"name":"Lucky's","address":"2100 Devine St","lat":33.998666,"lng":-81.01558148860931,"neighborhood":"Five Points","city_fetched":"Columbia,US","state":"SC","country":"United States","canonicalUrl":"https://foursquare.com/v/luckys/4bc00b752a89ef3b291cf088","categoryId":"4bf58dd8d48988d116941735","category":"Bar","checkinsCount":1331,"usersCount":379,"tipCount":4,"visitsCount":1354,"tier":"","message":"","currency":"","rating":6},{"name":"Moosehead Saloon","address":"Devine st","lat":33.99863415237144,"lng":-81.01646955324321,"neighborhood":"Five Points","city_fetched":"Columbia,US","state":"SC","country":"United States","canonicalUrl":"https://foursquare.com/v/moosehead-saloon/51e9dd72498e0ddc09f81ab3","categoryId":"4bf58dd8d48988d116941735","category":"Bar","checkinsCount":192,"usersCount":112,"tipCount":5,"visitsCount":193,"tier":"","message":"","currency":"","rating":5.9},{"name":"Breaker's Bar and Grill","address":"801 Harden St","lat":34.00041454095763,"lng":-81.01673925173633,"neighborhood":"Five Points","city_fetched":"Columbia,US","state":"SC","country":"United States","canonicalUrl":"https://foursquare.com/v/breakers-bar-and-grill/4f60f9b1e4b060c191ad378b","categoryId":"4bf58dd8d48988d116941735","category":"Bar","checkinsCount":799,"usersCount":351,"tipCount":7,"visitsCount":800,"tier":"","message":"","currency":"","rating":5.9},{"name":"The Hookah Spot","address":"617 Harden St","lat":33.998067,"lng":-81.01572,"neighborhood":"Five Points","city_fetched":"Columbia,US","state":"SC","country":"United States","canonicalUrl":"https://foursquare.com/v/the-hookah-spot/51426489e4b050cd9708daff","categoryId":"4bf58dd8d48988d119941735","category":"Hookah Bar","checkinsCount":104,"usersCount":81,"tipCount":6,"visitsCount":107,"tier":"","message":"","currency":"","rating":5.7},{"name":"Wild Hare Sports Cafe","phone":"8032131000","address":"5122 Bush River Rd","lat":34.05550951666667,"lng":-81.162333,"neighborhood":"Northwest Columbia","city_fetched":"Columbia,US","state":"SC","country":"United States","canonicalUrl":"https://foursquare.com/v/wild-hare-sports-cafe/4bd0fad141b9ef3bbf4dfbe5","categoryId":"4bf58dd8d48988d116941735","category":"Bar","checkinsCount":1126,"usersCount":289,"tipCount":11,"visitsCount":1156,"url":"http://www.wildharesportscafe.com","tier":"","message":"","currency":"","rating":5.3},{"name":"Bailey's Sports Grille","phone":"8034073004","address":"115 Afton Ct","lat":34.075828782797764,"lng":-81.16036759724169,"neighborhood":"Northwest Columbia","city_fetched":"Columbia,US","state":"SC","country":"United States","canonicalUrl":"https://foursquare.com/v/baileys-sports-grille/4c1cfa94fcf8c9b6c9eaaa0b","categoryId":"4bf58dd8d48988d11d941735","category":"Sports Bar","checkinsCount":583,"usersCount":292,"tipCount":8,"visitsCount":583,"tier":"","message":"","currency":"","rating":5.2}]