[{"name":"Flying Saucer","phone":"7047178179","twitter":"flyingsaucercha","address":"9605 N Tryon St Ste A","lat":35.3166659800561,"lng":-80.74052095413208,"neighborhood":"University City North","city_fetched":"Concord","state":"NC","country":"United States","canonicalUrl":"https://foursquare.com/v/flying-saucer/4b0ca3b5f964a520764023e3","category":"Bar","checkinsCount":15258,"usersCount":4567,"tipCount":79,"visitsCount":17511,"url":"http://www.beerknurd.com","tier":2,"message":"Moderate","currency":"$","rating":9.2},{"name":"Lil' Robert's Place","phone":"7047952337","address":"25 Union St S","lat":35.41023652646222,"lng":-80.58081553729934,"neighborhood":"Downtown Concord","city_fetched":"Concord","state":"NC","country":"United States","canonicalUrl":"https://foursquare.com/v/lil-roberts-place/4beebb583686c9b6c1d9246e","category":"Bar","checkinsCount":1054,"usersCount":316,"tipCount":10,"visitsCount":1200,"url":"http://lilrobertsplace.com","tier":2,"message":"Moderate","currency":"$","rating":8.7},{"name":"Hooters","phone":"7049790130","address":"7702 Gateway Ln NW","lat":35.36501083877097,"lng":-80.70706844329834,"neighborhood":"Concord Mills","city_fetched":"Concord","state":"NC","country":"United States","canonicalUrl":"https://foursquare.com/v/hooters/4b326706f964a520b70a25e3","category":"Sports Bar","checkinsCount":2637,"usersCount":1694,"tipCount":26,"visitsCount":3232,"url":"http://www.hooters.com","tier":2,"message":"Moderate","currency":"$","rating":8.5},{"name":"The Wine Vault","phone":"7045489463","address":"9009 J M Keynes Dr","lat":35.31039443308517,"lng":-80.74916437003877,"neighborhood":"University City North","city_fetched":"Concord","state":"NC","country":"United States","canonicalUrl":"https://foursquare.com/v/the-wine-vault/4b05863bf964a5206b5922e3","category":"Wine Bar","checkinsCount":4306,"usersCount":1592,"tipCount":19,"visitsCount":4373,"url":"http://www.headwino.com","tier":2,"message":"Moderate","currency":"$","rating":8.5},{"name":"Wild Wing Cafe","phone":"7047089453","twitter":"wildwingcafe","address":"9539 Pinnacle Dr Ste 200","lat":35.32892121504626,"lng":-80.73843955993652,"neighborhood":"University City North","city_fetched":"Concord","state":"NC","country":"United States","canonicalUrl":"https://foursquare.com/v/wild-wing-cafe/4bb527b8ef159c74f95b74f7","category":"Wings Joint","checkinsCount":5764,"usersCount":2306,"tipCount":41,"visitsCount":6086,"url":"http://www.wildwingcafe.com","tier":2,"message":"Moderate","currency":"$","rating":8.1},{"name":"Dave & Buster's","phone":"7049791700","address":"8361 Concord Mills Blvd","lat":35.371187204535204,"lng":-80.7242217132217,"neighborhood":"Concord Mills","city_fetched":"Concord","state":"NC","country":"United States","canonicalUrl":"https://foursquare.com/v/dave--busters/4b05863cf964a5208d5922e3","category":"Arcade","checkinsCount":6639,"usersCount":4954,"tipCount":40,"visitsCount":7492,"tier":"","message":"","currency":"","rating":8},{"name":"Boardwalk Billy's Raw Bar & Ribs","phone":"7045037427","twitter":"billysuncc","address":"9005 J M Keynes Dr","lat":35.31060770650628,"lng":-80.74964046478271,"neighborhood":"University City North","city_fetched":"Concord","state":"NC","country":"United States","canonicalUrl":"https://foursquare.com/v/boardwalk-billys-raw-bar--ribs/4b05863ef964a5200d5a22e3","category":"Bar","checkinsCount":10620,"usersCount":4141,"tipCount":62,"visitsCount":11098,"url":"http://www.boardwalkbillys.com","tier":2,"message":"Moderate","currency":"$","rating":7.8},{"name":"Pub 49","phone":"7044551049","address":"4539 Highway 49 S","lat":35.321575101097196,"lng":-80.6521762494354,"city_fetched":"Concord","state":"NC","country":"United States","canonicalUrl":"https://foursquare.com/v/pub-49/4d289acc342d6dcbd126faca","category":"Sports Bar","checkinsCount":620,"usersCount":271,"tipCount":18,"visitsCount":776,"tier":"","message":"","currency":"","rating":7.7},{"name":"Sticky Fingers Smokehouse - Get Sticky. Have Fun!","phone":"7049797427","twitter":"stickyfingers","address":"8021 Concord Mills Blvd","lat":35.37013602660987,"lng":-80.71733514773494,"neighborhood":"Concord Mills","city_fetched":"Concord","state":"NC","country":"United States","canonicalUrl":"https://foursquare.com/v/sticky-fingers-smokehouse--get-sticky-have-fun/4b622980f964a52064392ae3","category":"BBQ Joint","checkinsCount":2491,"usersCount":1849,"tipCount":25,"visitsCount":2698,"tier":2,"message":"Moderate","currency":"$","rating":7.7},{"name":"Carolina Ale House","phone":"9802257429","address":"8695 Concord Mills Blvd","lat":35.37437983842709,"lng":-80.73041479124888,"city_fetched":"Concord","state":"NC","country":"United States","canonicalUrl":"https://foursquare.com/v/carolina-ale-house/51d59220498ed65962c24e3f","category":"Brewery","checkinsCount":2452,"usersCount":2035,"tipCount":40,"visitsCount":3899,"url":"http://carolinaalehouse.com","tier":2,"message":"Moderate","currency":"$","rating":7.6},{"name":"Bonfire Bar &Grill","address":"970 Branchview Dr NE","lat":35.443886972305194,"lng":-80.59596130278192,"city_fetched":"Concord","state":"NC","country":"United States","canonicalUrl":"https://foursquare.com/v/bonfire-bar-grill/4f206ebee4b0005b80a965ea","category":"Bar","checkinsCount":638,"usersCount":370,"tipCount":6,"visitsCount":797,"url":"http://bonfirebargrill.com","tier":"","message":"","currency":"","rating":7.6},{"name":"the Wine Room at Afton Village","phone":"7047829463","address":"5401 Village Dr NW","lat":35.414477795461615,"lng":-80.6697304126973,"city_fetched":"Concord","state":"NC","country":"United States","canonicalUrl":"https://foursquare.com/v/the-wine-room-at-afton-village/4b5b87e0f964a520180529e3","category":"Wine Bar","checkinsCount":578,"usersCount":260,"tipCount":6,"visitsCount":585,"url":"http://wine-room.net","tier":"","message":"","currency":"","rating":7.5},{"name":"Crispys Bar And Grill","address":"3399 Cloverleaf Pkwy","lat":35.450296953140686,"lng":-80.60107975521521,"city_fetched":"Concord","state":"NC","country":"United States","canonicalUrl":"https://foursquare.com/v/crispys-bar-and-grill/5626b86b498ec62a6ad716a2","category":"Gastropub","checkinsCount":91,"usersCount":96,"tipCount":6,"visitsCount":192,"tier":"","message":"","currency":"","rating":7.3},{"name":"Iron Thunder","phone":"7049793888","address":"10023 Weddington Road Ext","lat":35.364787313566154,"lng":-80.71130350859315,"neighborhood":"Concord Mills","city_fetched":"Concord","state":"NC","country":"United States","canonicalUrl":"https://foursquare.com/v/iron-thunder/4b7f3ae7f964a520df2030e3","category":"American Restaurant","checkinsCount":2106,"usersCount":1091,"tipCount":21,"visitsCount":2390,"url":"http://ironthundersaloonandgrill.com","tier":1,"message":"Cheap","currency":"$","rating":7.3},{"name":"Red @ 28th","twitter":"red28th","address":"9539 Pinnacle Dr Ste 203","lat":35.32880742498018,"lng":-80.7386863231659,"neighborhood":"University City North","city_fetched":"Concord","state":"NC","country":"United States","canonicalUrl":"https://foursquare.com/v/red--28th/53095442498e01747243f0f3","category":"Hookah Bar","checkinsCount":127,"usersCount":70,"tipCount":5,"visitsCount":162,"url":"http://www.redat28th.com","tier":"","message":"","currency":"","rating":7.2},{"name":"TGI Fridays","phone":"7049793043","twitter":"tgifridays","address":"8041 Concord Mills Blvd","lat":35.370629198006355,"lng":-80.71826638418553,"neighborhood":"Concord Mills","city_fetched":"Concord","state":"NC","country":"United States","canonicalUrl":"https://foursquare.com/v/tgi-fridays/509d636d5d2463e87154803d","category":"American Restaurant","checkinsCount":3291,"usersCount":2313,"tipCount":32,"visitsCount":3756,"url":"http://www.tgifridays.com","tier":2,"message":"Moderate","currency":"$","rating":7.2},{"name":"Hickory Tavern - Mallard","phone":"7042959001","address":"2005 E Arbors Dr","lat":35.33667606822023,"lng":-80.75589537620544,"city_fetched":"Concord","state":"NC","country":"United States","canonicalUrl":"https://foursquare.com/v/hickory-tavern--mallard/4b1de5f8f964a520331624e3","category":"Sports Bar","checkinsCount":3836,"usersCount":1921,"tipCount":34,"visitsCount":4326,"url":"http://www.thehickorytavern.com","tier":2,"message":"Moderate","currency":"$","rating":7.1},{"name":"Twilight Caribbean Restaurant and Bar","phone":"7042950102","address":"10210 Berkeley Place Dr","lat":35.327674,"lng":-80.73909786,"neighborhood":"University City North","city_fetched":"Concord","state":"NC","country":"United States","canonicalUrl":"https://foursquare.com/v/twilight-caribbean-restaurant-and-bar/4c216bd211de20a18d6483ce","category":"Caribbean Restaurant","checkinsCount":244,"usersCount":88,"tipCount":11,"visitsCount":244,"url":"http://www.twilightcaribbean.com","tier":"","message":"","currency":"","rating":7.1},{"name":"Hilton Executive Lounge","lat":35.30919158001958,"lng":-80.75075009064686,"neighborhood":"University City North","city_fetched":"Concord","state":"North Carolina","country":"United States","canonicalUrl":"https://foursquare.com/v/hilton-executive-lounge/4d9b982f95d8b1f7f4b600cf","category":"Hotel Bar","checkinsCount":465,"usersCount":134,"tipCount":4,"visitsCount":468,"tier":"","message":"","currency":"","rating":7.1},{"name":"Hilton Garden Inn Charlotte/Concord","phone":"7049792900","twitter":"hgiconcord","address":"7831 Gateway Ln NW","lat":35.37058979813092,"lng":-80.71002565315332,"neighborhood":"Concord Mills","city_fetched":"Concord","state":"NC","country":"United States","canonicalUrl":"https://foursquare.com/v/hilton-garden-inn-charlotteconcord/4bd8714fe914a593593d53fa","category":"Hotel","checkinsCount":1314,"usersCount":849,"tipCount":7,"visitsCount":1816,"tier":"","message":"","currency":"","rating":7},{"name":"Cabarrus Brewing Co.","lat":35.4139924867586,"lng":-80.60324307286261,"city_fetched":"Concord","state":"NC","country":"United States","canonicalUrl":"https://foursquare.com/v/cabarrus-brewing-co/56e9f18e498e9f5059f19368","category":"Brewery","checkinsCount":152,"usersCount":153,"tipCount":1,"visitsCount":238,"tier":"","message":"","currency":"","rating":6.9},{"name":"Lakefront Restaurant","phone":"7045477444","address":"8629 J M Keynes Dr","lat":35.30911398200289,"lng":-80.75044702017023,"neighborhood":"University City North","city_fetched":"Concord","state":"NC","country":"United States","canonicalUrl":"https://foursquare.com/v/lakefront-restaurant/4b797ebaf964a520b2fc2ee3","category":"Hotel Bar","checkinsCount":264,"usersCount":84,"tipCount":3,"visitsCount":264,"url":"http://lakefrontrestaurantcharlotte.com","tier":"","message":"","currency":"","rating":6.8},{"name":"Bar Louie","phone":"7042857010","twitter":"barlouie","address":"8760 JM Keynes Drive","lat":35.30735639673668,"lng":-80.75023054056275,"neighborhood":"University City North","city_fetched":"Concord","state":"NC","country":"United States","canonicalUrl":"https://foursquare.com/v/bar-louie/5280340b11d22bbf155efdc0","category":"Restaurant","checkinsCount":1003,"usersCount":799,"tipCount":29,"visitsCount":1330,"url":"http://t.co/6m5uO0JOqN","tier":2,"message":"Moderate","currency":"$","rating":6.7},{"name":"Joe's Sports Bar and Grill","phone":"7047865637","address":"360 Exchange St NW Ste 102","lat":35.41592810236455,"lng":-80.66925368289321,"city_fetched":"Concord","state":"NC","country":"United States","canonicalUrl":"https://foursquare.com/v/joes-sports-bar-and-grill/4bd36702462cb7138a61de07","category":"Bar","checkinsCount":1106,"usersCount":348,"tipCount":10,"visitsCount":1122,"url":"http://joes-sports-bar.com","tier":"","message":"","currency":"","rating":6.6},{"name":"The Press Box Bar & Grill","phone":"7047172727","twitter":"thepressboxnc","address":"9609 N Tryon St Ste A","lat":35.31709007620114,"lng":-80.73904037475586,"neighborhood":"University City North","city_fetched":"Concord","state":"NC","country":"United States","canonicalUrl":"https://foursquare.com/v/the-press-box-bar--grill/53d00309498e98bfa298d6f7","category":"Restaurant","checkinsCount":135,"usersCount":94,"tipCount":2,"visitsCount":175,"url":"http://www.thepressboxnc.com","tier":"","message":"","currency":"","rating":6.5},{"name":"TGI Fridays","phone":"7045488113","twitter":"tgifridays","address":"409 W Wt Harris Blvd","lat":35.307956230515984,"lng":-80.75420284907749,"city_fetched":"Concord","state":"NC","country":"United States","canonicalUrl":"https://foursquare.com/v/tgi-fridays/509d636d5d2463e87154803e","category":"American Restaurant","checkinsCount":2724,"usersCount":2328,"tipCount":31,"visitsCount":3549,"url":"http://tgifridays.com","tier":2,"message":"Moderate","currency":"$","rating":6.3},{"name":"Taco Mac","phone":"7047177083","twitter":"tmacrestaurants","address":"517 University Center Blvd","lat":35.3079026,"lng":-80.7558586,"city_fetched":"Concord","state":"NC","country":"United States","canonicalUrl":"https://foursquare.com/v/taco-mac/4dd1a27dd4c0febf0fd40cfa","category":"Sports Bar","checkinsCount":6290,"usersCount":3620,"tipCount":78,"visitsCount":7377,"url":"http://www.tacomac.com","tier":2,"message":"Moderate","currency":"$","rating":5.9},{"name":"King Tut hookah lounge","address":"University city Blvd.","lat":35.30642889742197,"lng":-80.7221482255735,"city_fetched":"Concord","state":"NC","country":"United States","canonicalUrl":"https://foursquare.com/v/king-tut-hookah-lounge/4cf43fcb94feb1f78a0227ba","category":"Hookah Bar","checkinsCount":276,"usersCount":199,"tipCount":6,"visitsCount":288,"url":"http://kingtutlounge.com","tier":"","message":"","currency":"","rating":5.8},{"name":"Tony Sacco's Coal Oven Pizza - Concord, NC","phone":"7046885338","twitter":"saccosconcord","address":"8111 Concord Mills Boulevard","lat":35.370995116056804,"lng":-80.72516911159316,"city_fetched":"Concord","state":"NC","country":"United States","canonicalUrl":"https://foursquare.com/v/tony-saccos-coal-oven-pizza--concord-nc/51464747e4b0cec08564933a","category":"Pizza Place","checkinsCount":457,"usersCount":272,"tipCount":18,"visitsCount":468,"url":"http://tonysaccos.com","tier":2,"message":"Moderate","currency":"$","rating":5.8},{"name":"FireWater","phone":"7045490050","twitter":"firewater","address":"8708 Jw Clay Blvd","lat":35.310641937811326,"lng":-80.75058231963052,"neighborhood":"University City North","city_fetched":"Concord","state":"NC","country":"United States","canonicalUrl":"https://foursquare.com/v/firewater/4dbcb78cf7b1ab37dd66b932","category":"Restaurant","checkinsCount":1927,"usersCount":910,"tipCount":28,"visitsCount":1962,"url":"http://www.firewatercharlotte.com","tier":2,"message":"Moderate","currency":"$","rating":5.7}]