[{"name":"Father Tom's Pub","phone":"9318549484","twitter":"fathertomspub","address":"32 Cedar St","lat":36.16517141413712,"lng":-85.50794426468157,"city_fetched":"Cookeville","state":"TN","country":"United States","canonicalUrl":"https://foursquare.com/fathertomspub","category":"Pub","checkinsCount":410,"usersCount":221,"tipCount":10,"visitsCount":492,"url":"http://fathertomspub.com","tier":"","message":"","currency":"","rating":9.1},{"name":"Hooligan's Half/Irish Pub","phone":"9315262927","address":"586 S Jefferson Ave, Cookeville, TN 38501","lat":36.15012954531152,"lng":-85.50057890122291,"city_fetched":"Cookeville","state":"TN","country":"United States","canonicalUrl":"https://foursquare.com/v/hooligans-halfirish-pub/4f1c69ffe4b08fa665cf1046","category":"Pub","checkinsCount":822,"usersCount":276,"tipCount":11,"visitsCount":1052,"tier":"","message":"","currency":"","rating":8.6},{"name":"Spankies Restaurant","phone":"9315281050","address":"203 E 9th St","lat":36.17412271606359,"lng":-85.50220902747614,"city_fetched":"Cookeville","state":"TN","country":"United States","canonicalUrl":"https://foursquare.com/v/spankies-restaurant/4cf4a093e3b9a0938ef84f53","category":"American Restaurant","checkinsCount":1536,"usersCount":594,"tipCount":19,"visitsCount":1820,"url":"http://spankiesrestaurant.com","tier":1,"message":"Cheap","currency":"$","rating":8.4},{"name":"Crawdaddy's","phone":"9315264660","address":"53 W Broad St","lat":36.164177078337374,"lng":-85.50758205724611,"city_fetched":"Cookeville","state":"TN","country":"United States","canonicalUrl":"https://foursquare.com/v/crawdaddys/4b8893a4f964a520f50132e3","category":"Bar","checkinsCount":1769,"usersCount":962,"tipCount":35,"visitsCount":2163,"url":"http://crawdaddysgrill.com","tier":"","message":"","currency":"","rating":8},{"name":"Cosmos Grill","phone":"9313722081","twitter":"cosmosgrill_tn","address":"931 Shipley Rd","lat":36.19521590246599,"lng":-85.51206923299087,"city_fetched":"Cookeville","state":"TN","country":"United States","canonicalUrl":"https://foursquare.com/v/cosmos-grill/4b9f32cef964a5208b1737e3","category":"Bar","checkinsCount":1834,"usersCount":309,"tipCount":11,"visitsCount":1953,"url":"http://cosmosgrill-hub.com","tier":1,"message":"Cheap","currency":"$","rating":7.7},{"name":"Vinnie T's","phone":"9313722582","address":"223 E 8th St","lat":36.17267828809783,"lng":-85.50200777999079,"city_fetched":"Cookeville","state":"TN","country":"United States","canonicalUrl":"https://foursquare.com/v/vinnie-ts/4c5247309d642d7f4bfcefde","category":"Bar","checkinsCount":585,"usersCount":127,"tipCount":5,"visitsCount":638,"tier":"","message":"","currency":"","rating":7.4},{"name":"LongHorn Steakhouse","phone":"9315208620","address":"1000 S Jefferson Ave","lat":36.13792,"lng":-85.501252,"city_fetched":"Cookeville","state":"TN","country":"United States","canonicalUrl":"https://foursquare.com/v/longhorn-steakhouse/4b4cb31cf964a520cbba26e3","category":"Steakhouse","checkinsCount":792,"usersCount":545,"tipCount":11,"visitsCount":884,"url":"http://www.longhornsteakhouse.com/locator_g/default.aspx?q=38501&restaurantid=5306&cmpid=lh_ll_%20foursquare","tier":2,"message":"Moderate","currency":"$","rating":7.4},{"name":"Wooly Bullys","phone":"9318540117","address":"565 S Jefferson Ave","lat":36.15090438607283,"lng":-85.50121787634305,"city_fetched":"Cookeville","state":"TN","country":"United States","canonicalUrl":"https://foursquare.com/v/wooly-bullys/4b89e369f964a520155432e3","category":"Bar","checkinsCount":921,"usersCount":192,"tipCount":6,"visitsCount":1009,"url":"http://www.woolybullys.com","tier":"","message":"","currency":"","rating":7.3},{"name":"The Sk8","phone":"9313722758","twitter":"thesk8tn","address":"1810 Foreman Dr","lat":36.14000618362005,"lng":-85.52978754043579,"city_fetched":"Cookeville","state":"TN","country":"United States","canonicalUrl":"https://foursquare.com/thesk8tn","category":"General Entertainment","checkinsCount":177,"usersCount":68,"tipCount":5,"visitsCount":218,"url":"https://www.the-sk8.com","tier":"","message":"","currency":"","rating":6.6},{"name":"Rodeo Bobs","address":"Jefferson Ave","lat":36.150990990462475,"lng":-85.50179143810539,"city_fetched":"Cookeville","state":"TN","country":"United States","canonicalUrl":"https://foursquare.com/v/rodeo-bobs/4cdcab1222bd721e11d0fc47","category":"Nightclub","checkinsCount":848,"usersCount":251,"tipCount":4,"visitsCount":952,"tier":"","message":"","currency":"","rating":6}]