[{"name":"Blue Heron Bistro","address":"100 W Commercial Ave","lat":43.368755183333334,"lng":-124.21334453333333,"city_fetched":"Coos Bay","state":"OR","country":"United States","canonicalUrl":"https://foursquare.com/v/blue-heron-bistro/4c2bedf7d1a10f4764ccf864","category":"Bistro","checkinsCount":152,"usersCount":135,"tipCount":5,"visitsCount":159,"url":"http://blueheronbistro.net","tier":3,"message":"Expensive","currency":"$","rating":7.8},{"name":"7 Devils Brewing Co.","phone":"5418083738","address":"247 S 2nd St","lat":43.36651922475027,"lng":-124.21511389426577,"city_fetched":"Coos Bay","state":"OR","country":"United States","canonicalUrl":"https://foursquare.com/v/7-devils-brewing-co/5271a21f11d25286ee84621b","category":"Brewery","checkinsCount":315,"usersCount":261,"tipCount":10,"visitsCount":461,"url":"http://www.7devilsbrewery.com","tier":"","message":"","currency":"","rating":7.2},{"name":"walt's pourhouse","address":"1880 N 7th St","lat":43.3812997,"lng":-124.221155,"city_fetched":"Coos Bay","state":"OR","country":"United States","canonicalUrl":"https://foursquare.com/v/walts-pourhouse/4be753844485d13a08ec93ee","category":"Bar","checkinsCount":305,"usersCount":133,"tipCount":4,"visitsCount":373,"tier":"","message":"","currency":"","rating":7.1},{"name":"Coney Station #1","phone":"5412696948","address":"295 S Broadway","lat":43.36588261460455,"lng":-124.21325767626668,"city_fetched":"Coos Bay","state":"OR","country":"United States","canonicalUrl":"https://foursquare.com/v/coney-station-1/4bea32aa6295c9b61b3a8608","category":"Pub","checkinsCount":160,"usersCount":112,"tipCount":7,"visitsCount":161,"url":"http://coneystationrestaurant.com","tier":"","message":"","currency":"","rating":6.8}]