[{"name":"Oak Street Drafthouse","phone":"9403951950","twitter":"oakstdrafthouse","address":"308 E Oak St","lat":33.21513584453575,"lng":-97.12977806328855,"city_fetched":"Corinth,US","state":"TX","country":"United States","canonicalUrl":"https://foursquare.com/v/oak-street-drafthouse/4f318e2ae4b0bdfc0531ad65","categoryId":"4bf58dd8d48988d117941735","category":"Beer Garden","checkinsCount":5761,"usersCount":1931,"tipCount":58,"visitsCount":6917,"url":"http://www.oakstdrafthouse.com","tier":2,"message":"Moderate","currency":"$","rating":9.2},{"name":"Harvest House","phone":"9402186148","address":"331 E Hickory St","lat":33.214714261751034,"lng":-97.12881066552707,"city_fetched":"Corinth,US","state":"TX","country":"United States","canonicalUrl":"https://foursquare.com/v/harvest-house/5503905c498ef35eee649628","categoryId":"4bf58dd8d48988d117941735","category":"Beer Garden","checkinsCount":813,"usersCount":625,"tipCount":12,"visitsCount":1621,"url":"http://dentonharvesthouse.com","tier":"","message":"","currency":"","rating":9.1},{"name":"Hannah's off The Square","phone":"9405661110","twitter":"hannahsdenton","address":"111 W Mulberry St","lat":33.21328872631179,"lng":-97.13317394256592,"city_fetched":"Corinth,US","state":"TX","country":"United States","canonicalUrl":"https://foursquare.com/v/hannahs-off-the-square/4a849584f964a52005fd1fe3","categoryId":"4bf58dd8d48988d123941735","category":"Wine Bar","checkinsCount":1534,"usersCount":812,"tipCount":24,"visitsCount":1627,"url":"http://www.hannahsoffthesquare.com","tier":3,"message":"Expensive","currency":"$","rating":9},{"name":"East Side Denton","phone":"9402181401","twitter":"eastsidedenton","address":"117 E Oak St","lat":33.21561351682151,"lng":-97.13163971900939,"city_fetched":"Corinth,US","state":"TX","country":"United States","canonicalUrl":"https://foursquare.com/v/east-side-denton/521f41827e486ef6db2c9b60","categoryId":"56aa371ce4b08b9a8d57356c","category":"Beer Bar","checkinsCount":3393,"usersCount":1420,"tipCount":35,"visitsCount":5123,"url":"http://www.eastsidedenton.com","tier":1,"message":"Cheap","currency":"$","rating":8.9},{"name":"Mulberry Street Cantina","address":"110 W Mulberry St","lat":33.21356360953597,"lng":-97.1330326183665,"city_fetched":"Corinth,US","state":"TX","country":"United States","canonicalUrl":"https://foursquare.com/v/mulberry-street-cantina/51e8999f498eee2f3bf1d9ae","categoryId":"4bf58dd8d48988d11e941735","category":"Cocktail Bar","checkinsCount":1047,"usersCount":378,"tipCount":16,"visitsCount":1269,"url":"http://mulberrystcantina.com","tier":2,"message":"Moderate","currency":"$","rating":8.9},{"name":"The Abbey Inn Restaurant & Pub","phone":"9405665483","twitter":"abbeyinndenton","address":"101 W Hickory St","lat":33.21438711621994,"lng":-97.13234909607266,"city_fetched":"Corinth,US","state":"TX","country":"United States","canonicalUrl":"https://foursquare.com/v/the-abbey-inn-restaurant--pub/4a8386eff964a52059fb1fe3","categoryId":"4bf58dd8d48988d11b941735","category":"Pub","checkinsCount":2072,"usersCount":1090,"tipCount":53,"visitsCount":2089,"url":"http://www.theabbeyinndenton.com","tier":2,"message":"Moderate","currency":"$","rating":8.7},{"name":"Paschall Bar","twitter":"paschallbar","address":"122 N Locust St","lat":33.21541962245234,"lng":-97.13223342376078,"city_fetched":"Corinth,US","state":"TX","country":"United States","canonicalUrl":"https://foursquare.com/v/paschall-bar/4e8e5f6fe5facbf444ca948a","categoryId":"4bf58dd8d48988d11e941735","category":"Cocktail Bar","checkinsCount":2194,"usersCount":720,"tipCount":29,"visitsCount":2234,"tier":2,"message":"Moderate","currency":"$","rating":8.6},{"name":"Hickory Street Lounge","phone":"9403872222","address":"212 Hickory St.","lat":33.214306,"lng":-97.130498,"city_fetched":"Corinth,US","state":"TX","country":"United States","canonicalUrl":"https://foursquare.com/v/hickory-street-lounge/4d7142231529a143f2cc98a0","categoryId":"4bf58dd8d48988d11e941735","category":"Cocktail Bar","checkinsCount":845,"usersCount":248,"tipCount":8,"visitsCount":857,"tier":2,"message":"Moderate","currency":"$","rating":8.4},{"name":"What's On Tap","phone":"9729662400","twitter":"whatsontaphv","address":"2570 Justin Rd #170","lat":33.074274,"lng":-97.068869,"city_fetched":"Corinth,US","state":"TX","country":"United States","canonicalUrl":"https://foursquare.com/v/whats-on-tap/54dfc885498ef42240781ac9","categoryId":"4bf58dd8d48988d116941735","category":"Bar","checkinsCount":182,"usersCount":200,"tipCount":3,"visitsCount":503,"url":"http://www.whatsontapbeer.com","tier":"","message":"","currency":"","rating":8.4},{"name":"Cigar Frog's","phone":"9403809139","address":"100 N Interstate 35 E #101","lat":33.196483770995904,"lng":-97.13345289230345,"city_fetched":"Corinth,US","state":"TX","country":"United States","canonicalUrl":"https://foursquare.com/v/cigar-frogs/50de3f8e19a9e39e831fec27","categoryId":"4bf58dd8d48988d121941735","category":"Lounge","checkinsCount":292,"usersCount":125,"tipCount":5,"visitsCount":339,"tier":"","message":"","currency":"","rating":8.3},{"name":"Drunken Donkey Denton","address":"3350 Unicorn Lake Blvd","lat":33.17152136171403,"lng":-97.09654231591117,"city_fetched":"Corinth,US","state":"TX","country":"United States","canonicalUrl":"https://foursquare.com/v/drunken-donkey-denton/55553eee498e231e1038e249","categoryId":"4bf58dd8d48988d116941735","category":"Bar","checkinsCount":226,"usersCount":289,"tipCount":7,"visitsCount":622,"url":"http://drunkendonkeybarandgrill.com","tier":"","message":"","currency":"","rating":8},{"name":"WineÂ²","phone":"9403849463","twitter":"wnsqrd","address":"110 W Oak St Ste A","lat":33.21558392,"lng":-97.13298,"city_fetched":"Corinth,US","state":"TX","country":"United States","canonicalUrl":"https://foursquare.com/wnsqrd","categoryId":"4bf58dd8d48988d123941735","category":"Wine Bar","checkinsCount":373,"usersCount":204,"tipCount":2,"visitsCount":375,"url":"http://www.winetimeswine.com","tier":"","message":"","currency":"","rating":8},{"name":"Crossroads","lat":33.22977645416279,"lng":-97.13371088970732,"city_fetched":"Corinth,US","state":"TX","country":"United States","canonicalUrl":"https://foursquare.com/v/crossroads/4cb154a4cbab236ac162a873","categoryId":"4bf58dd8d48988d116941735","category":"Bar","checkinsCount":256,"usersCount":122,"tipCount":1,"visitsCount":341,"tier":"","message":"","currency":"","rating":7.9},{"name":"Dusty's Bar & Grill","phone":"9402437300","twitter":"dustysdenton","address":"119 S Elm St","lat":33.21375,"lng":-97.13355962,"city_fetched":"Corinth,US","state":"TX","country":"United States","canonicalUrl":"https://foursquare.com/dustysdenton","categoryId":"4bf58dd8d48988d116941735","category":"Bar","checkinsCount":1151,"usersCount":246,"tipCount":21,"visitsCount":1173,"url":"http://dustysbar.com","tier":"","message":"","currency":"","rating":7.8},{"name":"RT's Neighborhood Bar","phone":"9403812277","address":"1100 Dallas Dr Ste 124","lat":33.19738955475491,"lng":-97.12250189332777,"city_fetched":"Corinth,US","state":"TX","country":"United States","canonicalUrl":"https://foursquare.com/v/rts-neighborhood-bar/4bdb827bc79cc928763f83e9","categoryId":"4bf58dd8d48988d11d941735","category":"Sports Bar","checkinsCount":2206,"usersCount":622,"tipCount":10,"visitsCount":2861,"tier":2,"message":"Moderate","currency":"$","rating":7.8},{"name":"Audacity Brew House","phone":"9402181987","twitter":"audacitybh","address":"1012 Shady Oaks Dr","lat":33.20002868545873,"lng":-97.1203149914197,"city_fetched":"Corinth,US","state":"TX","country":"United States","canonicalUrl":"https://foursquare.com/v/audacity-brew-house/54373f17498e7f408109a521","categoryId":"50327c8591d4c4b30a586d5d","category":"Brewery","checkinsCount":281,"usersCount":314,"tipCount":1,"visitsCount":666,"url":"http://audacitybrewhouse.com","tier":"","message":"","currency":"","rating":7.7},{"name":"Bagheri's Hookah Lounge","phone":"9403824442","address":"1125 E University Dr","lat":33.2331615056657,"lng":-97.1180545671493,"city_fetched":"Corinth,US","state":"TX","country":"United States","canonicalUrl":"https://foursquare.com/v/bagheris-hookah-lounge/4bef671bc80dc9282bf327e3","categoryId":"4bf58dd8d48988d119941735","category":"Hookah Bar","checkinsCount":352,"usersCount":178,"tipCount":4,"visitsCount":359,"tier":"","message":"","currency":"","rating":7.3},{"name":"Mable Peabody's Beauty Parlor and Chainsaw Repair","phone":"9405669910","twitter":"mablepeabodys","address":"1125 E University Dr Ste 107","lat":33.23316673839772,"lng":-97.11778121870499,"city_fetched":"Corinth,US","state":"TX","country":"United States","canonicalUrl":"https://foursquare.com/v/mable-peabodys-beauty-parlor-and-chainsaw-repair/4a6dce2ef964a52007d31fe3","categoryId":"4bf58dd8d48988d1d8941735","category":"Gay Bar","checkinsCount":1269,"usersCount":504,"tipCount":14,"visitsCount":1482,"url":"http://www.mablepeabodys.com","tier":"","message":"","currency":"","rating":7.3},{"name":"Andy's Bar","phone":"9405655400","twitter":"andysbardenton","address":"122 N Locust St","lat":33.21537116702651,"lng":-97.13224053382874,"city_fetched":"Corinth,US","state":"TX","country":"United States","canonicalUrl":"https://foursquare.com/v/andys-bar/4ba05461f964a520ae6837e3","categoryId":"4bf58dd8d48988d116941735","category":"Bar","checkinsCount":1610,"usersCount":747,"tipCount":11,"visitsCount":1631,"tier":1,"message":"Cheap","currency":"$","rating":7.2},{"name":"Hooligans Bar","phone":"9404426950","twitter":"hooligansdenton","address":"104 N Locust St","lat":33.21472764693736,"lng":-97.13228600205954,"city_fetched":"Corinth,US","state":"TX","country":"United States","canonicalUrl":"https://foursquare.com/v/hooligans-bar/4b074c69f964a52088fb22e3","categoryId":"4bf58dd8d48988d116941735","category":"Bar","checkinsCount":2223,"usersCount":1178,"tipCount":25,"visitsCount":2231,"url":"http://hooligansonline.com","tier":1,"message":"Cheap","currency":"$","rating":7.1},{"name":"Natalie's Cafe","phone":"9405916061","address":"233 W Hickory St","lat":33.2143360376358,"lng":-97.135174,"city_fetched":"Corinth,US","state":"TX","country":"United States","canonicalUrl":"https://foursquare.com/v/natalies-cafe/4a6dd3daf964a52017d31fe3","categoryId":"4bf58dd8d48988d119941735","category":"Hookah Bar","checkinsCount":235,"usersCount":151,"tipCount":7,"visitsCount":236,"tier":"","message":"","currency":"","rating":7},{"name":"Vitty's Sports Bar","phone":"9403871809","twitter":"vittyssportsbar","address":"1776 Teasley Ln #102","lat":33.19194953277738,"lng":-97.12459423672261,"city_fetched":"Corinth,US","state":"TX","country":"United States","canonicalUrl":"https://foursquare.com/v/vittys-sports-bar/4bd8c4abe914a5935f7354fa","categoryId":"4bf58dd8d48988d116941735","category":"Bar","checkinsCount":661,"usersCount":145,"tipCount":6,"visitsCount":691,"tier":"","message":"","currency":"","rating":6.9},{"name":"Rockin Rodeo","phone":"9405656611","twitter":"rockinrodeo","address":"1009 Avenue C","lat":33.205413318946036,"lng":-97.15021761345628,"city_fetched":"Corinth,US","state":"TX","country":"United States","canonicalUrl":"https://foursquare.com/v/rockin-rodeo/4c392dff2c8020a146548c00","categoryId":"4bf58dd8d48988d116941735","category":"Bar","checkinsCount":1592,"usersCount":738,"tipCount":6,"visitsCount":1761,"url":"http://www.rockinrodeodenton.com","tier":"","message":"","currency":"","rating":6.8},{"name":"Vigne Wine Shop & Delicatessen","phone":"9405661010","address":"219 E Hickory St","lat":33.214886448319064,"lng":-97.1347835189014,"city_fetched":"Corinth,US","state":"TX","country":"United States","canonicalUrl":"https://foursquare.com/v/vigne-wine-shop--delicatessen/4be9caacb3352d7f016a54d2","categoryId":"4bf58dd8d48988d123941735","category":"Wine Bar","checkinsCount":215,"usersCount":124,"tipCount":7,"visitsCount":215,"tier":"","message":"","currency":"","rating":6.7},{"name":"The Abbey Underground","phone":"9405655478","twitter":"theabbeydenton","address":"100 West Walnut St.","lat":33.214285,"lng":-97.132536,"city_fetched":"Corinth,US","state":"TX","country":"United States","canonicalUrl":"https://foursquare.com/v/the-abbey-underground/4a974efbf964a520542920e3","categoryId":"4bf58dd8d48988d120941735","category":"Karaoke Bar","checkinsCount":1157,"usersCount":637,"tipCount":15,"visitsCount":1165,"url":"http://theabbeyunderground.tumblr.com","tier":"","message":"","currency":"","rating":6.6},{"name":"The Moose Bar& Grill","phone":"9729668446","address":"1856 Justin Rd","lat":33.07208484795009,"lng":-97.0456196863404,"city_fetched":"Corinth,US","state":"TX","country":"United States","canonicalUrl":"https://foursquare.com/v/the-moose-bar-grill/4bd49e6b4e32d13a7286bf80","categoryId":"4bf58dd8d48988d116941735","category":"Bar","checkinsCount":335,"usersCount":121,"tipCount":3,"visitsCount":357,"tier":"","message":"","currency":"","rating":6.4},{"name":"Pourhouse Sports Grill","phone":"9404847455","twitter":"pourhousegrill","address":"3350 Unicorn Lake Blvd","lat":33.1714139774206,"lng":-97.09674954414368,"city_fetched":"Corinth,US","state":"TX","country":"United States","canonicalUrl":"https://foursquare.com/v/pourhouse-sports-grill/4b0c7db9f964a520383e23e3","categoryId":"4bf58dd8d48988d11d941735","category":"Sports Bar","checkinsCount":1365,"usersCount":691,"tipCount":16,"visitsCount":1385,"url":"http://www.pourhousegrill.com","tier":"","message":"","currency":"","rating":6},{"name":"The LABB Sports Bar and Lounge","phone":"9402934240","twitter":"thelabbdenton","address":"218 W Oak St","lat":33.215604540915145,"lng":-97.13446140289307,"city_fetched":"Corinth,US","state":"TX","country":"United States","canonicalUrl":"https://foursquare.com/v/the-labb-sports-bar-and-lounge/4c2ecbad3896e21eebfde290","categoryId":"4bf58dd8d48988d11d941735","category":"Sports Bar","checkinsCount":1809,"usersCount":606,"tipCount":19,"visitsCount":1864,"url":"http://www.thelabbdenton.com","tier":2,"message":"Moderate","currency":"$","rating":6},{"name":"Lake Dallas Point Restaurant","phone":"9404972051","address":"303 Swisher Rd Ste 100","lat":33.130176450657146,"lng":-97.03732363803124,"city_fetched":"Corinth,US","state":"TX","country":"United States","canonicalUrl":"https://foursquare.com/v/lake-dallas-point-restaurant/4c6f34dc9375a093006f0337","categoryId":"4bf58dd8d48988d116941735","category":"Bar","checkinsCount":428,"usersCount":198,"tipCount":9,"visitsCount":433,"tier":"","message":"","currency":"","rating":5.9}]