[{"name":"The Cellar","phone":"6073775552","twitter":"corningwinebar","address":"21 W Market St","lat":42.143656090529305,"lng":-77.05530235224896,"city_fetched":"Corning,US","state":"NY","country":"United States","canonicalUrl":"https://foursquare.com/v/the-cellar/4b9c251cf964a520b74e36e3","categoryId":"4bf58dd8d48988d123941735","category":"Wine Bar","checkinsCount":1395,"usersCount":544,"tipCount":18,"visitsCount":1433,"url":"http://www.corningwinebar.com","tier":2,"message":"Moderate","currency":"$","rating":8.2},{"name":"Woodhouse Stadium Grill","phone":"6079369632","address":"102 Columbia St","lat":42.14142088333333,"lng":-77.04398392,"city_fetched":"Corning,US","state":"NY","country":"United States","canonicalUrl":"https://foursquare.com/v/woodhouse-stadium-grill/4b9c572ff964a520fe6036e3","categoryId":"4bf58dd8d48988d116941735","category":"Bar","checkinsCount":834,"usersCount":363,"tipCount":11,"visitsCount":994,"tier":2,"message":"Moderate","currency":"$","rating":7.7},{"name":"Market Street Brewing Company","phone":"6079362337","address":"63 W Market St","lat":42.14395639642095,"lng":-77.05712914466858,"city_fetched":"Corning,US","state":"NY","country":"United States","canonicalUrl":"https://foursquare.com/v/market-street-brewing-company/4b746bf2f964a52096db2de3","categoryId":"50327c8591d4c4b30a586d5d","category":"Brewery","checkinsCount":1796,"usersCount":1231,"tipCount":41,"visitsCount":1943,"url":"http://www.936-beer.com/index.html","tier":2,"message":"Moderate","currency":"$","rating":7.1},{"name":"Sit-N-Bull Pub","phone":"6079379464","address":"107 Village Sq","lat":42.158492520048085,"lng":-77.09341406822205,"city_fetched":"Corning,US","state":"NY","country":"United States","canonicalUrl":"https://foursquare.com/v/sitnbull-pub/4bf72c665efe2d7f80966834","categoryId":"4bf58dd8d48988d11b941735","category":"Pub","checkinsCount":400,"usersCount":131,"tipCount":2,"visitsCount":403,"url":"http://sitnbull.com","tier":"","message":"","currency":"","rating":6.9},{"name":"Oaks","address":"96 W Market St","lat":42.14404390154243,"lng":-77.05838441848755,"city_fetched":"Corning,US","state":"NY","country":"United States","canonicalUrl":"https://foursquare.com/v/oaks/4b6e2641f964a520eaad2ce3","categoryId":"4bf58dd8d48988d116941735","category":"Bar","checkinsCount":875,"usersCount":231,"tipCount":5,"visitsCount":892,"tier":"","message":"","currency":"","rating":6.6},{"name":"Captain Morgans","phone":"6079621616","address":"36 Bridge St","lat":42.149552503219205,"lng":-77.06065893173218,"city_fetched":"Corning,US","state":"NY","country":"United States","canonicalUrl":"https://foursquare.com/v/captain-morgans/4bd4c1b97b1876b0fbbf8986","categoryId":"4bf58dd8d48988d116941735","category":"Bar","checkinsCount":768,"usersCount":281,"tipCount":5,"visitsCount":849,"url":"http://www.capnmorgan.com","tier":"","message":"","currency":"","rating":6.3},{"name":"Maley's Pub","phone":"6079362170","address":"92 E Market St","lat":42.14264579388105,"lng":-77.05080717802048,"city_fetched":"Corning,US","state":"NY","country":"United States","canonicalUrl":"https://foursquare.com/v/maleys-pub/4bea391b61aca593ae928300","categoryId":"4bf58dd8d48988d116941735","category":"Bar","checkinsCount":670,"usersCount":223,"tipCount":5,"visitsCount":699,"tier":"","message":"","currency":"","rating":6.1},{"name":"The Site Cyber Bar & Grill","phone":"6079627088","address":"65 Bridge St","lat":42.15047917394416,"lng":-77.06095397472382,"city_fetched":"Corning,US","state":"NY","country":"United States","canonicalUrl":"https://foursquare.com/v/the-site-cyber-bar--grill/4bb694a0ef159c74663776f7","categoryId":"4bf58dd8d48988d116941735","category":"Bar","checkinsCount":363,"usersCount":124,"tipCount":7,"visitsCount":383,"url":"http://www.thesitecyberbarandgrill.com","tier":2,"message":"Moderate","currency":"$","rating":5.5}]