[{"name":"Executive Surf Club","phone":"3618847873","twitter":"execsurfclub","address":"309 N Water St","lat":27.794353,"lng":-97.394152,"neighborhood":"Downtown Corpus Christi","city_fetched":"Corpus Christi","state":"TX","country":"United States","canonicalUrl":"https://foursquare.com/v/executive-surf-club/4bb3d7f4eb3e952165b8cb0a","category":"American Restaurant","checkinsCount":6438,"usersCount":2333,"tipCount":71,"visitsCount":7186,"url":"http://www.executivesurfclub.com","tier":2,"message":"Moderate","currency":"$","rating":8.6},{"name":"House of Rock","phone":"3618827625","twitter":"houseorock","address":"511 Starr St","lat":27.797738313674927,"lng":-97.39527,"neighborhood":"Downtown Corpus Christi","city_fetched":"Corpus Christi","state":"TX","country":"United States","canonicalUrl":"https://foursquare.com/v/house-of-rock/4b56957af964a520df1528e3","category":"Rock Club","checkinsCount":2693,"usersCount":1113,"tipCount":15,"visitsCount":3173,"url":"http://www.texashouseofrock.com","tier":"","message":"","currency":"","rating":8.6},{"name":"Republic of Texas Bar & Grill","phone":"3618863515","twitter":"omnihotels","address":"900 N Shoreline Blvd","lat":27.800270648369903,"lng":-97.39210827118123,"neighborhood":"Downtown Corpus Christi","city_fetched":"Corpus Christi","state":"TX","country":"United States","canonicalUrl":"https://foursquare.com/v/republic-of-texas-bar--grill/4c0aed30ffb8c9b652816c61","category":"Steakhouse","checkinsCount":1268,"usersCount":494,"tipCount":10,"visitsCount":1297,"url":"http://omnihotels.com","tier":4,"message":"Very Expensive","currency":"$","rating":8.5},{"name":"TGI Fridays","phone":"3619918443","twitter":"tgifridays","address":"5217 S Padre Island Dr","lat":27.71019269,"lng":-97.37672438,"neighborhood":"South Side","city_fetched":"Corpus Christi","state":"TX","country":"United States","canonicalUrl":"https://foursquare.com/v/tgi-fridays/4b7224bcf964a520ea702de3","category":"American Restaurant","checkinsCount":3605,"usersCount":1721,"tipCount":41,"visitsCount":4447,"url":"http://tgifridays.com","tier":2,"message":"Moderate","currency":"$","rating":8.5},{"name":"B & Jâ€™s Pizza - Brew Pub","phone":"3619856474","twitter":"bjspizzabrewpub","address":"6662 S Staples St","lat":27.6796707410368,"lng":-97.38653540611267,"neighborhood":"South Side","city_fetched":"Corpus Christi","state":"TX","country":"United States","canonicalUrl":"https://foursquare.com/v/b--js-pizza--brew-pub/4b53a47af964a520eba527e3","category":"Pizza Place","checkinsCount":1642,"usersCount":648,"tipCount":29,"visitsCount":1892,"url":"http://bjspizzabrewpub-hub.com","tier":2,"message":"Moderate","currency":"$","rating":8.5},{"name":"The Gaff","phone":"3617495970","address":"Beach Street","lat":27.833742,"lng":-97.05889403,"city_fetched":"Corpus Christi","state":"TX","country":"United States","canonicalUrl":"https://foursquare.com/v/the-gaff/4bd4f8f97b1876b056308a86","category":"Dive Bar","checkinsCount":542,"usersCount":273,"tipCount":13,"visitsCount":559,"url":"http://www.gotothegaff.com","tier":"","message":"","currency":"","rating":8.4},{"name":"Katz 21 Steaks & Spirits","phone":"3618845189","twitter":"katztwentyone","address":"5702 Spohn Dr","lat":27.687706927334602,"lng":-97.38112017632378,"neighborhood":"South Side","city_fetched":"Corpus Christi","state":"TX","country":"United States","canonicalUrl":"https://foursquare.com/v/katz-21-steaks--spirits/509c322de4b04c46e7f0f340","category":"Steakhouse","checkinsCount":966,"usersCount":649,"tipCount":16,"visitsCount":1562,"url":"http://www.katz21.com","tier":3,"message":"Expensive","currency":"$","rating":8.4},{"name":"Back Porch","phone":"3617492800","address":"132 W Cotter Ave","lat":27.83880208,"lng":-97.061764,"city_fetched":"Corpus Christi","state":"TX","country":"United States","canonicalUrl":"https://foursquare.com/v/back-porch/4bdb42d53904a5939685499e","category":"Bar","checkinsCount":724,"usersCount":623,"tipCount":14,"visitsCount":1012,"url":"http://www.pabackporchbar.com","tier":"","message":"","currency":"","rating":8.4},{"name":"Island Joe's Coffee and Gallery","phone":"3618671276","address":"13919 S. Padre Island Dr.","lat":27.629016747273532,"lng":-97.22708865304112,"neighborhood":"Padre Island","city_fetched":"Corpus Christi","state":"TX","country":"United States","canonicalUrl":"https://foursquare.com/v/island-joes-coffee-and-gallery/53b97f5d498e04187202563e","category":"Coffee Shop","checkinsCount":40,"usersCount":36,"tipCount":4,"visitsCount":56,"url":"http://www.islandjoescc.com","tier":"","message":"","currency":"","rating":8.3},{"name":"Scuttlebutt's Seafood Bar & Grill","phone":"3619496769","address":"14254 S Padre Island Dr Ste 311","lat":27.62449817360311,"lng":-97.22057583355702,"neighborhood":"Padre Island","city_fetched":"Corpus Christi","state":"TX","country":"United States","canonicalUrl":"https://foursquare.com/v/scuttlebutts-seafood-bar--grill/4d1297dbf898b1f768ffd981","category":"Seafood Restaurant","checkinsCount":2190,"usersCount":1424,"tipCount":55,"visitsCount":2884,"url":"http://scuttlebuttsbarandgrill.com","tier":2,"message":"Moderate","currency":"$","rating":8.3},{"name":"Brewster Street Icehouse","phone":"3618842739","twitter":"brewsterstreet","address":"1724 N Tancahua St","lat":27.807545850861032,"lng":-97.39839613437653,"neighborhood":"Central City","city_fetched":"Corpus Christi","state":"TX","country":"United States","canonicalUrl":"https://foursquare.com/v/brewster-street-icehouse/4b873cb0f964a520f2b731e3","category":"American Restaurant","checkinsCount":3825,"usersCount":2312,"tipCount":45,"visitsCount":4966,"url":"http://www.brewsterstreet.net","tier":2,"message":"Moderate","currency":"$","rating":8.2},{"name":"Hidden Door","phone":"3618825002","address":"802 S Staples St","lat":27.784190734432826,"lng":-97.40174146001827,"neighborhood":"Downtown Corpus Christi","city_fetched":"Corpus Christi","state":"TX","country":"United States","canonicalUrl":"https://foursquare.com/v/hidden-door/4c0153054f1ea593ec4d6b7d","category":"Gay Bar","checkinsCount":4358,"usersCount":445,"tipCount":12,"visitsCount":4776,"url":"http://hiddendoorcc.com","tier":1,"message":"Cheap","currency":"$","rating":8.2},{"name":"BJ's Restaurant and Brewhouse","phone":"3619851600","twitter":"bjsrestaurants","address":"5037 S Padre Island Dr","lat":27.71185887,"lng":-97.38019139,"neighborhood":"South Side","city_fetched":"Corpus Christi","state":"TX","country":"United States","canonicalUrl":"https://foursquare.com/v/bjs-restaurant-and-brewhouse/5249fe8111d279a1fc73a773","category":"American Restaurant","checkinsCount":1479,"usersCount":1280,"tipCount":29,"visitsCount":2791,"url":"http://t.co/bl46gcjDLN","tier":2,"message":"Moderate","currency":"$","rating":8.2},{"name":"Pockets Billiards","phone":"3612991300","address":"5401 Leopard St","lat":27.797103083333333,"lng":-97.46055901050568,"neighborhood":"Central City","city_fetched":"Corpus Christi","state":"TX","country":"United States","canonicalUrl":"https://foursquare.com/v/pockets-billiards/4c6882f62f6c0f47aff01b7e","category":"Sports Bar","checkinsCount":669,"usersCount":76,"tipCount":3,"visitsCount":679,"tier":"","message":"","currency":"","rating":8},{"name":"Molly McArdle's Irish Sports Bar","phone":"3618558450","address":"4201 McArdle Rd","lat":27.722357511520386,"lng":-97.392184,"neighborhood":"Central City","city_fetched":"Corpus Christi","state":"TX","country":"United States","canonicalUrl":"https://foursquare.com/v/molly-mcardles-irish-sports-bar/4b82085cf964a5207ac830e3","category":"Karaoke Bar","checkinsCount":1738,"usersCount":559,"tipCount":14,"visitsCount":2131,"tier":"","message":"","currency":"","rating":8},{"name":"Vernon's","phone":"3618820030","twitter":"vernonsgrill","address":"1030 3rd St","lat":27.7817785,"lng":-97.397483,"neighborhood":"Downtown Corpus Christi","city_fetched":"Corpus Christi","state":"TX","country":"United States","canonicalUrl":"https://foursquare.com/v/vernons/4bdbbe7763c5c9b6668d2968","category":"Dive Bar","checkinsCount":1321,"usersCount":484,"tipCount":17,"visitsCount":1750,"tier":1,"message":"Cheap","currency":"$","rating":8},{"name":"Salty Dog Saloon","phone":"3617494912","address":"203 N Alister St","lat":27.833612896452795,"lng":-97.06255104405385,"city_fetched":"Corpus Christi","state":"TX","country":"United States","canonicalUrl":"https://foursquare.com/v/salty-dog-saloon/4be60771cf200f47881f143c","category":"Bar","checkinsCount":490,"usersCount":435,"tipCount":8,"visitsCount":634,"tier":"","message":"","currency":"","rating":7.9},{"name":"Jack Ash's Drinkery","phone":"3619062267","address":"4334 S Staples St","lat":27.7213704,"lng":-97.375397,"neighborhood":"Bay Area","city_fetched":"Corpus Christi","state":"TX","country":"United States","canonicalUrl":"https://foursquare.com/v/jack-ashs-drinkery/4b91ed2cf964a520bbdf33e3","category":"Dive Bar","checkinsCount":3507,"usersCount":392,"tipCount":14,"visitsCount":3583,"tier":"","message":"","currency":"","rating":7.9},{"name":"Boneshakers","address":"4528 Weber Rd","lat":27.73033078263134,"lng":-97.39280498231022,"neighborhood":"Central City","city_fetched":"Corpus Christi","state":"TX","country":"United States","canonicalUrl":"https://foursquare.com/v/boneshakers/51cfda2d498e66d537f459b5","category":"Bar","checkinsCount":215,"usersCount":81,"tipCount":8,"visitsCount":245,"tier":1,"message":"Cheap","currency":"$","rating":7.9},{"name":"Izzy's Bar","phone":"3613345030","address":"4535 S Padre Island Dr Ste 2","lat":27.71628360323995,"lng":-97.39017124044767,"neighborhood":"South Side","city_fetched":"Corpus Christi","state":"TX","country":"United States","canonicalUrl":"https://foursquare.com/v/izzys-bar/4e98abbbd3e3c8b333adb2dd","category":"Sports Bar","checkinsCount":2510,"usersCount":748,"tipCount":9,"visitsCount":3019,"url":"http://izzysbarpatio.com","tier":2,"message":"Moderate","currency":"$","rating":7.9},{"name":"Cassidy's Irish Pub","phone":"3618790534","address":"601 N Water St","lat":27.7969183,"lng":-97.3929305,"neighborhood":"Downtown Corpus Christi","city_fetched":"Corpus Christi","state":"TX","country":"United States","canonicalUrl":"https://foursquare.com/v/cassidys-irish-pub/4ba4289cf964a5208c8738e3","category":"Pub","checkinsCount":1682,"usersCount":777,"tipCount":19,"visitsCount":1849,"tier":2,"message":"Moderate","currency":"$","rating":7.8},{"name":"Hard Knocks Sports Lounge and Grill","lat":27.702275982037282,"lng":-97.39026624339925,"neighborhood":"South Side","city_fetched":"Corpus Christi","state":"TX","country":"United States","canonicalUrl":"https://foursquare.com/v/hard-knocks-sports-lounge-and-grill/52307d3811d25d3b66933b50","category":"Sports Bar","checkinsCount":298,"usersCount":248,"tipCount":6,"visitsCount":555,"tier":"","message":"","currency":"","rating":7.8},{"name":"The Grub Pub","address":"601 N Chaparral St","lat":27.79691579754116,"lng":-97.3937867236842,"neighborhood":"Downtown Corpus Christi","city_fetched":"Corpus Christi","state":"TX","country":"United States","canonicalUrl":"https://foursquare.com/v/the-grub-pub/552efe14498e0bb38634dbda","category":"Bar","checkinsCount":116,"usersCount":104,"tipCount":4,"visitsCount":209,"tier":"","message":"","currency":"","rating":7.7},{"name":"The Boat House","lat":27.602423069509776,"lng":-97.21353195705203,"neighborhood":"Padre Island","city_fetched":"Corpus Christi","state":"TX","country":"United States","canonicalUrl":"https://foursquare.com/v/the-boat-house/51a175b0498e034cd0a1118a","category":"Bar","checkinsCount":252,"usersCount":288,"tipCount":5,"visitsCount":513,"tier":2,"message":"Moderate","currency":"$","rating":7.7},{"name":"Talons Sports Bar","address":"5505 Saratoga Blvd","lat":27.686579225303614,"lng":-97.38498322431394,"neighborhood":"South Side","city_fetched":"Corpus Christi","state":"TX","country":"United States","canonicalUrl":"https://foursquare.com/v/talons-sports-bar/4dbb58dc0cb691071c8879d8","category":"Sports Bar","checkinsCount":545,"usersCount":245,"tipCount":1,"visitsCount":626,"tier":"","message":"","currency":"","rating":7.7},{"name":"Pure-Rio","address":"5922 S Staples St","lat":27.693857192993164,"lng":-97.3775863647461,"neighborhood":"South Side","city_fetched":"Corpus Christi","state":"TX","country":"United States","canonicalUrl":"https://foursquare.com/v/purerio/51986457498eaf74bb6042dc","category":"Nightclub","checkinsCount":186,"usersCount":140,"tipCount":2,"visitsCount":263,"tier":"","message":"","currency":"","rating":7.7},{"name":"Giggity's","address":"722 Tarpon St Unit A","lat":27.8381966862837,"lng":-97.05968333296217,"city_fetched":"Corpus Christi","state":"TX","country":"United States","canonicalUrl":"https://foursquare.com/v/giggitys/4fbc3a29e4b0c3cedabeabb2","category":"Bar","checkinsCount":341,"usersCount":221,"tipCount":7,"visitsCount":396,"url":"http://giggitys.com","tier":"","message":"","currency":"","rating":7.6},{"name":"Twisted Murphy's","lat":27.79388904638474,"lng":-97.39447817365337,"neighborhood":"Downtown Corpus Christi","city_fetched":"Corpus Christi","state":"TX","country":"United States","canonicalUrl":"https://foursquare.com/v/twisted-murphys/513c0d17e4b0fdf0ddfaea5b","category":"Bar","checkinsCount":240,"usersCount":65,"tipCount":2,"visitsCount":253,"tier":"","message":"","currency":"","rating":7.5},{"name":"The Pelican Lounge","phone":"3619498222","address":"14330 Park Road 22","lat":27.62243,"lng":-97.220751,"neighborhood":"Padre Island","city_fetched":"Corpus Christi","state":"TX","country":"United States","canonicalUrl":"https://foursquare.com/v/the-pelican-lounge/4bda5d26c79cc92861b27ee9","category":"Bar","checkinsCount":643,"usersCount":389,"tipCount":6,"visitsCount":773,"url":"http://www.myspace.com/pelicanloungecorpus","tier":"","message":"","currency":"","rating":7.5},{"name":"Mulligan's Pub","phone":"3618848190","address":"621 N Chaparral St","lat":27.797512227624193,"lng":-97.39395305514336,"neighborhood":"Downtown Corpus Christi","city_fetched":"Corpus Christi","state":"TX","country":"United States","canonicalUrl":"https://foursquare.com/v/mulligans-pub/4c382cad18e72d7f2af417f5","category":"Bar","checkinsCount":1171,"usersCount":623,"tipCount":13,"visitsCount":1224,"url":"http://mulliganspub.biz","tier":"","message":"","currency":"","rating":7.4},{"name":"Dr. Rockit's Blues Bar","phone":"3618847634","address":"709 N Chaparral St","lat":27.79816185757055,"lng":-97.39385534054406,"neighborhood":"Downtown Corpus Christi","city_fetched":"Corpus Christi","state":"TX","country":"United States","canonicalUrl":"https://foursquare.com/v/dr-rockits-blues-bar/4bb906277421a5937a66c240","category":"Rock Club","checkinsCount":605,"usersCount":368,"tipCount":6,"visitsCount":708,"url":"http://dr.ldescher.com/main.html","tier":"","message":"","currency":"","rating":7.4},{"name":"The Railroad Seafood Station","phone":"3618836200","address":"1214 N Chaparral St","lat":27.80300722803672,"lng":-97.39430040121078,"neighborhood":"Downtown Corpus Christi","city_fetched":"Corpus Christi","state":"TX","country":"United States","canonicalUrl":"https://foursquare.com/v/the-railroad-seafood-station/4b5a39c6f964a5209ab528e3","category":"Seafood Restaurant","checkinsCount":841,"usersCount":693,"tipCount":8,"visitsCount":1079,"url":"http://www.railroadseafood.com","tier":2,"message":"Moderate","currency":"$","rating":7.4},{"name":"Sand Bar","address":"15201 Windward Dr","lat":27.605021565373463,"lng":-97.20854693844163,"neighborhood":"Padre Island","city_fetched":"Corpus Christi","state":"TX","country":"United States","canonicalUrl":"https://foursquare.com/v/sand-bar/4c5c83cf7f661b8dd0ca481c","category":"Hotel Bar","checkinsCount":151,"usersCount":116,"tipCount":3,"visitsCount":151,"tier":"","message":"","currency":"","rating":7.4},{"name":"Whiskey River","phone":"3619924445","address":"5702 S Staples St #G","lat":27.696704150651858,"lng":-97.37570066735181,"neighborhood":"South Side","city_fetched":"Corpus Christi","state":"TX","country":"United States","canonicalUrl":"https://foursquare.com/v/whiskey-river/4b91d14ef964a52064d933e3","category":"Nightclub","checkinsCount":996,"usersCount":485,"tipCount":4,"visitsCount":1202,"url":"http://thewhiskeyriver.com","tier":"","message":"","currency":"","rating":7.3},{"name":"Outta Bounds Sports Lounge","phone":"3619860480","address":"1402 Rodd Field Rd","lat":27.694381863390788,"lng":-97.34053973359886,"neighborhood":"Bay Area","city_fetched":"Corpus Christi","state":"TX","country":"United States","canonicalUrl":"https://foursquare.com/v/outta-bounds-sports-lounge/4b934545f964a5200b3e34e3","category":"Sports Bar","checkinsCount":1496,"usersCount":451,"tipCount":10,"visitsCount":1684,"url":"http://outtaboundssportslounge.com","tier":"","message":"","currency":"","rating":7.3},{"name":"Mikel May's","lat":27.582409,"lng":-97.219285,"city_fetched":"Corpus Christi","state":"TX","country":"United States","canonicalUrl":"https://foursquare.com/v/mikel-mays/521030e111d26b96d156de14","category":"Sports Bar","checkinsCount":250,"usersCount":172,"tipCount":9,"visitsCount":288,"tier":"","message":"","currency":"","rating":7.3},{"name":"Padre Island Burger Company","phone":"3619493490","address":"14414 Highway 361","lat":27.61816289155339,"lng":-97.22057104110718,"neighborhood":"Padre Island","city_fetched":"Corpus Christi","state":"TX","country":"United States","canonicalUrl":"https://foursquare.com/v/padre-island-burger-company/4b50b95bf964a520702f27e3","category":"Burger Joint","checkinsCount":1491,"usersCount":1087,"tipCount":47,"visitsCount":1732,"url":"http://www.padreislandburgercompany.com","tier":"","message":"","currency":"","rating":7.3},{"name":"Murdock's","phone":"3619919606","address":"2033 Airline Rd","lat":27.69314709499211,"lng":-97.36409604549408,"neighborhood":"South Side","city_fetched":"Corpus Christi","state":"TX","country":"United States","canonicalUrl":"https://foursquare.com/v/murdocks/4b662eadf964a520e4172be3","category":"Sports Bar","checkinsCount":1866,"usersCount":738,"tipCount":8,"visitsCount":2296,"url":"http://murdocks.biz","tier":"","message":"","currency":"","rating":7.2},{"name":"Barton Street Pub","phone":"3619373167","address":"10618 S Padre Island Dr","lat":27.6666182463082,"lng":-97.27817053806668,"neighborhood":"Flour Bluff","city_fetched":"Corpus Christi","state":"TX","country":"United States","canonicalUrl":"https://foursquare.com/v/barton-street-pub/4d3f973caae1b1f7cc437ff5","category":"Bar","checkinsCount":472,"usersCount":251,"tipCount":5,"visitsCount":621,"tier":"","message":"","currency":"","rating":7.2},{"name":"Recess Bar & Grill","phone":"3614520223","address":"5710 S Alameda St","lat":27.71670890304618,"lng":-97.34483778476715,"neighborhood":"Bay Area","city_fetched":"Corpus Christi","state":"TX","country":"United States","canonicalUrl":"https://foursquare.com/v/recess-bar--grill/4cdcb606a1bba35d42429ce5","category":"Sports Bar","checkinsCount":835,"usersCount":367,"tipCount":3,"visitsCount":1021,"url":"http://recessarcadebar.com","tier":"","message":"","currency":"","rating":7.1},{"name":"Politics Spirits & Games","phone":"3619852277","address":"7426 S Staples St","lat":27.667623071901087,"lng":-97.3929422141275,"neighborhood":"South Side","city_fetched":"Corpus Christi","state":"TX","country":"United States","canonicalUrl":"https://foursquare.com/v/politics-spirits--games/4d7b0226954fa35db9e2554b","category":"Sports Bar","checkinsCount":1390,"usersCount":312,"tipCount":5,"visitsCount":1548,"tier":"","message":"","currency":"","rating":7.1},{"name":"Theo's Billards","phone":"3612253215","address":"5815 Weber Rd","lat":27.71082148175357,"lng":-97.40643978140406,"neighborhood":"South Side","city_fetched":"Corpus Christi","state":"TX","country":"United States","canonicalUrl":"https://foursquare.com/v/theos-billards/4c02c8fa187ec928abbdb47b","category":"Pool Hall","checkinsCount":1221,"usersCount":321,"tipCount":11,"visitsCount":1321,"tier":"","message":"","currency":"","rating":7},{"name":"Dazzling Event Sports Bar","phone":"3618510422","address":"6102 Ayers St","lat":27.718887329101562,"lng":-97.43690490722656,"neighborhood":"South Side","city_fetched":"Corpus Christi","state":"TX","country":"United States","canonicalUrl":"https://foursquare.com/v/dazzling-event-sports-bar/4fd3f844e4b07b0662844b36","category":"Sports Bar","checkinsCount":173,"usersCount":50,"tipCount":3,"visitsCount":173,"tier":"","message":"","currency":"","rating":7},{"name":"Bernie's Beach House","phone":"3617494440","address":"730 Trout St","lat":27.838771040102365,"lng":-97.06012976336444,"city_fetched":"Corpus Christi","state":"TX","country":"United States","canonicalUrl":"https://foursquare.com/v/bernies-beach-house/4bbebf8eba9776b09538fec8","category":"Bar","checkinsCount":1330,"usersCount":865,"tipCount":18,"visitsCount":1446,"url":"http://berniesbeachhouse.net","tier":"","message":"","currency":"","rating":7},{"name":"Dewey's Beer Garden","phone":"3613345747","address":"2302 Rodd Field Rd","lat":27.680373813661006,"lng":-97.34903812408447,"neighborhood":"South Side","city_fetched":"Corpus Christi","state":"TX","country":"United States","canonicalUrl":"https://foursquare.com/v/deweys-beer-garden/4b6e0853f964a520eca42ce3","category":"Beer Garden","checkinsCount":890,"usersCount":333,"tipCount":10,"visitsCount":1061,"tier":"","message":"","currency":"","rating":7},{"name":"Stingrays Taphouse","address":"401 Beach Ave","lat":27.83363042769229,"lng":-97.05867493651088,"city_fetched":"Corpus Christi","state":"TX","country":"United States","canonicalUrl":"https://foursquare.com/v/stingrays-taphouse/5259c62411d2cf48034827a3","category":"Sports Bar","checkinsCount":318,"usersCount":265,"tipCount":11,"visitsCount":440,"url":"http://stingraystaphouse.com","tier":"","message":"","currency":"","rating":6.9},{"name":"The Flats Lounge","phone":"3617491990","address":"801 Tarpon","lat":27.838960919903588,"lng":-97.0599511908434,"city_fetched":"Corpus Christi","state":"TX","country":"United States","canonicalUrl":"https://foursquare.com/v/the-flats-lounge/4c90531b04a1b60cc7b2a63e","category":"Bar","checkinsCount":361,"usersCount":152,"tipCount":10,"visitsCount":363,"tier":"","message":"","currency":"","rating":6.8}]