[{"name":"The Red Jug Pub","phone":"6072994865","address":"31 Central Ave","lat":42.599991891175094,"lng":-76.17899372468992,"city_fetched":"Cortland","state":"NY","country":"United States","canonicalUrl":"https://foursquare.com/v/the-red-jug-pub/4b86f2f9f964a5209ca731e3","category":"Bar","checkinsCount":9158,"usersCount":938,"tipCount":29,"visitsCount":9592,"url":"http://www.redjugpub.com","tier":2,"message":"Moderate","currency":"$","rating":9.1},{"name":"Central City Bar & Grill","phone":"6077583300","address":"17 Central Ave","lat":42.60000567101846,"lng":-76.1794975041675,"city_fetched":"Cortland","state":"NY","country":"United States","canonicalUrl":"https://foursquare.com/v/central-city-bar--grill/4ba5708cf964a520400739e3","category":"American Restaurant","checkinsCount":2843,"usersCount":727,"tipCount":32,"visitsCount":3039,"url":"http://centralcitybarandgrill.net","tier":2,"message":"Moderate","currency":"$","rating":8.7},{"name":"Hairy Tony's","phone":"6076620239","address":"102 Main St","lat":42.59796813769598,"lng":-76.18049939710673,"city_fetched":"Cortland","state":"NY","country":"United States","canonicalUrl":"https://foursquare.com/v/hairy-tonys/4b786bf3f964a52008cd2ee3","category":"Bar","checkinsCount":1209,"usersCount":610,"tipCount":17,"visitsCount":1300,"url":"http://hairytonys.com","tier":2,"message":"Moderate","currency":"$","rating":8.4},{"name":"Gators Tavern","lat":42.589347657658294,"lng":-76.18565591517613,"city_fetched":"Cortland","state":"NY","country":"United States","canonicalUrl":"https://foursquare.com/v/gators-tavern/4bad2ad8f964a520e6343be3","category":"Bar","checkinsCount":333,"usersCount":137,"tipCount":2,"visitsCount":482,"tier":"","message":"","currency":"","rating":8.2},{"name":"Cortland Beer Company","phone":"6076624389","address":"16 Court St","lat":42.59937917827214,"lng":-76.17966731705202,"city_fetched":"Cortland","state":"NY","country":"United States","canonicalUrl":"https://foursquare.com/v/cortland-beer-company/4dbca92093a08f9274c4b299","category":"Brewery","checkinsCount":547,"usersCount":347,"tipCount":17,"visitsCount":708,"url":"http://www.cortlandbeer.com","tier":2,"message":"Moderate","currency":"$","rating":8.1},{"name":"Coach's Corner","address":"Elm Street","lat":42.602443,"lng":-76.167153,"city_fetched":"Cortland","state":"NY","country":"United States","canonicalUrl":"https://foursquare.com/v/coachs-corner/4c97733c7605199cf402c9a3","category":"Sports Bar","checkinsCount":419,"usersCount":87,"tipCount":5,"visitsCount":430,"tier":"","message":"","currency":"","rating":7.5},{"name":"Study Hall","lat":42.601069083737436,"lng":-76.18749545967108,"city_fetched":"Cortland","state":"NY","country":"United States","canonicalUrl":"https://foursquare.com/v/study-hall/4d7c42bc86cfa14318bfc6a0","category":"Bar","checkinsCount":811,"usersCount":215,"tipCount":4,"visitsCount":899,"tier":1,"message":"Cheap","currency":"$","rating":7.5},{"name":"Brix Pubaria","phone":"6076620006","address":"60 Main St","lat":42.599454847119844,"lng":-76.18064090681116,"city_fetched":"Cortland","state":"NY","country":"United States","canonicalUrl":"https://foursquare.com/v/brix-pubaria/4c61dc8deb82d13a531504d6","category":"Pub","checkinsCount":6013,"usersCount":1308,"tipCount":36,"visitsCount":6253,"url":"http://brixpubaria.com","tier":2,"message":"Moderate","currency":"$","rating":7.4},{"name":"Woodman's Pub","phone":"6077569531","address":"main street","lat":42.597995,"lng":-76.180376,"city_fetched":"Cortland","state":"NY","country":"United States","canonicalUrl":"https://foursquare.com/v/woodmans-pub/4d50996be0275481e18aa2b6","category":"Pub","checkinsCount":371,"usersCount":174,"tipCount":3,"visitsCount":374,"tier":"","message":"","currency":"","rating":6.7},{"name":"Blue Frog Cafe & Music Club","phone":"6077587989","address":"64 Main St","lat":42.599261,"lng":-76.180608,"city_fetched":"Cortland","state":"NY","country":"United States","canonicalUrl":"https://foursquare.com/v/blue-frog-cafe--music-club/4b68a626f964a520d5842be3","category":"Caf√©","checkinsCount":598,"usersCount":201,"tipCount":9,"visitsCount":598,"tier":"","message":"","currency":"","rating":6.4},{"name":"Dark Horse Tavern","phone":"6077536513","address":"96 Main St","lat":42.598005702108715,"lng":-76.18052769905945,"city_fetched":"Cortland","state":"NY","country":"United States","canonicalUrl":"https://foursquare.com/v/dark-horse-tavern/4b57c4e7f964a520224028e3","category":"Bar","checkinsCount":2196,"usersCount":719,"tipCount":11,"visitsCount":2276,"tier":"","message":"","currency":"","rating":6},{"name":"The 77 Club","address":"77 Main St","lat":42.598711,"lng":-76.18033,"city_fetched":"Cortland","state":"NY","country":"United States","canonicalUrl":"https://foursquare.com/v/the-77-club/4d2fbbef7791224ba0beca42","category":"Bar","checkinsCount":463,"usersCount":156,"tipCount":4,"visitsCount":471,"tier":"","message":"","currency":"","rating":6},{"name":"Stone Lounge","phone":"6072994338","twitter":"thestonelounge","address":"128 Main St","lat":42.596858,"lng":-76.180409,"city_fetched":"Cortland","state":"NY","country":"United States","canonicalUrl":"https://foursquare.com/v/stone-lounge/4b57c51ff964a5202a4028e3","category":"Bar","checkinsCount":1060,"usersCount":441,"tipCount":9,"visitsCount":1125,"url":"http://www.thestonelounge.com","tier":"","message":"","currency":"","rating":5.4}]