[{"name":"Block 15 Restaurant & Brewery","phone":"5417582077","address":"300 SW Jefferson Ave","lat":44.562320540345695,"lng":-123.26217055320738,"neighborhood":"Downtown Corvallis","city_fetched":"Corvallis,US","state":"OR","country":"United States","canonicalUrl":"https://foursquare.com/v/block-15-restaurant--brewery/4a56476df964a520eab41fe3","categoryId":"50327c8591d4c4b30a586d5d","category":"Brewery","checkinsCount":4965,"usersCount":2100,"tipCount":62,"visitsCount":5687,"url":"http://block15.com","tier":2,"message":"Moderate","currency":"$","rating":9.3},{"name":"2 Towns Ciderhouse","phone":"5413578301","twitter":"2townscider","address":"33930 SE Eastgate Cir","lat":44.563642160857114,"lng":-123.2260084139004,"city_fetched":"Corvallis,US","state":"OR","country":"United States","canonicalUrl":"https://foursquare.com/v/2-towns-ciderhouse/4eaaff96e5fa45480de4479f","categoryId":"50327c8591d4c4b30a586d5d","category":"Brewery","checkinsCount":352,"usersCount":257,"tipCount":3,"visitsCount":382,"url":"http://www.2townsciderhouse.com","tier":2,"message":"Moderate","currency":"$","rating":8.4},{"name":"Block 15 Brewery and Tap Room","address":"3415 SW Deschutes St","lat":44.53034555635012,"lng":-123.26903779567188,"neighborhood":"South Corvallis","city_fetched":"Corvallis,US","state":"OR","country":"United States","canonicalUrl":"https://foursquare.com/v/block-15-brewery-and-tap-room/55b82201498ec32637885e13","categoryId":"50327c8591d4c4b30a586d5d","category":"Brewery","checkinsCount":149,"usersCount":144,"tipCount":2,"visitsCount":266,"tier":"","message":"","currency":"","rating":8.3},{"name":"Cloud & Kelly's Public House","phone":"5417539900","address":"126 SW 1st St","lat":44.563471,"lng":-123.25920618333333,"neighborhood":"Downtown Corvallis","city_fetched":"Corvallis,US","state":"OR","country":"United States","canonicalUrl":"https://foursquare.com/v/cloud--kellys-public-house/4b5a4de0f964a520acbb28e3","categoryId":"4bf58dd8d48988d11b941735","category":"Pub","checkinsCount":831,"usersCount":385,"tipCount":22,"visitsCount":837,"url":"http://cloudandkellys.com","tier":"","message":"","currency":"","rating":8},{"name":"Squirrels Tavern","phone":"5417538057","address":"100 SW 2nd St","lat":44.56407129764557,"lng":-123.26018764,"neighborhood":"Downtown Corvallis","city_fetched":"Corvallis,US","state":"OR","country":"United States","canonicalUrl":"https://foursquare.com/v/squirrels-tavern/4b4e32f5f964a520f9e426e3","categoryId":"4bf58dd8d48988d116941735","category":"Bar","checkinsCount":715,"usersCount":337,"tipCount":15,"visitsCount":783,"url":"http://squirrelstavern.com","tier":"","message":"","currency":"","rating":7.9},{"name":"Sky High Brewing","phone":"5412073277","address":"160 NW Jackson Ave","lat":44.56491587540066,"lng":-123.25922212224408,"neighborhood":"Downtown Corvallis","city_fetched":"Corvallis,US","state":"OR","country":"United States","canonicalUrl":"https://foursquare.com/v/sky-high-brewing/5026d67ce4b0435879e86199","categoryId":"50327c8591d4c4b30a586d5d","category":"Brewery","checkinsCount":1063,"usersCount":764,"tipCount":21,"visitsCount":1620,"url":"http://skyhighbrewing.com","tier":2,"message":"Moderate","currency":"$","rating":7.9},{"name":"Mazama Brewing","phone":"5412319723","address":"33930A SE Eastgate Cir","lat":44.56360442640383,"lng":-123.2261493774743,"city_fetched":"Corvallis,US","state":"OR","country":"United States","canonicalUrl":"https://foursquare.com/v/mazama-brewing/51a947ab498eae4432e51362","categoryId":"4bf58dd8d48988d117941735","category":"Beer Garden","checkinsCount":170,"usersCount":125,"tipCount":5,"visitsCount":175,"tier":"","message":"","currency":"","rating":7.8},{"name":"Upper Deck Pub","phone":"5417570776","twitter":"upperdeckpub","address":"175 SW Twin Oaks Cir","lat":44.55462600304332,"lng":-123.26546536608039,"neighborhood":"South Corvallis","city_fetched":"Corvallis,US","state":"OR","country":"United States","canonicalUrl":"https://foursquare.com/v/upper-deck-pub/4bec89be16e99c74f76708e2","categoryId":"4bf58dd8d48988d11d941735","category":"Sports Bar","checkinsCount":221,"usersCount":60,"tipCount":6,"visitsCount":254,"url":"http://www.corvallissportspark.com/pub/","tier":"","message":"","currency":"","rating":7.7},{"name":"China Delight","phone":"5417533753","address":"325 NW 2nd St","lat":44.5663346009207,"lng":-123.25830973926149,"neighborhood":"Downtown Corvallis","city_fetched":"Corvallis,US","state":"OR","country":"United States","canonicalUrl":"https://foursquare.com/v/china-delight/4b3066b8f964a52069f924e3","categoryId":"4bf58dd8d48988d118941735","category":"Dive Bar","checkinsCount":186,"usersCount":94,"tipCount":4,"visitsCount":189,"url":"http://www.chinadelight.com","tier":1,"message":"Cheap","currency":"$","rating":7.7},{"name":"Beer:30","phone":"5412301720","twitter":"beer30corvallis","address":"1835 SE 3rd St","lat":44.547283506500555,"lng":-123.265404223348,"neighborhood":"South Corvallis","city_fetched":"Corvallis,US","state":"OR","country":"United States","canonicalUrl":"https://foursquare.com/v/beer30/51be345dabd8b63d6d6b4c04","categoryId":"4bf58dd8d48988d116941735","category":"Bar","checkinsCount":279,"usersCount":66,"tipCount":6,"visitsCount":287,"url":"http://beer30corvallis.com","tier":"","message":"","currency":"","rating":7.6},{"name":"Suds & Suds","phone":"5417585200","address":"1035 NW Kings Blvd","lat":44.576987840129874,"lng":-123.27479839324951,"city_fetched":"Corvallis,US","state":"OR","country":"United States","canonicalUrl":"https://foursquare.com/v/suds--suds/4b53eddef964a520d8ae27e3","categoryId":"4bf58dd8d48988d117941735","category":"Beer Garden","checkinsCount":784,"usersCount":180,"tipCount":8,"visitsCount":825,"tier":"","message":"","currency":"","rating":7.6},{"name":"Les Caves","phone":"5412864473","address":"308 SW 3rd St","lat":44.56210255622864,"lng":-123.26221346855164,"neighborhood":"Downtown Corvallis","city_fetched":"Corvallis,US","state":"OR","country":"United States","canonicalUrl":"https://foursquare.com/v/les-caves/4e850f07775bd198c6285ad3","categoryId":"4bf58dd8d48988d11b941735","category":"Pub","checkinsCount":985,"usersCount":358,"tipCount":21,"visitsCount":1003,"url":"http://biercaves.com","tier":2,"message":"Moderate","currency":"$","rating":7.6},{"name":"Harrison's Bar","phone":"5417541017","address":"550 NW Harrison Blvd","lat":44.5679314901331,"lng":-123.26263819525236,"city_fetched":"Corvallis,US","state":"OR","country":"United States","canonicalUrl":"https://foursquare.com/v/harrisons-bar/4b57f223f964a520f44628e3","categoryId":"4bf58dd8d48988d11d941735","category":"Sports Bar","checkinsCount":689,"usersCount":219,"tipCount":10,"visitsCount":806,"url":"http://harrisonbarandgrill.com","tier":"","message":"","currency":"","rating":7.6},{"name":"101","address":"101 NW Jackson Ave","lat":44.565059,"lng":-123.25862551666667,"neighborhood":"Downtown Corvallis","city_fetched":"Corvallis,US","state":"OR","country":"United States","canonicalUrl":"https://foursquare.com/v/101/4b0d50ebf964a5202b4623e3","categoryId":"4bf58dd8d48988d11e941735","category":"Cocktail Bar","checkinsCount":510,"usersCount":203,"tipCount":3,"visitsCount":513,"tier":2,"message":"Moderate","currency":"$","rating":7.2},{"name":"Flat Tail Brewing","phone":"5417582229","twitter":"flattailbrewing","address":"202 SW 1st St","lat":44.56276130018572,"lng":-123.25957677029469,"neighborhood":"Downtown Corvallis","city_fetched":"Corvallis,US","state":"OR","country":"United States","canonicalUrl":"https://foursquare.com/v/flat-tail-brewing/4b90443bf964a520fe7f33e3","categoryId":"50327c8591d4c4b30a586d5d","category":"Brewery","checkinsCount":2220,"usersCount":1022,"tipCount":20,"visitsCount":2438,"url":"http://www.flattailcorvallis.com","tier":2,"message":"Moderate","currency":"$","rating":7.1},{"name":"Red Fox Cafe","address":"2305 NW Monroe Ave","lat":44.5686777057515,"lng":-123.2777484634971,"city_fetched":"Corvallis,US","state":"OR","country":"United States","canonicalUrl":"https://foursquare.com/v/red-fox-cafe/533b9ef8498e101f3a924941","categoryId":"4bf58dd8d48988d117941735","category":"Beer Garden","checkinsCount":213,"usersCount":125,"tipCount":5,"visitsCount":316,"tier":"","message":"","currency":"","rating":6.7},{"name":"Impulse Bar & Grill","phone":"5412301114","address":"1425 NW Monroe Ave","lat":44.56744954773362,"lng":-123.27228784561159,"city_fetched":"Corvallis,US","state":"OR","country":"United States","canonicalUrl":"https://foursquare.com/v/impulse-bar--grill/4b57d903f964a520ac4328e3","categoryId":"4bf58dd8d48988d11f941735","category":"Nightclub","checkinsCount":636,"usersCount":214,"tipCount":10,"visitsCount":694,"tier":"","message":"","currency":"","rating":6.5},{"name":"Sancho's Mexican Grill","phone":"5417522500","address":"1425 NW Monroe Ave","lat":44.567434260753124,"lng":-123.27267408370972,"city_fetched":"Corvallis,US","state":"OR","country":"United States","canonicalUrl":"https://foursquare.com/v/sanchos-mexican-grill/4b9c2a66f964a520c55036e3","categoryId":"4bf58dd8d48988d116941735","category":"Bar","checkinsCount":411,"usersCount":169,"tipCount":6,"visitsCount":413,"tier":"","message":"","currency":"","rating":6.5},{"name":"Tom's Peacock Bar & Grill","address":"125 SW 2nd St","lat":44.56348352000083,"lng":-123.25990496740899,"neighborhood":"Downtown Corvallis","city_fetched":"Corvallis,US","state":"OR","country":"United States","canonicalUrl":"https://foursquare.com/v/toms-peacock-bar--grill/4a88274cf964a5204c0520e3","categoryId":"4bf58dd8d48988d116941735","category":"Bar","checkinsCount":3105,"usersCount":650,"tipCount":16,"visitsCount":3270,"tier":"","message":"","currency":"","rating":6.4},{"name":"McMenamins Corvallis","phone":"5417586044","twitter":"captainneon","address":"420 NW 3rd St","lat":44.567705,"lng":-123.25952,"neighborhood":"Downtown Corvallis","city_fetched":"Corvallis,US","state":"OR","country":"United States","canonicalUrl":"https://foursquare.com/v/mcmenamins-corvallis/4aa05463f964a520253f20e3","categoryId":"50327c8591d4c4b30a586d5d","category":"Brewery","checkinsCount":1070,"usersCount":644,"tipCount":16,"visitsCount":1172,"url":"http://www.mcmenamins.com","tier":"","message":"","currency":"","rating":6.4},{"name":"Clodfelter's","phone":"5417584452","address":"1501 NW Monroe Ave","lat":44.56760241731751,"lng":-123.27331781387329,"city_fetched":"Corvallis,US","state":"OR","country":"United States","canonicalUrl":"https://foursquare.com/v/clodfelters/4b3dc516f964a520bd9625e3","categoryId":"4bf58dd8d48988d11b941735","category":"Pub","checkinsCount":1236,"usersCount":488,"tipCount":12,"visitsCount":1317,"tier":"","message":"","currency":"","rating":5.9},{"name":"McMenamins on Monroe","phone":"5417580080","twitter":"captainneon","address":"2001 NW Monroe Ave","lat":44.568251,"lng":-123.275299072266,"city_fetched":"Corvallis,US","state":"OR","country":"United States","canonicalUrl":"https://foursquare.com/v/mcmenamins-on-monroe/4aba6f31f964a520498120e3","categoryId":"50327c8591d4c4b30a586d5d","category":"Brewery","checkinsCount":2090,"usersCount":913,"tipCount":22,"visitsCount":2309,"url":"http://www.mcmenamins.com","tier":1,"message":"Cheap","currency":"$","rating":5.8}]