[{"name":"Heinzelm√§nnchen Brewery","phone":"8286314466","twitter":"heinzelmannchen","address":"545 Mill St","lat":35.37389950222247,"lng":-83.22259426116943,"city_fetched":"Cullowhee,US","state":"NC","country":"United States","canonicalUrl":"https://foursquare.com/v/heinzelm%C3%A4nnchen-brewery/4bb67c19ef159c74da0976f7","categoryId":"50327c8591d4c4b30a586d5d","category":"Brewery","checkinsCount":289,"usersCount":242,"tipCount":8,"visitsCount":323,"url":"http://www.yourgnometownbrewery.com","tier":"","message":"","currency":"","rating":8.5},{"name":"O'Malley's Pub and Grill","phone":"8286310554","twitter":"omalleysofsylva","address":"83 Asheville Hwy","lat":35.37607696043609,"lng":-83.2132801456223,"city_fetched":"Cullowhee,US","state":"NC","country":"United States","canonicalUrl":"https://foursquare.com/v/omalleys-pub-and-grill/4c3df36b16ca9521f31cbc7f","categoryId":"4bf58dd8d48988d11d941735","category":"Sports Bar","checkinsCount":2911,"usersCount":738,"tipCount":36,"visitsCount":3063,"tier":"","message":"","currency":"","rating":8.4},{"name":"Innovation Brewing","twitter":"innovationbrew","address":"414 W Main St","lat":35.374024,"lng":-83.220286,"city_fetched":"Cullowhee,US","state":"NC","country":"United States","canonicalUrl":"https://foursquare.com/v/innovation-brewing/526d613e498e65c0246b7f2d","categoryId":"50327c8591d4c4b30a586d5d","category":"Brewery","checkinsCount":325,"usersCount":293,"tipCount":12,"visitsCount":480,"url":"http://innovation-brewing.com","tier":"","message":"","currency":"","rating":8.1},{"name":"Legends Sports Grill","phone":"8289269464","address":"3865 Soco Rd","lat":35.5175483508862,"lng":-83.09269359206276,"city_fetched":"Cullowhee,US","state":"NC","country":"United States","canonicalUrl":"https://foursquare.com/v/legends-sports-grill/4d615470865a224bc8a9b585","categoryId":"4bf58dd8d48988d11d941735","category":"Sports Bar","checkinsCount":587,"usersCount":423,"tipCount":10,"visitsCount":721,"url":"http://legendsofmaggievalley.com","tier":"","message":"","currency":"","rating":7.5},{"name":"No Name Sports Pub","phone":"8285862750","address":"1070 Skyland Dr","lat":35.389682289564206,"lng":-83.2057585244182,"city_fetched":"Cullowhee,US","state":"NC","country":"United States","canonicalUrl":"https://foursquare.com/v/no-name-sports-pub/4cf2f5481d18a143b1625dec","categoryId":"4bf58dd8d48988d116941735","category":"Bar","checkinsCount":736,"usersCount":238,"tipCount":6,"visitsCount":795,"tier":2,"message":"Moderate","currency":"$","rating":7.2},{"name":"Salty Dog's","phone":"8289269105","address":"3567 Soco Rd","lat":35.516644983333336,"lng":-83.08750208333333,"city_fetched":"Cullowhee,US","state":"NC","country":"United States","canonicalUrl":"https://foursquare.com/v/salty-dogs/4bad2db1f964a52030363be3","categoryId":"4bf58dd8d48988d116941735","category":"Bar","checkinsCount":193,"usersCount":170,"tipCount":4,"visitsCount":224,"tier":"","message":"","currency":"","rating":6.6}]