[{"name":"Patrick's Pub And Eatery","phone":"3017221007","address":"7 Willison Pl","lat":39.642709,"lng":-78.759663,"city_fetched":"Cumberland","state":"MD","country":"United States","canonicalUrl":"https://foursquare.com/v/patricks-pub-and-eatery/4bb69f6d2ea195210904ac2f","category":"Pub","checkinsCount":667,"usersCount":286,"tipCount":10,"visitsCount":884,"tier":"","message":"","currency":"","rating":8.5},{"name":"El Jinete","phone":"3017770847","address":"18 Valley St","lat":39.656827145148995,"lng":-78.77010410778935,"city_fetched":"Cumberland","state":"MD","country":"United States","canonicalUrl":"https://foursquare.com/v/el-jinete/4db6ea5efa8c3502411afa4e","category":"Mexican Restaurant","checkinsCount":477,"usersCount":163,"tipCount":10,"visitsCount":568,"url":"http://www.eljinetemexicanrest.com","tier":2,"message":"Moderate","currency":"$","rating":8},{"name":"Baltimore Street Grill","phone":"3017241711","address":"82 Baltimore St","lat":39.651626,"lng":-78.761398,"city_fetched":"Cumberland","state":"MD","country":"United States","canonicalUrl":"https://foursquare.com/v/baltimore-street-grill/4b7e0ea8f964a52026e12fe3","category":"American Restaurant","checkinsCount":761,"usersCount":373,"tipCount":21,"visitsCount":795,"tier":"","message":"","currency":"","rating":7.9},{"name":"Niners Canal Pub","phone":"3017771121","address":"2 Pershing St","lat":39.650641672242486,"lng":-78.76257795177466,"city_fetched":"Cumberland","state":"MD","country":"United States","canonicalUrl":"https://foursquare.com/v/niners-canal-pub/4b7e23ebf964a5203ce42fe3","category":"Sports Bar","checkinsCount":834,"usersCount":208,"tipCount":8,"visitsCount":860,"url":"http://www.ninerscanalpub.com","tier":"","message":"","currency":"","rating":7.3},{"name":"Uncle Jack's Pizzeria & Pub","phone":"3017241110","address":"20 S Mechanic St","lat":39.65064580173485,"lng":-78.76286572710129,"city_fetched":"Cumberland","state":"MD","country":"United States","canonicalUrl":"https://foursquare.com/v/uncle-jacks-pizzeria--pub/4ec04649b803bca7de79da7c","category":"Pizza Place","checkinsCount":892,"usersCount":241,"tipCount":16,"visitsCount":920,"url":"http://unclejackspub.com","tier":2,"message":"Moderate","currency":"$","rating":7},{"name":"MEZZOS","phone":"3017240555","address":"114 S Centre St","lat":39.65039692708441,"lng":-78.76025911617228,"city_fetched":"Cumberland","state":"MD","country":"United States","canonicalUrl":"https://foursquare.com/v/mezzos/4bef71bbea570f47706b8fd2","category":"Bar","checkinsCount":405,"usersCount":163,"tipCount":7,"visitsCount":420,"tier":"","message":"","currency":"","rating":6.4},{"name":"Woodchux","phone":"3017592999","address":"764 Greene St","lat":39.64949180947079,"lng":-78.7832015720251,"city_fetched":"Cumberland","state":"MD","country":"United States","canonicalUrl":"https://foursquare.com/v/woodchux/4c785d53df08a1cd6a4bd75d","category":"Bar","checkinsCount":288,"usersCount":57,"tipCount":5,"visitsCount":292,"tier":"","message":"","currency":"","rating":6}]