[{"name":"Deep Ellum Brewing Company","phone":"2148883322","twitter":"deepellumbrewco","address":"2823 Saint Louis St","lat":32.780780183734564,"lng":-96.78156852722168,"neighborhood":"Deep Ellum","city_fetched":"Dallas,US","state":"TX","country":"United States","canonicalUrl":"https://foursquare.com/deepellumbrewco","categoryId":"50327c8591d4c4b30a586d5d","category":"Brewery","checkinsCount":5030,"usersCount":3692,"tipCount":43,"visitsCount":6013,"url":"http://www.deepellumbrewing.com","tier":1,"message":"Cheap","currency":"$","rating":9.7},{"name":"Black Swan Saloon","phone":"2147484949","twitter":"blackswansaloon","address":"2708 Elm St","lat":32.784396,"lng":-96.784306,"neighborhood":"Deep Ellum","city_fetched":"Dallas,US","state":"TX","country":"United States","canonicalUrl":"https://foursquare.com/v/black-swan-saloon/4bb7daa398c7ef3b097b3002","categoryId":"4bf58dd8d48988d118941735","category":"Dive Bar","checkinsCount":5562,"usersCount":1773,"tipCount":60,"visitsCount":5595,"url":"http://blackswansaloon.com","tier":2,"message":"Moderate","currency":"$","rating":9.5},{"name":"Craft and Growler","phone":"2148211122","twitter":"craftandgrowler","address":"3601 Parry Ave","lat":32.781465720121915,"lng":-96.76687002182007,"city_fetched":"Dallas,US","state":"TX","country":"United States","canonicalUrl":"https://foursquare.com/v/craft-and-growler/50abfbfde4b063c5d67726c9","categoryId":"4bf58dd8d48988d116941735","category":"Bar","checkinsCount":4793,"usersCount":2187,"tipCount":40,"visitsCount":5653,"url":"http://craftandgrowler.com","tier":2,"message":"Moderate","currency":"$","rating":9.4},{"name":"Uncle Uber's","phone":"2146538237","twitter":"uncleubers","address":"2713 Commerce St","lat":32.783303,"lng":-96.78336896666667,"neighborhood":"Deep Ellum","city_fetched":"Dallas,US","state":"TX","country":"United States","canonicalUrl":"https://foursquare.com/v/uncle-ubers/4e723125ae6067986ece5b9c","categoryId":"4bf58dd8d48988d11d941735","category":"Sports Bar","checkinsCount":3832,"usersCount":1788,"tipCount":80,"visitsCount":4158,"url":"http://uncleubers-hub.com","tier":1,"message":"Cheap","currency":"$","rating":9.3},{"name":"The Old Monk","phone":"2148211880","address":"2847 N Henderson Ave","lat":32.82009978133957,"lng":-96.7849588394165,"city_fetched":"Dallas,US","state":"TX","country":"United States","canonicalUrl":"https://foursquare.com/v/the-old-monk/40e0b100f964a520fc081fe3","categoryId":"4bf58dd8d48988d11b941735","category":"Pub","checkinsCount":12463,"usersCount":5978,"tipCount":104,"visitsCount":13507,"url":"http://www.oldmonkdallas.com","tier":2,"message":"Moderate","currency":"$","rating":9.3},{"name":"The Ginger Man","phone":"2147548771","address":"2718 Boll St","lat":32.798242947218554,"lng":-96.80296722936033,"neighborhood":"Uptown","city_fetched":"Dallas,US","state":"TX","country":"United States","canonicalUrl":"https://foursquare.com/v/the-ginger-man/40e0b100f964a52083081fe3","categoryId":"4bf58dd8d48988d117941735","category":"Beer Garden","checkinsCount":13153,"usersCount":6073,"tipCount":106,"visitsCount":14081,"url":"http://thegingerman.com","tier":2,"message":"Moderate","currency":"$","rating":9.2},{"name":"Lee Harvey's","phone":"2144281555","twitter":"leeharveys","address":"1807 Gould St","lat":32.76804493400423,"lng":-96.78962051868439,"neighborhood":"Cedars","city_fetched":"Dallas,US","state":"TX","country":"United States","canonicalUrl":"https://foursquare.com/v/lee-harveys/40e0b100f964a520c3081fe3","categoryId":"4bf58dd8d48988d118941735","category":"Dive Bar","checkinsCount":7689,"usersCount":3552,"tipCount":89,"visitsCount":8489,"url":"http://www.leeharveys.com","tier":2,"message":"Moderate","currency":"$","rating":9.2},{"name":"Flying Saucer Draught Emporium","phone":"9722267468","address":"4821 Bass Pro Dr","lat":32.86436760594056,"lng":-96.53831899166107,"city_fetched":"Dallas,US","state":"TX","country":"United States","canonicalUrl":"https://foursquare.com/v/flying-saucer-draught-emporium/4ae3e7a3f964a520889921e3","categoryId":"4bf58dd8d48988d116941735","category":"Bar","checkinsCount":9044,"usersCount":3000,"tipCount":83,"visitsCount":10572,"url":"http://www.beerknurd.com","tier":2,"message":"Moderate","currency":"$","rating":9.2},{"name":"Truck Yard","phone":"4695000139","twitter":"texastruckyard","address":"5624 Sears St","lat":32.814201276080325,"lng":-96.77128704661713,"neighborhood":"Lowest Greenville West","city_fetched":"Dallas,US","state":"TX","country":"United States","canonicalUrl":"https://foursquare.com/v/truck-yard/52349af811d2c26df9d90b4c","categoryId":"4bf58dd8d48988d117941735","category":"Beer Garden","checkinsCount":9643,"usersCount":6518,"tipCount":101,"visitsCount":12442,"url":"http://texastruckyard.com","tier":2,"message":"Moderate","currency":"$","rating":9.2},{"name":"Round-Up Saloon and Dance Hall","phone":"2145229611","twitter":"roundupsaloon","address":"3912 Cedar Springs Rd","lat":32.810578098607486,"lng":-96.8105149269104,"city_fetched":"Dallas,US","state":"TX","country":"United States","canonicalUrl":"https://foursquare.com/v/roundup-saloon-and-dance-hall/40e0b100f964a5202d091fe3","categoryId":"4bf58dd8d48988d1d8941735","category":"Gay Bar","checkinsCount":23602,"usersCount":6345,"tipCount":84,"visitsCount":25981,"url":"http://www.roundupsaloon.com","tier":1,"message":"Cheap","currency":"$","rating":9.2},{"name":"Lakewood Brewing Company","twitter":"lakewoodbrewing","address":"2302 Executive Dr","lat":32.889930301487595,"lng":-96.68123245239258,"city_fetched":"Dallas,US","state":"TX","country":"United States","canonicalUrl":"https://foursquare.com/v/lakewood-brewing-company/4eef9416d3e3246bddbc8cc8","categoryId":"50327c8591d4c4b30a586d5d","category":"Brewery","checkinsCount":1918,"usersCount":1316,"tipCount":30,"visitsCount":2467,"url":"http://www.lakewoodbrewingcompany.com","tier":1,"message":"Cheap","currency":"$","rating":9.2},{"name":"Community Beer Company","address":"1530 Inspiration Dr","lat":32.79184773090619,"lng":-96.81636678563618,"neighborhood":"Trinity Industrial District","city_fetched":"Dallas,US","state":"TX","country":"United States","canonicalUrl":"https://foursquare.com/v/community-beer-company/50d3148fe4b0d14de6b07f39","categoryId":"50327c8591d4c4b30a586d5d","category":"Brewery","checkinsCount":2614,"usersCount":2210,"tipCount":26,"visitsCount":3814,"url":"http://communitybeer.com","tier":1,"message":"Cheap","currency":"$","rating":9.1},{"name":"Oak Highlands Brewery","lat":32.89018383897059,"lng":-96.7045463301726,"neighborhood":"Lake Highlands","city_fetched":"Dallas,US","state":"TX","country":"United States","canonicalUrl":"https://foursquare.com/v/oak-highlands-brewery/556a4308498e1cf03139c0cb","categoryId":"50327c8591d4c4b30a586d5d","category":"Brewery","checkinsCount":318,"usersCount":265,"tipCount":8,"visitsCount":556,"tier":"","message":"","currency":"","rating":9.1},{"name":"Braindead Brewing","phone":"4692869005","twitter":"braindeadbrew","address":"2625 Main St","lat":32.78373980473591,"lng":-96.78548551302595,"neighborhood":"Deep Ellum","city_fetched":"Dallas,US","state":"TX","country":"United States","canonicalUrl":"https://foursquare.com/v/braindead-brewing/52a2466b498ed9283f4df002","categoryId":"50327c8591d4c4b30a586d5d","category":"Brewery","checkinsCount":2991,"usersCount":2434,"tipCount":42,"visitsCount":4095,"url":"http://braindeadbrewing.com","tier":"","message":"","currency":"","rating":9.1},{"name":"Windmill Lounge","phone":"2144437818","address":"5320 Maple Ave","lat":32.8181927767418,"lng":-96.8323808084909,"city_fetched":"Dallas,US","state":"TX","country":"United States","canonicalUrl":"https://foursquare.com/v/windmill-lounge/4bb67af3ef159c74c20776f7","categoryId":"4bf58dd8d48988d118941735","category":"Dive Bar","checkinsCount":2721,"usersCount":1318,"tipCount":27,"visitsCount":3181,"url":"http://www.windmill-lounge.com","tier":2,"message":"Moderate","currency":"$","rating":9.1},{"name":"Katy Trail Ice House","phone":"2144680600","twitter":"katyicehouse","address":"3136 Routh St","lat":32.80098202731876,"lng":-96.80768632068693,"neighborhood":"Uptown","city_fetched":"Dallas,US","state":"TX","country":"United States","canonicalUrl":"https://foursquare.com/v/katy-trail-ice-house/4d445fdbbbb1a143cdc94572","categoryId":"4bf58dd8d48988d117941735","category":"Beer Garden","checkinsCount":23469,"usersCount":11314,"tipCount":145,"visitsCount":28247,"url":"http://katytrailicehouse.com/index.html","tier":2,"message":"Moderate","currency":"$","rating":9.1},{"name":"Lakewood Growler","phone":"2145846253","twitter":"lakewoodgrowler","address":"6448 E Mockingbird Ln","lat":32.83605713131238,"lng":-96.75191402435303,"city_fetched":"Dallas,US","state":"TX","country":"United States","canonicalUrl":"https://foursquare.com/lakewoodgrowler","categoryId":"4bf58dd8d48988d116941735","category":"Bar","checkinsCount":1919,"usersCount":724,"tipCount":18,"visitsCount":2519,"url":"http://www.lakewoodgrowler.com","tier":2,"message":"Moderate","currency":"$","rating":9},{"name":"Times Ten Cellars","phone":"2148249463","address":"6324 Prospect Ave","lat":32.814839,"lng":-96.7539873720117,"city_fetched":"Dallas,US","state":"TX","country":"United States","canonicalUrl":"https://foursquare.com/v/times-ten-cellars/4a9f2d67f964a520d33c20e3","categoryId":"4bf58dd8d48988d123941735","category":"Wine Bar","checkinsCount":3243,"usersCount":2085,"tipCount":33,"visitsCount":3692,"url":"http://timestencellars.com","tier":2,"message":"Moderate","currency":"$","rating":9},{"name":"On Rotation","phone":"9728072588","twitter":"on_rotation","address":"7328 Gaston Ave Ste 110","lat":32.810884683834885,"lng":-96.7314326763153,"neighborhood":"Lakewood Hills","city_fetched":"Dallas,US","state":"TX","country":"United States","canonicalUrl":"https://foursquare.com/on_rotation","categoryId":"50327c8591d4c4b30a586d5d","category":"Brewery","checkinsCount":882,"usersCount":274,"tipCount":7,"visitsCount":923,"url":"http://on-rotation.com","tier":1,"message":"Cheap","currency":"$","rating":8.9},{"name":"The Foundry","phone":"2147491112","address":"2303 Pittman St","lat":32.77242849761442,"lng":-96.83159571555605,"neighborhood":"Fort Worth Avenue","city_fetched":"Dallas,US","state":"TX","country":"United States","canonicalUrl":"https://foursquare.com/v/the-foundry/4f010ee0f9abd5b391ac8b76","categoryId":"4bf58dd8d48988d117941735","category":"Beer Garden","checkinsCount":4942,"usersCount":2692,"tipCount":54,"visitsCount":5551,"url":"http://cs-tf.com/about/","tier":2,"message":"Moderate","currency":"$","rating":8.9},{"name":"Flying Saucer Draught Emporium","phone":"9729917093","address":"14999 Montfort Dr","lat":32.95293601457525,"lng":-96.81884050369263,"neighborhood":"Village on The Parkway","city_fetched":"Dallas,US","state":"TX","country":"United States","canonicalUrl":"https://foursquare.com/v/flying-saucer-draught-emporium/4ae3e6c2f964a520859921e3","categoryId":"56aa371ce4b08b9a8d57356c","category":"Beer Bar","checkinsCount":27017,"usersCount":7858,"tipCount":149,"visitsCount":30189,"url":"http://www.beerknurd.com","tier":2,"message":"Moderate","currency":"$","rating":8.9},{"name":"Strokers Ice House","phone":"2143515252","twitter":"strokersdallas","address":"9324 Harry Hines Blvd","lat":32.84221069329133,"lng":-96.87046392978702,"city_fetched":"Dallas,US","state":"TX","country":"United States","canonicalUrl":"https://foursquare.com/v/strokers-ice-house/40e0b100f964a52065091fe3","categoryId":"4bf58dd8d48988d116941735","category":"Bar","checkinsCount":3081,"usersCount":1305,"tipCount":19,"visitsCount":3599,"url":"http://www.strokersdallas.com","tier":1,"message":"Cheap","currency":"$","rating":8.9},{"name":"Bar Belmont","phone":"2143932300","twitter":"belmont_hotel","address":"901 Fort Worth Ave","lat":32.769413,"lng":-96.83692,"neighborhood":"Fort Worth Avenue","city_fetched":"Dallas,US","state":"TX","country":"United States","canonicalUrl":"https://foursquare.com/v/bar-belmont/4c4b949046240f47305f80f3","categoryId":"4bf58dd8d48988d1d5941735","category":"Hotel Bar","checkinsCount":2693,"usersCount":1891,"tipCount":24,"visitsCount":2717,"url":"http://belmontdallas.com/eat-drink/","tier":"","message":"","currency":"","rating":8.8},{"name":"The Grapevine Bar","phone":"2145228466","address":"3902 Maple Ave","lat":32.805382,"lng":-96.81497655,"city_fetched":"Dallas,US","state":"TX","country":"United States","canonicalUrl":"https://foursquare.com/v/the-grapevine-bar/40e0b100f964a52089081fe3","categoryId":"4bf58dd8d48988d116941735","category":"Bar","checkinsCount":9693,"usersCount":3691,"tipCount":66,"visitsCount":11369,"url":"http://www.thegrapevinebar.com","tier":1,"message":"Cheap","currency":"$","rating":8.8},{"name":"Cork Wine Bar","phone":"2147800373","twitter":"corkwinesdallas","address":"3636 McKinney Ave Ste 170","lat":32.80736061687993,"lng":-96.79612986365993,"neighborhood":"Uptown","city_fetched":"Dallas,US","state":"TX","country":"United States","canonicalUrl":"https://foursquare.com/v/cork-wine-bar/4b5795fff964a520fd3828e3","categoryId":"4bf58dd8d48988d123941735","category":"Wine Bar","checkinsCount":1544,"usersCount":868,"tipCount":11,"visitsCount":1550,"url":"http://corkwines.com","tier":"","message":"","currency":"","rating":8.8},{"name":"Sundown at Granada","phone":"2148249933","twitter":"sundowndfw","address":"3520 Greenville Ave","lat":32.83063291350657,"lng":-96.77003731211437,"neighborhood":"Lower Greenville","city_fetched":"Dallas,US","state":"TX","country":"United States","canonicalUrl":"https://foursquare.com/v/sundown-at-granada/4ea713540aaf6e0585e56c63","categoryId":"4bf58dd8d48988d117941735","category":"Beer Garden","checkinsCount":5996,"usersCount":3165,"tipCount":61,"visitsCount":6743,"url":"http://sundownatgranada.com","tier":2,"message":"Moderate","currency":"$","rating":8.8},{"name":"Cold Beer Company","phone":"2143709301","twitter":"coldbeercompany","address":"3600 Main St","lat":32.785479863235686,"lng":-96.77461281733919,"neighborhood":"Deep Ellum","city_fetched":"Dallas,US","state":"TX","country":"United States","canonicalUrl":"https://foursquare.com/coldbeercompany","categoryId":"4bf58dd8d48988d118941735","category":"Dive Bar","checkinsCount":1231,"usersCount":869,"tipCount":12,"visitsCount":2040,"url":"http://coldbeerco.com","tier":"","message":"","currency":"","rating":8.8},{"name":"Lounge 31","phone":"2144203900","address":"87 Highland Park Vlg","lat":32.83582935523814,"lng":-96.80552554122004,"neighborhood":"Highland Park Shopping Village","city_fetched":"Dallas,US","state":"TX","country":"United States","canonicalUrl":"https://foursquare.com/v/lounge-31/4fdbdca5e4b09473e137f247","categoryId":"4bf58dd8d48988d121941735","category":"Lounge","checkinsCount":762,"usersCount":351,"tipCount":6,"visitsCount":786,"tier":"","message":"","currency":"","rating":8.8},{"name":"The Daiquiri Shoppe","phone":"9722377688","address":"692 W Pioneer Pkwy Ste 120","lat":32.709981590187375,"lng":-97.01313451172267,"neighborhood":"Southwest Dallas","city_fetched":"Dallas,US","state":"TX","country":"United States","canonicalUrl":"https://foursquare.com/v/the-daiquiri-shoppe/50f1dfaee4b0ff7d2c15c260","categoryId":"4bf58dd8d48988d11e941735","category":"Cocktail Bar","checkinsCount":561,"usersCount":606,"tipCount":20,"visitsCount":1208,"url":"http://thedaiquirishoppe.com","tier":"","message":"","currency":"","rating":8.8},{"name":"Dallas Eagle","phone":"2143574375","twitter":"thedallaseagle","address":"5740 Maple Ave","lat":32.82239889836567,"lng":-96.83694005012512,"city_fetched":"Dallas,US","state":"TX","country":"United States","canonicalUrl":"https://foursquare.com/thedallaseagle","categoryId":"4bf58dd8d48988d1d8941735","category":"Gay Bar","checkinsCount":7613,"usersCount":1781,"tipCount":34,"visitsCount":9070,"url":"http://www.dallaseagle.com","tier":1,"message":"Cheap","currency":"$","rating":8.7},{"name":"Texas Ale Project","phone":"2148933706","twitter":"texasaleproject","address":"1001 N Riverfront Blvd","lat":32.78599668714122,"lng":-96.81786858700379,"neighborhood":"Trinity Industrial District","city_fetched":"Dallas,US","state":"TX","country":"United States","canonicalUrl":"https://foursquare.com/v/texas-ale-project/5493c72d498ee220d8e0545a","categoryId":"50327c8591d4c4b30a586d5d","category":"Brewery","checkinsCount":365,"usersCount":388,"tipCount":1,"visitsCount":587,"tier":"","message":"","currency":"","rating":8.7},{"name":"Double Wide","phone":"2148876510","twitter":"doublewidebar","address":"3510 Commerce St","lat":32.78513526921885,"lng":-96.77382319280383,"neighborhood":"Deep Ellum","city_fetched":"Dallas,US","state":"TX","country":"United States","canonicalUrl":"https://foursquare.com/v/double-wide/40e0b100f964a52058081fe3","categoryId":"4bf58dd8d48988d118941735","category":"Dive Bar","checkinsCount":8742,"usersCount":3359,"tipCount":53,"visitsCount":9816,"url":"http://double-wide.com","tier":2,"message":"Moderate","currency":"$","rating":8.7},{"name":"Armoury D.E.","address":"2714 Elm St","lat":32.784362256591585,"lng":-96.7841361328232,"neighborhood":"Deep Ellum","city_fetched":"Dallas,US","state":"TX","country":"United States","canonicalUrl":"https://foursquare.com/v/armoury-de/55a7159f498e39b5ddb744ab","categoryId":"4bf58dd8d48988d116941735","category":"Bar","checkinsCount":627,"usersCount":405,"tipCount":12,"visitsCount":647,"url":"http://armouryde.com","tier":2,"message":"Moderate","currency":"$","rating":8.7},{"name":"Anvil Pub","phone":"2147411271","twitter":"anvilpubdallas","address":"2638 Elm St","lat":32.78425433257774,"lng":-96.78506186738167,"neighborhood":"Deep Ellum","city_fetched":"Dallas,US","state":"TX","country":"United States","canonicalUrl":"https://foursquare.com/v/anvil-pub/4c60186ecd522d7f5352cd3f","categoryId":"4bf58dd8d48988d11b941735","category":"Pub","checkinsCount":10852,"usersCount":3632,"tipCount":93,"visitsCount":11114,"tier":2,"message":"Moderate","currency":"$","rating":8.7},{"name":"Happiest Hour","phone":"9725280067","twitter":"happiesthourdal","address":"2616 Olive St","lat":32.79110344583026,"lng":-96.80667132090144,"neighborhood":"Victory Park","city_fetched":"Dallas,US","state":"TX","country":"United States","canonicalUrl":"https://foursquare.com/v/happiest-hour/561595ae498edfd54b5f1c5e","categoryId":"4bf58dd8d48988d116941735","category":"Bar","checkinsCount":1675,"usersCount":2310,"tipCount":11,"visitsCount":3865,"url":"http://www.happiesthourdallas.com","tier":2,"message":"Moderate","currency":"$","rating":8.7},{"name":"Peticolas Brewing Company","phone":"2142347600","twitter":"peticolas","address":"2026 Farrington St","lat":32.796716659274544,"lng":-96.82903637829939,"neighborhood":"Trinity Industrial District","city_fetched":"Dallas,US","state":"TX","country":"United States","canonicalUrl":"https://foursquare.com/v/peticolas-brewing-company/4f66a20ce4b045fbd5c29356","categoryId":"50327c8591d4c4b30a586d5d","category":"Brewery","checkinsCount":1647,"usersCount":891,"tipCount":14,"visitsCount":1998,"url":"http://peticolasbrewing.com","tier":1,"message":"Cheap","currency":"$","rating":8.7},{"name":"MAX's Wine Dive Dallas","phone":"2145593483","twitter":"mwddallas","address":"3600 McKinney Ave Ste 100","lat":32.807007204532994,"lng":-96.79755449295044,"neighborhood":"Uptown","city_fetched":"Dallas,US","state":"TX","country":"United States","canonicalUrl":"https://foursquare.com/v/maxs-wine-dive-dallas/504f948fd86c37c95befe90f","categoryId":"4bf58dd8d48988d123941735","category":"Wine Bar","checkinsCount":4635,"usersCount":2957,"tipCount":81,"visitsCount":4930,"url":"http://www.maxswinedive.com/dallas","tier":2,"message":"Moderate","currency":"$","rating":8.7},{"name":"Four Corners Brewing Co","twitter":"fcbrewing","address":"423 Singleton Blvd","lat":32.779230284275,"lng":-96.83028201454427,"neighborhood":"Southwest Dallas","city_fetched":"Dallas,US","state":"TX","country":"United States","canonicalUrl":"https://foursquare.com/v/four-corners-brewing-co/4f52a708e4b002a7428a82a4","categoryId":"50327c8591d4c4b30a586d5d","category":"Brewery","checkinsCount":1811,"usersCount":1549,"tipCount":27,"visitsCount":2247,"url":"http://fcbrewing.com","tier":1,"message":"Cheap","currency":"$","rating":8.7},{"name":"Elbow Room","phone":"2148289488","twitter":"elbowroom","address":"3010 Gaston Ave","lat":32.788284715511246,"lng":-96.78326100111008,"city_fetched":"Dallas,US","state":"TX","country":"United States","canonicalUrl":"https://foursquare.com/v/elbow-room/40e0b100f964a52067081fe3","categoryId":"4bf58dd8d48988d118941735","category":"Dive Bar","checkinsCount":4608,"usersCount":1707,"tipCount":30,"visitsCount":5171,"url":"http://elbowroomdallas.com/bar/","tier":2,"message":"Moderate","currency":"$","rating":8.7},{"name":"Station 4 (S4)","phone":"2145167171","address":"3911 Cedar Springs Rd","lat":32.810343650366995,"lng":-96.81109428405762,"city_fetched":"Dallas,US","state":"TX","country":"United States","canonicalUrl":"https://foursquare.com/v/station-4-s4/40e0b100f964a5207a091fe3","categoryId":"4bf58dd8d48988d1d8941735","category":"Gay Bar","checkinsCount":18547,"usersCount":5620,"tipCount":73,"visitsCount":18971,"url":"http://www.station4dallas.com","tier":2,"message":"Moderate","currency":"$","rating":8.6},{"name":"Mercy, a Wine Bar","phone":"9727029463","address":"5100 Belt Line Rd Ste 544","lat":32.95138942326076,"lng":-96.82060540826093,"neighborhood":"Village on The Parkway","city_fetched":"Dallas,US","state":"TX","country":"United States","canonicalUrl":"https://foursquare.com/v/mercy-a-wine-bar/422e3c80f964a520ec1f1fe3","categoryId":"4bf58dd8d48988d123941735","category":"Wine Bar","checkinsCount":3177,"usersCount":1838,"tipCount":43,"visitsCount":3270,"url":"http://www.mercywinebar.com","tier":2,"message":"Moderate","currency":"$","rating":8.6},{"name":"Parliament","twitter":"parliamentbar","address":"2418 Allen St","lat":32.797828276200384,"lng":-96.79845773062566,"neighborhood":"Uptown","city_fetched":"Dallas,US","state":"TX","country":"United States","canonicalUrl":"https://foursquare.com/v/parliament/522e63c811d2f3dead0fc974","categoryId":"4bf58dd8d48988d11e941735","category":"Cocktail Bar","checkinsCount":1176,"usersCount":983,"tipCount":13,"visitsCount":1929,"url":"http://parliamentdallas.com","tier":"","message":"","currency":"","rating":8.6},{"name":"The Mansion Bar","twitter":"rwturtlecreek","address":"in Rosewood Mansion on Turtle Creek","lat":32.804154234608276,"lng":-96.80711603535141,"city_fetched":"Dallas,US","state":"TX","country":"United States","canonicalUrl":"https://foursquare.com/v/the-mansion-bar/506fb8efe4b0f4f1096d3aa6","categoryId":"4bf58dd8d48988d11e941735","category":"Cocktail Bar","checkinsCount":629,"usersCount":325,"tipCount":8,"visitsCount":668,"tier":"","message":"","currency":"","rating":8.5},{"name":"Twilite Lounge","phone":"2147412121","address":"2640 Elm St","lat":32.7844641856385,"lng":-96.7849886449581,"neighborhood":"Deep Ellum","city_fetched":"Dallas,US","state":"TX","country":"United States","canonicalUrl":"https://foursquare.com/v/twilite-lounge/50fb8951e4b0c9cf8ab02a93","categoryId":"4bf58dd8d48988d116941735","category":"Bar","checkinsCount":2574,"usersCount":1161,"tipCount":27,"visitsCount":2783,"url":"http://thetwilitelounge.com","tier":2,"message":"Moderate","currency":"$","rating":8.5},{"name":"Libertine Bar","phone":"2148247900","twitter":"libertinebar","address":"2101 Greenville Ave","lat":32.815555469135404,"lng":-96.77045345306396,"neighborhood":"Lowest Greenville West","city_fetched":"Dallas,US","state":"TX","country":"United States","canonicalUrl":"https://foursquare.com/libertinebar","categoryId":"4bf58dd8d48988d116941735","category":"Bar","checkinsCount":10436,"usersCount":3925,"tipCount":101,"visitsCount":10582,"url":"http://www.libertinebar.com","tier":2,"message":"Moderate","currency":"$","rating":8.5},{"name":"Vickery Park","phone":"2148271432","twitter":"vickeryparkbar","address":"2810 N Henderson Ave","lat":32.819668215927464,"lng":-96.7838170974203,"neighborhood":"Vickery Place","city_fetched":"Dallas,US","state":"TX","country":"United States","canonicalUrl":"https://foursquare.com/vickeryparkbar","categoryId":"4bf58dd8d48988d116941735","category":"Bar","checkinsCount":9801,"usersCount":3360,"tipCount":61,"visitsCount":10796,"url":"http://www.vickeryparkbar.com","tier":2,"message":"Moderate","currency":"$","rating":8.5},{"name":"The Rose Room","phone":"2145590650","address":"3911 Cedar Springs Rd","lat":32.8104316901174,"lng":-96.81084652459569,"city_fetched":"Dallas,US","state":"TX","country":"United States","canonicalUrl":"https://foursquare.com/v/the-rose-room/40e0b100f964a5202c091fe3","categoryId":"4bf58dd8d48988d1d8941735","category":"Gay Bar","checkinsCount":1957,"usersCount":814,"tipCount":9,"visitsCount":1966,"url":"http://www.roseroomdallas.com","tier":"","message":"","currency":"","rating":8.5},{"name":"Quinlan's Sports Grill & Bar","phone":"9724167600","address":"2810 E Trinity Mills Rd Ste 201","lat":32.98655143202518,"lng":-96.85470757562076,"city_fetched":"Dallas,US","state":"TX","country":"United States","canonicalUrl":"https://foursquare.com/v/quinlans-sports-grill--bar/4e5080daa80997aa8a498c8f","categoryId":"4bf58dd8d48988d116941735","category":"Bar","checkinsCount":742,"usersCount":162,"tipCount":19,"visitsCount":790,"tier":1,"message":"Cheap","currency":"$","rating":8.5},{"name":"The Standard Pour","phone":"2149351370","twitter":"thestandardpour","address":"2900 McKinney Ave","lat":32.79971547194637,"lng":-96.80077521813962,"neighborhood":"Uptown","city_fetched":"Dallas,US","state":"TX","country":"United States","canonicalUrl":"https://foursquare.com/v/the-standard-pour/4f074aa5e4b05f830c4aab00","categoryId":"4bf58dd8d48988d11e941735","category":"Cocktail Bar","checkinsCount":6475,"usersCount":3912,"tipCount":66,"visitsCount":7420,"url":"http://www.tspdallas.com","tier":3,"message":"Expensive","currency":"$","rating":8.5},{"name":"Parks Place","phone":"2142275552","twitter":"parksplacebar","address":"2121 Northwest Hwy","lat":32.86529581301765,"lng":-96.66013956069946,"city_fetched":"Dallas,US","state":"TX","country":"United States","canonicalUrl":"https://foursquare.com/parksplacebar","categoryId":"4bf58dd8d48988d116941735","category":"Bar","checkinsCount":1625,"usersCount":219,"tipCount":12,"visitsCount":1742,"tier":1,"message":"Cheap","currency":"$","rating":8.5},{"name":"The Lodge","phone":"9725099229","twitter":"thelodgedallas","address":"10530 Spangler Rd","lat":32.87030460559111,"lng":-96.91282434874942,"city_fetched":"Dallas,US","state":"TX","country":"United States","canonicalUrl":"https://foursquare.com/v/the-lodge/40e0b100f964a520cf081fe3","categoryId":"4bf58dd8d48988d1d6941735","category":"Strip Club","checkinsCount":1643,"usersCount":1210,"tipCount":19,"visitsCount":2519,"url":"http://the-lodge.com","tier":"","message":"","currency":"","rating":8.5},{"name":"Beauty Bar","phone":"2148419600","twitter":"beautybardallas","address":"1924 N Henderson Ave","lat":32.81186521053314,"lng":-96.774924,"city_fetched":"Dallas,US","state":"TX","country":"United States","canonicalUrl":"https://foursquare.com/v/beauty-bar/4c60aefa1e5cd13a026aa2ed","categoryId":"4bf58dd8d48988d116941735","category":"Bar","checkinsCount":7340,"usersCount":2699,"tipCount":31,"visitsCount":7765,"url":"http://thebeautybar.com/dallas","tier":1,"message":"Cheap","currency":"$","rating":8.5},{"name":"Strangeways","phone":"2148237800","address":"2429 N Fitzhugh Ave","lat":32.811824,"lng":-96.78305643,"city_fetched":"Dallas,US","state":"TX","country":"United States","canonicalUrl":"https://foursquare.com/v/strangeways/4e39f27cd164c429b725fec9","categoryId":"4bf58dd8d48988d116941735","category":"Bar","checkinsCount":4203,"usersCount":1877,"tipCount":64,"visitsCount":4819,"tier":2,"message":"Moderate","currency":"$","rating":8.4},{"name":"Cafe Gecko","phone":"9724589884","address":"5290 Belt Line Rd #118","lat":32.95324210774389,"lng":-96.81678056716919,"neighborhood":"Village on The Parkway","city_fetched":"Dallas,US","state":"TX","country":"United States","canonicalUrl":"https://foursquare.com/v/cafe-gecko/40e0b100f964a5200a081fe3","categoryId":"4bf58dd8d48988d116941735","category":"Bar","checkinsCount":1668,"usersCount":596,"tipCount":21,"visitsCount":1746,"url":"http://www.cafegecko.net","tier":"","message":"","currency":"","rating":8.4},{"name":"Inwood Lounge","phone":"2143507834","address":"5854 Lovers Ln.","lat":32.850958783429355,"lng":-96.81938088891742,"city_fetched":"Dallas,US","state":"TX","country":"United States","canonicalUrl":"https://foursquare.com/v/inwood-lounge/4c0c20b6340720a1b7368993","categoryId":"4bf58dd8d48988d121941735","category":"Lounge","checkinsCount":1034,"usersCount":456,"tipCount":12,"visitsCount":1047,"tier":"","message":"","currency":"","rating":8.4},{"name":"Spirit of '76 at Whole Foods","twitter":"wholefoodsdfw","address":"5100 Belt Line Road, Suite 1012","lat":32.95310068074465,"lng":-96.82116534572363,"neighborhood":"Village on The Parkway","city_fetched":"Dallas,US","state":"TX","country":"United States","canonicalUrl":"https://foursquare.com/v/spirit-of-76-at-whole-foods/5216a81411d2f480bb041e00","categoryId":"4bf58dd8d48988d116941735","category":"Bar","checkinsCount":277,"usersCount":62,"tipCount":7,"visitsCount":293,"tier":"","message":"","currency":"","rating":8.4},{"name":"Veritas Wine Room","phone":"2148419463","twitter":"veritasdallas","address":"2323 N Henderson Ave Ste 103","lat":32.814184,"lng":-96.778092,"neighborhood":"Henderson","city_fetched":"Dallas,US","state":"TX","country":"United States","canonicalUrl":"https://foursquare.com/v/veritas-wine-room/4aac3ea6f964a520145d20e3","categoryId":"4bf58dd8d48988d123941735","category":"Wine Bar","checkinsCount":2643,"usersCount":1047,"tipCount":21,"visitsCount":2699,"url":"http://veritaswinedallas.com","tier":2,"message":"Moderate","currency":"$","rating":8.4},{"name":"Small Brewpub","phone":"9728631594","twitter":"smallbrewpub","address":"333 W Jefferson Blvd","lat":32.7433191576534,"lng":-96.82719413643983,"neighborhood":"Southwest Dallas","city_fetched":"Dallas,US","state":"TX","country":"United States","canonicalUrl":"https://foursquare.com/v/small-brewpub/52004aee498e36ef7e9333e9","categoryId":"50327c8591d4c4b30a586d5d","category":"Brewery","checkinsCount":509,"usersCount":433,"tipCount":6,"visitsCount":763,"url":"http://smallbrewpub.com","tier":"","message":"","currency":"","rating":8.4},{"name":"Atwater Alley","lat":32.82696442569215,"lng":-96.78478989879643,"city_fetched":"Dallas,US","state":"TX","country":"United States","canonicalUrl":"https://foursquare.com/v/atwater-alley/5482a9f5498e6ba0cc699b24","categoryId":"4bf58dd8d48988d11e941735","category":"Cocktail Bar","checkinsCount":155,"usersCount":110,"tipCount":0,"visitsCount":159,"tier":"","message":"","currency":"","rating":8.4},{"name":"SODA Bar","phone":"2147786777","twitter":"nylodallassouth","address":"1325 South Lamar Street","lat":32.7677,"lng":-96.796223,"neighborhood":"Cedars","city_fetched":"Dallas,US","state":"TX","country":"United States","canonicalUrl":"https://foursquare.com/v/soda-bar/5036bda8e4b0c89c231005ec","categoryId":"4bf58dd8d48988d116941735","category":"Bar","checkinsCount":1338,"usersCount":1009,"tipCount":20,"visitsCount":1361,"url":"http://www.nylohotels.com/dallas/downtown-dallas-soda-bar-dining-4-8.aspx","tier":"","message":"","currency":"","rating":8.4},{"name":"The Ivy Tavern","address":"5334 Lemmon Ave","lat":32.82687537591388,"lng":-96.8226149258343,"city_fetched":"Dallas,US","state":"TX","country":"United States","canonicalUrl":"https://foursquare.com/v/the-ivy-tavern/536a8a89498e7463bc453c2b","categoryId":"4bf58dd8d48988d116941735","category":"Bar","checkinsCount":680,"usersCount":584,"tipCount":5,"visitsCount":1265,"url":"http://theivytavern.com","tier":"","message":"","currency":"","rating":8.4},{"name":"Parker & Barrow's","address":"344 W. Davis Street","lat":32.74954527377444,"lng":-96.82826179298553,"neighborhood":"Bishop Arts District","city_fetched":"Dallas,US","state":"TX","country":"United States","canonicalUrl":"https://foursquare.com/v/parker--barrows/56046dd6498e563ace24f681","categoryId":"4bf58dd8d48988d116941735","category":"Bar","checkinsCount":348,"usersCount":121,"tipCount":2,"visitsCount":357,"tier":"","message":"","currency":"","rating":8.3},{"name":"Bishop Cider Co.","phone":"2143647728","twitter":"bishopcider","address":"509 N Bishop Ave Ste C","lat":32.74919895404989,"lng":-96.82856534559173,"neighborhood":"Bishop Arts District","city_fetched":"Dallas,US","state":"TX","country":"United States","canonicalUrl":"https://foursquare.com/v/bishop-cider-co/51435e4ee4b0c9f1c4b3323f","categoryId":"50327c8591d4c4b30a586d5d","category":"Brewery","checkinsCount":779,"usersCount":603,"tipCount":8,"visitsCount":809,"url":"http://bishopcider.com","tier":"","message":"","currency":"","rating":8.3},{"name":"Havana Social Club","phone":"9728419363","address":"3030 Olive St Ste 103","lat":32.789609019534474,"lng":-96.80943383167643,"neighborhood":"Victory Park","city_fetched":"Dallas,US","state":"TX","country":"United States","canonicalUrl":"https://foursquare.com/v/havana-social-club/4b272229f964a520e18424e3","categoryId":"4bf58dd8d48988d121941735","category":"Lounge","checkinsCount":1283,"usersCount":690,"tipCount":10,"visitsCount":1291,"url":"http://www.havanasocialclub.net","tier":"","message":"","currency":"","rating":8.3},{"name":"Single Wide","phone":"2148245588","address":"2110 Greenville Ave","lat":32.815198810776735,"lng":-96.77011051765497,"neighborhood":"Lower Greenville","city_fetched":"Dallas,US","state":"TX","country":"United States","canonicalUrl":"https://foursquare.com/v/single-wide/4d7b1225fe20b1f79f231e2c","categoryId":"4bf58dd8d48988d116941735","category":"Bar","checkinsCount":3478,"usersCount":1391,"tipCount":25,"visitsCount":3569,"tier":1,"message":"Cheap","currency":"$","rating":8.3},{"name":"Tavern on Main St.","phone":"9722358667","twitter":"tavernonmainst","address":"115 E Main St","lat":32.94898485501243,"lng":-96.73093124679224,"city_fetched":"Dallas,US","state":"TX","country":"United States","canonicalUrl":"https://foursquare.com/v/tavern-on-main-st/4eb0bb0ecc21adeaf7caf603","categoryId":"4bf58dd8d48988d116941735","category":"Bar","checkinsCount":1263,"usersCount":503,"tipCount":11,"visitsCount":1486,"url":"http://www.tavernonmainstreet.com","tier":2,"message":"Moderate","currency":"$","rating":8.3},{"name":"The Brick / Joe's","phone":"2147380222","twitter":"brickdallas","address":"2525 Wycliff Ave","lat":32.81061312377758,"lng":-96.819539,"city_fetched":"Dallas,US","state":"TX","country":"United States","canonicalUrl":"https://foursquare.com/v/the-brick--joes/4b6e62e6f964a5203ebb2ce3","categoryId":"4bf58dd8d48988d116941735","category":"Bar","checkinsCount":3189,"usersCount":1225,"tipCount":25,"visitsCount":3509,"url":"http://www.brickdallas.com","tier":2,"message":"Moderate","currency":"$","rating":8.3},{"name":"JR's Bar & Grill","phone":"2145281004","address":"3923 Cedar Springs Rd","lat":32.81080803762719,"lng":-96.81128203868866,"neighborhood":"Oak Lawn","city_fetched":"Dallas,US","state":"TX","country":"United States","canonicalUrl":"https://foursquare.com/v/jrs-bar--grill/40e0b100f964a520b3081fe3","categoryId":"4bf58dd8d48988d1d8941735","category":"Gay Bar","checkinsCount":23522,"usersCount":5790,"tipCount":64,"visitsCount":25393,"url":"http://www.jrsdallas.com","tier":1,"message":"Cheap","currency":"$","rating":8.3},{"name":"Capitol Pub","phone":"2148879330","twitter":"capitol_pub","address":"2401 N Henderson Ave","lat":32.8148030258222,"lng":-96.77875903508988,"neighborhood":"Henderson","city_fetched":"Dallas,US","state":"TX","country":"United States","canonicalUrl":"https://foursquare.com/v/capitol-pub/4a50e594f964a5203ab01fe3","categoryId":"4bf58dd8d48988d11b941735","category":"Pub","checkinsCount":13520,"usersCount":4979,"tipCount":72,"visitsCount":15120,"url":"http://www.capitolpubdallas.com","tier":2,"message":"Moderate","currency":"$","rating":8.3},{"name":"Ozona Grill & Bar","phone":"2142659105","address":"4615 Greenville Ave","lat":32.843486,"lng":-96.77064769,"city_fetched":"Dallas,US","state":"TX","country":"United States","canonicalUrl":"https://foursquare.com/v/ozona-grill--bar/40e0b100f964a520ff081fe3","categoryId":"4bf58dd8d48988d116941735","category":"Bar","checkinsCount":11461,"usersCount":5766,"tipCount":87,"visitsCount":13266,"url":"http://www.ozonagrill.com","tier":2,"message":"Moderate","currency":"$","rating":8.3},{"name":"Baby Dolls","phone":"2143585511","address":"10250 Shady Trl","lat":32.86334724999564,"lng":-96.88964478498755,"city_fetched":"Dallas,US","state":"TX","country":"United States","canonicalUrl":"https://foursquare.com/v/baby-dolls/4ac1491bf964a5208f9620e3","categoryId":"4bf58dd8d48988d1d6941735","category":"Strip Club","checkinsCount":1359,"usersCount":1509,"tipCount":10,"visitsCount":2998,"url":"http://www.babydolls.com","tier":"","message":"","currency":"","rating":8.3},{"name":"Woody's","phone":"2145206629","address":"4011 Cedar Springs Rd","lat":32.811296,"lng":-96.8117639,"city_fetched":"Dallas,US","state":"TX","country":"United States","canonicalUrl":"https://foursquare.com/v/woodys/4b932ce8f964a520693934e3","categoryId":"4bf58dd8d48988d1d8941735","category":"Gay Bar","checkinsCount":10108,"usersCount":2377,"tipCount":42,"visitsCount":10473,"url":"http://www.dallaswoodys.com","tier":1,"message":"Cheap","currency":"$","rating":8.2},{"name":"Noble Rey Brewing Company","twitter":"noblereybrewing","address":"2636 Farrington St","lat":32.80312784258707,"lng":-96.84144670024065,"neighborhood":"Trinity Industrial District","city_fetched":"Dallas,US","state":"TX","country":"United States","canonicalUrl":"https://foursquare.com/v/noble-rey-brewing-company/546fa344498e7c8d8636b0b9","categoryId":"50327c8591d4c4b30a586d5d","category":"Brewery","checkinsCount":372,"usersCount":323,"tipCount":4,"visitsCount":664,"url":"http://www.noblereybrewing.com","tier":"","message":"","currency":"","rating":8.2},{"name":"Lizard Lounge","phone":"2148264768","twitter":"lizard__lounge","address":"2424 Swiss Ave","lat":32.78487528315517,"lng":-96.79025083780289,"city_fetched":"Dallas,US","state":"TX","country":"United States","canonicalUrl":"https://foursquare.com/v/lizard-lounge/412e7980f964a520f50c1fe3","categoryId":"4bf58dd8d48988d11f941735","category":"Nightclub","checkinsCount":6564,"usersCount":2611,"tipCount":41,"visitsCount":7215,"url":"http://www.thelizardlounge.com","tier":2,"message":"Moderate","currency":"$","rating":8.2},{"name":"The Tin Room","phone":"2145266365","address":"2514 Hudnall St","lat":32.818566,"lng":-96.832048,"city_fetched":"Dallas,US","state":"TX","country":"United States","canonicalUrl":"https://foursquare.com/v/the-tin-room/4b6902a2f964a520d2962be3","categoryId":"4bf58dd8d48988d1d6941735","category":"Strip Club","checkinsCount":4429,"usersCount":1509,"tipCount":25,"visitsCount":5879,"url":"http://tinroom.net","tier":2,"message":"Moderate","currency":"$","rating":8.2},{"name":"The Nodding Donkey","phone":"2149228898","address":"2900 Thomas Ave","lat":32.79661411908855,"lng":-96.79703484472398,"neighborhood":"Uptown","city_fetched":"Dallas,US","state":"TX","country":"United States","canonicalUrl":"https://foursquare.com/v/the-nodding-donkey/4c8abce4e51e6dcbdcce6bde","categoryId":"4bf58dd8d48988d11d941735","category":"Sports Bar","checkinsCount":9294,"usersCount":4231,"tipCount":41,"visitsCount":10215,"url":"http://thenoddingdonkey.com","tier":2,"message":"Moderate","currency":"$","rating":8.2},{"name":"The Prophet Bar","phone":"2147423667","address":"2548 Elm St","lat":32.783720736760785,"lng":-96.7870831489563,"neighborhood":"Deep Ellum","city_fetched":"Dallas,US","state":"TX","country":"United States","canonicalUrl":"https://foursquare.com/v/the-prophet-bar/4a457c6af964a52043a81fe3","categoryId":"4bf58dd8d48988d116941735","category":"Bar","checkinsCount":6420,"usersCount":2951,"tipCount":34,"visitsCount":6648,"url":"http://www.theprophetbar.com","tier":1,"message":"Cheap","currency":"$","rating":8.2},{"name":"The Green Room","phone":"2147487666","twitter":"dallasgreenroom","address":"2715 Elm St","lat":32.784627,"lng":-96.784062,"neighborhood":"Deep Ellum","city_fetched":"Dallas,US","state":"TX","country":"United States","canonicalUrl":"https://foursquare.com/v/the-green-room/4f3297f919836c91c7e6f734","categoryId":"4bf58dd8d48988d116941735","category":"Bar","checkinsCount":2109,"usersCount":894,"tipCount":18,"visitsCount":2221,"url":"http://www.dallasgreenroom.com","tier":1,"message":"Cheap","currency":"$","rating":8.2},{"name":"Cru Wine Bar","phone":"2145269463","address":"3699 McKinney Ave #107","lat":32.80773460865021,"lng":-96.798066,"neighborhood":"Uptown","city_fetched":"Dallas,US","state":"TX","country":"United States","canonicalUrl":"https://foursquare.com/v/cru-wine-bar/4bdddbc6587b2d7fbc5e5509","categoryId":"4bf58dd8d48988d123941735","category":"Wine Bar","checkinsCount":1998,"usersCount":1143,"tipCount":16,"visitsCount":2033,"url":"http://www.cruawinebar.com","tier":"","message":"","currency":"","rating":8.2},{"name":"Park Avenue","address":"2443 Walnut Hill Ln","lat":32.88219117786702,"lng":-96.89529745312386,"city_fetched":"Dallas,US","state":"TX","country":"United States","canonicalUrl":"https://foursquare.com/v/park-avenue/548e76f1498edd359d49bbc4","categoryId":"4bf58dd8d48988d11e941735","category":"Cocktail Bar","checkinsCount":265,"usersCount":505,"tipCount":4,"visitsCount":812,"url":"http://parkavedallas.com","tier":"","message":"","currency":"","rating":8.2},{"name":"Alcove Wine Bar","phone":"2148712200","address":"2907 State St","lat":32.797432,"lng":-96.797781,"neighborhood":"Uptown","city_fetched":"Dallas,US","state":"TX","country":"United States","canonicalUrl":"https://foursquare.com/v/alcove-wine-bar/4bcf9c9a41b9ef3b93d9f8e5","categoryId":"4bf58dd8d48988d123941735","category":"Wine Bar","checkinsCount":1756,"usersCount":691,"tipCount":11,"visitsCount":1921,"url":"http://www.alcovewine.com","tier":2,"message":"Moderate","currency":"$","rating":8.2},{"name":"Reno's Chop Shop","phone":"2147441200","address":"210 N Crowdus St","lat":32.785069,"lng":-96.78367974,"neighborhood":"Deep Ellum","city_fetched":"Dallas,US","state":"TX","country":"United States","canonicalUrl":"https://foursquare.com/v/renos-chop-shop/4aa4ab70f964a520364720e3","categoryId":"4bf58dd8d48988d118941735","category":"Dive Bar","checkinsCount":4497,"usersCount":1203,"tipCount":32,"visitsCount":4633,"url":"http://renoschopshop.com","tier":1,"message":"Cheap","currency":"$","rating":8.2},{"name":"House of Blues Foundation Room","phone":"2149784868","twitter":"hobdallas","address":"2200 N Lamar St","lat":32.7851140186978,"lng":-96.80861239101905,"neighborhood":"Victory Park","city_fetched":"Dallas,US","state":"TX","country":"United States","canonicalUrl":"https://foursquare.com/v/house-of-blues-foundation-room/4a56186df964a52069b41fe3","categoryId":"4bf58dd8d48988d121941735","category":"Lounge","checkinsCount":3006,"usersCount":1593,"tipCount":15,"visitsCount":3039,"url":"http://houseofblues.com","tier":"","message":"","currency":"","rating":8.2},{"name":"The People's Last Stand","phone":"2143708755","twitter":"peoplesdallas","address":"5319 E Mockingbird Ln Ste 210","lat":32.83813047475799,"lng":-96.7760968208313,"city_fetched":"Dallas,US","state":"TX","country":"United States","canonicalUrl":"https://foursquare.com/v/the-peoples-last-stand/4e77dd1f52b19ee4c7d7c8a4","categoryId":"4bf58dd8d48988d11e941735","category":"Cocktail Bar","checkinsCount":4383,"usersCount":1870,"tipCount":68,"visitsCount":4471,"url":"http://www.thepeopleslaststand.com","tier":2,"message":"Moderate","currency":"$","rating":8.1},{"name":"Cock and Bull Pub","phone":"2148419111","twitter":"cockandbulldal","address":"6330 Gaston Ave","lat":32.81309365356583,"lng":-96.75350020968705,"city_fetched":"Dallas,US","state":"TX","country":"United States","canonicalUrl":"https://foursquare.com/v/cock-and-bull-pub/40e0b100f964a52030081fe3","categoryId":"4bf58dd8d48988d116941735","category":"Bar","checkinsCount":3208,"usersCount":1213,"tipCount":37,"visitsCount":3476,"url":"http://cockandbulldallas.com","tier":1,"message":"Cheap","currency":"$","rating":8.1},{"name":"Cigar Lounge At Javier's","lat":32.82796374048144,"lng":-96.78603991767737,"city_fetched":"Dallas,US","state":"TX","country":"United States","canonicalUrl":"https://foursquare.com/v/cigar-lounge-at-javiers/519d7402498e11ff434a4712","categoryId":"4bf58dd8d48988d121941735","category":"Lounge","checkinsCount":172,"usersCount":141,"tipCount":1,"visitsCount":173,"tier":"","message":"","currency":"","rating":8.1},{"name":"The Cedars Social","phone":"2149287700","twitter":"thecedarssocial","address":"1326 S Lamar St","lat":32.768086,"lng":-96.795793,"neighborhood":"Cedars","city_fetched":"Dallas,US","state":"TX","country":"United States","canonicalUrl":"https://foursquare.com/v/the-cedars-social/4c97deede34e6dcb05db665a","categoryId":"4bf58dd8d48988d11e941735","category":"Cocktail Bar","checkinsCount":6454,"usersCount":3209,"tipCount":99,"visitsCount":6656,"url":"http://thecedarssocial.com","tier":3,"message":"Expensive","currency":"$","rating":8.1},{"name":"Midnight Rambler","address":"1530 Main St","lat":32.78107543086847,"lng":-96.79844726811557,"neighborhood":"Main Street District","city_fetched":"Dallas,US","state":"TX","country":"United States","canonicalUrl":"https://foursquare.com/v/midnight-rambler/541cd038498e1777b8582050","categoryId":"4bf58dd8d48988d11e941735","category":"Cocktail Bar","checkinsCount":953,"usersCount":649,"tipCount":10,"visitsCount":972,"url":"http://midnightramblerbar.com","tier":"","message":"","currency":"","rating":8.1},{"name":"Cairo Hookah Lounge","phone":"9722385100","twitter":"cairohookah1","address":"581 W Campbell Rd, Apt W Richardson","lat":32.97711774906122,"lng":-96.73912060100544,"neighborhood":"Northrich","city_fetched":"Dallas,US","state":"TX","country":"United States","canonicalUrl":"https://foursquare.com/v/cairo-hookah-lounge/4b3ee060f964a520d3a225e3","categoryId":"4bf58dd8d48988d119941735","category":"Hookah Bar","checkinsCount":1720,"usersCount":883,"tipCount":26,"visitsCount":2063,"url":"http://cairohookahlounge.com","tier":"","message":"","currency":"","rating":8.1},{"name":"Dee Lincoln's Bubble Bar & Private Events","phone":"2149799463","twitter":"deelincolns","address":"2101 Cedar Springs Rd","lat":32.79443579460948,"lng":-96.80579423904419,"neighborhood":"Uptown","city_fetched":"Dallas,US","state":"TX","country":"United States","canonicalUrl":"https://foursquare.com/deelincolns","categoryId":"4bf58dd8d48988d121941735","category":"Lounge","checkinsCount":2385,"usersCount":950,"tipCount":24,"visitsCount":2432,"url":"http://deelincolns.com","tier":"","message":"","currency":"","rating":8.1},{"name":"Eastwood's","lat":32.805411,"lng":-96.798967,"neighborhood":"Uptown","city_fetched":"Dallas,US","state":"TX","country":"United States","canonicalUrl":"https://foursquare.com/v/eastwoods/56cfcad1cd1004ac30d0cae8","categoryId":"4bf58dd8d48988d11e941735","category":"Cocktail Bar","checkinsCount":139,"usersCount":84,"tipCount":2,"visitsCount":149,"tier":"","message":"","currency":"","rating":8.1},{"name":"Inwood Tavern","phone":"2143532666","twitter":"inwoodtaverntx","address":"7717 Inwood Rd","lat":32.85009175440292,"lng":-96.82154736189752,"city_fetched":"Dallas,US","state":"TX","country":"United States","canonicalUrl":"https://foursquare.com/inwoodtaverntx","categoryId":"4bf58dd8d48988d118941735","category":"Dive Bar","checkinsCount":3783,"usersCount":1384,"tipCount":22,"visitsCount":4225,"url":"http://www.inwoodtaverndallas.com","tier":1,"message":"Cheap","currency":"$","rating":8.1},{"name":"City Council Restaurant & Bar","address":"2901 Thomas Ave","lat":32.796658,"lng":-96.797166,"neighborhood":"Uptown","city_fetched":"Dallas,US","state":"TX","country":"United States","canonicalUrl":"https://foursquare.com/v/city-council-restaurant--bar/564bb0cf498e6a0e1b287cf1","categoryId":"4bf58dd8d48988d116941735","category":"Bar","checkinsCount":237,"usersCount":147,"tipCount":3,"visitsCount":290,"tier":"","message":"","currency":"","rating":8.1},{"name":"Fat Rabbit","phone":"4699414085","twitter":"fatrabbitdallas","address":"2533 McKinney Ave","lat":32.79632464555042,"lng":-96.80184244109499,"neighborhood":"Uptown","city_fetched":"Dallas,US","state":"TX","country":"United States","canonicalUrl":"https://foursquare.com/fatrabbitdallas","categoryId":"4bf58dd8d48988d116941735","category":"Bar","checkinsCount":1068,"usersCount":1100,"tipCount":11,"visitsCount":1498,"url":"http://fatrabbitdallas.com","tier":"","message":"","currency":"","rating":8.1},{"name":"Dubliner","phone":"2148180911","twitter":"dallasdub","address":"2818 Greenville Ave","lat":32.823599,"lng":-96.770087,"neighborhood":"Lower Greenville","city_fetched":"Dallas,US","state":"TX","country":"United States","canonicalUrl":"https://foursquare.com/v/dubliner/41a91500f964a520531e1fe3","categoryId":"4bf58dd8d48988d11b941735","category":"Pub","checkinsCount":4186,"usersCount":1427,"tipCount":17,"visitsCount":4242,"url":"http://www.dallasdubliner.com","tier":"","message":"","currency":"","rating":8},{"name":"The Ginger Man","phone":"4696071114","address":"6341 La Vista Dr","lat":32.81282481646723,"lng":-96.75351589257579,"city_fetched":"Dallas,US","state":"TX","country":"United States","canonicalUrl":"https://foursquare.com/v/the-ginger-man/537a6524498e262a54b3f018","categoryId":"4bf58dd8d48988d11b941735","category":"Pub","checkinsCount":650,"usersCount":379,"tipCount":9,"visitsCount":798,"url":"http://thegingerman.com","tier":2,"message":"Moderate","currency":"$","rating":8},{"name":"Sue Ellen's","phone":"2145590707","address":"3014 Throckmorton St","lat":32.81075844298698,"lng":-96.81160926818848,"city_fetched":"Dallas,US","state":"TX","country":"United States","canonicalUrl":"https://foursquare.com/v/sue-ellens/4bba68ddb35776b077e6ca01","categoryId":"4bf58dd8d48988d1d8941735","category":"Gay Bar","checkinsCount":4992,"usersCount":1766,"tipCount":17,"visitsCount":5151,"url":"http://www.sueellensdallas.com","tier":2,"message":"Moderate","currency":"$","rating":8},{"name":"The Wine Therapist","phone":"2148219463","address":"1909 Skillman St","lat":32.812977570453405,"lng":-96.76209500233418,"neighborhood":"Lower Greenville","city_fetched":"Dallas,US","state":"TX","country":"United States","canonicalUrl":"https://foursquare.com/v/the-wine-therapist/4aaafdbdf964a5206a5820e3","categoryId":"4bf58dd8d48988d123941735","category":"Wine Bar","checkinsCount":1480,"usersCount":625,"tipCount":7,"visitsCount":1498,"url":"http://www.thewinetherapist.com","tier":"","message":"","currency":"","rating":8},{"name":"BJs NXS","phone":"2145269510","twitter":"bjsnxs","address":"3215 N Fitzhugh Ave","lat":32.816799334557054,"lng":-96.7934673046527,"city_fetched":"Dallas,US","state":"TX","country":"United States","canonicalUrl":"https://foursquare.com/v/bjs-nxs/4b8f38d1f964a5205f4e33e3","categoryId":"4bf58dd8d48988d11f941735","category":"Nightclub","checkinsCount":4816,"usersCount":1874,"tipCount":25,"visitsCount":6436,"url":"http://bjsnxs.com","tier":1,"message":"Cheap","currency":"$","rating":8},{"name":"Idle Rich Pub","phone":"2149659926","address":"2614 McKinney Ave","lat":32.7970512271865,"lng":-96.80135250091553,"neighborhood":"Uptown","city_fetched":"Dallas,US","state":"TX","country":"United States","canonicalUrl":"https://foursquare.com/v/idle-rich-pub/412e7980f964a520100d1fe3","categoryId":"4bf58dd8d48988d11b941735","category":"Pub","checkinsCount":13219,"usersCount":6191,"tipCount":57,"visitsCount":13802,"url":"http://www.idlerichpub.com","tier":2,"message":"Moderate","currency":"$","rating":8},{"name":"High & Tight","lat":32.78415,"lng":-96.784086,"neighborhood":"Deep Ellum","city_fetched":"Dallas,US","state":"TX","country":"United States","canonicalUrl":"https://foursquare.com/v/high--tight/562070f0498e5a449b485d4d","categoryId":"4bf58dd8d48988d11e941735","category":"Cocktail Bar","checkinsCount":338,"usersCount":231,"tipCount":1,"visitsCount":360,"tier":"","message":"","currency":"","rating":8},{"name":"The Crown & Harp","phone":"2148281914","address":"1914 Greenville Ave","lat":32.813348438047754,"lng":-96.77006868590736,"neighborhood":"Lower Greenville","city_fetched":"Dallas,US","state":"TX","country":"United States","canonicalUrl":"https://foursquare.com/v/the-crown--harp/4d58af5fd1a08cfa10a513ba","categoryId":"4bf58dd8d48988d11b941735","category":"Pub","checkinsCount":3704,"usersCount":1143,"tipCount":14,"visitsCount":4022,"url":"http://thecrownandharp.com","tier":1,"message":"Cheap","currency":"$","rating":8},{"name":"It'll Do Club","phone":"2148270262","address":"4322 Elm St","lat":32.791234489797176,"lng":-96.76908041872579,"neighborhood":"Peak's Addition","city_fetched":"Dallas,US","state":"TX","country":"United States","canonicalUrl":"https://foursquare.com/v/itll-do-club/40e0b100f964a520a9081fe3","categoryId":"4bf58dd8d48988d11f941735","category":"Nightclub","checkinsCount":1540,"usersCount":939,"tipCount":23,"visitsCount":2023,"tier":"","message":"","currency":"","rating":8},{"name":"The Church","phone":"2148264769","twitter":"thechurchdallas","address":"2424 Swiss Ave","lat":32.78510227755878,"lng":-96.7903079460351,"city_fetched":"Dallas,US","state":"TX","country":"United States","canonicalUrl":"https://foursquare.com/v/the-church/4bb94b2f7421a593bdb3c240","categoryId":"4bf58dd8d48988d11f941735","category":"Nightclub","checkinsCount":3825,"usersCount":797,"tipCount":18,"visitsCount":3940,"url":"http://www.thechurchdallas.com","tier":2,"message":"Moderate","currency":"$","rating":8},{"name":"Texas Rose","lat":32.62030581367705,"lng":-96.69283593264355,"neighborhood":"Southwest Dallas","city_fetched":"Dallas,US","state":"TX","country":"United States","canonicalUrl":"https://foursquare.com/v/texas-rose/4c3934cb2c8020a1d1628c00","categoryId":"4bf58dd8d48988d116941735","category":"Bar","checkinsCount":337,"usersCount":117,"tipCount":2,"visitsCount":398,"tier":"","message":"","currency":"","rating":8},{"name":"Lev","address":"2505 Pacific Ave","lat":32.78496304120158,"lng":-96.78930367881598,"city_fetched":"Dallas,US","state":"TX","country":"United States","canonicalUrl":"https://foursquare.com/v/lev%C3%BA/5092d506e4b08bdede540301","categoryId":"4bf58dd8d48988d11f941735","category":"Nightclub","checkinsCount":842,"usersCount":636,"tipCount":11,"visitsCount":1029,"url":"http://levudallas.com","tier":"","message":"","currency":"","rating":8},{"name":"Tate's","phone":"2149544141","twitter":"tatesdallas","address":"2723 McKinney Ave","lat":32.79863848668713,"lng":-96.80137395858765,"neighborhood":"Uptown","city_fetched":"Dallas,US","state":"TX","country":"United States","canonicalUrl":"https://foursquare.com/v/tates/4ede736461af8a14bb131d7f","categoryId":"4bf58dd8d48988d11e941735","category":"Cocktail Bar","checkinsCount":3648,"usersCount":1944,"tipCount":31,"visitsCount":3889,"url":"http://www.tatesdallas.com","tier":2,"message":"Moderate","currency":"$","rating":8},{"name":"Barcadia","phone":"2148217300","twitter":"barcadiadallas","address":"1917 N Henderson Ave","lat":32.81170975353178,"lng":-96.77513122558594,"neighborhood":"Henderson","city_fetched":"Dallas,US","state":"TX","country":"United States","canonicalUrl":"https://foursquare.com/v/barcadia/4a15f004f964a520dc781fe3","categoryId":"4bf58dd8d48988d116941735","category":"Bar","checkinsCount":13400,"usersCount":5897,"tipCount":86,"visitsCount":13921,"url":"http://barcadiabars.com/barcadiadallas/","tier":2,"message":"Moderate","currency":"$","rating":8},{"name":"Adair's Saloon","phone":"2149399900","twitter":"adairssaloon","address":"2624 Commerce St","lat":32.78246048234654,"lng":-96.78511939934388,"neighborhood":"Deep Ellum","city_fetched":"Dallas,US","state":"TX","country":"United States","canonicalUrl":"https://foursquare.com/v/adairs-saloon/40e0b100f964a520d9071fe3","categoryId":"4bf58dd8d48988d118941735","category":"Dive Bar","checkinsCount":3872,"usersCount":1995,"tipCount":39,"visitsCount":3893,"url":"http://www.adairssaloon.com","tier":1,"message":"Cheap","currency":"$","rating":8},{"name":"The Boxcar Club","phone":"9722301617","address":"2222 Bear Creek Rd.","lat":32.56054052862838,"lng":-96.89168786172745,"neighborhood":"Southwest Dallas","city_fetched":"Dallas,US","state":"TX","country":"United States","canonicalUrl":"https://foursquare.com/v/the-boxcar-club/4cc45425be40a35dcfcc7d4c","categoryId":"4bf58dd8d48988d116941735","category":"Bar","checkinsCount":228,"usersCount":219,"tipCount":5,"visitsCount":596,"tier":"","message":"","currency":"","rating":8},{"name":"Cr Food & Wine Bar","phone":"2146549949","address":"8008 Cedar Springs Rd Ste C221","lat":32.844784944939775,"lng":-96.84974424775343,"city_fetched":"Dallas,US","state":"TX","country":"United States","canonicalUrl":"https://foursquare.com/v/cr%C3%BA-food--wine-bar/5171af0de4b071aabe1fa022","categoryId":"4bf58dd8d48988d123941735","category":"Wine Bar","checkinsCount":625,"usersCount":496,"tipCount":17,"visitsCount":625,"url":"http://cruawinebar.com","tier":2,"message":"Moderate","currency":"$","rating":7.9},{"name":"Lakewood Landing","phone":"2148232410","address":"5818 Live Oak St","lat":32.81209451833041,"lng":-96.76119573700159,"neighborhood":"Old East Dallas","city_fetched":"Dallas,US","state":"TX","country":"United States","canonicalUrl":"https://foursquare.com/v/lakewood-landing/40e0b100f964a520bf081fe3","categoryId":"4bf58dd8d48988d118941735","category":"Dive Bar","checkinsCount":4485,"usersCount":1317,"tipCount":34,"visitsCount":4676,"url":"http://lakewood-landing.com","tier":2,"message":"Moderate","currency":"$","rating":7.9},{"name":"Bitter Sisters Brewing Company","phone":"9724790949","twitter":"bittersisters","address":"15103 Surveyor Blvd","lat":32.95472839324006,"lng":-96.84707425922103,"city_fetched":"Dallas,US","state":"TX","country":"United States","canonicalUrl":"https://foursquare.com/v/bitter-sisters-brewing-company/54fe289a498eb8e6b2155876","categoryId":"50327c8591d4c4b30a586d5d","category":"Brewery","checkinsCount":151,"usersCount":217,"tipCount":4,"visitsCount":304,"url":"http://bittersistersbrewery.com","tier":"","message":"","currency":"","rating":7.9},{"name":"Glass Half Full Taproom","lat":32.94937202633309,"lng":-96.73822688139053,"city_fetched":"Dallas,US","state":"TX","country":"United States","canonicalUrl":"https://foursquare.com/v/glass-half-full-taproom/5202f83d498eb0a702cacf7c","categoryId":"4bf58dd8d48988d116941735","category":"Bar","checkinsCount":712,"usersCount":207,"tipCount":11,"visitsCount":722,"tier":2,"message":"Moderate","currency":"$","rating":7.9},{"name":"Escapade 2009","address":"10701 Finnell St","lat":32.870086436223616,"lng":-96.89462162188778,"city_fetched":"Dallas,US","state":"TX","country":"United States","canonicalUrl":"https://foursquare.com/v/escapade-2009/5299784d11d2774c2ec2100f","categoryId":"4bf58dd8d48988d11f941735","category":"Nightclub","checkinsCount":58,"usersCount":98,"tipCount":0,"visitsCount":121,"tier":"","message":"","currency":"","rating":7.9},{"name":"Alexandre's","phone":"2145590720","address":"4026 Cedar Springs Rd","lat":32.81161062981046,"lng":-96.81175694296353,"city_fetched":"Dallas,US","state":"TX","country":"United States","canonicalUrl":"https://foursquare.com/v/alexandres/4b529f06f964a5202b8427e3","categoryId":"4bf58dd8d48988d1d8941735","category":"Gay Bar","checkinsCount":3723,"usersCount":905,"tipCount":20,"visitsCount":3835,"tier":2,"message":"Moderate","currency":"$","rating":7.9},{"name":"Black Friar Pub","phone":"2149530599","twitter":"blackfriarpub","address":"2621 McKinney Ave","lat":32.7972230343768,"lng":-96.80172599882904,"neighborhood":"Uptown","city_fetched":"Dallas,US","state":"TX","country":"United States","canonicalUrl":"https://foursquare.com/v/black-friar-pub/49e19871f964a520e1611fe3","categoryId":"4bf58dd8d48988d11b941735","category":"Pub","checkinsCount":13610,"usersCount":6199,"tipCount":57,"visitsCount":14177,"url":"http://www.blackfriarpub.com","tier":2,"message":"Moderate","currency":"$","rating":7.9},{"name":"City Tavern","phone":"2147451402","twitter":"citytaverndfw","address":"1402 Main St","lat":32.78046413208978,"lng":-96.80022591904077,"neighborhood":"Main Street District","city_fetched":"Dallas,US","state":"TX","country":"United States","canonicalUrl":"https://foursquare.com/v/city-tavern/4aa04ddaf964a5200f3f20e3","categoryId":"4bf58dd8d48988d116941735","category":"Bar","checkinsCount":7873,"usersCount":3518,"tipCount":65,"visitsCount":7936,"url":"http://www.citytaverndowntown.com","tier":2,"message":"Moderate","currency":"$","rating":7.9},{"name":"Off the Record","twitter":"otrdallas","address":"2716 Elm St","lat":32.78454576752958,"lng":-96.7839739998814,"neighborhood":"Deep Ellum","city_fetched":"Dallas,US","state":"TX","country":"United States","canonicalUrl":"https://foursquare.com/v/off-the-record/53fd2565498e83054e6248c2","categoryId":"4bf58dd8d48988d116941735","category":"Bar","checkinsCount":1083,"usersCount":576,"tipCount":7,"visitsCount":1137,"tier":"","message":"","currency":"","rating":7.9},{"name":"Inwood Soccer Center","phone":"9722391166","address":"14800 Inwood Rd.","lat":32.94937657529535,"lng":-96.8303762232966,"city_fetched":"Dallas,US","state":"TX","country":"United States","canonicalUrl":"https://foursquare.com/v/inwood-soccer-center/4a67a81bf964a520dbc91fe3","categoryId":"4bf58dd8d48988d116941735","category":"Bar","checkinsCount":2112,"usersCount":571,"tipCount":8,"visitsCount":2890,"url":"http://www.inwoodsoccercenter.com","tier":"","message":"","currency":"","rating":7.9},{"name":"Gas Monkey Bar N' Grill","phone":"2143501904","twitter":"gasmonkeybng","address":"10261 Technology Blvd E","lat":32.86079887466589,"lng":-96.89601302146912,"city_fetched":"Dallas,US","state":"TX","country":"United States","canonicalUrl":"https://foursquare.com/v/gas-monkey-bar-n-grill/51f6cf617dd21f8422ac855b","categoryId":"4bf58dd8d48988d116941735","category":"Bar","checkinsCount":4291,"usersCount":5458,"tipCount":74,"visitsCount":7348,"url":"http://gasmonkeybarngrill.com","tier":2,"message":"Moderate","currency":"$","rating":7.9},{"name":"Go 4 It Sports Grill","phone":"2142219440","address":"10677 E Northwest Hwy Ste 400","lat":32.86515162614789,"lng":-96.70101642608643,"neighborhood":"Lake Highlands","city_fetched":"Dallas,US","state":"TX","country":"United States","canonicalUrl":"https://foursquare.com/v/go-4-it-sports-grill/4e8d123bf9f4d4b14d1f914c","categoryId":"4bf58dd8d48988d11d941735","category":"Sports Bar","checkinsCount":2001,"usersCount":560,"tipCount":34,"visitsCount":2406,"url":"http://go4itsportsgrill.com","tier":2,"message":"Moderate","currency":"$","rating":7.9},{"name":"Frankie's","phone":"2147411919","address":"1303 Main St","lat":32.78050055553353,"lng":-96.80072486400603,"neighborhood":"Main Street District","city_fetched":"Dallas,US","state":"TX","country":"United States","canonicalUrl":"https://foursquare.com/v/frankies/55d5375e498ea0961b4ee1ab","categoryId":"4bf58dd8d48988d11d941735","category":"Sports Bar","checkinsCount":780,"usersCount":661,"tipCount":5,"visitsCount":1099,"url":"http://dallas.frankiesbar.com","tier":"","message":"","currency":"","rating":7.9},{"name":"Bryan Street Tavern","phone":"2148214447","address":"4315 Bryan St","lat":32.79976862577914,"lng":-96.77929846940103,"city_fetched":"Dallas,US","state":"TX","country":"United States","canonicalUrl":"https://foursquare.com/v/bryan-street-tavern/4a71126bf964a52013d91fe3","categoryId":"4bf58dd8d48988d116941735","category":"Bar","checkinsCount":9394,"usersCount":3030,"tipCount":96,"visitsCount":10775,"url":"http://www.bryanstreettavern.com","tier":2,"message":"Moderate","currency":"$","rating":7.9},{"name":"The Hideaway  (aka Toadies Hideaway)","phone":"9726615221","address":"14902 Preston Rd","lat":32.952890926158666,"lng":-96.80304570368686,"neighborhood":"Pepper Square Shopping Center","city_fetched":"Dallas,US","state":"TX","country":"United States","canonicalUrl":"https://foursquare.com/v/the-hideaway--aka-toadies-hideaway/4c23f1fb136d20a13413e161","categoryId":"4bf58dd8d48988d11d941735","category":"Sports Bar","checkinsCount":1384,"usersCount":464,"tipCount":14,"visitsCount":1737,"url":"http://thehideawaydallas.com","tier":2,"message":"Moderate","currency":"$","rating":7.9},{"name":"Full Circle Tavern","phone":"2142083435","address":"1319 S Lamar St","lat":32.76801526532496,"lng":-96.79628156480818,"neighborhood":"Cedars","city_fetched":"Dallas,US","state":"TX","country":"United States","canonicalUrl":"https://foursquare.com/v/full-circle-tavern/512e8979e4b002e8a1b9be47","categoryId":"4bf58dd8d48988d11b941735","category":"Pub","checkinsCount":1035,"usersCount":609,"tipCount":29,"visitsCount":1070,"url":"http://thefullcircletavern.com","tier":2,"message":"Moderate","currency":"$","rating":7.8},{"name":"The Mining Company","phone":"2145214205","address":"3903 Cedar Springs Rd","lat":32.810309835665905,"lng":-96.81078851222992,"city_fetched":"Dallas,US","state":"TX","country":"United States","canonicalUrl":"https://foursquare.com/v/the-mining-company/4b1a8953f964a520d4eb23e3","categoryId":"4bf58dd8d48988d1d8941735","category":"Gay Bar","checkinsCount":4592,"usersCount":1406,"tipCount":27,"visitsCount":4687,"url":"http://tmcdallas.com","tier":1,"message":"Cheap","currency":"$","rating":7.8},{"name":"The Royal Pour","phone":"2143211065","address":"9909 Garland Rd","lat":32.837687400250985,"lng":-96.69776114370974,"city_fetched":"Dallas,US","state":"TX","country":"United States","canonicalUrl":"https://foursquare.com/v/the-royal-pour/50537db5e4b0e5434c00c721","categoryId":"4bf58dd8d48988d116941735","category":"Bar","checkinsCount":391,"usersCount":246,"tipCount":11,"visitsCount":482,"url":"http://theroyalpour.com","tier":"","message":"","currency":"","rating":7.8},{"name":"Barley House","phone":"2148240306","address":"5612 Smu Blvd","lat":32.841924242304394,"lng":-96.77197728688347,"city_fetched":"Dallas,US","state":"TX","country":"United States","canonicalUrl":"https://foursquare.com/v/barley-house/41293380f964a520660c1fe3","categoryId":"4bf58dd8d48988d116941735","category":"Bar","checkinsCount":5876,"usersCount":2349,"tipCount":33,"visitsCount":6050,"url":"http://www.barleyhouse.com","tier":1,"message":"Cheap","currency":"$","rating":7.8},{"name":"The Owner's Box","phone":"2147446664","address":"555 S Lamar St","lat":32.77495622368101,"lng":-96.80364211166575,"neighborhood":"Convention Center District","city_fetched":"Dallas,US","state":"TX","country":"United States","canonicalUrl":"https://foursquare.com/v/the-owners-box/4ebd96b1b8f7b504a78ea50e","categoryId":"4bf58dd8d48988d1d5941735","category":"Hotel Bar","checkinsCount":3990,"usersCount":2977,"tipCount":39,"visitsCount":4272,"url":"http://www.omnihotels.com/FindAHotel/DallasHotel/Dining/TheOwnersBox.aspx","tier":2,"message":"Moderate","currency":"$","rating":7.8},{"name":"High Fives","twitter":"highfivesdallas","address":"1804 McMillan Ave","lat":32.81173743680042,"lng":-96.77465465201998,"neighborhood":"Lowest Greenville West","city_fetched":"Dallas,US","state":"TX","country":"United States","canonicalUrl":"https://foursquare.com/v/high-fives/55778565498e735089528f05","categoryId":"4bf58dd8d48988d116941735","category":"Bar","checkinsCount":442,"usersCount":304,"tipCount":4,"visitsCount":477,"tier":"","message":"","currency":"","rating":7.8},{"name":"PhD","phone":"2149420288","twitter":"phdallastx","address":"1300 W Davis St","lat":32.7492127304431,"lng":-96.84309840202332,"neighborhood":"Winnetka Heights","city_fetched":"Dallas,US","state":"TX","country":"United States","canonicalUrl":"https://foursquare.com/phdallastx","categoryId":"4bf58dd8d48988d11d941735","category":"Sports Bar","checkinsCount":1738,"usersCount":714,"tipCount":20,"visitsCount":2034,"url":"http://phdallas.com","tier":1,"message":"Cheap","currency":"$","rating":7.8},{"name":"Sandbar Cantina and Grill","phone":"2148845528","address":"317 S 2nd Ave","lat":32.78335985072367,"lng":-96.77435135119602,"neighborhood":"Deep Ellum","city_fetched":"Dallas,US","state":"TX","country":"United States","canonicalUrl":"https://foursquare.com/v/sandbar-cantina-and-grill/4fab14f2e4b08e1156503126","categoryId":"4bf58dd8d48988d116941735","category":"Bar","checkinsCount":2901,"usersCount":1198,"tipCount":23,"visitsCount":3579,"url":"http://www.sandbarcantina.com","tier":"","message":"","currency":"","rating":7.8},{"name":"Hidden Door","phone":"2145260620","address":"5025 Bowser Ave","lat":32.824735,"lng":-96.818881,"city_fetched":"Dallas,US","state":"TX","country":"United States","canonicalUrl":"https://foursquare.com/v/hidden-door/40e0b100f964a52096081fe3","categoryId":"4bf58dd8d48988d1d8941735","category":"Gay Bar","checkinsCount":4584,"usersCount":1370,"tipCount":37,"visitsCount":6144,"url":"http://hiddendoor-dallas.com","tier":1,"message":"Cheap","currency":"$","rating":7.8},{"name":"Lakewood On Tap","lat":32.815562,"lng":-96.752431,"city_fetched":"Dallas,US","state":"TX","country":"United States","canonicalUrl":"https://foursquare.com/v/lakewood-on-tap/4df3ab57aeb7170aa2f1dbb5","categoryId":"4bf58dd8d48988d116941735","category":"Bar","checkinsCount":466,"usersCount":107,"tipCount":7,"visitsCount":495,"tier":"","message":"","currency":"","rating":7.8},{"name":"O.E. Penguin","phone":"2147441393","twitter":"oepenguin","address":"1404 Main St","lat":32.780329170072704,"lng":-96.80010795593262,"neighborhood":"Main Street District","city_fetched":"Dallas,US","state":"TX","country":"United States","canonicalUrl":"https://foursquare.com/v/oe-penguin/4b763f85f964a5201b452ee3","categoryId":"4bf58dd8d48988d116941735","category":"Bar","checkinsCount":2573,"usersCount":1001,"tipCount":26,"visitsCount":2589,"url":"http://www.oepenguin.com","tier":2,"message":"Moderate","currency":"$","rating":7.8},{"name":"Bleachers Sports Grill","phone":"974952991","address":"3402 Arapaho Rd","lat":32.96026170352058,"lng":-96.68106347322464,"city_fetched":"Dallas,US","state":"TX","country":"United States","canonicalUrl":"https://foursquare.com/v/bleachers-sports-grill/4ae39da5f964a5204a9721e3","categoryId":"4bf58dd8d48988d11d941735","category":"Sports Bar","checkinsCount":844,"usersCount":223,"tipCount":6,"visitsCount":949,"url":"http://bleacherssportsgrillgarland.com","tier":2,"message":"Moderate","currency":"$","rating":7.8},{"name":"Stone Trail","phone":"9727019600","address":"14833 Midway Rd.","lat":32.950147443061006,"lng":-96.83982919409408,"city_fetched":"Dallas,US","state":"TX","country":"United States","canonicalUrl":"https://foursquare.com/v/stone-trail/40e0b100f964a52064091fe3","categoryId":"4bf58dd8d48988d11f941735","category":"Nightclub","checkinsCount":709,"usersCount":505,"tipCount":9,"visitsCount":864,"tier":"","message":"","currency":"","rating":7.8},{"name":"The Grove at Harwood","lat":32.79635248946364,"lng":-96.81034946247588,"neighborhood":"Uptown","city_fetched":"Dallas,US","state":"TX","country":"United States","canonicalUrl":"https://foursquare.com/v/the-grove-at-harwood/5538679a498eb15a4d805852","categoryId":"52e81612bcbc57f1066b7a0d","category":"Beach Bar","checkinsCount":168,"usersCount":139,"tipCount":1,"visitsCount":218,"tier":"","message":"","currency":"","rating":7.8},{"name":"The Woolworth","phone":"2148140588","twitter":"thewoolworth","address":"1520 Elm St #201","lat":32.7814238295875,"lng":-96.79856758708344,"neighborhood":"Main Street District","city_fetched":"Dallas,US","state":"TX","country":"United States","canonicalUrl":"https://foursquare.com/v/the-woolworth/5262cf25498ef231bee38a09","categoryId":"4bf58dd8d48988d11e941735","category":"Cocktail Bar","checkinsCount":1442,"usersCount":870,"tipCount":26,"visitsCount":1523,"url":"http://thewoolworthdallas.com","tier":2,"message":"Moderate","currency":"$","rating":7.8},{"name":"Austin Avenue 2 Grill & Sports Bar","phone":"9729078003","address":"1801 N Plano Rd","lat":32.97271015274186,"lng":-96.70025261875533,"city_fetched":"Dallas,US","state":"TX","country":"United States","canonicalUrl":"https://foursquare.com/v/austin-avenue-2-grill--sports-bar/4aac0e15f964a520ef5b20e3","categoryId":"4bf58dd8d48988d116941735","category":"Bar","checkinsCount":2206,"usersCount":1128,"tipCount":24,"visitsCount":2715,"url":"http://www.austinavenue.com","tier":"","message":"","currency":"","rating":7.7},{"name":"The Mitchell","lat":32.78059077125346,"lng":-96.8001474481201,"neighborhood":"Main Street District","city_fetched":"Dallas,US","state":"TX","country":"United States","canonicalUrl":"https://foursquare.com/v/the-mitchell/54d7d215498efd976961a602","categoryId":"4bf58dd8d48988d11e941735","category":"Cocktail Bar","checkinsCount":181,"usersCount":125,"tipCount":0,"visitsCount":182,"tier":"","message":"","currency":"","rating":7.7},{"name":"Bungalow Beach Club","address":"3020 Flora St.","lat":32.79441775687635,"lng":-96.79143905639647,"city_fetched":"Dallas,US","state":"TX","country":"United States","canonicalUrl":"https://foursquare.com/v/bungalow-beach-club/553ebd5e498e2c1bf25dc7ff","categoryId":"52e81612bcbc57f1066b7a0d","category":"Beach Bar","checkinsCount":174,"usersCount":190,"tipCount":1,"visitsCount":319,"tier":"","message":"","currency":"","rating":7.7},{"name":"Cedar Springs Tap House","phone":"2143777446","twitter":"cs_taphouse","address":"4123 Cedar Springs Rd, Suite 100","lat":32.81178017882853,"lng":-96.81248297287749,"city_fetched":"Dallas,US","state":"TX","country":"United States","canonicalUrl":"https://foursquare.com/v/cedar-springs-tap-house/5418a6b6498eaeb260532b99","categoryId":"4bf58dd8d48988d116941735","category":"Bar","checkinsCount":993,"usersCount":657,"tipCount":16,"visitsCount":1465,"url":"http://www.cedarspringstaphouse.com","tier":"","message":"","currency":"","rating":7.7},{"name":"Firewheel Brewing Co.","phone":"9728073922","twitter":"firewheelbrew","address":"3313 Enterprise Dr","lat":32.905388684789045,"lng":-96.57102584838867,"city_fetched":"Dallas,US","state":"TX","country":"United States","canonicalUrl":"https://foursquare.com/v/firewheel-brewing-co/4fdb6875e4b0f86f6aae0f1e","categoryId":"50327c8591d4c4b30a586d5d","category":"Brewery","checkinsCount":513,"usersCount":345,"tipCount":16,"visitsCount":646,"url":"http://www.firewheelbrewing.com","tier":"","message":"","currency":"","rating":7.7},{"name":"Ramblin' Rose","address":"3594 Elm Grove Rd.","lat":32.95763981847482,"lng":-96.52851031580359,"city_fetched":"Dallas,US","state":"TX","country":"United States","canonicalUrl":"https://foursquare.com/v/ramblin-rose/40e0b100f964a52016091fe3","categoryId":"4bf58dd8d48988d116941735","category":"Bar","checkinsCount":215,"usersCount":111,"tipCount":8,"visitsCount":299,"tier":"","message":"","currency":"","rating":7.7},{"name":"The Wild Turkey","phone":"2143515383","address":"2470 Walnut Hill Ln","lat":32.88079783019424,"lng":-96.89476307436004,"city_fetched":"Dallas,US","state":"TX","country":"United States","canonicalUrl":"https://foursquare.com/v/the-wild-turkey/4b67b742f964a520cc5b2be3","categoryId":"4bf58dd8d48988d116941735","category":"Bar","checkinsCount":1150,"usersCount":691,"tipCount":21,"visitsCount":1343,"url":"http://thewildturkeyrestaurants.com","tier":"","message":"","currency":"","rating":7.7},{"name":"The Quarter Bar & Grill","phone":"9727881919","twitter":"quarteraddison","address":"15201 Addison Road","lat":32.95571116782398,"lng":-96.8302200934537,"city_fetched":"Dallas,US","state":"TX","country":"United States","canonicalUrl":"https://foursquare.com/v/the-quarter-bar--grill/4ac57b4af964a52033b220e3","categoryId":"4bf58dd8d48988d116941735","category":"Bar","checkinsCount":2449,"usersCount":1134,"tipCount":14,"visitsCount":2542,"url":"http://www.thequarter.biz","tier":1,"message":"Cheap","currency":"$","rating":7.7},{"name":"Spearmint Rhino","phone":"2149020700","address":"10965 Composite Dr","lat":32.88021195493556,"lng":-96.89646576698178,"city_fetched":"Dallas,US","state":"TX","country":"United States","canonicalUrl":"https://foursquare.com/v/spearmint-rhino/4b6e5adcf964a520dab92ce3","categoryId":"4bf58dd8d48988d1d6941735","category":"Strip Club","checkinsCount":647,"usersCount":581,"tipCount":6,"visitsCount":973,"url":"http://spearmintrhino.com","tier":"","message":"","currency":"","rating":7.7},{"name":"Kung Fu Saloon","phone":"2147300283","twitter":"kungfudallas","address":"2911 Routh St","lat":32.79912633806465,"lng":-96.80518547351241,"neighborhood":"Uptown","city_fetched":"Dallas,US","state":"TX","country":"United States","canonicalUrl":"https://foursquare.com/v/kung-fu-saloon/503f8479e4b04a42bda2a88d","categoryId":"4bf58dd8d48988d116941735","category":"Bar","checkinsCount":9759,"usersCount":5730,"tipCount":65,"visitsCount":12048,"url":"http://kungfusaloon.com/dallas","tier":2,"message":"Moderate","currency":"$","rating":7.7},{"name":"Eight Bells Alehouse","address":"831 Exposition Ave Apt C","lat":32.78195798105067,"lng":-96.7669261530947,"city_fetched":"Dallas,US","state":"TX","country":"United States","canonicalUrl":"https://foursquare.com/v/eight-bells-alehouse/55de7f0c498ed2a38264b546","categoryId":"4bf58dd8d48988d11b941735","category":"Pub","checkinsCount":150,"usersCount":104,"tipCount":2,"visitsCount":157,"tier":"","message":"","currency":"","rating":7.7},{"name":"Deep Ellum Taproom","phone":"2148883322","twitter":"deepellumbrewco","address":"2823 Saint Louis St","lat":32.780759438939135,"lng":-96.78142699685328,"neighborhood":"Deep Ellum","city_fetched":"Dallas,US","state":"TX","country":"United States","canonicalUrl":"https://foursquare.com/v/deep-ellum-taproom/541e0242498e3d028ffd1692","categoryId":"50327c8591d4c4b30a586d5d","category":"Brewery","checkinsCount":309,"usersCount":169,"tipCount":1,"visitsCount":312,"url":"http://www.deepellumbrewing.com","tier":"","message":"","currency":"","rating":7.7},{"name":"Humperdinks Restaurant & Brew Pub","phone":"2143584159","twitter":"humperdinks","address":"2208 W Northwest Hwy","lat":32.86382266355527,"lng":-96.8989020041719,"city_fetched":"Dallas,US","state":"TX","country":"United States","canonicalUrl":"https://foursquare.com/v/humperdinks-restaurant--brew-pub/40e0b100f964a520a0081fe3","categoryId":"4bf58dd8d48988d11d941735","category":"Sports Bar","checkinsCount":3282,"usersCount":2700,"tipCount":36,"visitsCount":4486,"url":"http://www.humperdinks.com","tier":2,"message":"Moderate","currency":"$","rating":7.7},{"name":"Industry Alley","address":"1713 South Lamar","lat":32.76590005641708,"lng":-96.79330514839762,"neighborhood":"Cedars","city_fetched":"Dallas,US","state":"TX","country":"United States","canonicalUrl":"https://foursquare.com/v/industry-alley/5576079b498ecb998612acf9","categoryId":"4bf58dd8d48988d11e941735","category":"Cocktail Bar","checkinsCount":185,"usersCount":135,"tipCount":0,"visitsCount":291,"tier":"","message":"","currency":"","rating":7.7},{"name":"Red Light Lounge","phone":"2148264769","twitter":"redlightdallas","address":"2911 Main St","lat":32.78436802378256,"lng":-96.78181400935004,"neighborhood":"Deep Ellum","city_fetched":"Dallas,US","state":"TX","country":"United States","canonicalUrl":"https://foursquare.com/v/red-light-lounge/4f5c2507e4b00747db288d5f","categoryId":"4bf58dd8d48988d11f941735","category":"Nightclub","checkinsCount":603,"usersCount":458,"tipCount":2,"visitsCount":857,"url":"http://redlightdallas.com","tier":"","message":"","currency":"","rating":7.7},{"name":"Whitehall Exchange","phone":"2149463900","address":"500 N Bishop Ave","lat":32.749,"lng":-96.828102,"neighborhood":"Bishop Arts District","city_fetched":"Dallas,US","state":"TX","country":"United States","canonicalUrl":"https://foursquare.com/v/whitehall-exchange/4f31e943e4b0e6be3ba08582","categoryId":"4bf58dd8d48988d116941735","category":"Bar","checkinsCount":1850,"usersCount":1212,"tipCount":17,"visitsCount":1894,"url":"http://whitehallexchange.com","tier":"","message":"","currency":"","rating":7.6},{"name":"Cloud 9 Hookah Lounge","phone":"2149547763","address":"804 W Shore Dr","lat":32.962450202746496,"lng":-96.74775530055129,"city_fetched":"Dallas,US","state":"TX","country":"United States","canonicalUrl":"https://foursquare.com/v/cloud-9-hookah-lounge/4d969599744f37042efcbe57","categoryId":"4bf58dd8d48988d11e941735","category":"Cocktail Bar","checkinsCount":515,"usersCount":365,"tipCount":17,"visitsCount":734,"url":"http://www.cloud9dfw.com","tier":"","message":"","currency":"","rating":7.6},{"name":"The Quarter Bar","phone":"2147540106","twitter":"thequarterbar","address":"3301 McKinney Ave","lat":32.80453535,"lng":-96.799291,"neighborhood":"Uptown","city_fetched":"Dallas,US","state":"TX","country":"United States","canonicalUrl":"https://foursquare.com/v/the-quarter-bar/41d49680f964a520b01e1fe3","categoryId":"4bf58dd8d48988d116941735","category":"Bar","checkinsCount":10668,"usersCount":4680,"tipCount":58,"visitsCount":10858,"url":"http://breadwinnerscafe.com/the-quarter-bar/","tier":1,"message":"Cheap","currency":"$","rating":7.6},{"name":"Zero Degree Hookah Lounge","phone":"9726999376","twitter":"zerodegreetexas","address":"300 N Coit Rd Ste 131","lat":32.95421006400068,"lng":-96.76839543814854,"city_fetched":"Dallas,US","state":"TX","country":"United States","canonicalUrl":"https://foursquare.com/v/zero-degree-hookah-lounge/4f18eaeee4b0f066f637fabd","categoryId":"4bf58dd8d48988d121941735","category":"Lounge","checkinsCount":275,"usersCount":127,"tipCount":11,"visitsCount":285,"url":"http://zerodegreehookah.com","tier":"","message":"","currency":"","rating":7.6},{"name":"BBC (British Beverage Company)","phone":"2149228220","address":"2800 Routh St","lat":32.79843151075172,"lng":-96.8036839650628,"neighborhood":"Uptown","city_fetched":"Dallas,US","state":"TX","country":"United States","canonicalUrl":"https://foursquare.com/v/bbc-british-beverage-company/5090991be4b045f7566d36a3","categoryId":"4bf58dd8d48988d11b941735","category":"Pub","checkinsCount":5924,"usersCount":3710,"tipCount":58,"visitsCount":7584,"url":"http://bbcpub.com","tier":2,"message":"Moderate","currency":"$","rating":7.6},{"name":"Stan's Blue Note","phone":"2148271977","address":"2908 Greenville Ave","lat":32.82419421485967,"lng":-96.77002162522358,"neighborhood":"Lower Greenville","city_fetched":"Dallas,US","state":"TX","country":"United States","canonicalUrl":"https://foursquare.com/v/stans-blue-note/40e0b100f964a5205f091fe3","categoryId":"4bf58dd8d48988d11d941735","category":"Sports Bar","checkinsCount":6333,"usersCount":2104,"tipCount":28,"visitsCount":6631,"url":"http://stansongreenville.com","tier":1,"message":"Cheap","currency":"$","rating":7.6},{"name":"Marty's Live","phone":"2145992151","address":"4207 Maple Ave","lat":32.807443120450465,"lng":-96.81822965243234,"city_fetched":"Dallas,US","state":"TX","country":"United States","canonicalUrl":"https://foursquare.com/v/martys-live/53ea9c0f498ebc4dc415a82d","categoryId":"4bf58dd8d48988d116941735","category":"Bar","checkinsCount":274,"usersCount":105,"tipCount":2,"visitsCount":392,"tier":"","message":"","currency":"","rating":7.6},{"name":"303 Bar and Grill","phone":"2149423030","twitter":"303_grill","address":"303 W Davis St","lat":32.749522,"lng":-96.826815,"neighborhood":"Kidd Springs","city_fetched":"Dallas,US","state":"TX","country":"United States","canonicalUrl":"https://foursquare.com/v/303-bar-and-grill/4f079a6be4b09a8a3e2213f0","categoryId":"4bf58dd8d48988d116941735","category":"Bar","checkinsCount":2138,"usersCount":1255,"tipCount":39,"visitsCount":2391,"url":"http://303grilldallas.com","tier":1,"message":"Cheap","currency":"$","rating":7.6},{"name":"Rattlesnake Bar","phone":"2149224848","address":"2121 McKinney Ave","lat":32.792218546574304,"lng":-96.80329159052373,"neighborhood":"Uptown","city_fetched":"Dallas,US","state":"TX","country":"United States","canonicalUrl":"https://foursquare.com/v/rattlesnake-bar/4b032e3ff964a5204a4d22e3","categoryId":"4bf58dd8d48988d1d5941735","category":"Hotel Bar","checkinsCount":965,"usersCount":469,"tipCount":6,"visitsCount":973,"tier":"","message":"","currency":"","rating":7.6},{"name":"Tower Club Dallas","phone":"2142200403","address":"1601 Elm St","lat":32.78215536995457,"lng":-96.79825371198277,"neighborhood":"City Center District","city_fetched":"Dallas,US","state":"TX","country":"United States","canonicalUrl":"https://foursquare.com/v/tower-club-dallas/4b772493f964a520bf812ee3","categoryId":"4bf58dd8d48988d121941735","category":"Lounge","checkinsCount":2431,"usersCount":1028,"tipCount":10,"visitsCount":2453,"tier":"","message":"","currency":"","rating":7.6},{"name":"The LOT","phone":"2143211990","twitter":"thelotdallas","address":"7530 E Grand Ave","lat":32.810283767252635,"lng":-96.72930604214557,"city_fetched":"Dallas,US","state":"TX","country":"United States","canonicalUrl":"https://foursquare.com/v/the-lot/5126e56ee4b0ff643e3b4238","categoryId":"4bf58dd8d48988d117941735","category":"Beer Garden","checkinsCount":2144,"usersCount":1707,"tipCount":36,"visitsCount":3154,"url":"http://thelotdallas.com","tier":2,"message":"Moderate","currency":"$","rating":7.6},{"name":"The Men's Club","phone":"2149568800","twitter":"mensclub_dallas","address":"2340 W Northwest Hwy","lat":32.8595656215977,"lng":-96.88764891775098,"city_fetched":"Dallas,US","state":"TX","country":"United States","canonicalUrl":"https://foursquare.com/v/the-mens-club/4b652678f964a52076e62ae3","categoryId":"4bf58dd8d48988d1d6941735","category":"Strip Club","checkinsCount":596,"usersCount":562,"tipCount":5,"visitsCount":903,"url":"http://www.mensclub.com","tier":"","message":"","currency":"","rating":7.6},{"name":"Humperdinks Restaurant & Brew Pub","phone":"2143681203","twitter":"humperdinks","address":"6050 Greenville Ave","lat":32.85855478973181,"lng":-96.76825948866627,"city_fetched":"Dallas,US","state":"TX","country":"United States","canonicalUrl":"https://foursquare.com/humperdinks","categoryId":"4bf58dd8d48988d11d941735","category":"Sports Bar","checkinsCount":4997,"usersCount":2148,"tipCount":41,"visitsCount":5304,"url":"http://www.humperdinks.com","tier":2,"message":"Moderate","currency":"$","rating":7.5},{"name":"Tradewinds Social Club","phone":"2143379075","twitter":"tradewindssc","address":"2843 W Davis St","lat":32.74972414187324,"lng":-96.86826440982186,"neighborhood":"Southwest Dallas","city_fetched":"Dallas,US","state":"TX","country":"United States","canonicalUrl":"https://foursquare.com/v/tradewinds-social-club/4b41339ef964a5201fc325e3","categoryId":"4bf58dd8d48988d118941735","category":"Dive Bar","checkinsCount":846,"usersCount":359,"tipCount":14,"visitsCount":942,"url":"http://www.tradewindsoakcliff.com","tier":"","message":"","currency":"","rating":7.5},{"name":"Rumors","phone":"9727805544","address":"4222 Independence Dr","lat":32.661262250794564,"lng":-96.8886808939987,"neighborhood":"Redbird","city_fetched":"Dallas,US","state":"TX","country":"United States","canonicalUrl":"https://foursquare.com/v/rumors/4db39083cda1c57c824a3071","categoryId":"4bf58dd8d48988d11f941735","category":"Nightclub","checkinsCount":218,"usersCount":57,"tipCount":3,"visitsCount":235,"url":"http://rumorsbarngrill.com","tier":"","message":"","currency":"","rating":7.5},{"name":"Club ICON","address":"10333 Technology Blvd E","lat":32.863125318716996,"lng":-96.8977284076332,"city_fetched":"Dallas,US","state":"TX","country":"United States","canonicalUrl":"https://foursquare.com/v/club-icon/4cde0a89c4f6a35dcc8ac76c","categoryId":"4bf58dd8d48988d11f941735","category":"Nightclub","checkinsCount":385,"usersCount":239,"tipCount":5,"visitsCount":451,"tier":"","message":"","currency":"","rating":7.5},{"name":"Wits End","address":"2727 Elm Street","lat":32.78455230223846,"lng":-96.78368634565926,"neighborhood":"Deep Ellum","city_fetched":"Dallas,US","state":"TX","country":"United States","canonicalUrl":"https://foursquare.com/v/wits-end/50b9601ee4b054161ba52d3b","categoryId":"4bf58dd8d48988d118941735","category":"Dive Bar","checkinsCount":1954,"usersCount":770,"tipCount":16,"visitsCount":2042,"tier":2,"message":"Moderate","currency":"$","rating":7.5},{"name":"The Social House","phone":"9723924300","address":"5100 Belt Line Rd, Ste 410","lat":32.951435866666664,"lng":-96.81982755661011,"neighborhood":"Village on The Parkway","city_fetched":"Dallas,US","state":"TX","country":"United States","canonicalUrl":"https://foursquare.com/v/the-social-house/4e17c125183880768f3a64ed","categoryId":"4bf58dd8d48988d11b941735","category":"Pub","checkinsCount":7509,"usersCount":4056,"tipCount":62,"visitsCount":8616,"url":"http://www.socialhouseaddison.com","tier":2,"message":"Moderate","currency":"$","rating":7.5},{"name":"Bowen House","phone":"2144841385","address":"2614 Boll St","lat":32.797898971581624,"lng":-96.80193185806274,"neighborhood":"Uptown","city_fetched":"Dallas,US","state":"TX","country":"United States","canonicalUrl":"https://foursquare.com/v/bowen-house/533060dd498eac97fb4de249","categoryId":"4bf58dd8d48988d11e941735","category":"Cocktail Bar","checkinsCount":896,"usersCount":695,"tipCount":13,"visitsCount":1132,"url":"http://bowenhousedallas.com","tier":3,"message":"Expensive","currency":"$","rating":7.5},{"name":"Havana Bar & Grill","phone":"2145249494","address":"4006 Cedar Springs Rd","lat":32.811218319498195,"lng":-96.81122839450836,"city_fetched":"Dallas,US","state":"TX","country":"United States","canonicalUrl":"https://foursquare.com/v/havana-bar--grill/4bef787b2ff520a168a8e8a2","categoryId":"4bf58dd8d48988d1d8941735","category":"Gay Bar","checkinsCount":2306,"usersCount":825,"tipCount":16,"visitsCount":2381,"tier":"","message":"","currency":"","rating":7.5},{"name":"Lakewood's 1st & 10","phone":"2148260110","address":"6465 E Mockingbird Ln Ste 316","lat":32.83783613,"lng":-96.752071,"neighborhood":"Hillside","city_fetched":"Dallas,US","state":"TX","country":"United States","canonicalUrl":"https://foursquare.com/v/lakewoods-1st--10/4aca9472f964a5206bc220e3","categoryId":"4bf58dd8d48988d11d941735","category":"Sports Bar","checkinsCount":1877,"usersCount":828,"tipCount":14,"visitsCount":2086,"url":"http://www.1stand10dallas.com","tier":1,"message":"Cheap","currency":"$","rating":7.4},{"name":"Cosmo's","phone":"2148264200","twitter":"foodio54","address":"1212 Skillman St","lat":32.811590276700265,"lng":-96.7615082859993,"neighborhood":"Old East Dallas","city_fetched":"Dallas,US","state":"TX","country":"United States","canonicalUrl":"https://foursquare.com/v/cosmos/414f6f00f964a520fd1c1fe3","categoryId":"4bf58dd8d48988d118941735","category":"Dive Bar","checkinsCount":4595,"usersCount":1327,"tipCount":39,"visitsCount":4901,"url":"http://cosmosbar.com","tier":1,"message":"Cheap","currency":"$","rating":7.4},{"name":"Time Out Tavern","phone":"2149569552","address":"5101 W Lovers Ln","lat":32.851426,"lng":-96.823897,"neighborhood":"Inwood-Northwest","city_fetched":"Dallas,US","state":"TX","country":"United States","canonicalUrl":"https://foursquare.com/v/time-out-tavern/40e0b100f964a52071091fe3","categoryId":"4bf58dd8d48988d118941735","category":"Dive Bar","checkinsCount":1139,"usersCount":563,"tipCount":6,"visitsCount":1212,"url":"http://totdfw.com","tier":1,"message":"Cheap","currency":"$","rating":7.4},{"name":"Christie's Sports Bar","phone":"2149541511","twitter":"christiessports","address":"2811 McKinney Ave","lat":32.7995099738625,"lng":-96.8009760159114,"neighborhood":"Uptown","city_fetched":"Dallas,US","state":"TX","country":"United States","canonicalUrl":"https://foursquare.com/v/christies-sports-bar/40e0b100f964a5201a081fe3","categoryId":"4bf58dd8d48988d11d941735","category":"Sports Bar","checkinsCount":5150,"usersCount":2850,"tipCount":34,"visitsCount":5370,"url":"http://www.christiesportsbar.com","tier":2,"message":"Moderate","currency":"$","rating":7.4},{"name":"Urban Vines","address":"9219 Garland Rd","lat":32.83025,"lng":-96.7067,"city_fetched":"Dallas,US","state":"TX","country":"United States","canonicalUrl":"https://foursquare.com/v/urban-vines/51a3ed67498ed4466022e267","categoryId":"4bf58dd8d48988d123941735","category":"Wine Bar","checkinsCount":452,"usersCount":329,"tipCount":11,"visitsCount":769,"url":"http://urbanvinesdallas.com","tier":2,"message":"Moderate","currency":"$","rating":7.4},{"name":"Scooters Bar & Grill","phone":"9728641063","address":"1401 Northwest Hwy","lat":32.8649866105978,"lng":-96.64867735478043,"city_fetched":"Dallas,US","state":"TX","country":"United States","canonicalUrl":"https://foursquare.com/v/scooters-bar--grill/4c563a04b7a31b8d3db64dda","categoryId":"4bf58dd8d48988d116941735","category":"Bar","checkinsCount":531,"usersCount":251,"tipCount":13,"visitsCount":745,"url":"http://www.scootersgarland.com","tier":"","message":"","currency":"","rating":7.4},{"name":"The Living Room","phone":"2143974100","twitter":"wdallas","address":"2440 Victory Park Ln","lat":32.78868157216206,"lng":-96.80903434753418,"neighborhood":"Victory Park","city_fetched":"Dallas,US","state":"TX","country":"United States","canonicalUrl":"https://foursquare.com/v/the-living-room/4bda010baae4ef3b4bca6ec6","categoryId":"4bf58dd8d48988d1d5941735","category":"Hotel Bar","checkinsCount":1417,"usersCount":815,"tipCount":7,"visitsCount":1422,"url":"http://www.wdallasvictory.com/livingroom","tier":"","message":"","currency":"","rating":7.4},{"name":"Three Sheets","phone":"2148233113","address":"3113 Ross Ave","lat":32.79395231457434,"lng":-96.7912703833677,"city_fetched":"Dallas,US","state":"TX","country":"United States","canonicalUrl":"https://foursquare.com/v/three-sheets/4c5315d772cf0f4739374cd2","categoryId":"4bf58dd8d48988d11d941735","category":"Sports Bar","checkinsCount":6766,"usersCount":3058,"tipCount":33,"visitsCount":7617,"url":"http://www.threesheetsdallas.com","tier":2,"message":"Moderate","currency":"$","rating":7.4},{"name":"Fire Place Lounge","phone":"2148230755","address":"3122 Samuell Blvd","lat":32.79274373354394,"lng":-96.74088717087109,"city_fetched":"Dallas,US","state":"TX","country":"United States","canonicalUrl":"https://foursquare.com/v/fire-place-lounge/4e5bc0afb99373257a084dc2","categoryId":"4bf58dd8d48988d118941735","category":"Dive Bar","checkinsCount":409,"usersCount":87,"tipCount":4,"visitsCount":490,"tier":"","message":"","currency":"","rating":7.4},{"name":"Louie Louies Dueling Piano Bar","phone":"2147413600","address":"2605 Elm St","lat":32.784188424460055,"lng":-96.7864740302868,"neighborhood":"Deep Ellum","city_fetched":"Dallas,US","state":"TX","country":"United States","canonicalUrl":"https://foursquare.com/v/louie-louies-dueling-piano-bar/56849df2498ecdfad635bfdf","categoryId":"4bf58dd8d48988d116941735","category":"Bar","checkinsCount":112,"usersCount":98,"tipCount":3,"visitsCount":122,"url":"http://louielouiespianobar.com","tier":"","message":"","currency":"","rating":7.4},{"name":"O'Riley's","address":"8989 Forest Ln","lat":32.90998309887484,"lng":-96.74988801892002,"neighborhood":"Lake Highlands","city_fetched":"Dallas,US","state":"TX","country":"United States","canonicalUrl":"https://foursquare.com/v/orileys/40e0b100f964a520f5081fe3","categoryId":"4bf58dd8d48988d116941735","category":"Bar","checkinsCount":615,"usersCount":354,"tipCount":10,"visitsCount":637,"url":"http://orileys.com","tier":"","message":"","currency":"","rating":7.4},{"name":"Zubar","phone":"2148870071","twitter":"zubardallas","address":"2012 Greenville Ave","lat":32.81440132108836,"lng":-96.77032470703125,"neighborhood":"Lowest Greenville West","city_fetched":"Dallas,US","state":"TX","country":"United States","canonicalUrl":"https://foursquare.com/v/zubar/40e0b100f964a52089091fe3","categoryId":"4bf58dd8d48988d116941735","category":"Bar","checkinsCount":3347,"usersCount":836,"tipCount":13,"visitsCount":3347,"url":"http://thezubar.com","tier":"","message":"","currency":"","rating":7.4},{"name":"Dallas Goat Ranch","lat":32.78454078880076,"lng":-96.7667849779938,"city_fetched":"Dallas,US","state":"TX","country":"United States","canonicalUrl":"https://foursquare.com/v/dallas-goat-ranch/56d20a39cd105fe2c631c20e","categoryId":"4bf58dd8d48988d118941735","category":"Dive Bar","checkinsCount":79,"usersCount":94,"tipCount":0,"visitsCount":122,"tier":"","message":"","currency":"","rating":7.4},{"name":"Jasmine Hookah Bar & Grill","phone":"9724374522","address":"115 E Main St","lat":32.94915477624437,"lng":-96.73118591308594,"city_fetched":"Dallas,US","state":"TX","country":"United States","canonicalUrl":"https://foursquare.com/v/jasmine-hookah-bar--grill/4ba2f5c9f964a520012538e3","categoryId":"4bf58dd8d48988d119941735","category":"Hookah Bar","checkinsCount":1207,"usersCount":635,"tipCount":15,"visitsCount":1390,"tier":2,"message":"Moderate","currency":"$","rating":7.4},{"name":"Randy's Club Cherries","phone":"2145208251","address":"2506 Knight St","lat":32.807573097974355,"lng":-96.81719355701254,"city_fetched":"Dallas,US","state":"TX","country":"United States","canonicalUrl":"https://foursquare.com/v/randys-club-cherries/4e8fc995b63456ab952d4766","categoryId":"4bf58dd8d48988d1d8941735","category":"Gay Bar","checkinsCount":1374,"usersCount":357,"tipCount":10,"visitsCount":1401,"tier":"","message":"","currency":"","rating":7.4},{"name":"Cottage Lounge","address":"3006 W Northwest Hwy","lat":32.854883,"lng":-96.87046192,"city_fetched":"Dallas,US","state":"TX","country":"United States","canonicalUrl":"https://foursquare.com/v/cottage-lounge/4b80ab6ff964a5200a8530e3","categoryId":"4bf58dd8d48988d121941735","category":"Lounge","checkinsCount":125,"usersCount":106,"tipCount":1,"visitsCount":228,"tier":"","message":"","currency":"","rating":7.4},{"name":"Sambuca","phone":"2147440820","address":"2120 McKinney Ave","lat":32.7925202267052,"lng":-96.80283120741885,"neighborhood":"Uptown","city_fetched":"Dallas,US","state":"TX","country":"United States","canonicalUrl":"https://foursquare.com/v/sambuca/429ba900f964a52089241fe3","categoryId":"4bf58dd8d48988d11e941735","category":"Cocktail Bar","checkinsCount":4832,"usersCount":2688,"tipCount":41,"visitsCount":5090,"url":"http://sambucarestaurant.com","tier":2,"message":"Moderate","currency":"$","rating":7.4},{"name":"Maacs Grill","phone":"2144969464","address":"8150 N MacArthur Blvd","lat":32.91986353484838,"lng":-96.95734641176608,"neighborhood":"Valley Ranch","city_fetched":"Dallas,US","state":"TX","country":"United States","canonicalUrl":"https://foursquare.com/v/maacs-grill/4af61af6f964a520380122e3","categoryId":"4bf58dd8d48988d11d941735","category":"Sports Bar","checkinsCount":3261,"usersCount":566,"tipCount":19,"visitsCount":3459,"url":"http://www.maacsgrill.com","tier":1,"message":"Cheap","currency":"$","rating":7.4},{"name":"Brian's Wine","lat":32.826958,"lng":-96.78592512,"city_fetched":"Dallas,US","state":"TX","country":"United States","canonicalUrl":"https://foursquare.com/v/brians-wine/4c1191536e5dc9b69968b02d","categoryId":"4bf58dd8d48988d123941735","category":"Wine Bar","checkinsCount":498,"usersCount":179,"tipCount":8,"visitsCount":514,"tier":"","message":"","currency":"","rating":7.4},{"name":"Winetastic","phone":"2145598910","twitter":"winetastic","address":"4140 Lemmon Ave Ste 130","lat":32.815718,"lng":-96.809791,"city_fetched":"Dallas,US","state":"TX","country":"United States","canonicalUrl":"https://foursquare.com/v/winetastic/4b527701f964a520917e27e3","categoryId":"4bf58dd8d48988d123941735","category":"Wine Bar","checkinsCount":1547,"usersCount":257,"tipCount":8,"visitsCount":1576,"url":"http://www.dallaswinetastic.com","tier":2,"message":"Moderate","currency":"$","rating":7.3},{"name":"The Velvet Elvis","phone":"2143580097","address":"3720 Walnut Hill Ln","lat":32.879674570941944,"lng":-96.85557672039698,"city_fetched":"Dallas,US","state":"TX","country":"United States","canonicalUrl":"https://foursquare.com/v/the-velvet-elvis/4c5a2bf267ac0f470945064c","categoryId":"4bf58dd8d48988d121941735","category":"Lounge","checkinsCount":1269,"usersCount":440,"tipCount":12,"visitsCount":1528,"url":"http://velvetelvisdallas.com","tier":"","message":"","currency":"","rating":7.3},{"name":"Mantus","phone":"2147442222","address":"1520 Main St","lat":32.780870386192596,"lng":-96.79877758026123,"neighborhood":"Main Street District","city_fetched":"Dallas,US","state":"TX","country":"United States","canonicalUrl":"https://foursquare.com/v/mantus/4b6d171ef964a52066662ce3","categoryId":"4bf58dd8d48988d121941735","category":"Lounge","checkinsCount":1142,"usersCount":572,"tipCount":11,"visitsCount":1154,"tier":"","message":"","currency":"","rating":7.3},{"name":"Rocky's Bar & Grill","phone":"9726998500","twitter":"rockys_bar","address":"215 N Central Expy","lat":32.95224670579121,"lng":-96.73465212653508,"city_fetched":"Dallas,US","state":"TX","country":"United States","canonicalUrl":"https://foursquare.com/v/rockys-bar--grill/4b43ef28f964a52069ee25e3","categoryId":"4bf58dd8d48988d116941735","category":"Bar","checkinsCount":1403,"usersCount":428,"tipCount":13,"visitsCount":1591,"url":"http://rockysbarandgrill-hub.com","tier":"","message":"","currency":"","rating":7.3},{"name":"The Pavillion Club","phone":"2179412145","address":"325 Centre St","lat":32.74247,"lng":-96.827655,"neighborhood":"Southwest Dallas","city_fetched":"Dallas,US","state":"TX","country":"United States","canonicalUrl":"https://foursquare.com/v/the-pavillion-club/4acb729af964a520c8c320e3","categoryId":"4bf58dd8d48988d118941735","category":"Dive Bar","checkinsCount":1002,"usersCount":415,"tipCount":22,"visitsCount":1183,"tier":1,"message":"Cheap","currency":"$","rating":7.3},{"name":"The Eberhard","address":"2107 N Henderson Ave","lat":32.81282872265192,"lng":-96.77649017521777,"neighborhood":"Henderson","city_fetched":"Dallas,US","state":"TX","country":"United States","canonicalUrl":"https://foursquare.com/v/the-eberhard/55934949498eac3391693fc3","categoryId":"4bf58dd8d48988d11e941735","category":"Cocktail Bar","checkinsCount":458,"usersCount":774,"tipCount":6,"visitsCount":1094,"url":"http://theeberhard.com","tier":"","message":"","currency":"","rating":7.3},{"name":"Uptown Pub","phone":"2145225100","address":"3605 McKinney Ave","lat":32.807258223088674,"lng":-96.79758411683747,"neighborhood":"Uptown","city_fetched":"Dallas,US","state":"TX","country":"United States","canonicalUrl":"https://foursquare.com/v/uptown-pub/4b2c752ff964a52032c724e3","categoryId":"4bf58dd8d48988d11b941735","category":"Pub","checkinsCount":4176,"usersCount":2022,"tipCount":24,"visitsCount":4264,"url":"http://uptownpubdallas.com","tier":1,"message":"Cheap","currency":"$","rating":7.2},{"name":"Luxx Nightclub","twitter":"privadodallas","address":"723 N Pearl St","lat":32.78649193301668,"lng":-96.79642280412683,"neighborhood":"City Center District","city_fetched":"Dallas,US","state":"TX","country":"United States","canonicalUrl":"https://foursquare.com/v/luxx-nightclub/50b974f7e4b0046dd8627785","categoryId":"4bf58dd8d48988d11f941735","category":"Nightclub","checkinsCount":500,"usersCount":258,"tipCount":5,"visitsCount":567,"url":"http://luxxdallas.com","tier":"","message":"","currency":"","rating":7.2},{"name":"Clutch","address":"2520 Cedar Springs Rd","lat":32.798725704514666,"lng":-96.80525348691158,"neighborhood":"Uptown","city_fetched":"Dallas,US","state":"TX","country":"United States","canonicalUrl":"https://foursquare.com/v/clutch/55f36012498e9b20f5ebe8ab","categoryId":"4bf58dd8d48988d117941735","category":"Beer Garden","checkinsCount":612,"usersCount":498,"tipCount":1,"visitsCount":784,"tier":"","message":"","currency":"","rating":7.2},{"name":"The Goat","phone":"2143278119","address":"7248 Gaston Ave","lat":32.81243111966775,"lng":-96.73210322856903,"neighborhood":"Lakewood Hills","city_fetched":"Dallas,US","state":"TX","country":"United States","canonicalUrl":"https://foursquare.com/v/the-goat/4a88de21f964a520b30720e3","categoryId":"4bf58dd8d48988d118941735","category":"Dive Bar","checkinsCount":3293,"usersCount":1234,"tipCount":37,"visitsCount":3566,"url":"http://thegoatdallas.com","tier":1,"message":"Cheap","currency":"$","rating":7.2},{"name":"The Lion & Crown","phone":"9725035001","twitter":"thelioncrown","address":"5001 Addison Cir","lat":32.96165025259105,"lng":-96.82555675506592,"city_fetched":"Dallas,US","state":"TX","country":"United States","canonicalUrl":"https://foursquare.com/thelioncrown","categoryId":"4bf58dd8d48988d11b941735","category":"Pub","checkinsCount":3711,"usersCount":1423,"tipCount":37,"visitsCount":3991,"url":"http://www.lionandcrownpub.com","tier":2,"message":"Moderate","currency":"$","rating":7.2},{"name":"SISU Uptown","phone":"2148712888","twitter":"sisuuptown","address":"2508 Maple Ave","lat":32.7950619516337,"lng":-96.80326543230537,"neighborhood":"Uptown","city_fetched":"Dallas,US","state":"TX","country":"United States","canonicalUrl":"https://foursquare.com/v/sisu-uptown/5009a3e0e4b0cefa4ee4b6a7","categoryId":"4bf58dd8d48988d11f941735","category":"Nightclub","checkinsCount":2511,"usersCount":1548,"tipCount":29,"visitsCount":2868,"url":"http://www.sisuuptown.com","tier":2,"message":"Moderate","currency":"$","rating":7.2},{"name":"Staggering Irishman","phone":"9722481511","twitter":"staggeringtx","address":"18101 Preston Rd Ste 102","lat":32.99912074610483,"lng":-96.79835833684778,"neighborhood":"North Central Dallas","city_fetched":"Dallas,US","state":"TX","country":"United States","canonicalUrl":"https://foursquare.com/v/staggering-irishman/5088b3da5262292fa71c4e41","categoryId":"4bf58dd8d48988d11b941735","category":"Pub","checkinsCount":1631,"usersCount":760,"tipCount":17,"visitsCount":2044,"url":"http://www.staggeringirishman.com","tier":2,"message":"Moderate","currency":"$","rating":7.2},{"name":"Champps","phone":"9723730333","twitter":"champps","address":"855 West John W. Carpenter Frwy","lat":32.88906797,"lng":-96.95808346,"neighborhood":"Las Colinas","city_fetched":"Dallas,US","state":"TX","country":"United States","canonicalUrl":"https://foursquare.com/v/champps/4a7b8eaef964a52065eb1fe3","categoryId":"4bf58dd8d48988d11d941735","category":"Sports Bar","checkinsCount":9195,"usersCount":4718,"tipCount":63,"visitsCount":11312,"url":"http://t.co/9OBCSXZCsI","tier":2,"message":"Moderate","currency":"$","rating":7.2},{"name":"Bikini's Sports Bar & Grill","phone":"9722387060","twitter":"bikinissbg","address":"720 E Campbell Rd #400, Richardson, TX 75081","lat":32.97433052911928,"lng":-96.71561623158179,"city_fetched":"Dallas,US","state":"TX","country":"United States","canonicalUrl":"https://foursquare.com/v/bikinis-sports-bar--grill/4f14535de4b047204799297f","categoryId":"4bf58dd8d48988d11d941735","category":"Sports Bar","checkinsCount":1492,"usersCount":739,"tipCount":13,"visitsCount":1576,"url":"http://www.bikinissportsbarandgrill.com","tier":2,"message":"Moderate","currency":"$","rating":7.2},{"name":"Jack Daniel's Lounge","lat":32.790139,"lng":-96.809248,"neighborhood":"Victory Park","city_fetched":"Dallas,US","state":"TX","country":"United States","canonicalUrl":"https://foursquare.com/v/jack-daniels-lounge/514e36b8e4b073c93cbd7805","categoryId":"4bf58dd8d48988d11d941735","category":"Sports Bar","checkinsCount":144,"usersCount":106,"tipCount":1,"visitsCount":145,"tier":"","message":"","currency":"","rating":7.2},{"name":"Fox & Hound","phone":"9727320804","twitter":"the_foxandhound","address":"18918 Midway Road","lat":33.0095833,"lng":-96.84313399,"neighborhood":"North Central Dallas","city_fetched":"Dallas,US","state":"TX","country":"United States","canonicalUrl":"https://foursquare.com/v/fox--hound/412d2800f964a520ee0c1fe3","categoryId":"4bf58dd8d48988d11b941735","category":"Pub","checkinsCount":5545,"usersCount":2544,"tipCount":40,"visitsCount":6421,"url":"http://t.co/6Wlr3nrgdg","tier":2,"message":"Moderate","currency":"$","rating":7.2},{"name":"The Magic Time Machine","phone":"9729801903","address":"5003 Belt Line Rd.","lat":32.95452048540114,"lng":-96.82517051696777,"city_fetched":"Dallas,US","state":"TX","country":"United States","canonicalUrl":"https://foursquare.com/v/the-magic-time-machine/4c64bc3b3f69c9b61b9889d9","categoryId":"4bf58dd8d48988d120941735","category":"Karaoke Bar","checkinsCount":2820,"usersCount":2337,"tipCount":40,"visitsCount":2924,"url":"http://www.magictimemachine.com","tier":2,"message":"Moderate","currency":"$","rating":7.2},{"name":"One Nostalgia Place","phone":"2143488407","address":"6521 Abrams Rd","lat":32.863603,"lng":-96.744503,"city_fetched":"Dallas,US","state":"TX","country":"United States","canonicalUrl":"https://foursquare.com/v/one-nostalgia-place/4b5142f8f964a520164927e3","categoryId":"4bf58dd8d48988d116941735","category":"Bar","checkinsCount":661,"usersCount":436,"tipCount":5,"visitsCount":954,"tier":"","message":"","currency":"","rating":7.2},{"name":"Outer Marker","address":"16101 Addison Rd","lat":32.96880075436461,"lng":-96.83050183517835,"city_fetched":"Dallas,US","state":"TX","country":"United States","canonicalUrl":"https://foursquare.com/v/outer-marker/4b62246cf964a5202f382ae3","categoryId":"4bf58dd8d48988d120941735","category":"Karaoke Bar","checkinsCount":609,"usersCount":305,"tipCount":6,"visitsCount":611,"tier":"","message":"","currency":"","rating":7.2},{"name":"The Rodeo Bar and Grill","phone":"2147428200","address":"1321 Commerce St","lat":32.77996835749712,"lng":-96.7995285987854,"neighborhood":"Main Street District","city_fetched":"Dallas,US","state":"TX","country":"United States","canonicalUrl":"https://foursquare.com/v/the-rodeo-bar-and-grill/4abab339f964a520898220e3","categoryId":"4bf58dd8d48988d116941735","category":"Bar","checkinsCount":2176,"usersCount":928,"tipCount":20,"visitsCount":2181,"url":"http://www.hoteladolphus.com/dining/the-rodeo-bar-and-grill","tier":"","message":"","currency":"","rating":7.2},{"name":"PIRA","phone":"2142172401","twitter":"piralatinfire","address":"2500 Victory Ave","lat":32.789670959027205,"lng":-96.81028667595211,"neighborhood":"Victory Park","city_fetched":"Dallas,US","state":"TX","country":"United States","canonicalUrl":"https://foursquare.com/v/pira/4c813e3c51ada1cdf8f61010","categoryId":"4bf58dd8d48988d121941735","category":"Lounge","checkinsCount":794,"usersCount":448,"tipCount":5,"visitsCount":797,"tier":"","message":"","currency":"","rating":7.2},{"name":"The Whistling Pig Neighborhood Pub","phone":"2143243186","address":"8786 Ferguson Rd #133","lat":32.81249799451556,"lng":-96.69854983922113,"city_fetched":"Dallas,US","state":"TX","country":"United States","canonicalUrl":"https://foursquare.com/v/the-whistling-pig-neighborhood-pub/52d610b9498e6de1c1e61f6e","categoryId":"4bf58dd8d48988d116941735","category":"Bar","checkinsCount":372,"usersCount":306,"tipCount":2,"visitsCount":948,"url":"http://www.thewhistlingpigdallas.com","tier":"","message":"","currency":"","rating":7.2},{"name":"Casanova Hookah","lat":32.976603844071484,"lng":-96.7223301460386,"city_fetched":"Dallas,US","state":"TX","country":"United States","canonicalUrl":"https://foursquare.com/v/casanova-hookah/4fa34e27e4b017e93767cc3a","categoryId":"4bf58dd8d48988d119941735","category":"Hookah Bar","checkinsCount":274,"usersCount":146,"tipCount":3,"visitsCount":304,"tier":"","message":"","currency":"","rating":7.2},{"name":"Renfield's Corner","phone":"2143970300","address":"2603 Routh St","lat":32.79648880722884,"lng":-96.8021720281977,"neighborhood":"Uptown","city_fetched":"Dallas,US","state":"TX","country":"United States","canonicalUrl":"https://foursquare.com/v/renfields-corner/4b91a778f964a52041cd33e3","categoryId":"4bf58dd8d48988d11b941735","category":"Pub","checkinsCount":9869,"usersCount":4403,"tipCount":32,"visitsCount":10464,"url":"http://renfieldscorner.com","tier":2,"message":"Moderate","currency":"$","rating":7.2},{"name":"Pekers","phone":"2145283333","address":"2615 Oak Lawn Ave Ste 101","lat":32.80563882328958,"lng":-96.81278771937492,"city_fetched":"Dallas,US","state":"TX","country":"United States","canonicalUrl":"https://foursquare.com/v/pekers/4bb82bacb35776b057bdc801","categoryId":"4bf58dd8d48988d1d8941735","category":"Gay Bar","checkinsCount":1170,"usersCount":305,"tipCount":10,"visitsCount":1235,"url":"http://www.pekersbar.com","tier":"","message":"","currency":"","rating":7.2},{"name":"Nickel & Rye","phone":"2143892120","twitter":"nickelandrye","address":"2523 McKinney Ave","lat":32.79606187604278,"lng":-96.80193660866802,"neighborhood":"Uptown","city_fetched":"Dallas,US","state":"TX","country":"United States","canonicalUrl":"https://foursquare.com/v/nickel--rye/52587bc611d2c039ab2477e7","categoryId":"4bf58dd8d48988d116941735","category":"Bar","checkinsCount":1661,"usersCount":1129,"tipCount":19,"visitsCount":1978,"url":"http://nickelandrye.com","tier":2,"message":"Moderate","currency":"$","rating":7.1},{"name":"The Stoneleigh P","phone":"2148712346","address":"2926 Maple Ave","lat":32.797931641131186,"lng":-96.8072625301894,"neighborhood":"Uptown","city_fetched":"Dallas,US","state":"TX","country":"United States","canonicalUrl":"https://foursquare.com/v/the-stoneleigh-p/4aad7041f964a5204b6020e3","categoryId":"4bf58dd8d48988d116941735","category":"Bar","checkinsCount":2725,"usersCount":1745,"tipCount":30,"visitsCount":3001,"url":"http://stoneleighp.com","tier":2,"message":"Moderate","currency":"$","rating":7.1},{"name":"Silver City","phone":"2146898989","twitter":"silvercityclub","address":"7501 N Stemmons Fwy","lat":32.82016600492151,"lng":-96.87102953260185,"city_fetched":"Dallas,US","state":"TX","country":"United States","canonicalUrl":"https://foursquare.com/v/silver-city/412d2800f964a520ed0c1fe3","categoryId":"4bf58dd8d48988d1d6941735","category":"Strip Club","checkinsCount":2164,"usersCount":560,"tipCount":14,"visitsCount":2286,"url":"http://www.silvercityclub.com","tier":"","message":"","currency":"","rating":7.1},{"name":"Milo Butterfingers","phone":"2143689212","address":"5645 Smu Blvd","lat":32.842177,"lng":-96.77075102881132,"city_fetched":"Dallas,US","state":"TX","country":"United States","canonicalUrl":"https://foursquare.com/v/milo-butterfingers/40e0b100f964a520e5081fe3","categoryId":"4bf58dd8d48988d116941735","category":"Bar","checkinsCount":5623,"usersCount":2191,"tipCount":31,"visitsCount":6020,"url":"http://www.milobutterfingers.com","tier":2,"message":"Moderate","currency":"$","rating":7.1},{"name":"Coachs Corner","phone":"9722834448","address":"7427 S Westmoreland Rd","lat":32.65567808244191,"lng":-96.88669553283623,"neighborhood":"Southwest Dallas","city_fetched":"Dallas,US","state":"TX","country":"United States","canonicalUrl":"https://foursquare.com/v/coachs-corner/40e0b100f964a5202f081fe3","categoryId":"4bf58dd8d48988d11f941735","category":"Nightclub","checkinsCount":110,"usersCount":91,"tipCount":1,"visitsCount":135,"url":"http://www.coachescornerdallas.net","tier":"","message":"","currency":"","rating":7.1},{"name":"Kaliente","phone":"2145206676","address":"4350 Maple Ave","lat":32.8103631734848,"lng":-96.820628,"city_fetched":"Dallas,US","state":"TX","country":"United States","canonicalUrl":"https://foursquare.com/v/kaliente/4b7e231ff964a52016e42fe3","categoryId":"4bf58dd8d48988d1d8941735","category":"Gay Bar","checkinsCount":899,"usersCount":483,"tipCount":14,"visitsCount":1133,"url":"http://www.kaliente.cc","tier":"","message":"","currency":"","rating":7},{"name":"Real Time Sport And Entertainment","address":"2109 N Hampton Rd","lat":32.63086591593679,"lng":-96.85773392491298,"neighborhood":"Southwest Dallas","city_fetched":"Dallas,US","state":"TX","country":"United States","canonicalUrl":"https://foursquare.com/v/real-time-sport-and-entertainment/4da8a3b4f7b12d2d9a105e57","categoryId":"4bf58dd8d48988d11d941735","category":"Sports Bar","checkinsCount":229,"usersCount":128,"tipCount":4,"visitsCount":229,"tier":"","message":"","currency":"","rating":7},{"name":"Chopshop Sports Garage","phone":"9725254753","twitter":"chopshopsports","address":"2661 Midway Rd","lat":32.986905602185516,"lng":-96.84383900782399,"city_fetched":"Dallas,US","state":"TX","country":"United States","canonicalUrl":"https://foursquare.com/v/chopshop-sports-garage/54261756498e51a58d2cd97b","categoryId":"4bf58dd8d48988d11d941735","category":"Sports Bar","checkinsCount":179,"usersCount":102,"tipCount":4,"visitsCount":190,"url":"http://www.chopshopsportsgarage.com","tier":"","message":"","currency":"","rating":7},{"name":"W XYZ Bar","phone":"2147610000","address":"1033 Young St","lat":32.77707205934322,"lng":-96.80105771662757,"neighborhood":"Downtown Dallas","city_fetched":"Dallas,US","state":"TX","country":"United States","canonicalUrl":"https://foursquare.com/v/w-xyz-bar/4bef6a4cc80dc9283df727e3","categoryId":"4bf58dd8d48988d1d5941735","category":"Hotel Bar","checkinsCount":563,"usersCount":346,"tipCount":2,"visitsCount":567,"url":"http://www.aloftdallasdowntown.com/wxyz-bar","tier":"","message":"","currency":"","rating":7},{"name":"Bandera Club","phone":"9722793774","address":"10815 Ferguson Rd","lat":32.8429541519546,"lng":-96.6641278385509,"city_fetched":"Dallas,US","state":"TX","country":"United States","canonicalUrl":"https://foursquare.com/v/bandera-club/40e0b100f964a520ec071fe3","categoryId":"4bf58dd8d48988d120941735","category":"Karaoke Bar","checkinsCount":148,"usersCount":59,"tipCount":3,"visitsCount":160,"tier":"","message":"","currency":"","rating":7},{"name":"White Horse Saloon","phone":"2147395555","address":"9100 N Central Expy Ste 300","lat":32.87296440482817,"lng":-96.76775752381843,"city_fetched":"Dallas,US","state":"TX","country":"United States","canonicalUrl":"https://foursquare.com/v/white-horse-saloon/51ed789c498e5867a229bca7","categoryId":"4bf58dd8d48988d11f941735","category":"Nightclub","checkinsCount":598,"usersCount":133,"tipCount":14,"visitsCount":613,"url":"http://whitehorsesaloon.com","tier":1,"message":"Cheap","currency":"$","rating":7},{"name":"Dallas Beer Kitchen","phone":"2144842481","twitter":"followdbk","address":"1802 Greenville Ave","lat":32.81228447710257,"lng":-96.77002162522358,"neighborhood":"Lower Greenville","city_fetched":"Dallas,US","state":"TX","country":"United States","canonicalUrl":"https://foursquare.com/v/dallas-beer-kitchen/518bb9cb498e89eabce13dfa","categoryId":"4bf58dd8d48988d117941735","category":"Beer Garden","checkinsCount":1499,"usersCount":894,"tipCount":21,"visitsCount":1736,"url":"http://dallasbeerkitchengreenville.com","tier":2,"message":"Moderate","currency":"$","rating":7},{"name":"Fenjani","lat":32.86555615306621,"lng":-96.9761277891715,"neighborhood":"Las Colinas","city_fetched":"Dallas,US","state":"TX","country":"United States","canonicalUrl":"https://foursquare.com/v/fenjani/55e123ef498e2820e0c18f5c","categoryId":"4bf58dd8d48988d121941735","category":"Lounge","checkinsCount":108,"usersCount":213,"tipCount":1,"visitsCount":417,"tier":"","message":"","currency":"","rating":7},{"name":"Oak Cliff Social Club","phone":"2149410298","twitter":"oakcliffsocial","address":"238 W Davis St","lat":32.74932168818562,"lng":-96.82608462956014,"neighborhood":"Southwest Dallas","city_fetched":"Dallas,US","state":"TX","country":"United States","canonicalUrl":"https://foursquare.com/v/oak-cliff-social-club/4fc2b6d6e4b0264dfcceab20","categoryId":"4bf58dd8d48988d116941735","category":"Bar","checkinsCount":1451,"usersCount":541,"tipCount":11,"visitsCount":1546,"tier":"","message":"","currency":"","rating":7},{"name":"Winslow Wine Bar","address":"3908 Cedar Springs Rd","lat":32.810499,"lng":-96.81011,"city_fetched":"Dallas,US","state":"TX","country":"United States","canonicalUrl":"https://foursquare.com/v/winslow-wine-bar/5580c770498eaf4640658e96","categoryId":"4bf58dd8d48988d123941735","category":"Wine Bar","checkinsCount":122,"usersCount":76,"tipCount":1,"visitsCount":125,"tier":"","message":"","currency":"","rating":7},{"name":"Citizen","lat":32.798363,"lng":-96.806495,"neighborhood":"Uptown","city_fetched":"Dallas,US","state":"TX","country":"United States","canonicalUrl":"https://foursquare.com/v/citizen/563c2efecd10171369a1b04b","categoryId":"4bf58dd8d48988d121941735","category":"Lounge","checkinsCount":167,"usersCount":142,"tipCount":2,"visitsCount":215,"tier":"","message":"","currency":"","rating":7},{"name":"Press Box Grill","phone":"2147478226","twitter":"pressboxgrill","address":"1623 Main St","lat":32.78170228542848,"lng":-96.79721270375691,"neighborhood":"Main Street District","city_fetched":"Dallas,US","state":"TX","country":"United States","canonicalUrl":"https://foursquare.com/v/press-box-grill/4a35cbfff964a520629d1fe3","categoryId":"4bf58dd8d48988d11d941735","category":"Sports Bar","checkinsCount":4402,"usersCount":2292,"tipCount":43,"visitsCount":4652,"url":"http://www.pressboxgrill.com","tier":2,"message":"Moderate","currency":"$","rating":7},{"name":"Four Bullets Brewery","lat":32.959156610662845,"lng":-96.72622296888639,"city_fetched":"Dallas,US","state":"TX","country":"United States","canonicalUrl":"https://foursquare.com/v/four-bullets-brewery/55451fe9498e1e2d82edb1ea","categoryId":"50327c8591d4c4b30a586d5d","category":"Brewery","checkinsCount":125,"usersCount":113,"tipCount":3,"visitsCount":153,"tier":"","message":"","currency":"","rating":7},{"name":"Club Onyx","phone":"2145455600","address":"10557 Wireway Dr","lat":32.8687582028555,"lng":-96.90588114637141,"city_fetched":"Dallas,US","state":"TX","country":"United States","canonicalUrl":"https://foursquare.com/v/club-onyx/4bea36e061aca593c9908300","categoryId":"4bf58dd8d48988d1d6941735","category":"Strip Club","checkinsCount":1017,"usersCount":944,"tipCount":10,"visitsCount":1519,"url":"http://onyxclubs.com","tier":"","message":"","currency":"","rating":7},{"name":"Candleroom","phone":"2143704155","address":"5039 Willis Ave","lat":32.820459,"lng":-96.78539801,"city_fetched":"Dallas,US","state":"TX","country":"United States","canonicalUrl":"https://foursquare.com/v/candleroom/40e0b100f964a5200e081fe3","categoryId":"4bf58dd8d48988d121941735","category":"Lounge","checkinsCount":1631,"usersCount":1029,"tipCount":7,"visitsCount":1750,"url":"http://www.candleroomdallas.com","tier":"","message":"","currency":"","rating":7},{"name":"NAI Sports Grill","address":"15375 Addison Rd","lat":32.958646736402265,"lng":-96.83007266224924,"city_fetched":"Dallas,US","state":"TX","country":"United States","canonicalUrl":"https://foursquare.com/v/nai-sports-grill/4c10796b81e976b096490feb","categoryId":"4bf58dd8d48988d116941735","category":"Bar","checkinsCount":345,"usersCount":217,"tipCount":3,"visitsCount":492,"tier":"","message":"","currency":"","rating":6.9},{"name":"Logie's on Beltline","phone":"9725035603","address":"5290 Belt Line Rd Ste 150","lat":32.95202321249251,"lng":-96.81841280232877,"neighborhood":"Village on The Parkway","city_fetched":"Dallas,US","state":"TX","country":"United States","canonicalUrl":"https://foursquare.com/v/logies-on-beltline/4ad00473f964a5204fd720e3","categoryId":"4bf58dd8d48988d11d941735","category":"Sports Bar","checkinsCount":7157,"usersCount":1259,"tipCount":22,"visitsCount":7345,"tier":2,"message":"Moderate","currency":"$","rating":6.9},{"name":"McKinney Avenue Tavern","phone":"2149691984","twitter":"bigalmack","address":"2822 McKinney Ave","lat":32.79859,"lng":-96.80105,"neighborhood":"Uptown","city_fetched":"Dallas,US","state":"TX","country":"United States","canonicalUrl":"https://foursquare.com/v/mckinney-avenue-tavern/49e197f4f964a520de611fe3","categoryId":"4bf58dd8d48988d116941735","category":"Bar","checkinsCount":7564,"usersCount":3691,"tipCount":43,"visitsCount":7655,"url":"http://thematonline.com/#g2RDQV","tier":"","message":"","currency":"","rating":6.9},{"name":"Arcade Bar","phone":"2148275253","address":"1825 Abrams Rd","lat":32.812224,"lng":-96.753237,"neighborhood":"Old East Dallas","city_fetched":"Dallas,US","state":"TX","country":"United States","canonicalUrl":"https://foursquare.com/v/arcade-bar/4ab03c84f964a520996620e3","categoryId":"4bf58dd8d48988d116941735","category":"Bar","checkinsCount":1436,"usersCount":517,"tipCount":14,"visitsCount":1448,"tier":"","message":"","currency":"","rating":6.9},{"name":"Dallas Gentlemens Club","address":"2117 W Northwest Hwy","lat":32.866187964061574,"lng":-96.90445125102997,"city_fetched":"Dallas,US","state":"TX","country":"United States","canonicalUrl":"https://foursquare.com/v/dallas-gentlemens-club/4bb0ddf2f964a5209d643ce3","categoryId":"4bf58dd8d48988d1d6941735","category":"Strip Club","checkinsCount":770,"usersCount":523,"tipCount":7,"visitsCount":965,"tier":"","message":"","currency":"","rating":6.9},{"name":"Winstons Supperclub","address":"3111 Welborn St","lat":32.80864388901349,"lng":-96.80758691279132,"city_fetched":"Dallas,US","state":"TX","country":"United States","canonicalUrl":"https://foursquare.com/v/winstons-supperclub/4eb4b5328b81a81f903f54ef","categoryId":"4bf58dd8d48988d11f941735","category":"Nightclub","checkinsCount":2533,"usersCount":1054,"tipCount":6,"visitsCount":2767,"url":"http://winstonssupperclub.com","tier":2,"message":"Moderate","currency":"$","rating":6.9},{"name":"Kliff Klub","phone":"2143752602","address":"5250 Singing Hills Dr","lat":32.68172820776153,"lng":-96.80224527000313,"neighborhood":"Singing Hills","city_fetched":"Dallas,US","state":"TX","country":"United States","canonicalUrl":"https://foursquare.com/v/kliff-klub/4c58ef31b8b3c9b6c62c88b6","categoryId":"4bf58dd8d48988d11f941735","category":"Nightclub","checkinsCount":216,"usersCount":133,"tipCount":1,"visitsCount":265,"tier":"","message":"","currency":"","rating":6.9},{"name":"The Gin Mill","phone":"2148243343","twitter":"ginmilldallas","address":"1921 N Henderson Ave","lat":32.81179259885013,"lng":-96.77535015754351,"neighborhood":"Henderson","city_fetched":"Dallas,US","state":"TX","country":"United States","canonicalUrl":"https://foursquare.com/ginmilldallas","categoryId":"4bf58dd8d48988d11b941735","category":"Pub","checkinsCount":5997,"usersCount":3028,"tipCount":48,"visitsCount":6290,"url":"http://www.ginmilldallas.com","tier":1,"message":"Cheap","currency":"$","rating":6.9},{"name":"Union Park","phone":"2147416709","twitter":"unionparkdallas","address":"1311 Main St","lat":32.780440009014576,"lng":-96.80054503509476,"neighborhood":"Main Street District","city_fetched":"Dallas,US","state":"TX","country":"United States","canonicalUrl":"https://foursquare.com/v/union-park/5011ca03e4b0d8233d543144","categoryId":"4bf58dd8d48988d11d941735","category":"Sports Bar","checkinsCount":2440,"usersCount":1293,"tipCount":39,"visitsCount":2449,"url":"http://unionparkdallas.com","tier":2,"message":"Moderate","currency":"$","rating":6.9},{"name":"Star Karaoke","phone":"9728880966","address":"11311 N Stemmons Fwy","lat":32.894383937161486,"lng":-96.8994521347875,"city_fetched":"Dallas,US","state":"TX","country":"United States","canonicalUrl":"https://foursquare.com/v/star-karaoke/4b92120cf964a520e1e533e3","categoryId":"4bf58dd8d48988d120941735","category":"Karaoke Bar","checkinsCount":410,"usersCount":292,"tipCount":1,"visitsCount":453,"tier":"","message":"","currency":"","rating":6.9},{"name":"Absinthe Lounge","phone":"2149419338","address":"1409 S Lamar St Apt 8","lat":32.76723086389875,"lng":-96.79639141758503,"neighborhood":"Cedars","city_fetched":"Dallas,US","state":"TX","country":"United States","canonicalUrl":"https://foursquare.com/v/absinthe-lounge/4a57b770f964a520a7b61fe3","categoryId":"4bf58dd8d48988d121941735","category":"Lounge","checkinsCount":2171,"usersCount":927,"tipCount":15,"visitsCount":2202,"url":"http://www.absinthelounge.net","tier":"","message":"","currency":"","rating":6.9},{"name":"The Pour House","phone":"2148241170","address":"1919 Skillman St","lat":32.81327659,"lng":-96.76205813884735,"neighborhood":"Lower Greenville","city_fetched":"Dallas,US","state":"TX","country":"United States","canonicalUrl":"https://foursquare.com/v/the-pour-house/4bd24341462cb713100fdc07","categoryId":"4bf58dd8d48988d116941735","category":"Bar","checkinsCount":2860,"usersCount":606,"tipCount":8,"visitsCount":3096,"url":"http://pourhousedallas.com","tier":1,"message":"Cheap","currency":"$","rating":6.9},{"name":"Panoptikon","phone":"2148264769","address":"2911 Main St","lat":32.80740815379881,"lng":-96.8181354612578,"city_fetched":"Dallas,US","state":"TX","country":"United States","canonicalUrl":"https://foursquare.com/v/panoptikon/4b67bdeef964a520795c2be3","categoryId":"4bf58dd8d48988d11f941735","category":"Nightclub","checkinsCount":1038,"usersCount":280,"tipCount":12,"visitsCount":1101,"url":"http://www.panoptikondallas.com","tier":"","message":"","currency":"","rating":6.9},{"name":"Pokes Bar & Grill","phone":"9723857653","address":"14831 Midway Rd Ste 101","lat":32.94996566629239,"lng":-96.83942089791644,"city_fetched":"Dallas,US","state":"TX","country":"United States","canonicalUrl":"https://foursquare.com/v/pokes-bar--grill/4e5ed69d45dd21543f5acae1","categoryId":"4bf58dd8d48988d116941735","category":"Bar","checkinsCount":656,"usersCount":265,"tipCount":9,"visitsCount":656,"url":"http://www.pokesplace.com","tier":"","message":"","currency":"","rating":6.9},{"name":"Bar & Book at Lone Star Park","phone":"9722637223","twitter":"barbooklsp","address":"1000 Lone Star Pkwy","lat":32.772995044625105,"lng":-96.99025537200994,"neighborhood":"Lone Star Park","city_fetched":"Dallas,US","state":"TX","country":"United States","canonicalUrl":"https://foursquare.com/v/bar--book-at-lone-star-park/4f0fa645e4b0d59e1e3f1302","categoryId":"4bf58dd8d48988d11d941735","category":"Sports Bar","checkinsCount":395,"usersCount":289,"tipCount":2,"visitsCount":496,"url":"http://www.lonestarpark.com","tier":"","message":"","currency":"","rating":6.8},{"name":"Eddie's Sports Bar & Grill","lat":32.871890769686175,"lng":-96.629421658802,"city_fetched":"Dallas,US","state":"TX","country":"United States","canonicalUrl":"https://foursquare.com/v/eddies-sports-bar--grill/4bd3b094462cb7135321df07","categoryId":"4bf58dd8d48988d11d941735","category":"Sports Bar","checkinsCount":477,"usersCount":213,"tipCount":8,"visitsCount":517,"tier":"","message":"","currency":"","rating":6.8},{"name":"The Londoner","phone":"2148238580","twitter":"thelondonerpubs","address":"2817 Greenville Ave","lat":32.82327269900562,"lng":-96.77024647102121,"neighborhood":"Vickery Place","city_fetched":"Dallas,US","state":"TX","country":"United States","canonicalUrl":"https://foursquare.com/v/the-londoner/50beaff2e4b07113cddafbdd","categoryId":"4bf58dd8d48988d11b941735","category":"Pub","checkinsCount":1772,"usersCount":952,"tipCount":6,"visitsCount":1801,"tier":1,"message":"Cheap","currency":"$","rating":6.8},{"name":"Cabaret Royale","phone":"2143500303","twitter":"cabaretroyale","address":"10723 Composite Dr","lat":32.87579086426955,"lng":-96.89532364827342,"city_fetched":"Dallas,US","state":"TX","country":"United States","canonicalUrl":"https://foursquare.com/v/cabaret-royale/40e0b100f964a52007081fe3","categoryId":"4bf58dd8d48988d1d6941735","category":"Strip Club","checkinsCount":431,"usersCount":313,"tipCount":4,"visitsCount":581,"url":"http://www.cabaretroyaledallas.com","tier":"","message":"","currency":"","rating":6.8},{"name":"La Bare","phone":"2146968958","address":"2102 W Northwest Hwy","lat":32.86615857939692,"lng":-96.90542527880906,"city_fetched":"Dallas,US","state":"TX","country":"United States","canonicalUrl":"https://foursquare.com/v/la-bare/4c7a0b7293ef236acfb6b10f","categoryId":"4bf58dd8d48988d1d6941735","category":"Strip Club","checkinsCount":483,"usersCount":412,"tipCount":4,"visitsCount":522,"url":"http://labaredallas.com","tier":"","message":"","currency":"","rating":6.8},{"name":"Dallas Dreamz","address":"7035 Greenville Ave","lat":32.874450985882454,"lng":-96.76334458361707,"city_fetched":"Dallas,US","state":"TX","country":"United States","canonicalUrl":"https://foursquare.com/v/dallas-dreamz/40e0b100f964a52046081fe3","categoryId":"4bf58dd8d48988d11f941735","category":"Nightclub","checkinsCount":158,"usersCount":100,"tipCount":1,"visitsCount":165,"tier":"","message":"","currency":"","rating":6.8},{"name":"Corner Bar & Grill","phone":"2142198002","address":"4830 McKinney Ave","lat":32.826751470565796,"lng":-96.785373,"city_fetched":"Dallas,US","state":"TX","country":"United States","canonicalUrl":"https://foursquare.com/v/corner-bar--grill/4aa40ebef964a5200b4520e3","categoryId":"4bf58dd8d48988d116941735","category":"Bar","checkinsCount":5093,"usersCount":1842,"tipCount":27,"visitsCount":5373,"url":"http://cornerbardallas.com","tier":2,"message":"Moderate","currency":"$","rating":6.8},{"name":"The Green Elephant","phone":"2142651338","twitter":"greenelephanttx","address":"5627 Dyer St","lat":32.84328883328229,"lng":-96.77155584096909,"city_fetched":"Dallas,US","state":"TX","country":"United States","canonicalUrl":"https://foursquare.com/v/the-green-elephant/41536380f964a520181d1fe3","categoryId":"4bf58dd8d48988d116941735","category":"Bar","checkinsCount":2373,"usersCount":1148,"tipCount":19,"visitsCount":2678,"url":"http://www.myspace.com/thegreenelephant","tier":"","message":"","currency":"","rating":6.7},{"name":"Chase Place","phone":"9722341947","address":"1724 E Belt Line Rd","lat":32.94432858758636,"lng":-96.69354622615462,"city_fetched":"Dallas,US","state":"TX","country":"United States","canonicalUrl":"https://foursquare.com/v/chase-place/4bfdecd68992a59330ebacb0","categoryId":"4bf58dd8d48988d116941735","category":"Bar","checkinsCount":891,"usersCount":278,"tipCount":11,"visitsCount":966,"url":"http://chaseplace.net","tier":2,"message":"Moderate","currency":"$","rating":6.7},{"name":"Htel St. Germain Restaurant","phone":"2148712516","address":"2516 Maple Ave","lat":32.79542786429793,"lng":-96.80387377738953,"neighborhood":"Uptown","city_fetched":"Dallas,US","state":"TX","country":"United States","canonicalUrl":"https://foursquare.com/v/h%C3%B4tel-st-germain-restaurant/4bc441d1dce4eee1ad0c729d","categoryId":"4bf58dd8d48988d1d5941735","category":"Hotel Bar","checkinsCount":100,"usersCount":68,"tipCount":7,"visitsCount":102,"url":"http://www.hotelstgermain.com","tier":"","message":"","currency":"","rating":6.7},{"name":"Lonestar Grill & Sports Cafe","phone":"9726800400","address":"1144 N Plano Rd., Suite 123","lat":32.962131851223845,"lng":-96.69864535331726,"neighborhood":"Yale Park","city_fetched":"Dallas,US","state":"TX","country":"United States","canonicalUrl":"https://foursquare.com/v/lonestar-grill--sports-cafe/4bb3daa114cfd13a58a516ab","categoryId":"4bf58dd8d48988d11d941735","category":"Sports Bar","checkinsCount":1044,"usersCount":326,"tipCount":8,"visitsCount":1083,"url":"http://www.lonestargrillandcafe.com","tier":"","message":"","currency":"","rating":6.7},{"name":"Boiler Room","phone":"2147580104","twitter":"boilerroomelm","address":"2723 Elm St","lat":32.78476480777999,"lng":-96.78384324780411,"neighborhood":"Deep Ellum","city_fetched":"Dallas,US","state":"TX","country":"United States","canonicalUrl":"https://foursquare.com/v/boiler-room/4c35064c452620a10e22260f","categoryId":"4bf58dd8d48988d116941735","category":"Bar","checkinsCount":2542,"usersCount":932,"tipCount":22,"visitsCount":2549,"tier":"","message":"","currency":"","rating":6.7},{"name":"So&So's","phone":"2143936473","twitter":"soandsosdallas","address":"3309 McKinney Ave","lat":32.80477421782661,"lng":-96.79906455909483,"neighborhood":"Uptown","city_fetched":"Dallas,US","state":"TX","country":"United States","canonicalUrl":"https://foursquare.com/v/sosos/5351d1f6498e69dfa9fefe81","categoryId":"4bf58dd8d48988d116941735","category":"Bar","checkinsCount":1542,"usersCount":1136,"tipCount":20,"visitsCount":1914,"tier":"","message":"","currency":"","rating":6.7},{"name":"Vetted Well","lat":32.769968503400676,"lng":-96.7993104308643,"neighborhood":"Cedars","city_fetched":"Dallas,US","state":"TX","country":"United States","canonicalUrl":"https://foursquare.com/v/vetted-well/56ce6e91cd10556c381f2529","categoryId":"4bf58dd8d48988d116941735","category":"Bar","checkinsCount":242,"usersCount":149,"tipCount":1,"visitsCount":245,"tier":"","message":"","currency":"","rating":6.7},{"name":"A Step Up Lounge","phone":"2143515881","address":"3720 Walnut Hill Ln Ste 115","lat":32.879776566228585,"lng":-96.85558195624395,"city_fetched":"Dallas,US","state":"TX","country":"United States","canonicalUrl":"https://foursquare.com/v/a-step-up-lounge/40e0b100f964a520d6071fe3","categoryId":"4bf58dd8d48988d116941735","category":"Bar","checkinsCount":391,"usersCount":164,"tipCount":5,"visitsCount":396,"tier":"","message":"","currency":"","rating":6.7},{"name":"6th Street Uptown","lat":32.799454,"lng":-96.805538,"neighborhood":"Uptown","city_fetched":"Dallas,US","state":"TX","country":"United States","canonicalUrl":"https://foursquare.com/v/6th-street-uptown/50480e62e4b08065925c05f1","categoryId":"4bf58dd8d48988d116941735","category":"Bar","checkinsCount":3751,"usersCount":2018,"tipCount":12,"visitsCount":4070,"tier":2,"message":"Moderate","currency":"$","rating":6.7},{"name":"Family Karaoke","phone":"4695220365","twitter":"familykaraoke","address":"11433 Goodnight Ln","lat":32.896834565600976,"lng":-96.90231288845733,"city_fetched":"Dallas,US","state":"TX","country":"United States","canonicalUrl":"https://foursquare.com/v/family-karaoke/4af6441df964a520bd0222e3","categoryId":"4bf58dd8d48988d120941735","category":"Karaoke Bar","checkinsCount":2164,"usersCount":1588,"tipCount":13,"visitsCount":2436,"url":"http://www.familydfw.com","tier":"","message":"","currency":"","rating":6.7},{"name":"Henderson Taphouse","lat":32.81425117732054,"lng":-96.77811656540594,"neighborhood":"Henderson","city_fetched":"Dallas,US","state":"TX","country":"United States","canonicalUrl":"https://foursquare.com/v/henderson-taphouse/5337a0bd498ef7b2173ff3bf","categoryId":"4bf58dd8d48988d116941735","category":"Bar","checkinsCount":1561,"usersCount":1136,"tipCount":19,"visitsCount":1904,"tier":2,"message":"Moderate","currency":"$","rating":6.7},{"name":"M Bar","phone":"9725560800","twitter":"omnihotels","address":"221 Las Colinas Blvd E","lat":32.86790892003781,"lng":-96.93789935621197,"neighborhood":"Las Colinas","city_fetched":"Dallas,US","state":"TX","country":"United States","canonicalUrl":"https://foursquare.com/v/m-bar/4b6ba8e8f964a5209e142ce3","categoryId":"4bf58dd8d48988d11d941735","category":"Sports Bar","checkinsCount":324,"usersCount":204,"tipCount":4,"visitsCount":324,"url":"http://omnihotels.com","tier":"","message":"","currency":"","rating":6.7},{"name":"OT Tavern","phone":"2148267500","twitter":"ottaverndallas","address":"3606A Greenville Ave","lat":32.831593016666666,"lng":-96.76991,"neighborhood":"Lower Greenville","city_fetched":"Dallas,US","state":"TX","country":"United States","canonicalUrl":"https://foursquare.com/ottaverndallas","categoryId":"4bf58dd8d48988d116941735","category":"Bar","checkinsCount":1969,"usersCount":927,"tipCount":11,"visitsCount":2041,"url":"http://www.ottaverndallas.com","tier":"","message":"","currency":"","rating":6.7},{"name":"Addison Point","phone":"9726612230","address":"4578 Belt Line Rd","lat":32.95362022137103,"lng":-96.83263778686523,"city_fetched":"Dallas,US","state":"TX","country":"United States","canonicalUrl":"https://foursquare.com/v/addison-point/4b42aea3f964a520b1d825e3","categoryId":"4bf58dd8d48988d118941735","category":"Dive Bar","checkinsCount":2154,"usersCount":1152,"tipCount":23,"visitsCount":2565,"url":"http://www.theaddisonpoint.com","tier":2,"message":"Moderate","currency":"$","rating":6.7},{"name":"Ziggy's Tavern","phone":"2147726908","address":"1403 E Campbell Rd Ste 101","lat":32.975081487936365,"lng":-96.69829912701806,"city_fetched":"Dallas,US","state":"TX","country":"United States","canonicalUrl":"https://foursquare.com/v/ziggys-tavern/4ddc7b45e4cdb993eaac619c","categoryId":"4bf58dd8d48988d11d941735","category":"Sports Bar","checkinsCount":1014,"usersCount":220,"tipCount":6,"visitsCount":1014,"url":"http://ziggystavern.weebly.com","tier":"","message":"","currency":"","rating":6.6},{"name":"Sport City Cafe","phone":"9722702454","address":"3808 Towne Crossing Blvd","lat":32.81665976666667,"lng":-96.63011686,"neighborhood":"Towne Crossing","city_fetched":"Dallas,US","state":"TX","country":"United States","canonicalUrl":"https://foursquare.com/v/sport-city-cafe/4b954bfcf964a520d19a34e3","categoryId":"4bf58dd8d48988d11d941735","category":"Sports Bar","checkinsCount":1072,"usersCount":658,"tipCount":12,"visitsCount":1151,"url":"http://sportscitycafes.com","tier":"","message":"","currency":"","rating":6.6},{"name":"Wizards Sports Cafe","phone":"9722350371","address":"747 S Central Expy","lat":32.94296657534183,"lng":-96.74032269951091,"city_fetched":"Dallas,US","state":"TX","country":"United States","canonicalUrl":"https://foursquare.com/v/wizards-sports-cafe/4b2ebdaef964a52000e624e3","categoryId":"4bf58dd8d48988d11d941735","category":"Sports Bar","checkinsCount":3766,"usersCount":1507,"tipCount":31,"visitsCount":4259,"url":"http://www.wizardssportscafe.com","tier":"","message":"","currency":"","rating":6.6},{"name":"Magnolia Beer Garden","lat":32.77919006347656,"lng":-96.76351165771484,"neighborhood":"Fair Park","city_fetched":"Dallas,US","state":"TX","country":"United States","canonicalUrl":"https://foursquare.com/v/magnolia-beer-garden/507df3d8e4b08449957c9111","categoryId":"4bf58dd8d48988d117941735","category":"Beer Garden","checkinsCount":109,"usersCount":93,"tipCount":2,"visitsCount":110,"tier":"","message":"","currency":"","rating":6.6},{"name":"Sharky's Bar & Grill","phone":"9727130201","address":"17453 Preston Rd","lat":32.99077549528347,"lng":-96.80281162261963,"neighborhood":"North Central Dallas","city_fetched":"Dallas,US","state":"TX","country":"United States","canonicalUrl":"https://foursquare.com/v/sharkys-bar--grill/47f66e58f964a520ae4e1fe3","categoryId":"4bf58dd8d48988d11d941735","category":"Sports Bar","checkinsCount":3126,"usersCount":630,"tipCount":14,"visitsCount":3209,"url":"http://www.sharkysnorthdallas.com","tier":2,"message":"Moderate","currency":"$","rating":6.6},{"name":"The Club House","phone":"9728699506","address":"2250 Manana Dr","lat":32.87345661343111,"lng":-96.90313026959062,"city_fetched":"Dallas,US","state":"TX","country":"United States","canonicalUrl":"https://foursquare.com/v/the-club-house/40e0b100f964a5202c081fe3","categoryId":"4bf58dd8d48988d1d6941735","category":"Strip Club","checkinsCount":1061,"usersCount":954,"tipCount":13,"visitsCount":1595,"url":"http://www.theclubhousedallas.com","tier":"","message":"","currency":"","rating":6.6},{"name":"One14","address":"4440 W John Carpenter Fwy, Irving, TX 75063","lat":32.91341411370129,"lng":-97.00704662783856,"neighborhood":"Southwest Dallas","city_fetched":"Dallas,US","state":"TX","country":"United States","canonicalUrl":"https://foursquare.com/v/one14/4eb5d5300aaf1abedf7e8f77","categoryId":"4bf58dd8d48988d1d5941735","category":"Hotel Bar","checkinsCount":183,"usersCount":112,"tipCount":4,"visitsCount":190,"tier":"","message":"","currency":"","rating":6.6},{"name":"Executive Lounge","phone":"2147481200","address":"Hilton Anatole","lat":32.80047027240334,"lng":-96.82991041468348,"neighborhood":"Trinity Industrial District","city_fetched":"Dallas,US","state":"TX","country":"United States","canonicalUrl":"https://foursquare.com/v/executive-lounge/4c3333c5213c2d7f0f83365d","categoryId":"4bf58dd8d48988d1d5941735","category":"Hotel Bar","checkinsCount":764,"usersCount":428,"tipCount":6,"visitsCount":772,"tier":"","message":"","currency":"","rating":6.6},{"name":"Escapade 2001","address":"10701 Finnell St","lat":32.86904040639046,"lng":-96.89432300100532,"city_fetched":"Dallas,US","state":"TX","country":"United States","canonicalUrl":"https://foursquare.com/v/escapade-2001/4c3ab4d61a1cd13a8c45b50d","categoryId":"4bf58dd8d48988d11f941735","category":"Nightclub","checkinsCount":115,"usersCount":194,"tipCount":1,"visitsCount":263,"tier":"","message":"","currency":"","rating":6.6},{"name":"Malarkey's Tavern","phone":"9729317300","address":"4460 Trinity Mills Rd","lat":32.989754790226456,"lng":-96.8311455998747,"neighborhood":"North Central Dallas","city_fetched":"Dallas,US","state":"TX","country":"United States","canonicalUrl":"https://foursquare.com/v/malarkeys-tavern/4ae921dcf964a52070b421e3","categoryId":"4bf58dd8d48988d116941735","category":"Bar","checkinsCount":4136,"usersCount":1528,"tipCount":46,"visitsCount":4487,"url":"http://www.malarkeystavern.com","tier":2,"message":"Moderate","currency":"$","rating":6.5},{"name":"Redrock Bar And Grill","phone":"9727333683","twitter":"redrockbng","address":"18110 Midway Rd #208","lat":32.99714687123279,"lng":-96.84230519877133,"neighborhood":"Bent Tree West","city_fetched":"Dallas,US","state":"TX","country":"United States","canonicalUrl":"https://foursquare.com/redrockbng","categoryId":"4bf58dd8d48988d116941735","category":"Bar","checkinsCount":2861,"usersCount":855,"tipCount":14,"visitsCount":3235,"url":"http://www.redrockbarandgrill.net","tier":2,"message":"Moderate","currency":"$","rating":6.5},{"name":"Alibi's","address":"10601 Church Rd","lat":32.88546882393036,"lng":-96.70184575079405,"neighborhood":"Lake Highlands","city_fetched":"Dallas,US","state":"TX","country":"United States","canonicalUrl":"https://foursquare.com/v/alibis/4e8a7d268231cd82540889c5","categoryId":"4bf58dd8d48988d116941735","category":"Bar","checkinsCount":138,"usersCount":52,"tipCount":11,"visitsCount":138,"tier":"","message":"","currency":"","rating":6.5},{"name":"Medusa","phone":"2148842345","twitter":"medusadallas","address":"1930 Pacific Ave","lat":32.78317453298286,"lng":-96.79427286108447,"neighborhood":"City Center District","city_fetched":"Dallas,US","state":"TX","country":"United States","canonicalUrl":"https://foursquare.com/v/medusa/51fb44bb498e39ac8c9d3ca9","categoryId":"4bf58dd8d48988d116941735","category":"Bar","checkinsCount":511,"usersCount":474,"tipCount":10,"visitsCount":755,"url":"http://www.medusadallas.com","tier":"","message":"","currency":"","rating":6.5},{"name":"Heroes Sports Bar","phone":"2147506800","address":"7402 Greenville Ave","lat":32.88025392680315,"lng":-96.75899505615234,"neighborhood":"Vickery Meadows","city_fetched":"Dallas,US","state":"TX","country":"United States","canonicalUrl":"https://foursquare.com/v/heroes-sports-bar/4c2547cb136d20a1cc5ae361","categoryId":"4bf58dd8d48988d116941735","category":"Bar","checkinsCount":482,"usersCount":508,"tipCount":11,"visitsCount":784,"tier":1,"message":"Cheap","currency":"$","rating":6.5},{"name":"H Bar","phone":"9729348400","twitter":"hiltonhotels","address":"5410 Lyndon B Johnson Fwy","lat":32.92402033917732,"lng":-96.81723541913385,"city_fetched":"Dallas,US","state":"TX","country":"United States","canonicalUrl":"https://foursquare.com/v/h-bar/50ca02c0245f2d4aa8c2b351","categoryId":"4bf58dd8d48988d1d5941735","category":"Hotel Bar","checkinsCount":444,"usersCount":251,"tipCount":4,"visitsCount":457,"url":"http://www3.hilton.com/en/hotels/texas/hilton-dallas-lincoln-centre-dfwlthh/dining/index.html","tier":"","message":"","currency":"","rating":6.5},{"name":"Knox Street Pub and Grill","phone":"2145285100","twitter":"knoxpub","address":"4447 McKinney Ave","lat":32.820956685600244,"lng":-96.78857141043177,"city_fetched":"Dallas,US","state":"TX","country":"United States","canonicalUrl":"https://foursquare.com/v/knox-street-pub-and-grill/4a11b84ef964a52033771fe3","categoryId":"4bf58dd8d48988d116941735","category":"Bar","checkinsCount":5275,"usersCount":1741,"tipCount":33,"visitsCount":5409,"url":"http://www.knoxstreetpub.com","tier":2,"message":"Moderate","currency":"$","rating":6.5},{"name":"Truth & Alibi","address":"2618 Elm St","lat":32.78416569048435,"lng":-96.78584639853445,"neighborhood":"Deep Ellum","city_fetched":"Dallas,US","state":"TX","country":"United States","canonicalUrl":"https://foursquare.com/v/truth--alibi/53add513498e7b0d794ced56","categoryId":"4bf58dd8d48988d1d4941735","category":"Speakeasy","checkinsCount":559,"usersCount":446,"tipCount":7,"visitsCount":595,"tier":"","message":"","currency":"","rating":6.5},{"name":"Norazo","phone":"9722471030","address":"11311 Harry Hines Blvd Ste 506","lat":32.894565521548905,"lng":-96.89260464765637,"city_fetched":"Dallas,US","state":"TX","country":"United States","canonicalUrl":"https://foursquare.com/v/norazo/4bad8177f964a52058573be3","categoryId":"4bf58dd8d48988d120941735","category":"Karaoke Bar","checkinsCount":994,"usersCount":687,"tipCount":8,"visitsCount":1368,"url":"http://www.dallasnorazo.com","tier":2,"message":"Moderate","currency":"$","rating":6.5},{"name":"Sports Page Grill","address":"3300 W Mockingbird Ln","lat":32.83387184683652,"lng":-96.83646344427953,"city_fetched":"Dallas,US","state":"TX","country":"United States","canonicalUrl":"https://foursquare.com/v/sports-page-grill/4be492f8cf200f473228123c","categoryId":"4bf58dd8d48988d11d941735","category":"Sports Bar","checkinsCount":713,"usersCount":313,"tipCount":10,"visitsCount":767,"tier":1,"message":"Cheap","currency":"$","rating":6.5},{"name":"Kennedy Room","address":"2512 Maple Ave","lat":32.795166041622316,"lng":-96.80380429372948,"neighborhood":"Uptown","city_fetched":"Dallas,US","state":"TX","country":"United States","canonicalUrl":"https://foursquare.com/v/kennedy-room/50ede6efe4b09ea99b463208","categoryId":"4bf58dd8d48988d121941735","category":"Lounge","checkinsCount":308,"usersCount":258,"tipCount":7,"visitsCount":312,"tier":"","message":"","currency":"","rating":6.5},{"name":"La Playa","phone":"9724627715","address":"1850 E Belt Line Rd","lat":32.95260210175867,"lng":-96.9405887788558,"neighborhood":"Southwest Dallas","city_fetched":"Dallas,US","state":"TX","country":"United States","canonicalUrl":"https://foursquare.com/v/la-playa/4a6d9c7df964a520c9d21fe3","categoryId":"4bf58dd8d48988d116941735","category":"Bar","checkinsCount":2969,"usersCount":1075,"tipCount":19,"visitsCount":3373,"url":"http://www.laplayadfw.com","tier":"","message":"","currency":"","rating":6.5},{"name":"The Back 9","phone":"2142727028","twitter":"back9addison","address":"4060 Belt Line Rd","lat":32.95381,"lng":-96.844092,"city_fetched":"Dallas,US","state":"TX","country":"United States","canonicalUrl":"https://foursquare.com/v/the-back-9/4bcfb98077b29c7427be8982","categoryId":"4bf58dd8d48988d11d941735","category":"Sports Bar","checkinsCount":4368,"usersCount":1928,"tipCount":43,"visitsCount":4964,"url":"http://www.back9addison.com","tier":1,"message":"Cheap","currency":"$","rating":6.5},{"name":"The Line Sports Bar And Grill","address":"940 E Belt Line Rd","lat":32.946977490833866,"lng":-96.71165090919972,"neighborhood":"Mark Twain","city_fetched":"Dallas,US","state":"TX","country":"United States","canonicalUrl":"https://foursquare.com/v/the-line-sports-bar-and-grill/5126cf40e4b0ca84bab398cd","categoryId":"4bf58dd8d48988d11d941735","category":"Sports Bar","checkinsCount":217,"usersCount":102,"tipCount":7,"visitsCount":262,"tier":1,"message":"Cheap","currency":"$","rating":6.5},{"name":"Buffalo Joe's Grill & Bar","phone":"2144835225","address":"3636 Frankford Rd Ste 390","lat":32.99595626463521,"lng":-96.85324157451566,"neighborhood":"North Central Dallas","city_fetched":"Dallas,US","state":"TX","country":"United States","canonicalUrl":"https://foursquare.com/v/buffalo-joes-grill--bar/4bbfeec8b492d13af9a5a360","categoryId":"4bf58dd8d48988d11d941735","category":"Sports Bar","checkinsCount":1297,"usersCount":453,"tipCount":15,"visitsCount":1468,"url":"http://www.thebuffalojoes.com","tier":"","message":"","currency":"","rating":6.5},{"name":"Crosswinds Lounge","address":"8440 Freeport Pkwy","lat":32.92223566290791,"lng":-97.01890277382066,"neighborhood":"DFW Freeport","city_fetched":"Dallas,US","state":"TX","country":"United States","canonicalUrl":"https://foursquare.com/v/crosswinds-lounge/4cd75aa52944b1f79b1468ec","categoryId":"4bf58dd8d48988d1d5941735","category":"Hotel Bar","checkinsCount":323,"usersCount":213,"tipCount":4,"visitsCount":323,"tier":"","message":"","currency":"","rating":6.5},{"name":"The Old Crow","phone":"2148282769","address":"1911 Greenville Ave","lat":32.81384505,"lng":-96.770243,"neighborhood":"Lowest Greenville West","city_fetched":"Dallas,US","state":"TX","country":"United States","canonicalUrl":"https://foursquare.com/v/the-old-crow/40e0b100f964a520fb081fe3","categoryId":"4bf58dd8d48988d118941735","category":"Dive Bar","checkinsCount":1782,"usersCount":767,"tipCount":6,"visitsCount":1803,"tier":"","message":"","currency":"","rating":6.4},{"name":"Midnight Rodeo Dallas","phone":"4692066050","twitter":"mrodeodallas","address":"17727 Addison Rd","lat":32.98926562825823,"lng":-96.83136018952085,"neighborhood":"North Central Dallas","city_fetched":"Dallas,US","state":"TX","country":"United States","canonicalUrl":"https://foursquare.com/v/midnight-rodeo-dallas/527d0e4611d211954535e055","categoryId":"4bf58dd8d48988d116941735","category":"Bar","checkinsCount":650,"usersCount":363,"tipCount":5,"visitsCount":1000,"url":"http://www.midnightrodeodallas.com","tier":1,"message":"Cheap","currency":"$","rating":6.4},{"name":"Club 8 Dallas","phone":"4699198227","twitter":"club8dallas","address":"2645 Lyndon B Johnson Fwy","lat":32.910733878707944,"lng":-96.88906330557279,"city_fetched":"Dallas,US","state":"TX","country":"United States","canonicalUrl":"https://foursquare.com/v/club-8-dallas/52a8abab11d2559deacd48a5","categoryId":"4bf58dd8d48988d11f941735","category":"Nightclub","checkinsCount":239,"usersCount":200,"tipCount":2,"visitsCount":271,"url":"http://www.club8dallas.com","tier":"","message":"","currency":"","rating":6.4},{"name":"Insomnia","phone":"9728699506","twitter":"insomniadallas","address":"2250 Manana Dr","lat":32.873347617599464,"lng":-96.90296784047678,"city_fetched":"Dallas,US","state":"TX","country":"United States","canonicalUrl":"https://foursquare.com/v/insomnia/4d17147c81cea35d7f33e4ec","categoryId":"4bf58dd8d48988d11f941735","category":"Nightclub","checkinsCount":385,"usersCount":198,"tipCount":6,"visitsCount":388,"url":"http://insomniadallas.org","tier":"","message":"","currency":"","rating":6.4},{"name":"Pete's Bar","address":"695 Town Square Blvd","lat":32.954418956110075,"lng":-96.61176786504153,"city_fetched":"Dallas,US","state":"TX","country":"United States","canonicalUrl":"https://foursquare.com/v/petes-bar/528e9067498e425da1573a25","categoryId":"4bf58dd8d48988d11d941735","category":"Sports Bar","checkinsCount":154,"usersCount":93,"tipCount":6,"visitsCount":207,"tier":"","message":"","currency":"","rating":6.4},{"name":"San Francisco Rose","phone":"2148262020","address":"3024 Greenville Ave","lat":32.825887814934035,"lng":-96.77003731211437,"neighborhood":"Lower Greenville","city_fetched":"Dallas,US","state":"TX","country":"United States","canonicalUrl":"https://foursquare.com/v/san-francisco-rose/40e0b100f964a52036091fe3","categoryId":"4bf58dd8d48988d11d941735","category":"Sports Bar","checkinsCount":2172,"usersCount":1221,"tipCount":20,"visitsCount":2439,"url":"http://www.sanfranciscorose.com","tier":1,"message":"Cheap","currency":"$","rating":6.4},{"name":"XTC Cabaret","phone":"2142678550","address":"8550 N Stemmons Fwy","lat":32.82861468037082,"lng":-96.87180462589109,"city_fetched":"Dallas,US","state":"TX","country":"United States","canonicalUrl":"https://foursquare.com/v/xtc-cabaret/4c6384c2de1b2d7fc023e570","categoryId":"4bf58dd8d48988d1d6941735","category":"Strip Club","checkinsCount":1222,"usersCount":1192,"tipCount":9,"visitsCount":1977,"url":"http://xtcdallas.com","tier":"","message":"","currency":"","rating":6.4},{"name":"Nick's Sports Grill","phone":"9724127777","twitter":"wix","address":"3536 Lakeview Pkwy","lat":32.907181178199544,"lng":-96.56709909439087,"city_fetched":"Dallas,US","state":"TX","country":"United States","canonicalUrl":"https://foursquare.com/v/nicks-sports-grill/4bc7c5b514d79521491f68e9","categoryId":"4bf58dd8d48988d11d941735","category":"Sports Bar","checkinsCount":401,"usersCount":213,"tipCount":4,"visitsCount":415,"url":"http://sportscitycafes.com","tier":"","message":"","currency":"","rating":6.4},{"name":"on premise","address":"2711 Elm St","lat":32.78464171726429,"lng":-96.78431918663162,"neighborhood":"Deep Ellum","city_fetched":"Dallas,US","state":"TX","country":"United States","canonicalUrl":"https://foursquare.com/v/on-premise/555ea1e4498e2843f81edfaf","categoryId":"4bf58dd8d48988d121941735","category":"Lounge","checkinsCount":249,"usersCount":176,"tipCount":3,"visitsCount":258,"tier":"","message":"","currency":"","rating":6.3},{"name":"Tign Irish Pub & Restaurant","phone":"9729734228","address":"Terminal D","lat":32.896335029153015,"lng":-97.0445747471766,"city_fetched":"Dallas,US","state":"TX","country":"United States","canonicalUrl":"https://foursquare.com/v/tig%C3%ADn-irish-pub--restaurant/4b15332df964a5203aa923e3","categoryId":"4bf58dd8d48988d11b941735","category":"Pub","checkinsCount":4492,"usersCount":3719,"tipCount":82,"visitsCount":4495,"url":"http://tiginirishpub.com","tier":2,"message":"Moderate","currency":"$","rating":6.3},{"name":"777 Club","address":"777 S Central Exwy","lat":32.941583,"lng":-96.741518,"city_fetched":"Dallas,US","state":"TX","country":"United States","canonicalUrl":"https://foursquare.com/v/777-club/4c9039d9590ab1f70edfe57d","categoryId":"4bf58dd8d48988d116941735","category":"Bar","checkinsCount":413,"usersCount":187,"tipCount":8,"visitsCount":513,"tier":"","message":"","currency":"","rating":6.3},{"name":"KTX Restaurant & Karaoke","phone":"9724461353","address":"2625 Old Denton Rd","lat":32.986883754307904,"lng":-96.91110026988237,"city_fetched":"Dallas,US","state":"TX","country":"United States","canonicalUrl":"https://foursquare.com/v/ktx-restaurant--karaoke/4b889396f964a520f20132e3","categoryId":"4bf58dd8d48988d120941735","category":"Karaoke Bar","checkinsCount":546,"usersCount":347,"tipCount":6,"visitsCount":553,"tier":2,"message":"Moderate","currency":"$","rating":6.3},{"name":"Momo's Lounge","phone":"9727489404","address":"2800 Routh St. Ste.165","lat":32.799213316813464,"lng":-96.80361595330628,"city_fetched":"Dallas,US","state":"TX","country":"United States","canonicalUrl":"https://foursquare.com/v/momos-lounge/51a02713498e4edc4d78a01a","categoryId":"4bf58dd8d48988d121941735","category":"Lounge","checkinsCount":103,"usersCount":77,"tipCount":5,"visitsCount":103,"tier":"","message":"","currency":"","rating":6.3},{"name":"The Art Of Wine","lat":32.91128387173212,"lng":-96.8042594520059,"city_fetched":"Dallas,US","state":"TX","country":"United States","canonicalUrl":"https://foursquare.com/v/the-art-of-wine/50e4ccae498e08b45c554043","categoryId":"4bf58dd8d48988d123941735","category":"Wine Bar","checkinsCount":110,"usersCount":75,"tipCount":5,"visitsCount":110,"tier":"","message":"","currency":"","rating":6.3},{"name":"Club Exclusive","lat":32.807413352554896,"lng":-96.81814592693712,"city_fetched":"Dallas,US","state":"TX","country":"United States","canonicalUrl":"https://foursquare.com/v/club-exclusive/4c4144943735be9abb4718a4","categoryId":"4bf58dd8d48988d1d8941735","category":"Gay Bar","checkinsCount":315,"usersCount":148,"tipCount":1,"visitsCount":334,"tier":"","message":"","currency":"","rating":6.3},{"name":"Concrete Cowboy","phone":"2149341959","twitter":"concretecowboyd","address":"2512 Cedar Springs Rd","lat":32.79843370049905,"lng":-96.80531103676648,"neighborhood":"Uptown","city_fetched":"Dallas,US","state":"TX","country":"United States","canonicalUrl":"https://foursquare.com/v/concrete-cowboy/505c0447e4b082c6a96b0e45","categoryId":"4bf58dd8d48988d11e941735","category":"Cocktail Bar","checkinsCount":5022,"usersCount":2918,"tipCount":27,"visitsCount":5945,"tier":3,"message":"Expensive","currency":"$","rating":6.3},{"name":"Kush","phone":"2148218997","twitter":"kushdallas","address":"Greenville Ave","lat":32.81490569236246,"lng":-96.76997979353337,"neighborhood":"Lower Greenville","city_fetched":"Dallas,US","state":"TX","country":"United States","canonicalUrl":"https://foursquare.com/v/kush/4bdb996ac79cc928e4bd83e9","categoryId":"4bf58dd8d48988d119941735","category":"Hookah Bar","checkinsCount":2154,"usersCount":1227,"tipCount":17,"visitsCount":2160,"url":"http://kushdallas.com","tier":"","message":"","currency":"","rating":6.3},{"name":"City Club of Dallas","phone":"2147489525","twitter":"cityclubdallas","address":"901 Main St Ste 6900","lat":32.78011275670095,"lng":-96.80394031770797,"neighborhood":"Main Street District","city_fetched":"Dallas,US","state":"TX","country":"United States","canonicalUrl":"https://foursquare.com/v/city-club-of-dallas/4b437e0bf964a520a2e125e3","categoryId":"4bf58dd8d48988d121941735","category":"Lounge","checkinsCount":501,"usersCount":280,"tipCount":4,"visitsCount":509,"url":"http://www.cityclubdallas.com","tier":"","message":"","currency":"","rating":6.3},{"name":"Avenu Lounge","phone":"8883691411","address":"2912 McKinney Ave","lat":32.80018285316269,"lng":-96.80062873792579,"neighborhood":"Uptown","city_fetched":"Dallas,US","state":"TX","country":"United States","canonicalUrl":"https://foursquare.com/v/avenu-lounge/4e692b1c2271a1776960873f","categoryId":"4bf58dd8d48988d121941735","category":"Lounge","checkinsCount":1488,"usersCount":941,"tipCount":13,"visitsCount":1538,"url":"http://avenulounge.com","tier":"","message":"","currency":"","rating":6.3},{"name":"Bikinis Sports Bar and Grill Mesquite","address":"3817 Pavillion Ct","lat":32.81340499208169,"lng":-96.62728249424634,"city_fetched":"Dallas,US","state":"TX","country":"United States","canonicalUrl":"https://foursquare.com/v/bikinis-sports-bar-and-grill-mesquite/516f0f15e4b059af40c16a52","categoryId":"4bf58dd8d48988d11d941735","category":"Sports Bar","checkinsCount":174,"usersCount":99,"tipCount":3,"visitsCount":176,"url":"http://bikinissportsbarandgrill.com","tier":"","message":"","currency":"","rating":6.3},{"name":"Pub Pegasus","phone":"2145594663","address":"3326 N Fitzhugh Ave","lat":32.817615766466304,"lng":-96.79447799921036,"city_fetched":"Dallas,US","state":"TX","country":"United States","canonicalUrl":"https://foursquare.com/v/pub-pegasus/40e0b100f964a52012091fe3","categoryId":"4bf58dd8d48988d1d8941735","category":"Gay Bar","checkinsCount":551,"usersCount":188,"tipCount":7,"visitsCount":631,"tier":"","message":"","currency":"","rating":6.3},{"name":"Bishop Arts Winery","phone":"2149419463","address":"838 W Davis St","lat":32.74931355270648,"lng":-96.8372747677586,"neighborhood":"Southwest Dallas","city_fetched":"Dallas,US","state":"TX","country":"United States","canonicalUrl":"https://foursquare.com/v/bishop-arts-winery/4ed1936993ad987b4e84b612","categoryId":"4bf58dd8d48988d123941735","category":"Wine Bar","checkinsCount":103,"usersCount":81,"tipCount":1,"visitsCount":104,"tier":"","message":"","currency":"","rating":6.2},{"name":"Rack Daddy's","phone":"9729300134","address":"17509 Coit Rd","lat":32.98970704872671,"lng":-96.76855753213485,"neighborhood":"North Central Dallas","city_fetched":"Dallas,US","state":"TX","country":"United States","canonicalUrl":"https://foursquare.com/v/rack-daddys/4bcf5677462cb7131584d607","categoryId":"4bf58dd8d48988d116941735","category":"Bar","checkinsCount":1227,"usersCount":455,"tipCount":10,"visitsCount":1483,"tier":"","message":"","currency":"","rating":6.2},{"name":"Zippers","phone":"2145269519","address":"3333 N Fitzhugh Ave","lat":32.816973337523066,"lng":-96.79415211081505,"city_fetched":"Dallas,US","state":"TX","country":"United States","canonicalUrl":"https://foursquare.com/v/zippers/40e0b100f964a52086091fe3","categoryId":"4bf58dd8d48988d1d8941735","category":"Gay Bar","checkinsCount":2057,"usersCount":729,"tipCount":12,"visitsCount":2285,"tier":2,"message":"Moderate","currency":"$","rating":6.2},{"name":"Club Rio","phone":"2144671075","address":"704 S Walton Walker Blvd","lat":32.738629578680126,"lng":-96.91761951763523,"neighborhood":"Southwest Dallas","city_fetched":"Dallas,US","state":"TX","country":"United States","canonicalUrl":"https://foursquare.com/v/club-rio/4c297e7ece3fc92896e76e88","categoryId":"4bf58dd8d48988d11f941735","category":"Nightclub","checkinsCount":141,"usersCount":102,"tipCount":2,"visitsCount":150,"tier":"","message":"","currency":"","rating":6.2},{"name":"Chaucer's Sushi & Grill","phone":"9722333939","twitter":"chaucersco","address":"5080 Spectrum Dr","lat":32.95439471260028,"lng":-96.82382903943586,"city_fetched":"Dallas,US","state":"TX","country":"United States","canonicalUrl":"https://foursquare.com/v/chaucers-sushi--grill/4458bec3f964a520d4321fe3","categoryId":"4bf58dd8d48988d116941735","category":"Bar","checkinsCount":3537,"usersCount":1873,"tipCount":39,"visitsCount":3562,"url":"http://www.chaucersrestaurant.com","tier":1,"message":"Cheap","currency":"$","rating":6.2},{"name":"Dallasite Billiards","phone":"2148263670","address":"4822 Bryan St","lat":32.80366853350431,"lng":-96.77366108564563,"city_fetched":"Dallas,US","state":"TX","country":"United States","canonicalUrl":"https://foursquare.com/v/dallasite-billiards/4aefa0f3f964a520a8d921e3","categoryId":"4bf58dd8d48988d116941735","category":"Bar","checkinsCount":1817,"usersCount":420,"tipCount":17,"visitsCount":1913,"tier":"","message":"","currency":"","rating":6.2},{"name":"Smyth","phone":"2145200900","address":"4513 Travis St","lat":32.82288132723314,"lng":-96.7909408515875,"city_fetched":"Dallas,US","state":"TX","country":"United States","canonicalUrl":"https://foursquare.com/v/smyth/5137fb7ee4b0d152d6bbacfa","categoryId":"4bf58dd8d48988d1d4941735","category":"Speakeasy","checkinsCount":628,"usersCount":416,"tipCount":17,"visitsCount":633,"tier":"","message":"","currency":"","rating":6.2},{"name":"Gatsby Dallas Nightclub","phone":"2147417587","twitter":"gatsbydallas","address":"1400 Main St","lat":32.78048227693932,"lng":-96.80042471246406,"neighborhood":"Main Street District","city_fetched":"Dallas,US","state":"TX","country":"United States","canonicalUrl":"https://foursquare.com/v/gatsby-dallas-nightclub/5502e119498ee31c16f8a45d","categoryId":"4bf58dd8d48988d11f941735","category":"Nightclub","checkinsCount":83,"usersCount":50,"tipCount":2,"visitsCount":84,"url":"http://www.dallas-nightclub.com","tier":"","message":"","currency":"","rating":6.2},{"name":"Midway Point","phone":"9724843470","address":"12801 Midway Rd #503","lat":32.923432010972334,"lng":-96.83867236156706,"city_fetched":"Dallas,US","state":"TX","country":"United States","canonicalUrl":"https://foursquare.com/v/midway-point/4b156d89f964a520b8ac23e3","categoryId":"4bf58dd8d48988d116941735","category":"Bar","checkinsCount":842,"usersCount":240,"tipCount":7,"visitsCount":979,"url":"http://midwaypoint.net","tier":"","message":"","currency":"","rating":6.2},{"name":"Dyer Street Bar","phone":"2149874800","address":"5529 Dyer St","lat":32.843249,"lng":-96.773582,"city_fetched":"Dallas,US","state":"TX","country":"United States","canonicalUrl":"https://foursquare.com/v/dyer-street-bar/4b410808f964a520babf25e3","categoryId":"4bf58dd8d48988d116941735","category":"Bar","checkinsCount":1221,"usersCount":403,"tipCount":7,"visitsCount":1221,"url":"http://www.dyerstreetbar.com","tier":"","message":"","currency":"","rating":6.1},{"name":"J Black's Feel Good Lounge","phone":"2146132525","twitter":"jblacks_dallas","address":"2409 N Henderson Ave","lat":32.815011,"lng":-96.778958,"neighborhood":"Henderson","city_fetched":"Dallas,US","state":"TX","country":"United States","canonicalUrl":"https://foursquare.com/v/j-blacks-feel-good-lounge/4bdce6dac79cc92817a188e9","categoryId":"4bf58dd8d48988d116941735","category":"Bar","checkinsCount":7825,"usersCount":3718,"tipCount":37,"visitsCount":7968,"url":"http://www.jblacks.com/dallas/","tier":2,"message":"Moderate","currency":"$","rating":6.1},{"name":"Spoon","address":"2625 #404","lat":32.98682393717207,"lng":-96.91165050289415,"city_fetched":"Dallas,US","state":"TX","country":"United States","canonicalUrl":"https://foursquare.com/v/spoon/4efbc2014690a04b135bb5a4","categoryId":"4bf58dd8d48988d116941735","category":"Bar","checkinsCount":490,"usersCount":322,"tipCount":5,"visitsCount":502,"tier":2,"message":"Moderate","currency":"$","rating":6.1},{"name":"Tigers Cabaret","phone":"2146609912","twitter":"tiger_cabaret","address":"9125 E R L Thornton Fwy","lat":32.79742126917066,"lng":-96.68708597741177,"city_fetched":"Dallas,US","state":"TX","country":"United States","canonicalUrl":"https://foursquare.com/v/tigers-cabaret/4c5b99486ebe2d7fcd04ce2e","categoryId":"4bf58dd8d48988d1d6941735","category":"Strip Club","checkinsCount":436,"usersCount":154,"tipCount":8,"visitsCount":495,"url":"http://tigercabaret.com","tier":"","message":"","currency":"","rating":6.1},{"name":"Trophy Room","phone":"2147749395","address":"2714 McKinney Ave","lat":32.79805228619428,"lng":-96.8010950088501,"neighborhood":"Uptown","city_fetched":"Dallas,US","state":"TX","country":"United States","canonicalUrl":"https://foursquare.com/v/trophy-room/4d41e5bef0dba1cd8fed2d49","categoryId":"4bf58dd8d48988d116941735","category":"Bar","checkinsCount":4324,"usersCount":2694,"tipCount":20,"visitsCount":4395,"url":"http://thetrophyclubaustin.com","tier":1,"message":"Cheap","currency":"$","rating":6.1},{"name":"Zona Rosa Strip Club","address":"1676 Regal Row","lat":32.835986446610576,"lng":-96.8740304516371,"city_fetched":"Dallas,US","state":"TX","country":"United States","canonicalUrl":"https://foursquare.com/v/zona-rosa-strip-club/4c6cb6a51fb2a143d96afce6","categoryId":"4bf58dd8d48988d1d6941735","category":"Strip Club","checkinsCount":342,"usersCount":167,"tipCount":6,"visitsCount":366,"tier":"","message":"","currency":"","rating":6.1},{"name":"The Dram","phone":"2148263726","twitter":"thedramdallas","address":"2918 N Henderson Ave","lat":32.82094,"lng":-96.784959,"neighborhood":"Vickery Place","city_fetched":"Dallas,US","state":"TX","country":"United States","canonicalUrl":"https://foursquare.com/v/the-dram/4f2e109ae4b0d411bbbf2dd0","categoryId":"4bf58dd8d48988d11e941735","category":"Cocktail Bar","checkinsCount":2317,"usersCount":1471,"tipCount":28,"visitsCount":2483,"url":"http://www.thedramdallas.com","tier":2,"message":"Moderate","currency":"$","rating":6.1},{"name":"Memphis Nightclub","phone":"9723869517","address":"5000 Belt Line Rd Ste 500","lat":32.95343791678846,"lng":-96.82430416345596,"city_fetched":"Dallas,US","state":"TX","country":"United States","canonicalUrl":"https://foursquare.com/v/memphis-nightclub/4b5a738bf964a520e8c528e3","categoryId":"4bf58dd8d48988d11f941735","category":"Nightclub","checkinsCount":1125,"usersCount":575,"tipCount":27,"visitsCount":1144,"tier":2,"message":"Moderate","currency":"$","rating":6},{"name":"Thrive","phone":"9725228735","twitter":"thrivenightclub","address":"1015 Elm St","lat":32.78063585961151,"lng":-96.80362701416016,"neighborhood":"City Center District","city_fetched":"Dallas,US","state":"TX","country":"United States","canonicalUrl":"https://foursquare.com/v/thrive/4c7fcec8f584bfb7b277593d","categoryId":"4bf58dd8d48988d11f941735","category":"Nightclub","checkinsCount":1172,"usersCount":773,"tipCount":7,"visitsCount":1214,"url":"http://www.thrivedallas.com","tier":"","message":"","currency":"","rating":6},{"name":"Stadium Cafe","phone":"9727010030","address":"4872 Belt Line Rd","lat":32.95317908864876,"lng":-96.8288505077362,"city_fetched":"Dallas,US","state":"TX","country":"United States","canonicalUrl":"https://foursquare.com/v/stadium-cafe/4b9c6637f964a520d06536e3","categoryId":"4bf58dd8d48988d11d941735","category":"Sports Bar","checkinsCount":1980,"usersCount":451,"tipCount":13,"visitsCount":2033,"url":"http://www.stadiumcafe.com","tier":"","message":"","currency":"","rating":6},{"name":"X Sheesha","phone":"9722411672","twitter":"xsheesha","address":"3712 Belt Line Rd","lat":32.95278960321759,"lng":-96.85447720183755,"city_fetched":"Dallas,US","state":"TX","country":"United States","canonicalUrl":"https://foursquare.com/v/x-sheesha/51036e52e4b073eb9216d360","categoryId":"4bf58dd8d48988d119941735","category":"Hookah Bar","checkinsCount":372,"usersCount":159,"tipCount":12,"visitsCount":397,"url":"http://xsheesha.com","tier":"","message":"","currency":"","rating":6},{"name":"The Nodding Donkey","phone":"2143477182","address":"5600 Smu Blvd Ste 120","lat":32.841885,"lng":-96.770423,"city_fetched":"Dallas,US","state":"TX","country":"United States","canonicalUrl":"https://foursquare.com/v/the-nodding-donkey/4fe2848fe4b08d2f0d4b7e75","categoryId":"4bf58dd8d48988d116941735","category":"Bar","checkinsCount":3410,"usersCount":1788,"tipCount":42,"visitsCount":3842,"url":"http://thenoddingdonkeykitchen.calwink.com","tier":2,"message":"Moderate","currency":"$","rating":6},{"name":"Drink's","address":"13440 T I Blvd","lat":32.93059032414358,"lng":-96.74859165231446,"city_fetched":"Dallas,US","state":"TX","country":"United States","canonicalUrl":"https://foursquare.com/v/drinks/4bc7a4f3af07a5939ba07f2d","categoryId":"4bf58dd8d48988d118941735","category":"Dive Bar","checkinsCount":194,"usersCount":111,"tipCount":3,"visitsCount":243,"tier":"","message":"","currency":"","rating":6},{"name":"Zouk","phone":"2147548090","address":"703 McKinney Ave","lat":32.783256596193084,"lng":-96.80943383167643,"neighborhood":"Victory Park","city_fetched":"Dallas,US","state":"TX","country":"United States","canonicalUrl":"https://foursquare.com/v/zouk/4cf94373171e8eecadd07392","categoryId":"4bf58dd8d48988d11f941735","category":"Nightclub","checkinsCount":2765,"usersCount":1652,"tipCount":20,"visitsCount":2878,"url":"http://www.zoukdallas.com","tier":"","message":"","currency":"","rating":5.9},{"name":"The Fan Sports Lounge","phone":"2142723908","twitter":"fansportslounge","address":"2990 Olive St","lat":32.78952090173632,"lng":-96.80858623065909,"neighborhood":"Victory Park","city_fetched":"Dallas,US","state":"TX","country":"United States","canonicalUrl":"https://foursquare.com/v/the-fan-sports-lounge/4e56a06cb993e0d1940cb39c","categoryId":"4bf58dd8d48988d11d941735","category":"Sports Bar","checkinsCount":1639,"usersCount":1024,"tipCount":15,"visitsCount":1639,"url":"http://www.thefansportslounge.com","tier":"","message":"","currency":"","rating":5.9},{"name":"Tailgaters","lat":32.95001294241418,"lng":-96.83913823283021,"city_fetched":"Dallas,US","state":"TX","country":"United States","canonicalUrl":"https://foursquare.com/v/tailgaters/5262c76311d2099bed816875","categoryId":"4bf58dd8d48988d116941735","category":"Bar","checkinsCount":196,"usersCount":152,"tipCount":5,"visitsCount":209,"tier":"","message":"","currency":"","rating":5.9},{"name":"The Hub Sports Bar and Grill","phone":"9723853558","twitter":"thehubdallas","address":"4145 Belt Line Rd","lat":32.95464,"lng":-96.840592,"city_fetched":"Dallas,US","state":"TX","country":"United States","canonicalUrl":"https://foursquare.com/v/the-hub-sports-bar-and-grill/4e70f83dc65b340cdea5699a","categoryId":"4bf58dd8d48988d11d941735","category":"Sports Bar","checkinsCount":1850,"usersCount":798,"tipCount":21,"visitsCount":2102,"url":"http://thehubsportsbar.com","tier":2,"message":"Moderate","currency":"$","rating":5.9},{"name":"Shooters","phone":"9723541155","twitter":"shootersdallas","address":"3030 Olive St","lat":32.78978432598596,"lng":-96.8094704566608,"neighborhood":"Victory Park","city_fetched":"Dallas,US","state":"TX","country":"United States","canonicalUrl":"https://foursquare.com/v/shooters/4eff948461af974bcdd16fbd","categoryId":"4bf58dd8d48988d11d941735","category":"Sports Bar","checkinsCount":1447,"usersCount":914,"tipCount":14,"visitsCount":1476,"url":"http://www.shooters-dallas.com","tier":2,"message":"Moderate","currency":"$","rating":5.9},{"name":"W.W. Fairfield's","phone":"9722313844","address":"147 N Plano Rd","lat":32.94674044441431,"lng":-96.70028918199972,"neighborhood":"Mark Twain","city_fetched":"Dallas,US","state":"TX","country":"United States","canonicalUrl":"https://foursquare.com/v/ww-fairfields/40e0b100f964a52081091fe3","categoryId":"4bf58dd8d48988d116941735","category":"Bar","checkinsCount":330,"usersCount":178,"tipCount":7,"visitsCount":340,"url":"http://www.wwfairfields.com","tier":"","message":"","currency":"","rating":5.9},{"name":"Callisto","phone":"9728080900","address":"1680 E Belt Line Rd","lat":32.94436555604777,"lng":-96.69485715608027,"city_fetched":"Dallas,US","state":"TX","country":"United States","canonicalUrl":"https://foursquare.com/v/callisto/4b7602e2f964a5206c362ee3","categoryId":"4bf58dd8d48988d11b941735","category":"Pub","checkinsCount":512,"usersCount":114,"tipCount":7,"visitsCount":512,"tier":"","message":"","currency":"","rating":5.8},{"name":"Salvage Pub & Grill","phone":"9722720964","address":"601 W State St","lat":32.913445,"lng":-96.63788496,"city_fetched":"Dallas,US","state":"TX","country":"United States","canonicalUrl":"https://foursquare.com/v/salvage-pub--grill/4c17b5526a21c9b608ebc797","categoryId":"4bf58dd8d48988d11b941735","category":"Pub","checkinsCount":206,"usersCount":97,"tipCount":12,"visitsCount":206,"tier":"","message":"","currency":"","rating":5.8},{"name":"TcheTche","phone":"9724324643","address":"810 W Arapaho Rd Ste 62","lat":32.96298420441984,"lng":-96.74881642369463,"neighborhood":"Greenwood Hills","city_fetched":"Dallas,US","state":"TX","country":"United States","canonicalUrl":"https://foursquare.com/v/tchetche/4e17b6e2ae6092c2764b55f7","categoryId":"4bf58dd8d48988d121941735","category":"Lounge","checkinsCount":837,"usersCount":229,"tipCount":13,"visitsCount":872,"url":"http://tchetchedallas.com","tier":"","message":"","currency":"","rating":5.8},{"name":"Biergarten on Lamar","phone":"2143031880","twitter":"biergartendfw","address":"665 S Lamar St, Suite 1","lat":32.7756308705726,"lng":-96.80356363661892,"neighborhood":"Convention Center District","city_fetched":"Dallas,US","state":"TX","country":"United States","canonicalUrl":"https://foursquare.com/v/biergarten-on-lamar/563ad161cd1076dbefea5b95","categoryId":"4bf58dd8d48988d117941735","category":"Beer Garden","checkinsCount":204,"usersCount":165,"tipCount":4,"visitsCount":209,"url":"http://biergartenonlamar.com","tier":"","message":"","currency":"","rating":5.7},{"name":"The Travis Disco","address":"4515 Travis St","lat":32.82296621126176,"lng":-96.79128607539897,"city_fetched":"Dallas,US","state":"TX","country":"United States","canonicalUrl":"https://foursquare.com/v/the-travis-disco/51985788498e8d409fd88762","categoryId":"4bf58dd8d48988d121941735","category":"Lounge","checkinsCount":372,"usersCount":183,"tipCount":2,"visitsCount":450,"tier":"","message":"","currency":"","rating":5.7},{"name":"Grands Sports Bar","phone":"9728309877","address":"530 W Lyndon B Johnson Fwy","lat":32.91319802969325,"lng":-96.95460911000322,"neighborhood":"Macarthur Crossing","city_fetched":"Dallas,US","state":"TX","country":"United States","canonicalUrl":"https://foursquare.com/v/grands-sports-bar/4e56e3acb993bf36edfa7a78","categoryId":"4bf58dd8d48988d116941735","category":"Bar","checkinsCount":1144,"usersCount":502,"tipCount":11,"visitsCount":1184,"url":"http://www.grandsportsbar.com","tier":"","message":"","currency":"","rating":5.6},{"name":"Midway Icehouse","lat":32.99669537694776,"lng":-96.84266639970274,"neighborhood":"Bent Tree West","city_fetched":"Dallas,US","state":"TX","country":"United States","canonicalUrl":"https://foursquare.com/v/midway-icehouse/523100d511d2fcdd58b73465","categoryId":"4bf58dd8d48988d118941735","category":"Dive Bar","checkinsCount":189,"usersCount":76,"tipCount":8,"visitsCount":220,"tier":"","message":"","currency":"","rating":5.6},{"name":"Gossip Bar","address":"2201 N Stemmons Fwy","lat":32.80012285954648,"lng":-96.83036575565072,"neighborhood":"Trinity Industrial District","city_fetched":"Dallas,US","state":"TX","country":"United States","canonicalUrl":"https://foursquare.com/v/gossip-bar/4b6a354cf964a52023cd2be3","categoryId":"4bf58dd8d48988d1d5941735","category":"Hotel Bar","checkinsCount":850,"usersCount":608,"tipCount":5,"visitsCount":860,"tier":"","message":"","currency":"","rating":5.6},{"name":"Draft Media Sports Lounge","phone":"2147776524","twitter":"spg","address":"400 Olive St","lat":32.78523192232503,"lng":-96.7951778162688,"neighborhood":"City Center District","city_fetched":"Dallas,US","state":"TX","country":"United States","canonicalUrl":"https://foursquare.com/v/draft-media-sports-lounge/4b3bbcfcf964a520087a25e3","categoryId":"4bf58dd8d48988d1d5941735","category":"Hotel Bar","checkinsCount":3074,"usersCount":1934,"tipCount":27,"visitsCount":3091,"url":"http://www.spg.com/foursquare/","tier":3,"message":"Expensive","currency":"$","rating":5.5},{"name":"Glass Lounge","phone":"2147401899","twitter":"glassuptown","address":"1899 McKinney Ave","lat":32.789137,"lng":-96.804524,"neighborhood":"Uptown","city_fetched":"Dallas,US","state":"TX","country":"United States","canonicalUrl":"https://foursquare.com/v/glass-lounge/4dfc113945ddebdfeaa97602","categoryId":"4bf58dd8d48988d121941735","category":"Lounge","checkinsCount":1320,"usersCount":845,"tipCount":13,"visitsCount":1322,"url":"http://glassuptown.com","tier":"","message":"","currency":"","rating":5.3},{"name":"T-N-T Sports Page","phone":"9726611130","address":"14902 Preston Rd #716","lat":32.951697944024865,"lng":-96.8011518830632,"neighborhood":"Pepper Square Shopping Center","city_fetched":"Dallas,US","state":"TX","country":"United States","canonicalUrl":"https://foursquare.com/v/tnt-sports-page/4c2d39257d85a593c85052f3","categoryId":"4bf58dd8d48988d11d941735","category":"Sports Bar","checkinsCount":2661,"usersCount":274,"tipCount":20,"visitsCount":2755,"url":"http://tntsportspagetx.com","tier":1,"message":"Cheap","currency":"$","rating":5.3},{"name":"Muddy Waters","phone":"2148231518","address":"4314 Live Oak St","lat":32.79846265,"lng":-96.777061,"neighborhood":"Peak's Addition","city_fetched":"Dallas,US","state":"TX","country":"United States","canonicalUrl":"https://foursquare.com/v/muddy-waters/4b93197ff964a520053534e3","categoryId":"4bf58dd8d48988d118941735","category":"Dive Bar","checkinsCount":374,"usersCount":200,"tipCount":8,"visitsCount":410,"tier":"","message":"","currency":"","rating":5.2},{"name":"White Rock Sports Bar","lat":32.845492,"lng":-96.711335,"neighborhood":"Old Lake Highlands","city_fetched":"Dallas,US","state":"TX","country":"United States","canonicalUrl":"https://foursquare.com/v/white-rock-sports-bar/4f7fc7ece4b08004b35d949f","categoryId":"4bf58dd8d48988d118941735","category":"Dive Bar","checkinsCount":158,"usersCount":87,"tipCount":5,"visitsCount":165,"tier":"","message":"","currency":"","rating":5.2}]