[{"name":"Southern Napa","phone":"2513752800","twitter":"southernnapa","address":"2304 Main St","lat":30.611784363033713,"lng":-87.90277004241943,"city_fetched":"Daphne","state":"AL","country":"United States","canonicalUrl":"https://foursquare.com/southernnapa","category":"Wine Shop","checkinsCount":26,"usersCount":22,"tipCount":3,"visitsCount":27,"tier":"","message":"","currency":"","rating":8.1},{"name":"Baumhower's Wings","phone":"2516254695","address":"6880 US Highway 90","lat":30.652643812638228,"lng":-87.90448665618896,"city_fetched":"Daphne","state":"AL","country":"United States","canonicalUrl":"https://foursquare.com/v/baumhowers-wings/4b5ce14af964a520034929e3","category":"Wings Joint","checkinsCount":1580,"usersCount":842,"tipCount":21,"visitsCount":1748,"url":"http://www.baumhowers.com","tier":2,"message":"Moderate","currency":"$","rating":8.1},{"name":"Hooters","phone":"2516253910","address":"28975 US Highway 98","lat":30.646837245489984,"lng":-87.9132179919295,"city_fetched":"Daphne","state":"AL","country":"United States","canonicalUrl":"https://foursquare.com/v/hooters/4b9e7ee6f964a520ffe836e3","category":"Wings Joint","checkinsCount":470,"usersCount":320,"tipCount":2,"visitsCount":533,"url":"http://hootersonline.net","tier":"","message":"","currency":"","rating":8.1},{"name":"Top Of The Bay","phone":"2516211177","twitter":"topothebay","address":"29049 US Highway 98","lat":30.64789961080834,"lng":-87.91339159011841,"city_fetched":"Daphne","state":"AL","country":"United States","canonicalUrl":"https://foursquare.com/v/top-of-the-bay/4c009963ad15a593203f8e73","category":"Nightclub","checkinsCount":941,"usersCount":257,"tipCount":4,"visitsCount":980,"tier":"","message":"","currency":"","rating":8},{"name":"Rosie's Grill","phone":"2516262440","address":"1203 US Highway 98","lat":30.59546060496414,"lng":-87.8987656722798,"city_fetched":"Daphne","state":"AL","country":"United States","canonicalUrl":"https://foursquare.com/v/rosies-grill/4c448c54f0bdd13a4db9c9cc","category":"American Restaurant","checkinsCount":475,"usersCount":329,"tipCount":13,"visitsCount":728,"url":"http://rosiesgrill.com","tier":2,"message":"Moderate","currency":"$","rating":7.5}]