[{"name":"The Filling Station","phone":"5633916954","address":"305 E 35th St","lat":41.554528557088375,"lng":-90.57046964764595,"city_fetched":"Davenport","state":"IA","country":"United States","canonicalUrl":"https://foursquare.com/v/the-filling-station/4b77475bf964a520418e2ee3","category":"American Restaurant","checkinsCount":1737,"usersCount":1087,"tipCount":18,"visitsCount":2264,"url":"http://www.thefillingstationdavenportiowa.com","tier":2,"message":"Moderate","currency":"$","rating":8.6},{"name":"Bier Stube","phone":"3097973049","twitter":"bierstube_qc","address":"415 15th St","lat":41.50651014143444,"lng":-90.5168318949959,"neighborhood":"Downtown Moline","city_fetched":"Davenport","state":"IL","country":"United States","canonicalUrl":"https://foursquare.com/v/bier-stube/4ab5b54bf964a520e27520e3","category":"German Restaurant","checkinsCount":2499,"usersCount":1115,"tipCount":31,"visitsCount":2749,"url":"http://www.bier-stube.com","tier":2,"message":"Moderate","currency":"$","rating":8.5},{"name":"Parkside Grill & Lounge","address":"2307 5th Ave","lat":41.510342,"lng":-90.50548318333334,"city_fetched":"Davenport","state":"IL","country":"United States","canonicalUrl":"https://foursquare.com/v/parkside-grill--lounge/4c66e5959cb82d7f71f991d2","category":"Pub","checkinsCount":723,"usersCount":310,"tipCount":6,"visitsCount":935,"url":"http://parksidegrill.com","tier":"","message":"","currency":"","rating":8.4},{"name":"Bent River Brewing Company","phone":"3092834811","address":"512 24th St","lat":41.50755467923084,"lng":-90.56675286970221,"city_fetched":"Davenport","state":"IL","country":"United States","canonicalUrl":"https://foursquare.com/v/bent-river-brewing-company/4fb3060de4b034ff670a1249","category":"Brewery","checkinsCount":643,"usersCount":413,"tipCount":1,"visitsCount":793,"url":"http://bentriverbrewing.com","tier":"","message":"","currency":"","rating":8.4},{"name":"Great River Brewery","phone":"5633235210","address":"332 E 2nd St","lat":41.52140583085937,"lng":-90.56996857353289,"neighborhood":"Downtown Davenport","city_fetched":"Davenport","state":"IA","country":"United States","canonicalUrl":"https://foursquare.com/v/great-river-brewery/4bc6367ed35d9c74075be23a","category":"Brewery","checkinsCount":1362,"usersCount":687,"tipCount":16,"visitsCount":1643,"url":"http://greatriverbrewery.com","tier":"","message":"","currency":"","rating":8.4},{"name":"Harringtons Pub","phone":"5633550412","address":"2319 Cumberland Square Dr","lat":41.55074715,"lng":-90.50096915,"city_fetched":"Davenport","state":"IA","country":"United States","canonicalUrl":"https://foursquare.com/v/harringtons-pub/4b9c5620f964a520a56036e3","category":"Bar","checkinsCount":519,"usersCount":219,"tipCount":8,"visitsCount":719,"tier":"","message":"","currency":"","rating":8.4},{"name":"Granite City","phone":"5633449700","address":"5270 Utica Ridge Rd","lat":41.57328799206595,"lng":-90.51471399441698,"city_fetched":"Davenport","state":"IA","country":"United States","canonicalUrl":"https://foursquare.com/v/granite-city/4b37eaa8f964a5208c4825e3","category":"Brewery","checkinsCount":3922,"usersCount":2179,"tipCount":28,"visitsCount":4764,"url":"http://gcfb.net","tier":2,"message":"Moderate","currency":"$","rating":8.3},{"name":"Front Street Brewery","phone":"5633221569","address":"208 E River Dr","lat":41.52041065,"lng":-90.5722197,"neighborhood":"Downtown Davenport","city_fetched":"Davenport","state":"IA","country":"United States","canonicalUrl":"https://foursquare.com/v/front-street-brewery/4b5a5988f964a5202bbf28e3","category":"Brewery","checkinsCount":2995,"usersCount":1728,"tipCount":40,"visitsCount":3466,"url":"http://frontstreetbrew.com","tier":2,"message":"Moderate","currency":"$","rating":8.3},{"name":"Bent River Brewing Company","phone":"3097972722","address":"1413 5th Ave","lat":41.50600246618341,"lng":-90.51710413877406,"neighborhood":"Downtown Moline","city_fetched":"Davenport","state":"IL","country":"United States","canonicalUrl":"https://foursquare.com/v/bent-river-brewing-company/4b3aa3a9f964a520b26b25e3","category":"Brewery","checkinsCount":3880,"usersCount":1605,"tipCount":43,"visitsCount":4196,"url":"http://bentriverbrewery.com","tier":2,"message":"Moderate","currency":"$","rating":8.3},{"name":"Poor Boys Pizza and Pub","phone":"3097862400","address":"4121 18th Ave","lat":41.49366450461716,"lng":-90.54324822784358,"neighborhood":"Hilltop","city_fetched":"Davenport","state":"IL","country":"United States","canonicalUrl":"https://foursquare.com/v/poor-boys-pizza-and-pub/4b818609f964a5203eac30e3","category":"Bar","checkinsCount":963,"usersCount":256,"tipCount":12,"visitsCount":1059,"url":"http://www.poorboyspizza.com","tier":"","message":"","currency":"","rating":8.3},{"name":"Crust Stone Oven Pizza","phone":"5634245502","address":"2561 53rd Ave","lat":41.57476194788392,"lng":-90.49664030319678,"city_fetched":"Davenport","state":"IA","country":"United States","canonicalUrl":"https://foursquare.com/v/crust-stone-oven-pizza/4fab05d7e4b0d35ca44ca9c4","category":"Gastropub","checkinsCount":655,"usersCount":471,"tipCount":11,"visitsCount":979,"url":"http://cruststoneovenpizza.com","tier":3,"message":"Expensive","currency":"$","rating":8.2},{"name":"11th Street Precinct","phone":"5633249545","address":"1107 Mound St (at E 11th St)","lat":41.53121416154274,"lng":-90.54606556892395,"neighborhood":"The Village","city_fetched":"Davenport","state":"IA","country":"United States","canonicalUrl":"https://foursquare.com/v/11th-street-precinct/4bc0f3dc461576b024217b32","category":"American Restaurant","checkinsCount":2468,"usersCount":1259,"tipCount":26,"visitsCount":2745,"url":"http://www.11thstreetprecinct.com","tier":2,"message":"Moderate","currency":"$","rating":8.2},{"name":"Against The Grain Brewery & Ale House","phone":"3092837605","address":"1340","lat":41.49759574450836,"lng":-90.55583250190476,"neighborhood":"College Hill District","city_fetched":"Davenport","state":"IL","country":"United States","canonicalUrl":"https://foursquare.com/v/against-the-grain-brewery--ale-house/4ffb8fa7e4b0290718666105","category":"Brewery","checkinsCount":386,"usersCount":176,"tipCount":6,"visitsCount":394,"url":"http://www.atgqc.com","tier":"","message":"","currency":"","rating":8.1},{"name":"Blackhawk Bowl / Martini Lounge","phone":"5634845955","twitter":"blackhawkbowl","address":"200 E 3rd St","lat":41.52261508618735,"lng":-90.57243597038998,"neighborhood":"Downtown Davenport","city_fetched":"Davenport","state":"IA","country":"United States","canonicalUrl":"https://foursquare.com/blackhawkbowl","category":"Bowling Alley","checkinsCount":730,"usersCount":415,"tipCount":5,"visitsCount":734,"url":"http://blackhawkbowl.com","tier":"","message":"","currency":"","rating":8.1},{"name":"Bleyarts","phone":"5633241661","address":"2210 E 11th St","lat":41.53120934286691,"lng":-90.54431946801667,"neighborhood":"The Village","city_fetched":"Davenport","state":"IA","country":"United States","canonicalUrl":"https://foursquare.com/v/bleyarts/4c7b293b566db60c7d5d4a0e","category":"Bar","checkinsCount":461,"usersCount":172,"tipCount":3,"visitsCount":466,"tier":"","message":"","currency":"","rating":8},{"name":"Sports Fans","phone":"5633595555","address":"1723 Grant St","lat":41.526074016317835,"lng":-90.50779353838385,"neighborhood":"Downtown Bettendorf","city_fetched":"Davenport","state":"IA","country":"United States","canonicalUrl":"https://foursquare.com/v/sports-fans/4bdb599a3904a593dbf4499e","category":"Pizza Place","checkinsCount":1161,"usersCount":475,"tipCount":12,"visitsCount":1390,"url":"http://sportsfanspizza.com","tier":"","message":"","currency":"","rating":8},{"name":"Pub 1848","twitter":"pub1848","address":"1601 River Dr Ste 106","lat":41.50926463127309,"lng":-90.51559528573044,"neighborhood":"Downtown Moline","city_fetched":"Davenport","state":"IL","country":"United States","canonicalUrl":"https://foursquare.com/v/pub-1848/518d93a2498eac74f39d1f2b","category":"Pub","checkinsCount":503,"usersCount":279,"tipCount":7,"visitsCount":638,"tier":"","message":"","currency":"","rating":7.9},{"name":"Mary's on 2nd","phone":"5638848014","address":"832 W 2nd St","lat":41.52140753,"lng":-90.58569708,"neighborhood":"Central Davenport","city_fetched":"Davenport","state":"IA","country":"United States","canonicalUrl":"https://foursquare.com/v/marys-on-2nd/4bdbb11ec79cc928a22a84e9","category":"Gay Bar","checkinsCount":901,"usersCount":293,"tipCount":7,"visitsCount":974,"tier":"","message":"","currency":"","rating":7.9},{"name":"Christopher D's","phone":"3097649613","address":"514 16th St","lat":41.50629349067027,"lng":-90.51473200321198,"neighborhood":"Downtown Moline","city_fetched":"Davenport","state":"IL","country":"United States","canonicalUrl":"https://foursquare.com/v/christopher-ds/4c39730293db0f47798c2392","category":"Sports Bar","checkinsCount":501,"usersCount":130,"tipCount":6,"visitsCount":560,"tier":"","message":"","currency":"","rating":7.8},{"name":"Rock Island Brewing Co.","phone":"3097931999","address":"1815 2nd Ave","lat":41.511117525092935,"lng":-90.57401629350943,"neighborhood":"Downtown Rock Island","city_fetched":"Davenport","state":"IL","country":"United States","canonicalUrl":"https://foursquare.com/v/rock-island-brewing-co/4b36dd6df964a5208c3d25e3","category":"Bar","checkinsCount":2173,"usersCount":722,"tipCount":16,"visitsCount":2230,"url":"http://ribco.com","tier":2,"message":"Moderate","currency":"$","rating":7.8},{"name":"Van's Pizza Pub & Grill","phone":"5633860090","address":"3333 N Harrison St","lat":41.55502438545227,"lng":-90.576223,"city_fetched":"Davenport","state":"IA","country":"United States","canonicalUrl":"https://foursquare.com/v/vans-pizza-pub--grill/4c37868904cbb713df5cee0d","category":"Pizza Place","checkinsCount":1241,"usersCount":575,"tipCount":17,"visitsCount":1500,"url":"http://www.vanspizzaandpub.comâ€Ž","tier":2,"message":"Moderate","currency":"$","rating":7.8},{"name":"Bix Bistro","phone":"5634845900","twitter":"bixbistro","address":"Hotel Blackhawk, 200 E 3rd St","lat":41.52265196379515,"lng":-90.57238340377808,"neighborhood":"Downtown Davenport","city_fetched":"Davenport","state":"IA","country":"United States","canonicalUrl":"https://foursquare.com/v/bix-bistro/4dadd1b2fa8cf64d805116c5","category":"American Restaurant","checkinsCount":702,"usersCount":324,"tipCount":10,"visitsCount":712,"url":"http://www.facebook.com/BixBistro","tier":"","message":"","currency":"","rating":7.8},{"name":"Front Street Brewery (Freight House)","address":"421 W River Dr","lat":41.51993546896625,"lng":-90.57920592348466,"neighborhood":"Downtown Davenport","city_fetched":"Davenport","state":"IA","country":"United States","canonicalUrl":"https://foursquare.com/v/front-street-brewery-freight-house/4fefb864e4b0dccbdd1dd94a","category":"Brewery","checkinsCount":298,"usersCount":144,"tipCount":4,"visitsCount":317,"url":"http://frontstreetbrew.com","tier":"","message":"","currency":"","rating":7.8},{"name":"Hickey Brothers Cigars & Hookah","phone":"3097323222","address":"130 18th St","lat":41.5113831988124,"lng":-90.57471867943748,"neighborhood":"Downtown Rock Island","city_fetched":"Davenport","state":"IL","country":"United States","canonicalUrl":"https://foursquare.com/v/hickey-brothers-cigars--hookah/4c1ab20cb306c928610c61b7","category":"Hookah Bar","checkinsCount":1352,"usersCount":205,"tipCount":4,"visitsCount":1360,"tier":"","message":"","currency":"","rating":7.8},{"name":"Mac's Tavern","phone":"5633246227","address":"316 W 3rd St","lat":41.5225643505696,"lng":-90.57755145345679,"neighborhood":"Downtown Davenport","city_fetched":"Davenport","state":"IA","country":"United States","canonicalUrl":"https://foursquare.com/v/macs-tavern/4ba153eff964a5201dad37e3","category":"Pub","checkinsCount":1826,"usersCount":615,"tipCount":17,"visitsCount":1928,"tier":"","message":"","currency":"","rating":7.8},{"name":"Circle Tap","phone":"5633229276","address":"1345 W Locust St","lat":41.53817017823831,"lng":-90.5932991396104,"neighborhood":"Northwest Davenport","city_fetched":"Davenport","state":"IA","country":"United States","canonicalUrl":"https://foursquare.com/v/circle-tap/4bf47bf06a31d13ae9d9952e","category":"Dive Bar","checkinsCount":1169,"usersCount":515,"tipCount":7,"visitsCount":1387,"url":"http://www.circletap.com","tier":"","message":"","currency":"","rating":7.8},{"name":"Jack's Locust Street Tap","phone":"5633282909","address":"331 E Locust St","lat":41.538134431445584,"lng":-90.57001015760845,"neighborhood":"Central Davenport","city_fetched":"Davenport","state":"IA","country":"United States","canonicalUrl":"https://foursquare.com/v/jacks-locust-street-tap/4bb656501344b713fd599d04","category":"Dive Bar","checkinsCount":615,"usersCount":220,"tipCount":4,"visitsCount":686,"tier":"","message":"","currency":"","rating":7.8},{"name":"Analog Arcade Bar","lat":41.52259170204425,"lng":-90.574191888832,"neighborhood":"Downtown Davenport","city_fetched":"Davenport","state":"IA","country":"United States","canonicalUrl":"https://foursquare.com/v/analog-arcade-bar/562aed90498e29c741d44c05","category":"Bar","checkinsCount":168,"usersCount":133,"tipCount":2,"visitsCount":219,"tier":"","message":"","currency":"","rating":7.7},{"name":"Barley & Rye Bistro","phone":"3097571557","twitter":"barleyryebistro","address":"1320 5th Ave","lat":41.50540664238979,"lng":-90.51808700048477,"neighborhood":"Downtown Moline","city_fetched":"Davenport","state":"IL","country":"United States","canonicalUrl":"https://foursquare.com/v/barley--rye-bistro/526433bc11d2d09ce575bfa7","category":"Gastropub","checkinsCount":215,"usersCount":142,"tipCount":9,"visitsCount":252,"tier":3,"message":"Expensive","currency":"$","rating":7.6},{"name":"Dam View","address":"410 E 2nd St Davenport, IA","lat":41.521484,"lng":-90.56942,"neighborhood":"Downtown Davenport","city_fetched":"Davenport","state":"IA","country":"United States","canonicalUrl":"https://foursquare.com/v/dam-view/4d520bbb3062a1cdc87e6da3","category":"Bar","checkinsCount":1574,"usersCount":231,"tipCount":0,"visitsCount":1657,"tier":"","message":"","currency":"","rating":7.6},{"name":"Barrel House 211","phone":"5634242031","address":"211 E 2nd St","lat":41.52120119092722,"lng":-90.57216796858513,"neighborhood":"Downtown Davenport","city_fetched":"Davenport","state":"IA","country":"United States","canonicalUrl":"https://foursquare.com/v/barrel-house-211/4e33291d52b11c74621f761a","category":"Bar","checkinsCount":2205,"usersCount":1342,"tipCount":21,"visitsCount":2846,"url":"http://barrelhouse211.com","tier":2,"message":"Moderate","currency":"$","rating":7.6},{"name":"Rascal's","phone":"3097979457","address":"1414 15th St","lat":41.49785578250885,"lng":-90.515419,"neighborhood":"Uptown Moline","city_fetched":"Davenport","state":"IL","country":"United States","canonicalUrl":"https://foursquare.com/v/rascals/4bd9057e2e6f0f47c7950908","category":"Bar","checkinsCount":508,"usersCount":201,"tipCount":3,"visitsCount":557,"tier":"","message":"","currency":"","rating":7.5},{"name":"The District Of Rock Island!","lat":41.51088685646467,"lng":-90.57480185753742,"neighborhood":"Downtown Rock Island","city_fetched":"Davenport","state":"IL","country":"United States","canonicalUrl":"https://foursquare.com/v/the-district-of-rock-island/4e5da8eb45dd21543f4ab8c9","category":"Nightlife Spot","checkinsCount":1434,"usersCount":231,"tipCount":3,"visitsCount":1450,"tier":"","message":"","currency":"","rating":7.5},{"name":"Frackies","phone":"5633260202","address":"2820 Rockingham Rd","lat":41.51186,"lng":-90.61876,"neighborhood":"West End","city_fetched":"Davenport","state":"IA","country":"United States","canonicalUrl":"https://foursquare.com/v/frackies/4c6b472e6af58cfadbc88417","category":"Pub","checkinsCount":223,"usersCount":110,"tipCount":6,"visitsCount":273,"tier":"","message":"","currency":"","rating":7.5},{"name":"Jersey Grille","phone":"5633444747","address":"5255 Jersey Ridge Rd","lat":41.573873281632636,"lng":-90.54124896447615,"city_fetched":"Davenport","state":"IA","country":"United States","canonicalUrl":"https://foursquare.com/v/jersey-grille/4b7c321af964a520b4832fe3","category":"Sports Bar","checkinsCount":1064,"usersCount":631,"tipCount":8,"visitsCount":1214,"url":"http://jerseygrille.com","tier":"","message":"","currency":"","rating":7.5},{"name":"Hawkeye Tap","phone":"5633913096","address":"4646 Cheyenne Ave","lat":41.56798157841719,"lng":-90.61004336759963,"city_fetched":"Davenport","state":"IA","country":"United States","canonicalUrl":"https://foursquare.com/v/hawkeye-tap/4ced693e4cd4236ac7e5a763","category":"Bar","checkinsCount":1968,"usersCount":355,"tipCount":9,"visitsCount":2207,"url":"http://hawkeyetap.net","tier":"","message":"","currency":"","rating":7.5},{"name":"No Place Special","address":"578-590 County Road F55","lat":41.6108847710784,"lng":-90.56904449415381,"city_fetched":"Davenport","state":"IA","country":"United States","canonicalUrl":"https://foursquare.com/v/no-place-special/4c197f5c838020a138e8e561","category":"Bar","checkinsCount":360,"usersCount":103,"tipCount":0,"visitsCount":362,"tier":"","message":"","currency":"","rating":7.5},{"name":"Central Avenue Tap","phone":"5633557212","address":"2604 Central Ave","lat":41.53160385,"lng":-90.49660555,"city_fetched":"Davenport","state":"IA","country":"United States","canonicalUrl":"https://foursquare.com/v/central-avenue-tap/4d9fa6de865d5481a5133b13","category":"Bar","checkinsCount":527,"usersCount":81,"tipCount":2,"visitsCount":597,"tier":"","message":"","currency":"","rating":7.4},{"name":"The Phoenix","phone":"5633232345","address":"111 W 2nd St","lat":41.521286,"lng":-90.5747652053833,"neighborhood":"Downtown Davenport","city_fetched":"Davenport","state":"IA","country":"United States","canonicalUrl":"https://foursquare.com/v/the-phoenix/4b930392f964a520cd2e34e3","category":"American Restaurant","checkinsCount":571,"usersCount":382,"tipCount":10,"visitsCount":603,"url":"http://thephoenixofdavenport.com","tier":2,"message":"Moderate","currency":"$","rating":7.4},{"name":"Rooster's Bar & Grill","phone":"3092837005","address":"2130 3rd Ave","lat":41.50978380716083,"lng":-90.56925703051478,"neighborhood":"Downtown Rock Island","city_fetched":"Davenport","state":"IL","country":"United States","canonicalUrl":"https://foursquare.com/v/roosters-bar--grill/4ee4028ae30005f8b77cdbc9","category":"Bar","checkinsCount":408,"usersCount":130,"tipCount":3,"visitsCount":418,"tier":"","message":"","currency":"","rating":7.4},{"name":"Barrel House","address":"1321 5th Ave","lat":41.5057487487793,"lng":-90.5180435180664,"neighborhood":"Downtown Moline","city_fetched":"Davenport","state":"IL","country":"United States","canonicalUrl":"https://foursquare.com/v/barrel-house/51e20065498e328aeb4e5063","category":"Pub","checkinsCount":717,"usersCount":496,"tipCount":8,"visitsCount":1079,"url":"http://barrelhouse211.com","tier":2,"message":"Moderate","currency":"$","rating":7.4},{"name":"Brix","address":"425 15th St","lat":41.50619958052428,"lng":-90.51656426733794,"neighborhood":"Downtown Moline","city_fetched":"Davenport","state":"IL","country":"United States","canonicalUrl":"https://foursquare.com/v/brix/5397ac1d498ee68a3485db29","category":"Pizza Place","checkinsCount":228,"usersCount":165,"tipCount":5,"visitsCount":261,"url":"http://brixqca.com","tier":"","message":"","currency":"","rating":7.4},{"name":"Sharky's Billiards","phone":"5633597225","twitter":"sharkysqc","address":"2902 E Kimberly Rd","lat":41.555589795890135,"lng":-90.52967552728875,"city_fetched":"Davenport","state":"IA","country":"United States","canonicalUrl":"https://foursquare.com/v/sharkys-billiards/4bec8f2949430f4775ed07d2","category":"Pool Hall","checkinsCount":837,"usersCount":113,"tipCount":2,"visitsCount":933,"url":"http://www.millertimesharkys.com","tier":"","message":"","currency":"","rating":7.3},{"name":"Hollars Bar And Grill","phone":"3092779028","address":"4050 27th St","lat":41.47365771508725,"lng":-90.49872956639138,"city_fetched":"Davenport","state":"IL","country":"United States","canonicalUrl":"https://foursquare.com/v/hollars-bar-and-grill/4d0d7742801054817fe01e96","category":"Karaoke Bar","checkinsCount":428,"usersCount":139,"tipCount":4,"visitsCount":482,"tier":"","message":"","currency":"","rating":7.3},{"name":"Rookies Sports Bar","phone":"5633242434","address":"2818 Brady St","lat":41.549236904262,"lng":-90.57104977359023,"city_fetched":"Davenport","state":"IA","country":"United States","canonicalUrl":"https://foursquare.com/v/rookies-sports-bar/4c30f06dac0ab7136d1d1c1e","category":"Sports Bar","checkinsCount":1078,"usersCount":546,"tipCount":16,"visitsCount":1189,"url":"http://rookiessportsbargrill.com","tier":2,"message":"Moderate","currency":"$","rating":7.2},{"name":"Icons Martini","phone":"3097884266","address":"124 18th St","lat":41.511484788205756,"lng":-90.57464012250233,"neighborhood":"Downtown Rock Island","city_fetched":"Davenport","state":"IL","country":"United States","canonicalUrl":"https://foursquare.com/v/icons-martini/4b9c5627f964a520a96036e3","category":"Cocktail Bar","checkinsCount":699,"usersCount":311,"tipCount":8,"visitsCount":709,"tier":"","message":"","currency":"","rating":7.2},{"name":"Harley Corins","phone":"5633550655","address":"1708 State St","lat":41.52533175,"lng":-90.50821,"neighborhood":"Downtown Bettendorf","city_fetched":"Davenport","state":"IA","country":"United States","canonicalUrl":"https://foursquare.com/v/harley-corins/4c68793e832bc9289c67b4a8","category":"Bar","checkinsCount":429,"usersCount":162,"tipCount":3,"visitsCount":443,"tier":"","message":"","currency":"","rating":7.2},{"name":"The Daiquiri Factory","phone":"3092831809","address":"1809 2nd Ave","lat":41.51121251349223,"lng":-90.57449162006378,"neighborhood":"Downtown Rock Island","city_fetched":"Davenport","state":"IL","country":"United States","canonicalUrl":"https://foursquare.com/v/the-daiquiri-factory/4bf75e4bd4cdb7137a9084fe","category":"Cocktail Bar","checkinsCount":1035,"usersCount":493,"tipCount":10,"visitsCount":1040,"url":"http://www.daiquirifactory.com","tier":"","message":"","currency":"","rating":7.2},{"name":"Kelly's Irish Pub & Eatery","address":"2222 E 53rd St","lat":41.57517424566105,"lng":-90.54464731021119,"city_fetched":"Davenport","state":"IA","country":"United States","canonicalUrl":"https://foursquare.com/v/kellys-irish-pub--eatery/4b381568f964a5206c4b25e3","category":"Pub","checkinsCount":1569,"usersCount":703,"tipCount":12,"visitsCount":1809,"tier":2,"message":"Moderate","currency":"$","rating":7.2},{"name":"Boozie's Bar & Grill","phone":"5633282829","address":"114 1/2 W 3rd St","lat":41.52248601677938,"lng":-90.57478799450871,"neighborhood":"Downtown Davenport","city_fetched":"Davenport","state":"IA","country":"United States","canonicalUrl":"https://foursquare.com/v/boozies-bar--grill/4be83d4dc5220f47937ba9ca","category":"Bar","checkinsCount":1093,"usersCount":478,"tipCount":10,"visitsCount":1107,"tier":"","message":"","currency":"","rating":7.1},{"name":"Gunchies","phone":"5633239867","address":"2905 Telegraph Rd","lat":41.5183044,"lng":-90.6228324,"neighborhood":"West End","city_fetched":"Davenport","state":"IA","country":"United States","canonicalUrl":"https://foursquare.com/v/gunchies/4d976b619079b1f7cdc1120a","category":"American Restaurant","checkinsCount":504,"usersCount":201,"tipCount":5,"visitsCount":583,"url":"http://gunchiespizza.com","tier":"","message":"","currency":"","rating":7.1},{"name":"Stickmans","phone":"5633232100","address":"1510 N Harrison St","lat":41.535441,"lng":-90.577569,"neighborhood":"Central Davenport","city_fetched":"Davenport","state":"IA","country":"United States","canonicalUrl":"https://foursquare.com/v/stickmans/50202b77e4b0ecc9ee7ee46f","category":"Bar","checkinsCount":75,"usersCount":25,"tipCount":3,"visitsCount":79,"tier":"","message":"","currency":"","rating":7},{"name":"Bootleggers","phone":"5634244582","address":"2228 E 11th St","lat":41.531223045953766,"lng":-90.54418094395731,"neighborhood":"The Village","city_fetched":"Davenport","state":"IA","country":"United States","canonicalUrl":"https://foursquare.com/v/bootleggers/4f5c1873e4b0695cbacd9e68","category":"Bar","checkinsCount":302,"usersCount":153,"tipCount":4,"visitsCount":306,"url":"http://www.bootleggersqc.com","tier":"","message":"","currency":"","rating":7},{"name":"Sam's Take Time","phone":"3097973303","address":"1702 7th St","lat":41.495865566666666,"lng":-90.52761197090149,"city_fetched":"Davenport","state":"IL","country":"United States","canonicalUrl":"https://foursquare.com/v/sams-take-time/4c107a1e3ce120a1db37081c","category":"Dive Bar","checkinsCount":283,"usersCount":91,"tipCount":4,"visitsCount":290,"url":"http://www.jimsaminc.com","tier":"","message":"","currency":"","rating":6.9},{"name":"Kavanaugh's Hilltop","phone":"3097869055","address":"1228","lat":41.49886214893019,"lng":-90.5573613580048,"neighborhood":"College Hill District","city_fetched":"Davenport","state":"IL","country":"United States","canonicalUrl":"https://foursquare.com/v/kavanaughs-hilltop/5144b5d8e4b092570bb81e67","category":"Bar","checkinsCount":467,"usersCount":208,"tipCount":2,"visitsCount":539,"url":"http://www.kavanaughshilltop.com","tier":"","message":"","currency":"","rating":6.5}]