[{"name":"South Park Tavern","phone":"9375869526","address":"1301 Wayne Ave","lat":39.74919632829978,"lng":-84.17415276765055,"neighborhood":"South Park","city_fetched":"Dayton","state":"OH","country":"United States","canonicalUrl":"https://foursquare.com/v/south-park-tavern/4b5fa959f964a520ddc629e3","category":"Pizza Place","checkinsCount":4084,"usersCount":1219,"tipCount":48,"visitsCount":4645,"url":"http://southparktavern.com","tier":2,"message":"Moderate","currency":"$","rating":9.2},{"name":"The Trolley Stop","phone":"9374611101","address":"530 E 5th St","lat":39.75679126928031,"lng":-84.18271780014038,"neighborhood":"Oregon","city_fetched":"Dayton","state":"OH","country":"United States","canonicalUrl":"https://foursquare.com/v/the-trolley-stop/4ae25127f964a5202f8d21e3","category":"American Restaurant","checkinsCount":6276,"usersCount":1455,"tipCount":41,"visitsCount":6560,"url":"http://www.trolleystopdayton.com","tier":2,"message":"Moderate","currency":"$","rating":9.2},{"name":"Fifth Street Brewpub","phone":"9374430919","address":"1600 E 5th St","lat":39.75863353202061,"lng":-84.17208746807995,"neighborhood":"Historic Inner East","city_fetched":"Dayton","state":"OH","country":"United States","canonicalUrl":"https://foursquare.com/v/fifth-street-brewpub/4fef23bfe4b0660372373ac5","category":"Bar","checkinsCount":3256,"usersCount":877,"tipCount":32,"visitsCount":4168,"url":"http://www.fifthstreet.coop","tier":2,"message":"Moderate","currency":"$","rating":9.1},{"name":"The Dublin Pub","phone":"9372247822","twitter":"dubpubdayton","address":"300 Wayne Ave","lat":39.757029,"lng":-84.181467,"neighborhood":"Oregon","city_fetched":"Dayton","state":"OH","country":"United States","canonicalUrl":"https://foursquare.com/v/the-dublin-pub/4b16e801f964a52045bf23e3","category":"Pub","checkinsCount":5898,"usersCount":2876,"tipCount":67,"visitsCount":6795,"url":"http://dubpub.com","tier":2,"message":"Moderate","currency":"$","rating":9.1},{"name":"Bunker's Sports Bar & Grill","phone":"9378908899","twitter":"bunkersbar","address":"893 E National Rd","lat":39.8925835604593,"lng":-84.18080806732178,"city_fetched":"Dayton","state":"OH","country":"United States","canonicalUrl":"https://foursquare.com/bunkersbar","category":"Sports Bar","checkinsCount":4193,"usersCount":796,"tipCount":23,"visitsCount":5169,"url":"http://www.bunkersbarandgrill.com","tier":1,"message":"Cheap","currency":"$","rating":9},{"name":"Tank's Bar & Grill","phone":"9372522249","address":"2033 Wayne Ave","lat":39.74148748090963,"lng":-84.16576236727755,"neighborhood":"Walnut Hills","city_fetched":"Dayton","state":"OH","country":"United States","canonicalUrl":"https://foursquare.com/v/tanks-bar--grill/4b4ca5e0f964a520c9b826e3","category":"Bar","checkinsCount":4655,"usersCount":1867,"tipCount":46,"visitsCount":5635,"url":"http://tanksbarandgrill.com","tier":2,"message":"Moderate","currency":"$","rating":8.9},{"name":"Arrow Wine & Spirits","phone":"9372981456","address":"2950 Far Hills Ave","lat":39.70487965264417,"lng":-84.17003631591797,"city_fetched":"Dayton","state":"OH","country":"United States","canonicalUrl":"https://foursquare.com/v/arrow-wine--spirits/4b33bdc7f964a520401e25e3","category":"Liquor Store","checkinsCount":2574,"usersCount":1009,"tipCount":9,"visitsCount":3298,"url":"http://www.arrowwineandspirits.com","tier":"","message":"","currency":"","rating":8.8},{"name":"Warped Wing Brewing Co.","phone":"9372227003","twitter":"warpedwing","address":"26 Wyandot St","lat":39.75965748014745,"lng":-84.18626501128776,"city_fetched":"Dayton","state":"OH","country":"United States","canonicalUrl":"https://foursquare.com/v/warped-wing-brewing-co/51f96a94498ea2cbb6ebedbd","category":"Brewery","checkinsCount":2083,"usersCount":1101,"tipCount":14,"visitsCount":3055,"url":"http://www.warpedwing.com","tier":2,"message":"Moderate","currency":"$","rating":8.8},{"name":"Lucky's Taproom Eatery","phone":"9372226800","address":"520 E 5th St","lat":39.75701651607837,"lng":-84.18304149863812,"neighborhood":"Oregon","city_fetched":"Dayton","state":"OH","country":"United States","canonicalUrl":"https://foursquare.com/v/luckys-taproom-eatery/4d793105f20c236a39f9a641","category":"Bar","checkinsCount":6758,"usersCount":1545,"tipCount":58,"visitsCount":7033,"url":"http://luckystaproom.com","tier":2,"message":"Moderate","currency":"$","rating":8.7},{"name":"Oregon Express","phone":"9372239205","address":"336 E 5th St","lat":39.757092,"lng":-84.18594372,"neighborhood":"Oregon","city_fetched":"Dayton","state":"OH","country":"United States","canonicalUrl":"https://foursquare.com/v/oregon-express/4b16ebc0f964a52079bf23e3","category":"Karaoke Bar","checkinsCount":3029,"usersCount":923,"tipCount":33,"visitsCount":3092,"url":"http://oregonexpressdayton.com","tier":2,"message":"Moderate","currency":"$","rating":8.6},{"name":"The Wine Gallery and Bistro","phone":"9372249463","address":"5 W Monument Ave","lat":39.76383467098515,"lng":-84.19347882270813,"neighborhood":"Downtown Dayton","city_fetched":"Dayton","state":"OH","country":"United States","canonicalUrl":"https://foursquare.com/v/the-wine-gallery-and-bistro/4b63a2aef964a520c0882ae3","category":"Wine Bar","checkinsCount":1115,"usersCount":534,"tipCount":12,"visitsCount":1286,"url":"http://thewinegalleryandcafe.com","tier":"","message":"","currency":"","rating":8.6},{"name":"Century Bar","phone":"9372233382","address":"10 S Jefferson St","lat":39.759454225178516,"lng":-84.18979213851053,"neighborhood":"Downtown Dayton","city_fetched":"Dayton","state":"OH","country":"United States","canonicalUrl":"https://foursquare.com/v/century-bar/4b515e09f964a520dc4b27e3","category":"Bar","checkinsCount":2466,"usersCount":814,"tipCount":27,"visitsCount":2856,"url":"http://centurybourbon.com","tier":2,"message":"Moderate","currency":"$","rating":8.6},{"name":"Blind Bob's","phone":"9379386405","address":"430 E 5th St","lat":39.75717,"lng":-84.184736,"neighborhood":"Oregon","city_fetched":"Dayton","state":"OH","country":"United States","canonicalUrl":"https://foursquare.com/v/blind-bobs/4adf3fc0f964a520b47821e3","category":"Bar","checkinsCount":8332,"usersCount":1884,"tipCount":71,"visitsCount":8635,"url":"http://blindbobs.com","tier":2,"message":"Moderate","currency":"$","rating":8.5},{"name":"Setters Volleyball Club","phone":"9372706479","address":"1008 Gateway Dr","lat":39.776410382198726,"lng":-84.15972590446472,"city_fetched":"Dayton","state":"OH","country":"United States","canonicalUrl":"https://foursquare.com/v/setters-volleyball-club/4bf7e9718d30d13affb0ff17","category":"Sports Bar","checkinsCount":1695,"usersCount":370,"tipCount":6,"visitsCount":2169,"url":"http://settersvolleyballclub.com","tier":1,"message":"Cheap","currency":"$","rating":8.5},{"name":"Dayton Beer Company","address":"41 Madison Street","lat":39.76160427184697,"lng":-84.18513216720063,"city_fetched":"Dayton","state":"OH","country":"United States","canonicalUrl":"https://foursquare.com/v/dayton-beer-company/5539677c498eb49be08f2d34","category":"Brewery","checkinsCount":674,"usersCount":351,"tipCount":6,"visitsCount":904,"url":"http://thedaytonbeerco.com","tier":"","message":"","currency":"","rating":8.4},{"name":"Little York Tavern & Pizza","phone":"9378906700","address":"4120 Little York Rd","lat":39.854786,"lng":-84.188428,"city_fetched":"Dayton","state":"OH","country":"United States","canonicalUrl":"https://foursquare.com/v/little-york-tavern--pizza/4b32a20df964a520821025e3","category":"Pizza Place","checkinsCount":2040,"usersCount":1016,"tipCount":24,"visitsCount":2340,"url":"http://www.littleyorkpizzataverndayton.com","tier":"","message":"","currency":"","rating":8.3},{"name":"Flyboys Deli","phone":"9377236135","twitter":"flyboysdeli","address":"2515 Far Hills Ave","lat":39.708426,"lng":-84.171329,"city_fetched":"Dayton","state":"OH","country":"United States","canonicalUrl":"https://foursquare.com/v/flyboys-deli/51019893e4b0b31990cec0a0","category":"Sandwich Place","checkinsCount":527,"usersCount":285,"tipCount":19,"visitsCount":624,"url":"http://flyboysdeli.com","tier":2,"message":"Moderate","currency":"$","rating":8.3},{"name":"Hooters","phone":"9378900467","address":"6851 Miller Ln","lat":39.847004213828626,"lng":-84.19250556787897,"city_fetched":"Dayton","state":"OH","country":"United States","canonicalUrl":"https://foursquare.com/v/hooters/4b70adc9f964a52045292de3","category":"Wings Joint","checkinsCount":2226,"usersCount":1195,"tipCount":14,"visitsCount":2467,"url":"http://www.hooters.com","tier":1,"message":"Cheap","currency":"$","rating":8.2},{"name":"Jimmie's Ladder 11","phone":"9374241784","address":"936 Brown St","lat":39.74581139062786,"lng":-84.1828182935933,"neighborhood":"South Park","city_fetched":"Dayton","state":"OH","country":"United States","canonicalUrl":"https://foursquare.com/v/jimmies-ladder-11/4ebd20e31081b6083abe81c7","category":"Bar","checkinsCount":3112,"usersCount":1866,"tipCount":50,"visitsCount":3980,"url":"http://jladder11.com","tier":2,"message":"Moderate","currency":"$","rating":8.1},{"name":"Toxic Brew Company","phone":"9379853618","address":"431 5th St.","lat":39.7572614016663,"lng":-84.18395698070526,"neighborhood":"Oregon","city_fetched":"Dayton","state":"OH","country":"United States","canonicalUrl":"https://foursquare.com/v/toxic-brew-company/4dc58ccdb0fb5556ccf3d3eb","category":"Brewery","checkinsCount":2401,"usersCount":980,"tipCount":23,"visitsCount":2886,"url":"http://toxicbrewcompany.com","tier":2,"message":"Moderate","currency":"$","rating":8.1},{"name":"Kennedy Union","address":"10 Founders Ln","lat":39.73959802060245,"lng":-84.17582143650006,"neighborhood":"University Park","city_fetched":"Dayton","state":"OH","country":"United States","canonicalUrl":"https://foursquare.com/v/kennedy-union/4b454655f964a520a80926e3","category":"Student Center","checkinsCount":3934,"usersCount":706,"tipCount":3,"visitsCount":4384,"tier":"","message":"","currency":"","rating":8.1},{"name":"Buffalo Wild Wings","phone":"9372377771","twitter":"bwwings","address":"7875 Waynetowne Blvd","lat":39.86841108766778,"lng":-84.13815021514893,"city_fetched":"Dayton","state":"OH","country":"United States","canonicalUrl":"https://foursquare.com/v/buffalo-wild-wings/4b91f9ebf964a520e3e133e3","category":"Wings Joint","checkinsCount":2160,"usersCount":1251,"tipCount":14,"visitsCount":2470,"url":"http://www.buffalowildwings.com","tier":2,"message":"Moderate","currency":"$","rating":8},{"name":"MJ's on Jefferson","address":"20 N Jefferson St","lat":39.76036325848517,"lng":-84.1900341381583,"neighborhood":"Downtown Dayton","city_fetched":"Dayton","state":"OH","country":"United States","canonicalUrl":"https://foursquare.com/v/mjs-on-jefferson/54432f90498e7e5e627ca353","category":"Gay Bar","checkinsCount":351,"usersCount":94,"tipCount":0,"visitsCount":525,"tier":"","message":"","currency":"","rating":8},{"name":"Wings Sports Bar & Grille","phone":"9378980280","twitter":"wingssportsbar","address":"7902 N Dixie Dr","lat":39.84364523062968,"lng":-84.19819951057434,"city_fetched":"Dayton","state":"OH","country":"United States","canonicalUrl":"https://foursquare.com/wingssportsbar","category":"Sports Bar","checkinsCount":1102,"usersCount":471,"tipCount":11,"visitsCount":1368,"url":"http://www.wingssportsbar.com","tier":"","message":"","currency":"","rating":8},{"name":"Roosters","phone":"9372770114","twitter":"roosters","address":"3501 N Main St","lat":39.797436,"lng":-84.21770462,"city_fetched":"Dayton","state":"OH","country":"United States","canonicalUrl":"https://foursquare.com/v/roosters/4b79d723f964a5207f152fe3","category":"Bar","checkinsCount":667,"usersCount":436,"tipCount":6,"visitsCount":1182,"url":"http://www.roosterswings.com","tier":"","message":"","currency":"","rating":8},{"name":"Tumbleweed Connection","phone":"9372285500","address":"454 E 5th St","lat":39.75705932761293,"lng":-84.18405085802078,"neighborhood":"Oregon","city_fetched":"Dayton","state":"OH","country":"United States","canonicalUrl":"https://foursquare.com/v/tumbleweed-connection/4b74dd82f964a520e6f52de3","category":"Bar","checkinsCount":1599,"usersCount":581,"tipCount":9,"visitsCount":1622,"tier":2,"message":"Moderate","currency":"$","rating":8},{"name":"Jackass Flats","phone":"9372364329","address":"6024 Rip Rap Rd","lat":39.84261552864106,"lng":-84.16600227355957,"city_fetched":"Dayton","state":"OH","country":"United States","canonicalUrl":"https://foursquare.com/v/jackass-flats/4b983325f964a5209f3335e3","category":"Bar","checkinsCount":494,"usersCount":281,"tipCount":7,"visitsCount":557,"tier":"","message":"","currency":"","rating":8},{"name":"Oscar's","phone":"9378908655","twitter":"oscarsbar_grill","address":"318 N Dixie Dr","lat":39.896262,"lng":-84.198066,"city_fetched":"Dayton","state":"OH","country":"United States","canonicalUrl":"https://foursquare.com/v/oscars/4b8971faf964a520ee3632e3","category":"Sports Bar","checkinsCount":770,"usersCount":222,"tipCount":4,"visitsCount":869,"url":"http://oscarssportsbarandgrill.com","tier":"","message":"","currency":"","rating":7.9},{"name":"Slyder's Tavern","phone":"9372581222","twitter":"slyderstavern","address":"836 Watervliet Ave","lat":39.730021,"lng":-84.1398789,"neighborhood":"Belmont","city_fetched":"Dayton","state":"OH","country":"United States","canonicalUrl":"https://foursquare.com/slyderstavern","category":"Bar","checkinsCount":1424,"usersCount":403,"tipCount":14,"visitsCount":1717,"url":"http://www.slyderstavern.com","tier":1,"message":"Cheap","currency":"$","rating":7.9},{"name":"Fricker's","phone":"9372529007","address":"1818 Woodman Dr","lat":39.72807348928157,"lng":-84.12194738125386,"neighborhood":"Eastmont","city_fetched":"Dayton","state":"OH","country":"United States","canonicalUrl":"https://foursquare.com/v/frickers/4b5a6ac1f964a520d6c328e3","category":"Wings Joint","checkinsCount":4851,"usersCount":1555,"tipCount":31,"visitsCount":5691,"url":"http://www.frickers.com","tier":2,"message":"Moderate","currency":"$","rating":7.9},{"name":"Carillon Brewing Co.","phone":"9379100722","twitter":"carillonbrewery","address":"1000 Carillon Blvd","lat":39.72872977258749,"lng":-84.19810709723055,"neighborhood":"University Park","city_fetched":"Dayton","state":"OH","country":"United States","canonicalUrl":"https://foursquare.com/v/carillon-brewing-co/53ebddd6498e34b4976fe2a7","category":"Brewery","checkinsCount":819,"usersCount":479,"tipCount":14,"visitsCount":961,"url":"http://www.carillonbrewingco.org","tier":"","message":"","currency":"","rating":7.9},{"name":"TJ Chumps","phone":"9378364300","twitter":"tjchumps","address":"559 S. Main Street","lat":39.87045,"lng":-84.296417,"city_fetched":"Dayton","state":"OH","country":"United States","canonicalUrl":"https://foursquare.com/v/tj-chumps/4b7c2403f964a5208c7f2fe3","category":"Sports Bar","checkinsCount":1736,"usersCount":637,"tipCount":18,"visitsCount":2090,"url":"http://www.tjchumps.com","tier":"","message":"","currency":"","rating":7.9},{"name":"Boston's Bistro & Pub","phone":"9374611002","twitter":"bostonsbistro","address":"7500 N Main St","lat":39.83317038167504,"lng":-84.25222456455231,"city_fetched":"Dayton","state":"OH","country":"United States","canonicalUrl":"https://foursquare.com/bostonsbistro","category":"Pub","checkinsCount":2287,"usersCount":607,"tipCount":17,"visitsCount":2597,"url":"http://www.bostonsbistro.com","tier":2,"message":"Moderate","currency":"$","rating":7.9},{"name":"Kramer's","phone":"9372949141","address":"1018 Irving Ave","lat":39.73224627,"lng":-84.16416771,"neighborhood":"Shroyer Park","city_fetched":"Dayton","state":"OH","country":"United States","canonicalUrl":"https://foursquare.com/v/kramers/4b772766f964a520f2822ee3","category":"Bar","checkinsCount":1056,"usersCount":436,"tipCount":5,"visitsCount":1158,"tier":"","message":"","currency":"","rating":7.8},{"name":"Submarine House Bar & Grill","phone":"9373870066","address":"8807 N Dixie Dr","lat":39.85904190750103,"lng":-84.19954858239655,"city_fetched":"Dayton","state":"OH","country":"United States","canonicalUrl":"https://foursquare.com/v/submarine-house-bar--grill/4b57e9fcf964a5200e4628e3","category":"Sandwich Place","checkinsCount":1133,"usersCount":390,"tipCount":10,"visitsCount":1355,"url":"http://submarinehouse.com","tier":"","message":"","currency":"","rating":7.8},{"name":"El Toro Mexican Restaurant","phone":"9372356244","address":"8361 Troy Pike","lat":39.87588851028537,"lng":-84.13770343221944,"city_fetched":"Dayton","state":"OH","country":"United States","canonicalUrl":"https://foursquare.com/v/el-toro-mexican-restaurant/4b16f206f964a520f4bf23e3","category":"Mexican Restaurant","checkinsCount":2438,"usersCount":941,"tipCount":29,"visitsCount":2818,"url":"http://www.eltorobarandgrill.com","tier":2,"message":"Moderate","currency":"$","rating":7.7},{"name":"Dayton Racquet Club","phone":"9372244381","address":"40 N Main St","lat":39.76065600089732,"lng":-84.19088370364015,"neighborhood":"Downtown Dayton","city_fetched":"Dayton","state":"OH","country":"United States","canonicalUrl":"https://foursquare.com/v/dayton-racquet-club/4b7be948f964a5205d732fe3","category":"American Restaurant","checkinsCount":1283,"usersCount":375,"tipCount":10,"visitsCount":1329,"url":"http://www.clubcorp.com/Clubs/Dayton-Racquet-Club","tier":"","message":"","currency":"","rating":7.7},{"name":"Hairless Hare","lat":39.888702,"lng":-84.211937,"city_fetched":"Dayton","state":"OH","country":"United States","canonicalUrl":"https://foursquare.com/v/hairless-hare/522b81e011d22c9b4bb2e577","category":"Brewery","checkinsCount":267,"usersCount":228,"tipCount":7,"visitsCount":428,"tier":"","message":"","currency":"","rating":7.6},{"name":"Sideroom Lounge","phone":"9372930117","address":"446 Patterson Rd","lat":39.724438997098716,"lng":-84.16200201548,"neighborhood":"Shroyer Park","city_fetched":"Dayton","state":"OH","country":"United States","canonicalUrl":"https://foursquare.com/v/sideroom-lounge/4be6055cbcef2d7fe3b304e5","category":"Bar","checkinsCount":455,"usersCount":61,"tipCount":1,"visitsCount":473,"tier":"","message":"","currency":"","rating":7.5},{"name":"the fieldhouse","phone":"9374612111","address":"1126 Brown St","lat":39.7425134672364,"lng":-84.18232056151463,"neighborhood":"University Park","city_fetched":"Dayton","state":"OH","country":"United States","canonicalUrl":"https://foursquare.com/v/the-fieldhouse/4b63ae60f964a520bd8b2ae3","category":"Bar","checkinsCount":1665,"usersCount":476,"tipCount":9,"visitsCount":1696,"tier":"","message":"","currency":"","rating":7.5},{"name":"TGI Fridays","phone":"9372363200","twitter":"tgifridays","address":"777 Troy St","lat":39.86590773,"lng":-84.13853645,"city_fetched":"Dayton","state":"OH","country":"United States","canonicalUrl":"https://foursquare.com/v/tgi-fridays/4b520251f964a520056127e3","category":"American Restaurant","checkinsCount":2445,"usersCount":860,"tipCount":14,"visitsCount":2569,"url":"http://www.tgifridays.com","tier":2,"message":"Moderate","currency":"$","rating":7.4},{"name":"Argos","phone":"9372522976","address":"301 Mabel Ave","lat":39.755063243762045,"lng":-84.15602102505768,"neighborhood":"Historic Inner East","city_fetched":"Dayton","state":"OH","country":"United States","canonicalUrl":"https://foursquare.com/v/argos/4c1adf35b306c9286c6961b7","category":"Bar","checkinsCount":292,"usersCount":102,"tipCount":8,"visitsCount":364,"tier":"","message":"","currency":"","rating":7.4},{"name":"Therapy Cafe","phone":"9374614000","address":"452 E 3rd St","lat":39.76045326826855,"lng":-84.18479919433594,"city_fetched":"Dayton","state":"OH","country":"United States","canonicalUrl":"https://foursquare.com/v/therapy-cafe/4b5293c7f964a520e38227e3","category":"Nightclub","checkinsCount":1395,"usersCount":557,"tipCount":19,"visitsCount":1445,"url":"http://www.therapy-cafe.com","tier":"","message":"","currency":"","rating":7.4},{"name":"Carmel's Southwest Grill","phone":"9372941261","address":"1025 Shroyer Rd","lat":39.72075283527374,"lng":-84.16135088333333,"neighborhood":"Shroyer Park","city_fetched":"Dayton","state":"OH","country":"United States","canonicalUrl":"https://foursquare.com/v/carmels-southwest-grill/4b7340e1f964a5206fa42de3","category":"Mexican Restaurant","checkinsCount":1787,"usersCount":527,"tipCount":29,"visitsCount":2050,"url":"http://www.carmelsgrill.com","tier":1,"message":"Cheap","currency":"$","rating":7.4},{"name":"Dayton Beer Company","address":"912 E Dorothy Ln","lat":39.70366123824613,"lng":-84.15188395330617,"city_fetched":"Dayton","state":"OH","country":"United States","canonicalUrl":"https://foursquare.com/v/dayton-beer-company/4f99c9b9e4b0bf3628a8fe42","category":"Brewery","checkinsCount":383,"usersCount":258,"tipCount":7,"visitsCount":445,"tier":"","message":"","currency":"","rating":7.4},{"name":"Newcom's Tavern","phone":"9372232470","address":"418 E 5th St","lat":39.757131124956985,"lng":-84.18517336190673,"neighborhood":"Oregon","city_fetched":"Dayton","state":"OH","country":"United States","canonicalUrl":"https://foursquare.com/v/newcoms-tavern/4b74e12ef964a52097f62de3","category":"Bar","checkinsCount":1039,"usersCount":517,"tipCount":0,"visitsCount":1070,"url":"http://www.georgenewcomstavern.com","tier":2,"message":"Moderate","currency":"$","rating":7.3},{"name":"Capri Lanes","phone":"9372987411","address":"2727 S Dixie Dr","lat":39.71321999538169,"lng":-84.20084416866302,"city_fetched":"Dayton","state":"OH","country":"United States","canonicalUrl":"https://foursquare.com/v/capri-lanes/4b529d11f964a520f08327e3","category":"Bowling Alley","checkinsCount":625,"usersCount":392,"tipCount":2,"visitsCount":699,"tier":"","message":"","currency":"","rating":7.3},{"name":"Brixx Ice Co","phone":"9372222257","address":"500 E 1st St","lat":39.76364554107046,"lng":-84.18361824208617,"city_fetched":"Dayton","state":"OH","country":"United States","canonicalUrl":"https://foursquare.com/v/brixx-ice-co/4b16ef1af964a520b7bf23e3","category":"Restaurant","checkinsCount":2530,"usersCount":1201,"tipCount":22,"visitsCount":3002,"url":"http://www.brixxicecompany.com","tier":2,"message":"Moderate","currency":"$","rating":7.2},{"name":"Clancy's Tavern","phone":"9372569333","address":"5514 Burkhardt Rd","lat":39.75702276713121,"lng":-84.10931172721963,"city_fetched":"Dayton","state":"OH","country":"United States","canonicalUrl":"https://foursquare.com/v/clancys-tavern/4c0ec4bf7189c928ff0ad9b6","category":"Wings Joint","checkinsCount":856,"usersCount":289,"tipCount":12,"visitsCount":867,"url":"http://www.clancystaverndayton.com","tier":1,"message":"Cheap","currency":"$","rating":7.2},{"name":"Angie's Fire Tavern","phone":"9372525125","address":"703 Watervliet Ave","lat":39.73151412254601,"lng":-84.142753565606,"neighborhood":"Belmont","city_fetched":"Dayton","state":"OH","country":"United States","canonicalUrl":"https://foursquare.com/v/angies-fire-tavern/4c425669cc410f47adb3ac61","category":"Bar","checkinsCount":675,"usersCount":277,"tipCount":15,"visitsCount":731,"url":"http://angiesfirehousetavern.com","tier":"","message":"","currency":"","rating":7.2},{"name":"Shag's Tavern","address":"1928 S Smithville Rd","lat":39.7385637,"lng":-84.14028,"neighborhood":"Linden Heights","city_fetched":"Dayton","state":"OH","country":"United States","canonicalUrl":"https://foursquare.com/v/shags-tavern/4c1590caa1010f4759504e18","category":"Bar","checkinsCount":373,"usersCount":108,"tipCount":5,"visitsCount":405,"tier":"","message":"","currency":"","rating":7.2},{"name":"Dayton Taste","phone":"9378547060","address":"2555 Shiloh Springs Rd, Trotwood, OH 45426","lat":39.81977417523364,"lng":-84.28467341034806,"city_fetched":"Dayton","state":"OH","country":"United States","canonicalUrl":"https://foursquare.com/v/dayton-taste/4eb600eb93ad2365706fe1ca","category":"American Restaurant","checkinsCount":148,"usersCount":81,"tipCount":8,"visitsCount":150,"url":"http://daytontaste.com","tier":"","message":"","currency":"","rating":7.2},{"name":"Sports And Spirits","address":"1731 Woodman Dr","lat":39.72649551234165,"lng":-84.12316389337623,"city_fetched":"Dayton","state":"OH","country":"United States","canonicalUrl":"https://foursquare.com/v/sports-and-spirits/4c26cdd0f1272d7f415387c5","category":"Bar","checkinsCount":271,"usersCount":99,"tipCount":2,"visitsCount":271,"tier":"","message":"","currency":"","rating":7.2},{"name":"Germanfest Picnic","phone":"9374299251","address":"1000 Carillon Blvd","lat":39.72878184902351,"lng":-84.19869399181383,"neighborhood":"University Park","city_fetched":"Dayton","state":"OH","country":"United States","canonicalUrl":"https://foursquare.com/v/germanfest-picnic/5201549d498e8e4d11ada39f","category":"German Restaurant","checkinsCount":134,"usersCount":102,"tipCount":0,"visitsCount":138,"tier":"","message":"","currency":"","rating":7.2},{"name":"Club Masque","phone":"9372282582","twitter":"clubmasque","address":"34 N Jefferson St","lat":39.76069007953443,"lng":-84.18988996827323,"neighborhood":"Downtown Dayton","city_fetched":"Dayton","state":"OH","country":"United States","canonicalUrl":"https://foursquare.com/v/club-masque/4b5bbd52f964a520691329e3","category":"Gay Bar","checkinsCount":5244,"usersCount":1559,"tipCount":35,"visitsCount":5446,"url":"http://www.clubmasque.com","tier":3,"message":"Expensive","currency":"$","rating":7.1},{"name":"Canal Street Tavern","phone":"9374619343","address":"308 E 1st St","lat":39.763055,"lng":-84.186837,"city_fetched":"Dayton","state":"OH","country":"United States","canonicalUrl":"https://foursquare.com/v/canal-street-tavern/4b6e4772f964a520e5b52ce3","category":"Bar","checkinsCount":846,"usersCount":483,"tipCount":4,"visitsCount":859,"tier":"","message":"","currency":"","rating":7.1},{"name":"Gambits","phone":"9372231000","address":"1414 S Patterson Blvd","lat":39.737718789391174,"lng":-84.19150156186805,"neighborhood":"University Park","city_fetched":"Dayton","state":"OH","country":"United States","canonicalUrl":"https://foursquare.com/v/gambits/4c0b1da76071a59318dfe032","category":"Hotel Bar","checkinsCount":561,"usersCount":219,"tipCount":4,"visitsCount":566,"tier":"","message":"","currency":"","rating":7.1},{"name":"Shroyer Inn","phone":"9372949274","address":"1028 Shroyer Rd","lat":39.72058486416502,"lng":-84.1608171982526,"neighborhood":"Shroyer Park","city_fetched":"Dayton","state":"OH","country":"United States","canonicalUrl":"https://foursquare.com/v/shroyer-inn/4bb7f87b3db7b71360dc209a","category":"Bar","checkinsCount":1137,"usersCount":221,"tipCount":5,"visitsCount":1174,"tier":"","message":"","currency":"","rating":7},{"name":"Murray's Place","phone":"9372949373","address":"2866 S Dixie Dr","lat":39.71104783793166,"lng":-84.19963610001969,"city_fetched":"Dayton","state":"OH","country":"United States","canonicalUrl":"https://foursquare.com/v/murrays-place/4b5d272cf964a520c05429e3","category":"Bar","checkinsCount":623,"usersCount":208,"tipCount":9,"visitsCount":737,"tier":1,"message":"Cheap","currency":"$","rating":7},{"name":"Oktoberfest at Dayton Art Institute","twitter":"daytonart","address":"456 Belmonte Park N","lat":39.76573014747365,"lng":-84.20206594992628,"city_fetched":"Dayton","state":"OH","country":"United States","canonicalUrl":"https://foursquare.com/v/oktoberfest-at-dayton-art-institute/523963a711d24dad9f6a7475","category":"Beer Garden","checkinsCount":285,"usersCount":248,"tipCount":6,"visitsCount":355,"url":"http://www.daytonartinstitute.org","tier":"","message":"","currency":"","rating":6.9},{"name":"Right Corner","phone":"9372281285","address":"105 E 3rd St","lat":39.76000572800093,"lng":-84.18963767013848,"neighborhood":"Downtown Dayton","city_fetched":"Dayton","state":"OH","country":"United States","canonicalUrl":"https://foursquare.com/v/right-corner/4bde326d0ee3a593c35c30b0","category":"Gay Bar","checkinsCount":675,"usersCount":134,"tipCount":10,"visitsCount":741,"tier":"","message":"","currency":"","rating":6.9}]