[{"name":"The Imperial","phone":"4044645698","twitter":"theimperialbar","address":"726 W College Ave","lat":33.766083,"lng":-84.306358,"neighborhood":"Oakhurst","city_fetched":"Decatur,US","state":"GA","country":"United States","canonicalUrl":"https://foursquare.com/v/the-imperial/5243572711d2245dfb8bb837","categoryId":"4bf58dd8d48988d11b941735","category":"Pub","checkinsCount":1566,"usersCount":669,"tipCount":15,"visitsCount":2127,"url":"http://imperialdecatur.com","tier":2,"message":"Moderate","currency":"$","rating":8.8},{"name":"The Marlay House","phone":"4042709950","twitter":"themarlay","address":"426 W Ponce de Leon Ave","lat":33.775482091432586,"lng":-84.3033903837204,"neighborhood":"Downtown Decatur","city_fetched":"Decatur,US","state":"GA","country":"United States","canonicalUrl":"https://foursquare.com/v/the-marlay-house/41390580f964a520da1a1fe3","categoryId":"4bf58dd8d48988d11b941735","category":"Pub","checkinsCount":5485,"usersCount":2136,"tipCount":54,"visitsCount":5687,"url":"http://themarlayhouse.com","tier":2,"message":"Moderate","currency":"$","rating":8.7},{"name":"Universal Joint","phone":"4043736260","address":"906 Oakview Rd","lat":33.759525,"lng":-84.303099,"neighborhood":"Oakhurst","city_fetched":"Decatur,US","state":"GA","country":"United States","canonicalUrl":"https://foursquare.com/v/universal-joint/4a4acef8f964a52036ac1fe3","categoryId":"4bf58dd8d48988d116941735","category":"Bar","checkinsCount":6089,"usersCount":1925,"tipCount":51,"visitsCount":6234,"url":"http://www.ujointbar.com","tier":2,"message":"Moderate","currency":"$","rating":8.6},{"name":"Mac McGee Irish Pub","phone":"4043778050","twitter":"macmcgeepub","address":"111 Sycamore St","lat":33.77451782192391,"lng":-84.29612696170807,"neighborhood":"Downtown Decatur","city_fetched":"Decatur,US","state":"GA","country":"United States","canonicalUrl":"https://foursquare.com/v/mac-mcgee-irish-pub/4b6e1844f964a52010aa2ce3","categoryId":"4bf58dd8d48988d11b941735","category":"Pub","checkinsCount":5402,"usersCount":2131,"tipCount":44,"visitsCount":5432,"url":"http://macmcgeeirishpub.com","tier":2,"message":"Moderate","currency":"$","rating":8.5},{"name":"The Square Pub","phone":"4048444010","twitter":"squarepub","address":"115 Sycamore St","lat":33.77451670715519,"lng":-84.29603040218353,"neighborhood":"Downtown Decatur","city_fetched":"Decatur,US","state":"GA","country":"United States","canonicalUrl":"https://foursquare.com/v/the-square-pub/4c8fe047fbe58cfa8e3e1db9","categoryId":"4bf58dd8d48988d11b941735","category":"Pub","checkinsCount":5441,"usersCount":2528,"tipCount":56,"visitsCount":5486,"url":"http://squarepubdecatur.com","tier":2,"message":"Moderate","currency":"$","rating":8.3},{"name":"The S.O.S. Tiki Bar","phone":"4043779308","address":"340 Church St","lat":33.77425303900331,"lng":-84.2951596121237,"neighborhood":"Downtown Decatur","city_fetched":"Decatur,US","state":"GA","country":"United States","canonicalUrl":"https://foursquare.com/v/the-sos-tiki-bar/563aacd2cd108114437ea9dc","categoryId":"4bf58dd8d48988d11e941735","category":"Cocktail Bar","checkinsCount":395,"usersCount":248,"tipCount":4,"visitsCount":398,"tier":2,"message":"Moderate","currency":"$","rating":8.1},{"name":"Trackside Tavern","phone":"4043780504","address":"313 E College Ave","lat":33.771122,"lng":-84.29200353,"city_fetched":"Decatur,US","state":"GA","country":"United States","canonicalUrl":"https://foursquare.com/v/trackside-tavern/4c76a2f9db52b1f722077cdc","categoryId":"4bf58dd8d48988d11b941735","category":"Pub","checkinsCount":3461,"usersCount":1030,"tipCount":29,"visitsCount":3634,"url":"http://tracksidetavern.com","tier":2,"message":"Moderate","currency":"$","rating":7.7},{"name":"Thinking Man Tavern","phone":"4043701717","address":"537 W Howard Ave","lat":33.76906977401571,"lng":-84.30159330368042,"neighborhood":"Adair Park","city_fetched":"Decatur,US","state":"GA","country":"United States","canonicalUrl":"https://foursquare.com/v/thinking-man-tavern/449986f9f964a52095341fe3","categoryId":"4bf58dd8d48988d11b941735","category":"Pub","checkinsCount":4715,"usersCount":1812,"tipCount":45,"visitsCount":4938,"url":"http://thinkingmantavern.com","tier":2,"message":"Moderate","currency":"$","rating":7.6},{"name":"Taco Mac","phone":"4043784140","twitter":"tmacrestaurants","address":"240 W Ponce De Leon Ave","lat":33.775281,"lng":-84.299514,"neighborhood":"Downtown Decatur","city_fetched":"Decatur,US","state":"GA","country":"United States","canonicalUrl":"https://foursquare.com/v/taco-mac/49e59fabf964a520db631fe3","categoryId":"4bf58dd8d48988d11d941735","category":"Sports Bar","checkinsCount":10665,"usersCount":4360,"tipCount":59,"visitsCount":11687,"url":"http://www.tacomac.com","tier":2,"message":"Moderate","currency":"$","rating":6.9}]