[{"name":"Bar El Cortijo","phone":"+528777725251","address":"Madero 295","lat":29.324398955959087,"lng":-100.93459239270913,"city_fetched":"Del Rio,US","state":"Coahuila de Zaragoza","country":"México","canonicalUrl":"https://foursquare.com/v/bar-el-cortijo/4fa5f04ce4b00f71958cfa13","categoryId":"4bf58dd8d48988d116941735","category":"Bar","checkinsCount":235,"usersCount":101,"tipCount":10,"visitsCount":341,"tier":"","message":"","currency":"","rating":8.3},{"name":"Blue Oasis","phone":"8303137088","lat":29.409603801701127,"lng":-100.90511438491608,"city_fetched":"Del Rio,US","state":"TX","country":"United States","canonicalUrl":"https://foursquare.com/v/blue-oasis/5272707911d27ce6a3b2c500","categoryId":"4bf58dd8d48988d11d941735","category":"Sports Bar","checkinsCount":149,"usersCount":98,"tipCount":5,"visitsCount":282,"tier":"","message":"","currency":"","rating":8.1},{"name":"White Horse Lounge","lat":29.386233806009393,"lng":-100.9048551688429,"city_fetched":"Del Rio,US","state":"TX","country":"United States","canonicalUrl":"https://foursquare.com/v/white-horse-lounge/4c7b12b281bca093f1940215","categoryId":"4bf58dd8d48988d116941735","category":"Bar","checkinsCount":445,"usersCount":194,"tipCount":4,"visitsCount":501,"tier":"","message":"","currency":"","rating":6.9},{"name":"Bar el Corona.","address":"Hidalgo","lat":29.325647734416656,"lng":-100.93167949021827,"city_fetched":"Del Rio,US","state":"TX","country":"México","canonicalUrl":"https://foursquare.com/v/bar-el-corona/504aaeece4b015de6194f651","categoryId":"4bf58dd8d48988d116941735","category":"Bar","checkinsCount":154,"usersCount":83,"tipCount":4,"visitsCount":162,"tier":"","message":"","currency":"","rating":6.6}]