[{"name":"Celery City Craft","phone":"4074747140","twitter":"celerycitycraft","address":"114 S Palmetto Ave","lat":28.811302415498826,"lng":-81.26616250082222,"city_fetched":"Deltona,US","state":"FL","country":"United States","canonicalUrl":"https://foursquare.com/v/celery-city-craft/538529ed498ee4b654aed6ad","categoryId":"4bf58dd8d48988d11b941735","category":"Pub","checkinsCount":736,"usersCount":227,"tipCount":7,"visitsCount":857,"url":"http://celerycitycraft.com","tier":2,"message":"Moderate","currency":"$","rating":8.9},{"name":"Persimmon Hollow Brewing Company","address":"111 W Georgia Ave","lat":29.027305069975302,"lng":-81.3040751945451,"city_fetched":"Deltona,US","state":"FL","country":"United States","canonicalUrl":"https://foursquare.com/v/persimmon-hollow-brewing-company/53999198498eab4891e3746d","categoryId":"50327c8591d4c4b30a586d5d","category":"Brewery","checkinsCount":318,"usersCount":245,"tipCount":3,"visitsCount":424,"tier":"","message":"","currency":"","rating":8.8},{"name":"Abbey Bar","phone":"3867344545","address":"117 N Woodland Blvd","lat":29.02867517123799,"lng":-81.30340933799744,"city_fetched":"Deltona,US","state":"FL","country":"United States","canonicalUrl":"https://foursquare.com/v/abbey-bar/4b63a209f964a52090882ae3","categoryId":"4bf58dd8d48988d116941735","category":"Bar","checkinsCount":1984,"usersCount":634,"tipCount":18,"visitsCount":2093,"url":"http://abbeybardeland.com","tier":"","message":"","currency":"","rating":8.8},{"name":"Red Cypress Brewery","phone":"4075420341","twitter":"redcypressbeer","address":"855 E State Road 434","lat":28.70343411212866,"lng":-81.28601080763859,"city_fetched":"Deltona,US","state":"FL","country":"United States","canonicalUrl":"https://foursquare.com/v/red-cypress-brewery/56171419498e0e4ac544f677","categoryId":"50327c8591d4c4b30a586d5d","category":"Brewery","checkinsCount":319,"usersCount":160,"tipCount":4,"visitsCount":394,"url":"http://www.redcypressbrewery.com","tier":"","message":"","currency":"","rating":8.8},{"name":"The Hourglass Brewery","phone":"4077199874","address":"280 S Ronald Reagan Blvd","lat":28.692389225837182,"lng":-81.34638435108704,"city_fetched":"Deltona,US","state":"FL","country":"United States","canonicalUrl":"https://foursquare.com/v/the-hourglass-brewery/4f0f0c9fe4b03684a5f684bb","categoryId":"50327c8591d4c4b30a586d5d","category":"Brewery","checkinsCount":2075,"usersCount":939,"tipCount":22,"visitsCount":2651,"url":"http://thehourglassbrewery.com","tier":2,"message":"Moderate","currency":"$","rating":8.5},{"name":"Cork & Olive","phone":"4073230555","address":"1061 S Sun Dr Ste 1009","lat":28.753156,"lng":-81.349619,"city_fetched":"Deltona,US","state":"FL","country":"United States","canonicalUrl":"https://foursquare.com/v/cork--olive/51671032e4b0532df0205636","categoryId":"4bf58dd8d48988d123941735","category":"Wine Bar","checkinsCount":149,"usersCount":68,"tipCount":4,"visitsCount":182,"tier":"","message":"","currency":"","rating":8.4},{"name":"nice n easy oyster bar","phone":"3867756858","address":"2109 N Volusia Ave","lat":28.96675,"lng":-81.299194,"city_fetched":"Deltona,US","state":"FL","country":"United States","canonicalUrl":"https://foursquare.com/v/nice-n-easy-oyster-bar/4b847027f964a5205f3531e3","categoryId":"4bf58dd8d48988d11b941735","category":"Pub","checkinsCount":473,"usersCount":200,"tipCount":9,"visitsCount":544,"tier":"","message":"","currency":"","rating":8.4},{"name":"Buster's Bistro","phone":"4077326880","address":"412 Sanford Ave","lat":28.80982156358688,"lng":-81.26517855401828,"city_fetched":"Deltona,US","state":"FL","country":"United States","canonicalUrl":"https://foursquare.com/v/busters-bistro/50ef530de4b0da28242ba43a","categoryId":"4bf58dd8d48988d117941735","category":"Beer Garden","checkinsCount":828,"usersCount":303,"tipCount":6,"visitsCount":1035,"url":"http://bustersbistro.com","tier":2,"message":"Moderate","currency":"$","rating":8.4},{"name":"Little Fish Huge Pond","phone":"4072211499","twitter":"littlefishhuge","address":"401 Sanford Ave","lat":28.808843413668356,"lng":-81.26481771469116,"city_fetched":"Deltona,US","state":"FL","country":"United States","canonicalUrl":"https://foursquare.com/v/little-fish-huge-pond/4b05868ff964a520fa6522e3","categoryId":"4bf58dd8d48988d116941735","category":"Bar","checkinsCount":2228,"usersCount":469,"tipCount":21,"visitsCount":2287,"url":"http://www.littlefish-hugepond.com","tier":"","message":"","currency":"","rating":8.3},{"name":"Imperial Wine Bar & Beer Garden","lat":28.81180185811264,"lng":-81.26736687761786,"city_fetched":"Deltona,US","state":"FL","country":"United States","canonicalUrl":"https://foursquare.com/v/imperial-wine-bar--beer-garden/507754d5e4b065f1dc1a8bb6","categoryId":"4bf58dd8d48988d123941735","category":"Wine Bar","checkinsCount":666,"usersCount":322,"tipCount":14,"visitsCount":691,"tier":"","message":"","currency":"","rating":8.2},{"name":"The Lazy Gator Bar","phone":"4073651244","twitter":"black_hammock","address":"2356 Black Hammock Fish Camp Rd","lat":28.705223,"lng":-81.2069929,"city_fetched":"Deltona,US","state":"FL","country":"United States","canonicalUrl":"https://foursquare.com/v/the-lazy-gator-bar/4b09ae5af964a520891b23e3","categoryId":"4bf58dd8d48988d116941735","category":"Bar","checkinsCount":739,"usersCount":378,"tipCount":5,"visitsCount":747,"url":"http://theblackhammock.com","tier":"","message":"","currency":"","rating":8.2},{"name":"World of Beer","phone":"4078786693","address":"1125 Townpark Ave","lat":28.78824856094933,"lng":-81.35648673617041,"neighborhood":"Colonial Townpark","city_fetched":"Deltona,US","state":"FL","country":"United States","canonicalUrl":"https://foursquare.com/v/world-of-beer/519b3fcf8bbdfcdd16e7eca0","categoryId":"4bf58dd8d48988d116941735","category":"Bar","checkinsCount":1560,"usersCount":783,"tipCount":7,"visitsCount":1781,"url":"http://wobusa.com/locations/lake-mary","tier":2,"message":"Moderate","currency":"$","rating":8.2},{"name":"Sanford Homebrew Shop","phone":"4077326931","twitter":"sanfordhbs","address":"115 S Magnolia Ave","lat":28.81122745809836,"lng":-81.26676469157384,"city_fetched":"Deltona,US","state":"FL","country":"United States","canonicalUrl":"https://foursquare.com/v/sanford-homebrew-shop/5050afb9e4b06e59386471e5","categoryId":"50327c8591d4c4b30a586d5d","category":"Brewery","checkinsCount":444,"usersCount":45,"tipCount":5,"visitsCount":452,"url":"http://sanfordhomebrewshop.com","tier":"","message":"","currency":"","rating":8.1},{"name":"Corona Cigar Company & Montecristo Lounge","phone":"4073333453","twitter":"coronacigarco","address":"1130 Townpark Ave","lat":28.7884225434605,"lng":-81.35632395744324,"neighborhood":"Colonial Townpark","city_fetched":"Deltona,US","state":"FL","country":"United States","canonicalUrl":"https://foursquare.com/v/corona-cigar-company--montecristo-lounge/4b5d0edcf964a520c35029e3","categoryId":"4bf58dd8d48988d121941735","category":"Lounge","checkinsCount":2300,"usersCount":790,"tipCount":16,"visitsCount":2331,"url":"http://www.coronacigar.com","tier":"","message":"","currency":"","rating":8.1},{"name":"Miller's Sanford Ale House","phone":"4073287037","address":"50 Towne Center Cir","lat":28.807376854704703,"lng":-81.3383960723877,"neighborhood":"Seminole Towne Center","city_fetched":"Deltona,US","state":"FL","country":"United States","canonicalUrl":"https://foursquare.com/v/millers-sanford-ale-house/4b27e44df964a520cd8b24e3","categoryId":"4bf58dd8d48988d11d941735","category":"Sports Bar","checkinsCount":4579,"usersCount":2292,"tipCount":36,"visitsCount":5235,"url":"http://www.millersalehouse.com","tier":2,"message":"Moderate","currency":"$","rating":8},{"name":"The Draft House","phone":"3867751400","address":"2631 Enterprise Rd Ste 400","lat":28.912634546844767,"lng":-81.29155397415161,"city_fetched":"Deltona,US","state":"FL","country":"United States","canonicalUrl":"https://foursquare.com/v/the-draft-house/4eab58636d86a323a4a5c8cf","categoryId":"4bf58dd8d48988d116941735","category":"Bar","checkinsCount":1506,"usersCount":430,"tipCount":19,"visitsCount":1736,"url":"http://the-draft-house.com","tier":2,"message":"Moderate","currency":"$","rating":8},{"name":"Wop's Hops Brewing Company","address":"419 Sanford Ave","lat":28.808317316106706,"lng":-81.26479142396205,"city_fetched":"Deltona,US","state":"FL","country":"United States","canonicalUrl":"https://foursquare.com/v/wops-hops-brewing-company/5466957a498e40bd82d1b8fd","categoryId":"50327c8591d4c4b30a586d5d","category":"Brewery","checkinsCount":191,"usersCount":105,"tipCount":2,"visitsCount":215,"tier":"","message":"","currency":"","rating":7.9},{"name":"The Pig","lat":29.02791554528848,"lng":-81.30539183139196,"city_fetched":"Deltona,US","state":"FL","country":"United States","canonicalUrl":"https://foursquare.com/v/the-pig/5083514ce4b08785e948e57a","categoryId":"4bf58dd8d48988d11b941735","category":"Pub","checkinsCount":305,"usersCount":89,"tipCount":3,"visitsCount":305,"tier":"","message":"","currency":"","rating":7.8},{"name":"Tilted Kilt Pub And Eatery","phone":"4079420016","twitter":"tiltedkiltpub","address":"901 Currency Cir","lat":28.756666621747694,"lng":-81.35824820618588,"neighborhood":"Primera","city_fetched":"Deltona,US","state":"FL","country":"United States","canonicalUrl":"https://foursquare.com/v/tilted-kilt-pub-and-eatery/4cd21f1c7f56a14328f8d8a6","categoryId":"4bf58dd8d48988d11b941735","category":"Pub","checkinsCount":5965,"usersCount":2773,"tipCount":52,"visitsCount":6625,"url":"http://www.tiltedkilt.com","tier":2,"message":"Moderate","currency":"$","rating":7.6},{"name":"The Barn","phone":"4073242276","address":"1200 S French Ave","lat":28.80138990384168,"lng":-81.27340998397426,"city_fetched":"Deltona,US","state":"FL","country":"United States","canonicalUrl":"https://foursquare.com/v/the-barn/4b058691f964a520286622e3","categoryId":"4bf58dd8d48988d116941735","category":"Bar","checkinsCount":2020,"usersCount":1050,"tipCount":9,"visitsCount":2330,"url":"http://www.thebarninsanford.com","tier":"","message":"","currency":"","rating":7.5},{"name":"Rockin' Rhonda's","phone":"4073303882","address":"2617 S Orlando Dr, Sanford, FL 32773","lat":28.7793878037371,"lng":-81.2741626508381,"city_fetched":"Deltona,US","state":"FL","country":"United States","canonicalUrl":"https://foursquare.com/v/rockin-rhondas/4ee431b44690f88940538fcd","categoryId":"4bf58dd8d48988d120941735","category":"Karaoke Bar","checkinsCount":164,"usersCount":80,"tipCount":6,"visitsCount":186,"url":"http://rockinrhonda.com","tier":1,"message":"Cheap","currency":"$","rating":7.4},{"name":"Swamp House Grill & Tiki Bar","phone":"3866688891","address":"488 W Highbanks Rd","lat":28.890793021378503,"lng":-81.3543224353926,"city_fetched":"Deltona,US","state":"FL","country":"United States","canonicalUrl":"https://foursquare.com/v/swamp-house-grill--tiki-bar/4cb0e26a562d224b60761a88","categoryId":"4bf58dd8d48988d116941735","category":"Bar","checkinsCount":1071,"usersCount":847,"tipCount":22,"visitsCount":1400,"url":"http://www.swamphousegrill.com","tier":"","message":"","currency":"","rating":7.3},{"name":"Fat Rats Lounge","lat":28.8087,"lng":-81.265088,"city_fetched":"Deltona,US","state":"FL","country":"United States","canonicalUrl":"https://foursquare.com/v/fat-rats-lounge/4bca7c970687ef3b6741dccc","categoryId":"4bf58dd8d48988d116941735","category":"Bar","checkinsCount":489,"usersCount":199,"tipCount":8,"visitsCount":492,"tier":"","message":"","currency":"","rating":7.3},{"name":"Casselberry's Patio Bar","twitter":"casselberrysbar","address":"2671 S US Highway 17/92","lat":28.68160128593445,"lng":-81.33446931838989,"city_fetched":"Deltona,US","state":"FL","country":"United States","canonicalUrl":"https://foursquare.com/v/casselberrys-patio-bar/4bbd1c54f57ba59301b9adb9","categoryId":"4bf58dd8d48988d1d4941735","category":"Speakeasy","checkinsCount":448,"usersCount":175,"tipCount":5,"visitsCount":501,"url":"http://casselberryspatiobar.com","tier":"","message":"","currency":"","rating":7.2},{"name":"The West End Trading Company","phone":"4073227475","address":"202 Sanford Ave","lat":28.810734,"lng":-81.2651465,"city_fetched":"Deltona,US","state":"FL","country":"United States","canonicalUrl":"https://foursquare.com/v/the-west-end-trading-company/4b91ab46f964a5208ece33e3","categoryId":"4bf58dd8d48988d118941735","category":"Dive Bar","checkinsCount":2884,"usersCount":950,"tipCount":25,"visitsCount":3210,"url":"http://drinkatwestend.com","tier":1,"message":"Cheap","currency":"$","rating":7.2},{"name":"Jax 5th Ave Deli & Ale House","phone":"4073233354","address":"951 Greenwood Blvd","lat":28.748498616569528,"lng":-81.35793672968809,"city_fetched":"Deltona,US","state":"FL","country":"United States","canonicalUrl":"https://foursquare.com/v/jax-5th-ave-deli--ale-house/4b2c3626f964a520dbc324e3","categoryId":"4bf58dd8d48988d11d941735","category":"Sports Bar","checkinsCount":4115,"usersCount":1465,"tipCount":59,"visitsCount":4712,"url":"http://jaxalehouse.com","tier":2,"message":"Moderate","currency":"$","rating":7.2},{"name":"The Pub & Grill","phone":"3867740257","address":"2438 S Volusia Ave","lat":28.92004,"lng":-81.298549,"city_fetched":"Deltona,US","state":"FL","country":"United States","canonicalUrl":"https://foursquare.com/v/the-pub--grill/4bce0f93937ca5935cdaad92","categoryId":"4bf58dd8d48988d118941735","category":"Dive Bar","checkinsCount":172,"usersCount":67,"tipCount":8,"visitsCount":172,"tier":"","message":"","currency":"","rating":7.1},{"name":"Graffiti Junktion","phone":"4073354717","address":"145 Wekiva Springs Rd","lat":28.68893720798552,"lng":-81.40500358506817,"city_fetched":"Deltona,US","state":"FL","country":"United States","canonicalUrl":"https://foursquare.com/v/graffiti-junktion/524ed7be498e2baba1c6e938","categoryId":"4bf58dd8d48988d11d941735","category":"Sports Bar","checkinsCount":1067,"usersCount":669,"tipCount":24,"visitsCount":1614,"url":"http://graffitijunktion.com","tier":2,"message":"Moderate","currency":"$","rating":7},{"name":"Mulligan's","address":"165 Wekiva Springs Rd","lat":28.688724176256738,"lng":-81.40591059932696,"city_fetched":"Deltona,US","state":"FL","country":"United States","canonicalUrl":"https://foursquare.com/v/mulligans/4b6379d6f964a520cc7c2ae3","categoryId":"4bf58dd8d48988d116941735","category":"Bar","checkinsCount":1162,"usersCount":512,"tipCount":14,"visitsCount":1251,"tier":1,"message":"Cheap","currency":"$","rating":7},{"name":"OB's Restaurant & Lounge","phone":"3869439600","address":"1750 N. Woodland Blvd Hwy 17","lat":29.063167648760576,"lng":-81.30490817150101,"city_fetched":"Deltona,US","state":"FL","country":"United States","canonicalUrl":"https://foursquare.com/v/obs-restaurant--lounge/4d514690994dba7a34b613ec","categoryId":"4bf58dd8d48988d116941735","category":"Bar","checkinsCount":169,"usersCount":108,"tipCount":2,"visitsCount":236,"tier":"","message":"","currency":"","rating":6.9},{"name":"FoxHead Lounge","phone":"4073212399","address":"280 N State Road 415","lat":28.84932111407437,"lng":-81.16246735900971,"city_fetched":"Deltona,US","state":"FL","country":"United States","canonicalUrl":"https://foursquare.com/v/foxhead-lounge/4c533c5e4623be9a56cac5f0","categoryId":"4bf58dd8d48988d116941735","category":"Bar","checkinsCount":957,"usersCount":256,"tipCount":6,"visitsCount":1135,"tier":"","message":"","currency":"","rating":6.9},{"name":"Connolly's Pub","phone":"4077670600","address":"323 N Ronald Reagan Blvd","lat":28.7007480168967,"lng":-81.34618561986237,"city_fetched":"Deltona,US","state":"FL","country":"United States","canonicalUrl":"https://foursquare.com/v/connollys-pub/4d489366ea3f37043d902c0a","categoryId":"4bf58dd8d48988d11b941735","category":"Pub","checkinsCount":821,"usersCount":304,"tipCount":10,"visitsCount":899,"tier":"","message":"","currency":"","rating":6.8},{"name":"Shotski's food & drink","phone":"3217654956","address":"350 E State Road 434","lat":28.700110958294967,"lng":-81.30182879873362,"city_fetched":"Deltona,US","state":"FL","country":"United States","canonicalUrl":"https://foursquare.com/v/shotskis-food--drink/4d4c4599f5d8a090acb63b2f","categoryId":"4bf58dd8d48988d11b941735","category":"Pub","checkinsCount":316,"usersCount":115,"tipCount":5,"visitsCount":316,"tier":"","message":"","currency":"","rating":6.7},{"name":"Gator's Dockside","phone":"4073302557","address":"4349 W Lake Mary Blvd","lat":28.754863521599457,"lng":-81.35179823545963,"city_fetched":"Deltona,US","state":"FL","country":"United States","canonicalUrl":"https://foursquare.com/v/gators-dockside/4b305ba6f964a52025f924e3","categoryId":"4bf58dd8d48988d11d941735","category":"Sports Bar","checkinsCount":4659,"usersCount":1651,"tipCount":53,"visitsCount":5233,"url":"http://gatorsdockside.com","tier":2,"message":"Moderate","currency":"$","rating":6.7},{"name":"Shovelhead Lounge","address":"900 South Highway 17-92","lat":28.692537083678776,"lng":-81.32810428971169,"city_fetched":"Deltona,US","state":"FL","country":"United States","canonicalUrl":"https://foursquare.com/v/shovelhead-lounge/4b058690f964a520ff6522e3","categoryId":"4bf58dd8d48988d121941735","category":"Lounge","checkinsCount":551,"usersCount":235,"tipCount":7,"visitsCount":579,"tier":"","message":"","currency":"","rating":6.7},{"name":"Flanagan's Sports Pub","phone":"4073395525","address":"995 W State Road 434","lat":28.698909909843035,"lng":-81.36181398454808,"city_fetched":"Deltona,US","state":"FL","country":"United States","canonicalUrl":"https://foursquare.com/v/flanagans-sports-pub/4bd64ec129eb9c74a70295e1","categoryId":"4bf58dd8d48988d11d941735","category":"Sports Bar","checkinsCount":1438,"usersCount":254,"tipCount":4,"visitsCount":1476,"tier":"","message":"","currency":"","rating":6.6},{"name":"Kerryman","phone":"4073315024","address":"988 W State Road 434","lat":28.697635275711487,"lng":-81.36218988521648,"city_fetched":"Deltona,US","state":"FL","country":"United States","canonicalUrl":"https://foursquare.com/v/kerryman/4ba10151f964a520278e37e3","categoryId":"4bf58dd8d48988d11b941735","category":"Pub","checkinsCount":900,"usersCount":259,"tipCount":10,"visitsCount":918,"tier":"","message":"","currency":"","rating":6.1},{"name":"The Bulldog Pub","phone":"3868600800","twitter":"bulldogpub_fl","address":"577 Deltona Blvd","lat":28.87683391571045,"lng":-81.281256,"neighborhood":"Deltona Lakes","city_fetched":"Deltona,US","state":"FL","country":"United States","canonicalUrl":"https://foursquare.com/v/the-bulldog-pub/4b907c69f964a520be8c33e3","categoryId":"4bf58dd8d48988d116941735","category":"Bar","checkinsCount":501,"usersCount":171,"tipCount":3,"visitsCount":564,"tier":"","message":"","currency":"","rating":6.1},{"name":"Issues","address":"114 E Indiana Ave","lat":29.028874,"lng":-81.302807,"city_fetched":"Deltona,US","state":"FL","country":"United States","canonicalUrl":"https://foursquare.com/v/issues/4bb7fe88b35776b08684c801","categoryId":"4bf58dd8d48988d118941735","category":"Dive Bar","checkinsCount":478,"usersCount":119,"tipCount":5,"visitsCount":486,"tier":"","message":"","currency":"","rating":6.1},{"name":"Post Time Lounge & Cafe","address":"2500 S US Highway 17 92","lat":28.684191243551602,"lng":-81.33449716728731,"city_fetched":"Deltona,US","state":"FL","country":"United States","canonicalUrl":"https://foursquare.com/v/post-time-lounge--cafe/4ca66ed8a6e08cfa32a17a94","categoryId":"4bf58dd8d48988d121941735","category":"Lounge","checkinsCount":1190,"usersCount":733,"tipCount":11,"visitsCount":1393,"tier":2,"message":"Moderate","currency":"$","rating":6.1},{"name":"Finnegan's Irish Pub","phone":"4073338031","address":"120 International Pkwy #188","lat":28.7581292224036,"lng":-81.36863897840408,"city_fetched":"Deltona,US","state":"FL","country":"United States","canonicalUrl":"https://foursquare.com/v/finnegans-irish-pub/4c94146282b56dcb5ffacbaa","categoryId":"4bf58dd8d48988d11b941735","category":"Pub","checkinsCount":681,"usersCount":303,"tipCount":10,"visitsCount":696,"tier":"","message":"","currency":"","rating":6},{"name":"Mickey Finns","phone":"3867741151","address":"816 Saxon Blvd","lat":28.9101729238382,"lng":-81.2955191920209,"city_fetched":"Deltona,US","state":"FL","country":"United States","canonicalUrl":"https://foursquare.com/v/mickey-finns/4bb696d42ea19521e5f4ab2f","categoryId":"4bf58dd8d48988d11d941735","category":"Sports Bar","checkinsCount":767,"usersCount":303,"tipCount":10,"visitsCount":774,"tier":2,"message":"Moderate","currency":"$","rating":5.7},{"name":"Shady Oak Pub","address":"2975 Old New York Av","lat":29.00854804,"lng":-81.381144,"city_fetched":"Deltona,US","state":"FL","country":"United States","canonicalUrl":"https://foursquare.com/v/shady-oak-pub/4bdc5eafc79cc928743886e9","categoryId":"4bf58dd8d48988d11b941735","category":"Pub","checkinsCount":382,"usersCount":152,"tipCount":4,"visitsCount":394,"tier":"","message":"","currency":"","rating":5.7},{"name":"Deltona/Deland","lat":28.952502786684477,"lng":-81.25841962902369,"city_fetched":"Deltona,US","state":"FL","country":"United States","canonicalUrl":"https://foursquare.com/v/deltonadeland/4e2363f6c65b2b5e355b0806","categoryId":"4bf58dd8d48988d118941735","category":"Dive Bar","checkinsCount":1251,"usersCount":893,"tipCount":1,"visitsCount":1504,"tier":"","message":"","currency":"","rating":5.5}]