[{"name":"The Cherry Cricket","phone":"3033227666","twitter":"cherry_cricket","address":"2641 E 2nd Ave","lat":39.71951109701641,"lng":-104.9563704809857,"neighborhood":"Cherry Creek North","city_fetched":"Denver","state":"CO","country":"United States","canonicalUrl":"https://foursquare.com/v/the-cherry-cricket/40e0b100f964a52041031fe3","category":"Burger Joint","checkinsCount":19021,"usersCount":12304,"tipCount":220,"visitsCount":21089,"url":"http://cherrycricket.com","tier":2,"message":"Moderate","currency":"$","rating":9.4},{"name":"Great Divide Brewing Co.","phone":"3032969460","twitter":"greatdividebrew","address":"2201 Arapahoe St","lat":39.753650805676735,"lng":-104.98838193238706,"neighborhood":"Ballpark","city_fetched":"Denver","state":"CO","country":"United States","canonicalUrl":"https://foursquare.com/v/great-divide-brewing-co/4b9e9835f964a52062f236e3","category":"Brewery","checkinsCount":17021,"usersCount":12244,"tipCount":147,"visitsCount":19036,"url":"http://www.greatdivide.com","tier":2,"message":"Moderate","currency":"$","rating":9.4},{"name":"Hops & Pie","phone":"3034777000","twitter":"hopsandpie","address":"3920 Tennyson St","lat":39.771394,"lng":-105.0438746,"neighborhood":"Berkeley","city_fetched":"Denver","state":"CO","country":"United States","canonicalUrl":"https://foursquare.com/v/hops--pie/4ca3e9fa7f84224b6d38c958","category":"Pizza Place","checkinsCount":6395,"usersCount":3010,"tipCount":77,"visitsCount":7307,"url":"http://hopsandpie.com","tier":2,"message":"Moderate","currency":"$","rating":9.4},{"name":"Denver Bicycle Cafe","phone":"7204468029","twitter":"denverbikecafe","address":"1308 E 17th Ave","lat":39.743156305216495,"lng":-104.97039333506804,"neighborhood":"City Park West","city_fetched":"Denver","state":"CO","country":"United States","canonicalUrl":"https://foursquare.com/denverbikecafe","category":"Bike Shop","checkinsCount":5190,"usersCount":1816,"tipCount":53,"visitsCount":5951,"url":"http://www.denverbicyclecafe.com","tier":"","message":"","currency":"","rating":9.3},{"name":"Ratio Beerworks","phone":"3039978288","twitter":"ratiobeerworks","address":"2920 Larimer St","lat":39.76151719092841,"lng":-104.98108685016632,"neighborhood":"Curtis Park","city_fetched":"Denver","state":"CO","country":"United States","canonicalUrl":"https://foursquare.com/v/ratio-beerworks/54c40b11498e782c170c0f8e","category":"Brewery","checkinsCount":1709,"usersCount":1335,"tipCount":17,"visitsCount":2224,"url":"http://ratiobeerworks.com","tier":"","message":"","currency":"","rating":9.3},{"name":"Mockery Brewing","phone":"3039532058","twitter":"mockerybrewing","address":"3501 Delgany St","lat":39.771289151028625,"lng":-104.97980671715281,"neighborhood":"Five Points","city_fetched":"Denver","state":"CO","country":"United States","canonicalUrl":"https://foursquare.com/v/mockery-brewing/54580b6f498e35b5c46dcc4e","category":"Brewery","checkinsCount":950,"usersCount":902,"tipCount":13,"visitsCount":1486,"url":"http://mockerybrewing.com","tier":"","message":"","currency":"","rating":9.3},{"name":"Euclid Hall Bar & Kitchen","phone":"3035954255","twitter":"euclidhall","address":"1317 14th St","lat":39.747613,"lng":-105.000033,"neighborhood":"LoDo","city_fetched":"Denver","state":"CO","country":"United States","canonicalUrl":"https://foursquare.com/v/euclid-hall-bar--kitchen/4c586dd96201e21eb79d7a70","category":"American Restaurant","checkinsCount":14779,"usersCount":10136,"tipCount":226,"visitsCount":16400,"url":"http://www.euclidhall.com","tier":2,"message":"Moderate","currency":"$","rating":9.3},{"name":"Dry Dock Brewing Company - South Dock","phone":"3034005606","twitter":"drydockbrewing","address":"15120 E Hampden Ave","lat":39.6527325964341,"lng":-104.811949827162,"neighborhood":"Meadow Hills","city_fetched":"Denver","state":"CO","country":"United States","canonicalUrl":"https://foursquare.com/v/dry-dock-brewing-company--south-dock/49cd502bf964a520dd591fe3","category":"Brewery","checkinsCount":8261,"usersCount":3303,"tipCount":90,"visitsCount":9637,"url":"http://drydockbrewing.com","tier":1,"message":"Cheap","currency":"$","rating":9.3},{"name":"Great Divide Barrel Bar","twitter":"greatdividebrew","address":"1812 35th St","lat":39.77035585457405,"lng":-104.97927042480914,"neighborhood":"Five Points","city_fetched":"Denver","state":"CO","country":"United States","canonicalUrl":"https://foursquare.com/v/great-divide-barrel-bar/557c84fb498e8dd042b88d97","category":"Brewery","checkinsCount":818,"usersCount":1001,"tipCount":9,"visitsCount":1300,"url":"http://greatdivide.com","tier":"","message":"","currency":"","rating":9.3},{"name":"Stranahan's Colorado Whiskey","phone":"3032967440","address":"200 S Kalamath St","lat":39.71235193949201,"lng":-104.99843542785693,"neighborhood":"Baker","city_fetched":"Denver","state":"CO","country":"United States","canonicalUrl":"https://foursquare.com/v/stranahans-colorado-whiskey/4b3d1152f964a520398d25e3","category":"Distillery","checkinsCount":3171,"usersCount":3010,"tipCount":22,"visitsCount":3675,"url":"http://www.stranahans.com/home/","tier":"","message":"","currency":"","rating":9.2},{"name":"Four Seasons Hotel Denver","phone":"3033893000","twitter":"fourseasons","address":"1111 14th St","lat":39.74641416614526,"lng":-104.99826425072035,"neighborhood":"Central Business District","city_fetched":"Denver","state":"CO","country":"United States","canonicalUrl":"https://foursquare.com/v/four-seasons-hotel-denver/4cb3bac5ef1b37041b8e5400","category":"Hotel","checkinsCount":7577,"usersCount":3647,"tipCount":39,"visitsCount":8029,"tier":"","message":"","currency":"","rating":9.2},{"name":"Osteria Marco","phone":"3035345855","twitter":"osteriamarco","address":"1453 Larimer St.","lat":39.74805612076453,"lng":-104.99904692173004,"neighborhood":"LoDo","city_fetched":"Denver","state":"CO","country":"United States","canonicalUrl":"https://foursquare.com/v/osteria-marco/49f28888f964a520456a1fe3","category":"Italian Restaurant","checkinsCount":7637,"usersCount":4804,"tipCount":119,"visitsCount":7699,"url":"http://www.osteriamarco.com","tier":2,"message":"Moderate","currency":"$","rating":9.2},{"name":"Renegade Brewing Co.","phone":"7204014089","address":"925 W 9th Ave","lat":39.73059900302865,"lng":-104.9992561340332,"neighborhood":"Art District on Santa Fe","city_fetched":"Denver","state":"CO","country":"United States","canonicalUrl":"https://foursquare.com/v/renegade-brewing-co/4e07a5a1d22d658532a784d4","category":"Brewery","checkinsCount":4325,"usersCount":2665,"tipCount":39,"visitsCount":5002,"url":"http://www.renegadebrewing.com","tier":1,"message":"Cheap","currency":"$","rating":9.2},{"name":"Black Shirt Brewing Co.","phone":"3039932799","address":"3719 Walnut St","lat":39.76978176972936,"lng":-104.9728692863248,"neighborhood":"Five Points","city_fetched":"Denver","state":"CO","country":"United States","canonicalUrl":"https://foursquare.com/v/black-shirt-brewing-co/4e84eec3d3e34ff8f6f467b0","category":"Brewery","checkinsCount":2704,"usersCount":1863,"tipCount":25,"visitsCount":3701,"url":"http://blackshirtbrewingco.com","tier":1,"message":"Cheap","currency":"$","rating":9.2},{"name":"My Brother's Bar","phone":"3034559991","address":"2376 15th St","lat":39.756258488401684,"lng":-105.00925989776762,"neighborhood":"Highland","city_fetched":"Denver","state":"CO","country":"United States","canonicalUrl":"https://foursquare.com/v/my-brothers-bar/40e0b100f964a520c0031fe3","category":"Pub","checkinsCount":7126,"usersCount":4231,"tipCount":101,"visitsCount":7660,"url":"http://mybrothersbar.com","tier":2,"message":"Moderate","currency":"$","rating":9.2},{"name":"Williams & Graham","phone":"3039978886","twitter":"wgcocktails","address":"3160 Tejon St","lat":39.76195430167588,"lng":-105.01103639602661,"neighborhood":"Highland","city_fetched":"Denver","state":"CO","country":"United States","canonicalUrl":"https://foursquare.com/v/williams--graham/4e1c8b2818a81211e9932aaa","category":"Speakeasy","checkinsCount":4771,"usersCount":3279,"tipCount":89,"visitsCount":5107,"url":"http://williamsandgraham.com","tier":3,"message":"Expensive","currency":"$","rating":9.2},{"name":"Yak and Yeti Restaurant and Brewpub","phone":"3034319000","twitter":"yakandyetipub","address":"7803 Ralston Rd","lat":39.802263204062456,"lng":-105.08406379529495,"neighborhood":"Olde Town Arvada Area","city_fetched":"Denver","state":"CO","country":"United States","canonicalUrl":"https://foursquare.com/v/yak-and-yeti-restaurant-and-brewpub/4b08b6cff964a5203e1123e3","category":"Indian Restaurant","checkinsCount":2552,"usersCount":1800,"tipCount":40,"visitsCount":3080,"url":"http://theyakandyeti-hub.com","tier":2,"message":"Moderate","currency":"$","rating":9.1},{"name":"Sushi Sasa","phone":"3034337272","twitter":"sushi_sasa","address":"2401 15th St","lat":39.756685683487326,"lng":-105.00952238734071,"neighborhood":"Highland","city_fetched":"Denver","state":"CO","country":"United States","canonicalUrl":"https://foursquare.com/v/sushi-sasa/49f7cdd6f964a520e06c1fe3","category":"Sushi Restaurant","checkinsCount":4441,"usersCount":2571,"tipCount":74,"visitsCount":4678,"url":"http://sushisasadenver.com","tier":3,"message":"Expensive","currency":"$","rating":9.1},{"name":"Declaration Brewing","phone":"3039557410","twitter":"declarationbrew","address":"2030 S Cherokee St","lat":39.67953054478863,"lng":-104.99086618423462,"neighborhood":"Overland","city_fetched":"Denver","state":"CO","country":"United States","canonicalUrl":"https://foursquare.com/v/declaration-brewing/53f4fc13498ef6eddcb20a5f","category":"Brewery","checkinsCount":920,"usersCount":592,"tipCount":6,"visitsCount":1349,"url":"http://declarationbrewing.com","tier":"","message":"","currency":"","rating":9.1},{"name":"Falling Rock Tap House","phone":"3032938338","twitter":"fallingrocktap","address":"1919 Blake St","lat":39.75369581281424,"lng":-104.99531432663089,"neighborhood":"LoDo","city_fetched":"Denver","state":"CO","country":"United States","canonicalUrl":"https://foursquare.com/v/falling-rock-tap-house/40e0b100f964a5206c031fe3","category":"Pub","checkinsCount":17924,"usersCount":9692,"tipCount":139,"visitsCount":18754,"url":"http://fallingrocktaphouse.com","tier":1,"message":"Cheap","currency":"$","rating":9.1},{"name":"Ophelia's Electric Soapbox","phone":"3039938023","twitter":"opheliasden","address":"1215 20th St","lat":39.752708920239314,"lng":-104.99195935288913,"neighborhood":"Ballpark","city_fetched":"Denver","state":"CO","country":"United States","canonicalUrl":"https://foursquare.com/v/ophelias-electric-soapbox/552daab6498e4124a9810bf8","category":"Lounge","checkinsCount":1286,"usersCount":1559,"tipCount":28,"visitsCount":2145,"url":"http://opheliasdenver.com","tier":"","message":"","currency":"","rating":9.1},{"name":"Copper Kettle Brewing Company","phone":"7204432522","twitter":"copperkettleden","address":"1338 S Valentia St #100","lat":39.69277986666667,"lng":-104.8914635181427,"city_fetched":"Denver","state":"CO","country":"United States","canonicalUrl":"https://foursquare.com/v/copper-kettle-brewing-company/4d8e0d4e788c5481493b2ffd","category":"Brewery","checkinsCount":3386,"usersCount":1299,"tipCount":35,"visitsCount":4030,"url":"http://www.copperkettledenver.com","tier":2,"message":"Moderate","currency":"$","rating":9},{"name":"The Cooper Lounge","lat":39.75297193127281,"lng":-105.00005020779021,"neighborhood":"LoDo","city_fetched":"Denver","state":"CO","country":"United States","canonicalUrl":"https://foursquare.com/v/the-cooper-lounge/53d4448b498e5d478e480259","category":"Lounge","checkinsCount":593,"usersCount":452,"tipCount":5,"visitsCount":602,"tier":"","message":"","currency":"","rating":9},{"name":"Crooked Stave @ The Source","phone":"7205083292","address":"3350 Brighton Blvd","lat":39.768621294601736,"lng":-104.97945299221459,"neighborhood":"Five Points","city_fetched":"Denver","state":"CO","country":"United States","canonicalUrl":"https://foursquare.com/v/crooked-stave--the-source/524f36f211d2d39c315063a6","category":"Brewery","checkinsCount":3658,"usersCount":2410,"tipCount":46,"visitsCount":3790,"url":"http://www.crookedstave.com","tier":2,"message":"Moderate","currency":"$","rating":9},{"name":"The Gothic Theatre","phone":"3037899206","address":"3263 S Broadway","lat":39.657636063881846,"lng":-104.98783990591373,"city_fetched":"Denver","state":"CO","country":"United States","canonicalUrl":"https://foursquare.com/v/the-gothic-theatre/49e61b8cf964a52007641fe3","category":"Rock Club","checkinsCount":5683,"usersCount":4051,"tipCount":26,"visitsCount":6504,"url":"http://www.gothictheatre.com","tier":"","message":"","currency":"","rating":9},{"name":"Station 26 Brewing Company","phone":"3033331825","address":"7045 E 38th Ave","lat":39.76942749850526,"lng":-104.90595221496987,"neighborhood":"Northeast Park Hill","city_fetched":"Denver","state":"CO","country":"United States","canonicalUrl":"https://foursquare.com/v/station-26-brewing-company/527e84dc498e05d392436ac9","category":"Brewery","checkinsCount":1958,"usersCount":1379,"tipCount":24,"visitsCount":2895,"url":"http://station26brewing.co","tier":1,"message":"Cheap","currency":"$","rating":9},{"name":"Lucky Pie Pizza & Tap House","phone":"3038251021","twitter":"luckypielodo","address":"1610 16th St","lat":39.75121782867886,"lng":-105.0000901495483,"neighborhood":"LoDo","city_fetched":"Denver","state":"CO","country":"United States","canonicalUrl":"https://foursquare.com/luckypielodo","category":"Pizza Place","checkinsCount":5677,"usersCount":2732,"tipCount":47,"visitsCount":5780,"url":"http://luckypiepizza.com","tier":2,"message":"Moderate","currency":"$","rating":9},{"name":"Cervantes Masterpiece Ballroom","phone":"3032971772","twitter":"cervantesdenver","address":"2637 Welton St","lat":39.75439511448691,"lng":-104.97879689156797,"neighborhood":"Curtis Park","city_fetched":"Denver","state":"CO","country":"United States","canonicalUrl":"https://foursquare.com/cervantesdenver","category":"Music Venue","checkinsCount":4523,"usersCount":2422,"tipCount":25,"visitsCount":4963,"url":"http://www.cervantesmasterpiece.com","tier":"","message":"","currency":"","rating":9},{"name":"Denver Beer Co.","phone":"3034332739","twitter":"denverbeerco","address":"1695 Platte St","lat":39.75823612163107,"lng":-105.00733118312259,"neighborhood":"Highland","city_fetched":"Denver","state":"CO","country":"United States","canonicalUrl":"https://foursquare.com/v/denver-beer-co/4e1f4ec3aeb7fe88ace52ba6","category":"Brewery","checkinsCount":14369,"usersCount":7107,"tipCount":102,"visitsCount":16433,"url":"http://denverbeerco.com","tier":2,"message":"Moderate","currency":"$","rating":9},{"name":"Illegal Pete's","phone":"7209742198","address":"1744 E Evans Ave","lat":39.67830971666667,"lng":-104.9666884,"neighborhood":"University","city_fetched":"Denver","state":"CO","country":"United States","canonicalUrl":"https://foursquare.com/v/illegal-petes/4aee50eaf964a52087d321e3","category":"Burrito Place","checkinsCount":7362,"usersCount":2700,"tipCount":45,"visitsCount":8382,"url":"http://www.illegalpetes.com","tier":1,"message":"Cheap","currency":"$","rating":9},{"name":"Wynkoop Brewing Co.","phone":"3032972700","twitter":"wynkoop","address":"1634 18th St","lat":39.75357448791292,"lng":-104.9983549118042,"neighborhood":"LoDo","city_fetched":"Denver","state":"CO","country":"United States","canonicalUrl":"https://foursquare.com/v/wynkoop-brewing-co/40e0b100f964a5202c041fe3","category":"Brewery","checkinsCount":22103,"usersCount":16299,"tipCount":199,"visitsCount":24995,"url":"http://www.wynkoop.com","tier":2,"message":"Moderate","currency":"$","rating":9},{"name":"TRVE Brewing Co.","phone":"3033511021","twitter":"trvebrewing","address":"227 Broadway, #101","lat":39.71993775692525,"lng":-104.98769581317902,"neighborhood":"Baker","city_fetched":"Denver","state":"CO","country":"United States","canonicalUrl":"https://foursquare.com/v/trve-brewing-co/4ee2263f4fc6a6fab58d9d4d","category":"Brewery","checkinsCount":3731,"usersCount":2084,"tipCount":45,"visitsCount":4552,"url":"http://trvebrewing.com","tier":2,"message":"Moderate","currency":"$","rating":9},{"name":"4 Noses Brewing Company","phone":"7204602797","address":"8855 W 116th Cir","lat":39.90648250624333,"lng":-105.0984737409476,"city_fetched":"Denver","state":"CO","country":"United States","canonicalUrl":"https://foursquare.com/v/4-noses-brewing-company/533884d5498e7ec922b31938","category":"Brewery","checkinsCount":747,"usersCount":647,"tipCount":10,"visitsCount":1289,"url":"http://4nosesbrewing.com","tier":2,"message":"Moderate","currency":"$","rating":9},{"name":"The Arvada Tavern","phone":"3036906269","twitter":"arvadatavern","address":"5707 Olde Wadsworth Blvd","lat":39.8004981042349,"lng":-105.08159185218213,"neighborhood":"Olde Town Arvada Area","city_fetched":"Denver","state":"CO","country":"United States","canonicalUrl":"https://foursquare.com/arvadatavern","category":"Cocktail Bar","checkinsCount":976,"usersCount":686,"tipCount":11,"visitsCount":1227,"url":"http://arvadatavern.com","tier":2,"message":"Moderate","currency":"$","rating":9},{"name":"Lala's Wine Bar & Pizzeria","phone":"3038619463","twitter":"lalasrestaurant","address":"410 E 7th Ave","lat":39.727179408073425,"lng":-104.981978,"neighborhood":"Central Denver","city_fetched":"Denver","state":"CO","country":"United States","canonicalUrl":"https://foursquare.com/v/lalas-wine-bar--pizzeria/4a21ad48f964a5202b7d1fe3","category":"Wine Bar","checkinsCount":6257,"usersCount":2818,"tipCount":79,"visitsCount":6526,"url":"http://lalaswinebar.com","tier":2,"message":"Moderate","currency":"$","rating":9},{"name":"Little Machine Beer","twitter":"drinkrobotbeer","address":"2924 W 20th Ave","lat":39.74741736952896,"lng":-105.02429667260193,"neighborhood":"Jefferson Park","city_fetched":"Denver","state":"CO","country":"United States","canonicalUrl":"https://foursquare.com/v/little-machine-beer/553f9b5f498e1e1fe7f4adb7","category":"Brewery","checkinsCount":603,"usersCount":425,"tipCount":1,"visitsCount":854,"url":"http://www.littlemachinebeer.com","tier":"","message":"","currency":"","rating":9},{"name":"El Camino","phone":"7208897946","twitter":"elcaminotavern","address":"3628 W 32nd Ave","lat":39.762099,"lng":-105.035435,"neighborhood":"West Highland","city_fetched":"Denver","state":"CO","country":"United States","canonicalUrl":"https://foursquare.com/elcaminotavern","category":"Mexican Restaurant","checkinsCount":6456,"usersCount":2537,"tipCount":70,"visitsCount":7091,"url":"http://elcaminotavern.com","tier":2,"message":"Moderate","currency":"$","rating":8.9},{"name":"City, O' City","phone":"3038316443","twitter":"cityocity","address":"206 E 13th Ave","lat":39.73672566308672,"lng":-104.98462772334167,"neighborhood":"Capitol Hill","city_fetched":"Denver","state":"CO","country":"United States","canonicalUrl":"https://foursquare.com/v/city-o-city/4a062ed5f964a520cb721fe3","category":"Vegetarian / Vegan Restaurant","checkinsCount":13715,"usersCount":6068,"tipCount":150,"visitsCount":15657,"url":"http://www.cityocitydenver.com","tier":2,"message":"Moderate","currency":"$","rating":8.9},{"name":"Ogden Theatre","phone":"3038321874","address":"935 E Colfax Ave","lat":39.74018203470862,"lng":-104.97533386559157,"neighborhood":"North Capitol Hill","city_fetched":"Denver","state":"CO","country":"United States","canonicalUrl":"https://foursquare.com/v/ogden-theatre/40e0b100f964a520c8031fe3","category":"Music Venue","checkinsCount":13314,"usersCount":7736,"tipCount":50,"visitsCount":15083,"url":"http://ogdentheatre.com","tier":"","message":"","currency":"","rating":8.9},{"name":"Strange Craft Beer Company","phone":"7209852337","twitter":"strangecraftco","address":"1330 Zuni St","lat":39.7371163117095,"lng":-105.01480080081329,"neighborhood":"Central Denver","city_fetched":"Denver","state":"CO","country":"United States","canonicalUrl":"https://foursquare.com/strangecraftco","category":"Brewery","checkinsCount":3624,"usersCount":2188,"tipCount":33,"visitsCount":4263,"url":"http://strangecraft.com","tier":1,"message":"Cheap","currency":"$","rating":8.9},{"name":"New Mile High Spirits","phone":"3032962226","address":"2201 Lawrence St","lat":39.754456,"lng":-104.989187,"neighborhood":"Ballpark","city_fetched":"Denver","state":"CO","country":"United States","canonicalUrl":"https://foursquare.com/v/new-mile-high-spirits/54cc4b33498eee280bb26d9e","category":"Cocktail Bar","checkinsCount":883,"usersCount":1290,"tipCount":7,"visitsCount":1878,"url":"http://www.drinkmilehighspirits.com","tier":"","message":"","currency":"","rating":8.9},{"name":"Cru Wine Bar","phone":"3038939463","address":"1442 Larimer St","lat":39.74791,"lng":-104.998934,"neighborhood":"LoDo","city_fetched":"Denver","state":"CO","country":"United States","canonicalUrl":"https://foursquare.com/v/cru-wine-bar/4a14bb3af964a52070781fe3","category":"Wine Bar","checkinsCount":1985,"usersCount":1422,"tipCount":24,"visitsCount":1997,"url":"http://cruawinebar.com","tier":2,"message":"Moderate","currency":"$","rating":8.9},{"name":"British Bulldog","phone":"3032957974","twitter":"bulldog_bar","address":"2052 Stout St","lat":39.75032339581827,"lng":-104.98726935370364,"neighborhood":"Curtis Park","city_fetched":"Denver","state":"CO","country":"United States","canonicalUrl":"https://foursquare.com/v/british-bulldog/4a49728bf964a5205aab1fe3","category":"Pub","checkinsCount":6563,"usersCount":2260,"tipCount":47,"visitsCount":7381,"url":"http://www.britishbulldogdenver.com","tier":2,"message":"Moderate","currency":"$","rating":8.9},{"name":"Epic Brewing Denver","phone":"7205397410","address":"3001 Walnut St","lat":39.76317,"lng":-104.981319,"neighborhood":"Curtis Park","city_fetched":"Denver","state":"CO","country":"United States","canonicalUrl":"https://foursquare.com/v/epic-brewing-denver/5111cb84e4b06989652bd0b9","category":"Brewery","checkinsCount":4273,"usersCount":3604,"tipCount":52,"visitsCount":5978,"url":"http://epicbrewing.com","tier":2,"message":"Moderate","currency":"$","rating":8.9},{"name":"Freshcraft","phone":"3037589608","twitter":"freshcraftfood","address":"1530 Blake St","lat":39.74992507157928,"lng":-104.9996736145575,"neighborhood":"LoDo","city_fetched":"Denver","state":"CO","country":"United States","canonicalUrl":"https://foursquare.com/v/freshcraft/4c6ae371a48420a150be080b","category":"American Restaurant","checkinsCount":11886,"usersCount":5529,"tipCount":116,"visitsCount":12283,"url":"http://www.freshcraft.com","tier":2,"message":"Moderate","currency":"$","rating":8.9},{"name":"MAX's Wine Dive Denver","phone":"3035932554","twitter":"mwddenver","address":"696 Sherman St.","lat":39.72714862950389,"lng":-104.98459349083554,"neighborhood":"Central Denver","city_fetched":"Denver","state":"CO","country":"United States","canonicalUrl":"https://foursquare.com/v/maxs-wine-dive-denver/55083bc0498e45b87e67046d","category":"Wine Bar","checkinsCount":437,"usersCount":349,"tipCount":11,"visitsCount":609,"url":"http://maxswinedive.com","tier":"","message":"","currency":"","rating":8.9},{"name":"Colt & Gray","phone":"3034771447","twitter":"coltandgray","address":"1553 Platte St","lat":39.757550077856926,"lng":-105.00861167907715,"neighborhood":"Highland","city_fetched":"Denver","state":"CO","country":"United States","canonicalUrl":"https://foursquare.com/v/colt--gray/4aa5c7cef964a5206f4920e3","category":"American Restaurant","checkinsCount":3084,"usersCount":1918,"tipCount":75,"visitsCount":3128,"url":"http://www.coltandgray.com","tier":3,"message":"Expensive","currency":"$","rating":8.9},{"name":"Total Beverage","phone":"3034264800","address":"9359 Sheridan Blvd","lat":39.866171,"lng":-105.05538688,"neighborhood":"Central Westminster","city_fetched":"Denver","state":"CO","country":"United States","canonicalUrl":"https://foursquare.com/v/total-beverage/49f6649df964a5203b6c1fe3","category":"Liquor Store","checkinsCount":4071,"usersCount":1474,"tipCount":27,"visitsCount":4700,"tier":"","message":"","currency":"","rating":8.9},{"name":"Parry's Pizzeria & Bar","phone":"3034511313","twitter":"parrysnycpizza","address":"100 E 120th Ave # F","lat":39.912328406760686,"lng":-104.98696166270446,"city_fetched":"Denver","state":"CO","country":"United States","canonicalUrl":"https://foursquare.com/v/parrys-pizzeria--bar/55271016498ecaf91050778f","category":"Pizza Place","checkinsCount":456,"usersCount":520,"tipCount":4,"visitsCount":1048,"url":"http://www.parryspizza.com/northglenn","tier":"","message":"","currency":"","rating":8.9},{"name":"Root Down","phone":"3039934200","address":"8500 Peña Blvd","lat":39.86316232950528,"lng":-104.67330997305473,"neighborhood":"Denver International Airport","city_fetched":"Denver","state":"CO","country":"United States","canonicalUrl":"https://foursquare.com/v/root-down/520fb56111d2b834e9577900","category":"New American Restaurant","checkinsCount":5721,"usersCount":4073,"tipCount":189,"visitsCount":6038,"url":"http://www.rootdowndenver.com","tier":2,"message":"Moderate","currency":"$","rating":8.9},{"name":"Big Choice Brewing","phone":"3034692616","twitter":"bigchoicebrew","address":"7270 W 118th Pl Unit A","lat":39.91005597430399,"lng":-105.07844060711707,"city_fetched":"Denver","state":"CO","country":"United States","canonicalUrl":"https://foursquare.com/v/big-choice-brewing/4f9c700be4b05e5ed7e01da3","category":"Brewery","checkinsCount":1641,"usersCount":582,"tipCount":15,"visitsCount":1919,"url":"http://bigchoicebrewing.com","tier":1,"message":"Cheap","currency":"$","rating":8.9},{"name":"Lowdown Brewery+Kitchen","phone":"7205248065","twitter":"lowdownbrewery","address":"800 N Lincoln St","lat":39.72931773610479,"lng":-104.9861054334685,"neighborhood":"Capitol Hill","city_fetched":"Denver","state":"CO","country":"United States","canonicalUrl":"https://foursquare.com/v/lowdown-brewerykitchen/5238b84911d2b81d3be80b22","category":"Brewery","checkinsCount":2188,"usersCount":1923,"tipCount":29,"visitsCount":3281,"url":"http://lowdownbrewery.com","tier":2,"message":"Moderate","currency":"$","rating":8.8},{"name":"Comrade Brewing Company","phone":"7207480700","twitter":"comradebrewing","address":"7667 E Iliff Ave #F","lat":39.67565503219899,"lng":-104.89850478019147,"city_fetched":"Denver","state":"CO","country":"United States","canonicalUrl":"https://foursquare.com/v/comrade-brewing-company/5355b537498ededd71adfc3c","category":"Brewery","checkinsCount":1336,"usersCount":1097,"tipCount":15,"visitsCount":2222,"url":"http://comradebrewing.com","tier":1,"message":"Cheap","currency":"$","rating":8.8},{"name":"Sputnik","phone":"7205704503","twitter":"sputnikdenver","address":"3 S Broadway","lat":39.71651293568224,"lng":-104.98764753341675,"neighborhood":"Baker","city_fetched":"Denver","state":"CO","country":"United States","canonicalUrl":"https://foursquare.com/v/sputnik/4255c980f964a520d4201fe3","category":"Bar","checkinsCount":9280,"usersCount":3359,"tipCount":81,"visitsCount":9456,"url":"http://www.sputnikdenver.com","tier":2,"message":"Moderate","currency":"$","rating":8.8},{"name":"The Pint Room","phone":"7202833200","address":"2620 W Belleview Ave","lat":39.62322268749014,"lng":-105.01876115071951,"neighborhood":"Centennial","city_fetched":"Denver","state":"CO","country":"United States","canonicalUrl":"https://foursquare.com/v/the-pint-room/55553f4a498e3fa10ab4bdee","category":"Beer Garden","checkinsCount":421,"usersCount":226,"tipCount":11,"visitsCount":516,"url":"http://www.pintroomlittleton.com","tier":"","message":"","currency":"","rating":8.8},{"name":"Cheeky Monk Belgian Beer Cafe","phone":"3038610347","twitter":"thecheekymonk","address":"534 E Colfax Ave","lat":39.73990149113073,"lng":-104.98014271259308,"neighborhood":"Capitol Hill","city_fetched":"Denver","state":"CO","country":"United States","canonicalUrl":"https://foursquare.com/v/cheeky-monk-belgian-beer-cafe/49dfe215f964a52025611fe3","category":"Bar","checkinsCount":6423,"usersCount":4051,"tipCount":50,"visitsCount":6704,"url":"http://thecheekymonk.com","tier":3,"message":"Expensive","currency":"$","rating":8.8},{"name":"Vine Street Pub & Brewery","phone":"3033882337","address":"1700 Vine St","lat":39.74337810383469,"lng":-104.9619788093899,"neighborhood":"City Park West","city_fetched":"Denver","state":"CO","country":"United States","canonicalUrl":"https://foursquare.com/v/vine-street-pub--brewery/49dfe1d2f964a52024611fe3","category":"Brewery","checkinsCount":12330,"usersCount":6086,"tipCount":111,"visitsCount":14145,"url":"http://www.mountainsunpub.com","tier":2,"message":"Moderate","currency":"$","rating":8.8},{"name":"Larimer Lounge","twitter":"larimerlounge","address":"2721 Larimer St","lat":39.75996461083338,"lng":-104.98389172606534,"neighborhood":"Curtis Park","city_fetched":"Denver","state":"CO","country":"United States","canonicalUrl":"https://foursquare.com/v/larimer-lounge/412d2800f964a520dd0c1fe3","category":"Rock Club","checkinsCount":5695,"usersCount":2815,"tipCount":20,"visitsCount":6045,"tier":"","message":"","currency":"","rating":8.8},{"name":"Proto's","phone":"3034662112","twitter":"protospizza","address":"8001 Arista Pl","lat":39.90586572146648,"lng":-105.08771183507152,"city_fetched":"Denver","state":"CO","country":"United States","canonicalUrl":"https://foursquare.com/v/protos/4a4967edf964a52048ab1fe3","category":"Wine Bar","checkinsCount":1025,"usersCount":605,"tipCount":12,"visitsCount":1036,"url":"http://protospizza.com","tier":"","message":"","currency":"","rating":8.8},{"name":"Breckenridge Colorado Craft","phone":"3032973644","twitter":"breckbrew","address":"2220 Blake St","lat":39.75638065211399,"lng":-104.99136025778974,"neighborhood":"Ballpark","city_fetched":"Denver","state":"CO","country":"United States","canonicalUrl":"https://foursquare.com/v/breckenridge-colorado-craft/4abd9e24f964a5202c8b20e3","category":"Brewery","checkinsCount":11459,"usersCount":7554,"tipCount":76,"visitsCount":12157,"url":"http://www.breckbrew.com","tier":2,"message":"Moderate","currency":"$","rating":8.8},{"name":"Highland Tap and Burger","phone":"7202874493","twitter":"highlandtandb","address":"2219 W 32nd Ave","lat":39.76219326605055,"lng":-105.01332853409126,"neighborhood":"Highland","city_fetched":"Denver","state":"CO","country":"United States","canonicalUrl":"https://foursquare.com/highlandtandb","category":"Burger Joint","checkinsCount":11570,"usersCount":5303,"tipCount":90,"visitsCount":13092,"url":"http://highlandtapdenver.com","tier":2,"message":"Moderate","currency":"$","rating":8.7},{"name":"Ste. Ellie","twitter":"ste_ellie","address":"1553 Platte St","lat":39.75733696589416,"lng":-105.00839254395198,"neighborhood":"Highland","city_fetched":"Denver","state":"CO","country":"United States","canonicalUrl":"https://foursquare.com/v/ste-ellie/54a4d2d8498ea948a40d1641","category":"Cocktail Bar","checkinsCount":239,"usersCount":145,"tipCount":4,"visitsCount":243,"url":"http://www.saintellie.com","tier":"","message":"","currency":"","rating":8.7},{"name":"The 9th Door","phone":"3032922229","twitter":"9thdoor","address":"1808 Blake St","lat":39.75247536977049,"lng":-104.99633566754441,"neighborhood":"LoDo","city_fetched":"Denver","state":"CO","country":"United States","canonicalUrl":"https://foursquare.com/v/the-9th-door/44cf16acf964a5201d361fe3","category":"Lounge","checkinsCount":3570,"usersCount":2666,"tipCount":46,"visitsCount":3739,"url":"http://www.theninthdoor.com","tier":2,"message":"Moderate","currency":"$","rating":8.7},{"name":"First Draft Taproom & Kitchen","phone":"3037368400","twitter":"firstdraftden","address":"1309 26th St.","lat":39.758853229600284,"lng":-104.98541593551636,"neighborhood":"Curtis Park","city_fetched":"Denver","state":"CO","country":"United States","canonicalUrl":"https://foursquare.com/v/first-draft-taproom--kitchen/54f636e7498ee95e2fab6cef","category":"Bar","checkinsCount":981,"usersCount":1082,"tipCount":12,"visitsCount":1457,"url":"http://www.firstdraftdenver.com","tier":2,"message":"Moderate","currency":"$","rating":8.7},{"name":"Ernie's Bar & Pizza","phone":"3039555580","twitter":"erniesdenver","address":"2915 W 44th Ave","lat":39.776789,"lng":-105.02443766,"neighborhood":"Sunnyside","city_fetched":"Denver","state":"CO","country":"United States","canonicalUrl":"https://foursquare.com/v/ernies-bar--pizza/4b29ae59f964a5207ca224e3","category":"Bar","checkinsCount":3636,"usersCount":1659,"tipCount":37,"visitsCount":3994,"url":"http://erniesdenver.com","tier":2,"message":"Moderate","currency":"$","rating":8.7},{"name":"Silver Vines Winery","address":"Grandview Ave","lat":39.79945421218872,"lng":-105.08055925369263,"neighborhood":"Olde Town Arvada Area","city_fetched":"Denver","state":"CO","country":"United States","canonicalUrl":"https://foursquare.com/v/silver-vines-winery/4ed1a5999a52262b8451e0a1","category":"Wine Bar","checkinsCount":552,"usersCount":278,"tipCount":14,"visitsCount":576,"url":"http://silvervineswinery.com","tier":"","message":"","currency":"","rating":8.7},{"name":"Elway's","phone":"3033995353","address":"2500 E 1st Ave","lat":39.717495662829386,"lng":-104.95732961686383,"neighborhood":"Cherry Creek","city_fetched":"Denver","state":"CO","country":"United States","canonicalUrl":"https://foursquare.com/v/elways/4ac13c0ff964a520559620e3","category":"Steakhouse","checkinsCount":4275,"usersCount":3016,"tipCount":66,"visitsCount":4680,"url":"http://www.elways.com","tier":3,"message":"Expensive","currency":"$","rating":8.7},{"name":"Baere Brewing Co.","phone":"3037333354","twitter":"baerebrewing","address":"320 N Broadway","lat":39.721387,"lng":-104.986952,"neighborhood":"Central Denver","city_fetched":"Denver","state":"CO","country":"United States","canonicalUrl":"https://foursquare.com/v/baere-brewing-co/53c1d4ea498e3a62e89b5da4","category":"Brewery","checkinsCount":551,"usersCount":434,"tipCount":7,"visitsCount":726,"url":"http://www.baerebrewing.com","tier":"","message":"","currency":"","rating":8.7},{"name":"Stem Ciders","phone":"7204433007","twitter":"stemciders","address":"2811 Walnut St Unit 150","lat":39.761694,"lng":-104.98384,"neighborhood":"Curtis Park","city_fetched":"Denver","state":"CO","country":"United States","canonicalUrl":"https://foursquare.com/v/stem-ciders/52c89e96498e1d9e67127689","category":"Brewery","checkinsCount":1338,"usersCount":1271,"tipCount":15,"visitsCount":1882,"url":"http://stemciders.com","tier":2,"message":"Moderate","currency":"$","rating":8.7},{"name":"The Truffle Table","phone":"3034559463","address":"2556 15th St","lat":39.758155,"lng":-105.011663,"neighborhood":"Highland","city_fetched":"Denver","state":"CO","country":"United States","canonicalUrl":"https://foursquare.com/v/the-truffle-table/51abdd9c498e2d3dc5235d1c","category":"Wine Bar","checkinsCount":391,"usersCount":291,"tipCount":6,"visitsCount":415,"url":"http://truffletable.com","tier":"","message":"","currency":"","rating":8.7},{"name":"Four Seasons Spa","address":"1111 14th St","lat":39.746634495085694,"lng":-104.99783060278796,"neighborhood":"Central Business District","city_fetched":"Denver","state":"CO","country":"United States","canonicalUrl":"https://foursquare.com/v/four-seasons-spa/4f403589e4b024a969145ccc","category":"Spa","checkinsCount":268,"usersCount":174,"tipCount":7,"visitsCount":269,"tier":"","message":"","currency":"","rating":8.7},{"name":"Cruise Room","phone":"3036285400","address":"1600 17th St","lat":39.752288233709066,"lng":-104.99908019670323,"neighborhood":"LoDo","city_fetched":"Denver","state":"CO","country":"United States","canonicalUrl":"https://foursquare.com/v/cruise-room/40e0b100f964a5205b031fe3","category":"Cocktail Bar","checkinsCount":2999,"usersCount":2135,"tipCount":44,"visitsCount":3038,"url":"http://www.theoxfordhotel.com/dining/the-cruise-room/","tier":2,"message":"Moderate","currency":"$","rating":8.7},{"name":"Bull & Bush Pub And Brewery","phone":"3037590333","twitter":"bandbmanbeer","address":"4700 E Cherry Creek South Dr","lat":39.703081240606544,"lng":-104.93248867546873,"city_fetched":"Denver","state":"CO","country":"United States","canonicalUrl":"https://foursquare.com/v/bull--bush-pub-and-brewery/40e0b100f964a52024031fe3","category":"Pub","checkinsCount":8530,"usersCount":4396,"tipCount":86,"visitsCount":9996,"url":"http://bullandbush.com","tier":2,"message":"Moderate","currency":"$","rating":8.7},{"name":"Our Mutual Friend Brewing Company","phone":"7207222810","twitter":"omfbrewing","address":"2810 Larimer St","lat":39.7606065138196,"lng":-104.98253384845768,"neighborhood":"Curtis Park","city_fetched":"Denver","state":"CO","country":"United States","canonicalUrl":"https://foursquare.com/v/our-mutual-friend-brewing-company/4fa30ee8e4b01ab96b38c775","category":"Brewery","checkinsCount":3473,"usersCount":2269,"tipCount":26,"visitsCount":4430,"url":"http://www.omfmb.com","tier":1,"message":"Cheap","currency":"$","rating":8.6},{"name":"FERMÆNTRA","address":"1715 E Evans Ave","lat":39.67862122057241,"lng":-104.96702747181688,"neighborhood":"University","city_fetched":"Denver","state":"CO","country":"United States","canonicalUrl":"https://foursquare.com/v/ferm%C3%A6ntra/5467ad82498e5e5721a95cdc","category":"Brewery","checkinsCount":386,"usersCount":241,"tipCount":7,"visitsCount":423,"url":"http://fermaentra.com","tier":"","message":"","currency":"","rating":8.6},{"name":"The Bistro at Stapleton","phone":"3033889463","address":"2955 Ulster St","lat":39.759193777419355,"lng":-104.89457591446973,"neighborhood":"Stapleton","city_fetched":"Denver","state":"CO","country":"United States","canonicalUrl":"https://foursquare.com/v/the-bistro-at-stapleton/53643641498e33d4b3fb7624","category":"Gastropub","checkinsCount":274,"usersCount":220,"tipCount":9,"visitsCount":512,"url":"http://stapletonbistro.com","tier":2,"message":"Moderate","currency":"$","rating":8.6},{"name":"Beta Nightclub","phone":"3033831909","twitter":"betanightclub","address":"1909 Blake St","lat":39.75369986584715,"lng":-104.99551402965228,"neighborhood":"LoDo","city_fetched":"Denver","state":"CO","country":"United States","canonicalUrl":"https://foursquare.com/v/beta-nightclub/4af9014cf964a520d01022e3","category":"Nightclub","checkinsCount":10260,"usersCount":3848,"tipCount":52,"visitsCount":10593,"url":"http://betanightclub.com","tier":2,"message":"Moderate","currency":"$","rating":8.6},{"name":"Terminal Bar","lat":39.753066435169664,"lng":-105.00022138682314,"neighborhood":"LoDo","city_fetched":"Denver","state":"CO","country":"United States","canonicalUrl":"https://foursquare.com/v/terminal-bar/53c2103e498e7ac83890dcfb","category":"Bar","checkinsCount":2545,"usersCount":1676,"tipCount":29,"visitsCount":2738,"url":"http://www.terminalbardenver.com","tier":"","message":"","currency":"","rating":8.6},{"name":"Factotum Brewhouse","phone":"7204414735","twitter":"factotumbrew","address":"3845 Lipan St","lat":39.770239741424234,"lng":-105.0019788354043,"neighborhood":"Sunnyside","city_fetched":"Denver","state":"CO","country":"United States","canonicalUrl":"https://foursquare.com/v/factotum-brewhouse/54e7fa11498e2ce91465fb5a","category":"Brewery","checkinsCount":278,"usersCount":246,"tipCount":6,"visitsCount":399,"url":"http://www.factotumbrewhouse.com","tier":"","message":"","currency":"","rating":8.6},{"name":"Peak to Peak Tap Room","twitter":"p2ptaproom","address":"16701 E Iliff Ave","lat":39.67396800860209,"lng":-104.79389006797506,"city_fetched":"Denver","state":"CO","country":"United States","canonicalUrl":"https://foursquare.com/p2ptaproom","category":"Beer Garden","checkinsCount":251,"usersCount":113,"tipCount":2,"visitsCount":302,"url":"http://www.peaktopeaktaproom.com","tier":1,"message":"Cheap","currency":"$","rating":8.6},{"name":"Caveman Cafeteria: Where The Hunters Gather!","phone":"8552811697","twitter":"denvercaveman","address":"1600 Larimer St","lat":39.7493443744276,"lng":-104.99747683823357,"neighborhood":"Central Business District","city_fetched":"Denver","state":"CO","country":"United States","canonicalUrl":"https://foursquare.com/denvercaveman","category":"American Restaurant","checkinsCount":165,"usersCount":65,"tipCount":7,"visitsCount":165,"url":"http://www.cavemancafeteria.com","tier":1,"message":"Cheap","currency":"$","rating":8.6},{"name":"Irish Snug","phone":"3038391394","twitter":"colfaxsnug","address":"1201 E Colfax Ave","lat":39.740125485765375,"lng":-104.97160278114062,"neighborhood":"City Park West","city_fetched":"Denver","state":"CO","country":"United States","canonicalUrl":"https://foursquare.com/v/irish-snug/4a0b6b61f964a520f8741fe3","category":"Pub","checkinsCount":10729,"usersCount":5338,"tipCount":67,"visitsCount":11896,"url":"http://irishsnug.com","tier":2,"message":"Moderate","currency":"$","rating":8.6},{"name":"The 49th","phone":"7202552021","address":"4550 S Kipling Pkwy Ste 6","lat":39.63361404174614,"lng":-105.10890518605244,"city_fetched":"Denver","state":"CO","country":"United States","canonicalUrl":"https://foursquare.com/v/the-49th/53a47bdd498ef6698c28ec1d","category":"Pub","checkinsCount":176,"usersCount":188,"tipCount":8,"visitsCount":393,"url":"http://the49thdenver.com","tier":"","message":"","currency":"","rating":8.6},{"name":"Mellow Mushroom Pizza Bakers","phone":"7203289114","twitter":"mellowdenver","address":"1201 16th St","lat":39.74874840126101,"lng":-104.9968834284667,"neighborhood":"LoDo","city_fetched":"Denver","state":"CO","country":"United States","canonicalUrl":"https://foursquare.com/mellowdenver","category":"Pizza Place","checkinsCount":9454,"usersCount":5371,"tipCount":83,"visitsCount":9525,"url":"http://www.mellowmushroom.com/downtowndenver/","tier":2,"message":"Moderate","currency":"$","rating":8.6},{"name":"Yard House","phone":"3035729273","twitter":"yardhouse","address":"1555 Court Place","lat":39.743043770715005,"lng":-104.98930052878927,"neighborhood":"Central Business District","city_fetched":"Denver","state":"CO","country":"United States","canonicalUrl":"https://foursquare.com/v/yard-house/4cf339776c29236aa4f76fa2","category":"American Restaurant","checkinsCount":18820,"usersCount":12171,"tipCount":164,"visitsCount":19398,"url":"http://www.yardhouse.com","tier":2,"message":"Moderate","currency":"$","rating":8.6},{"name":"Tivoli Brewing Company","phone":"3035826039","twitter":"tivolibeer","address":"900 Auraria Pkwy","lat":39.745404272576494,"lng":-105.00545384691691,"neighborhood":"Auraria","city_fetched":"Denver","state":"CO","country":"United States","canonicalUrl":"https://foursquare.com/v/tivoli-brewing-company/540e0954498e77f0f9129eb5","category":"Brewery","checkinsCount":374,"usersCount":207,"tipCount":5,"visitsCount":438,"url":"http://tivolibeer.com","tier":"","message":"","currency":"","rating":8.6},{"name":"The 1up - Colfax","phone":"3037362230","twitter":"the1upcolfax","address":"717 E Colfax Ave","lat":39.740079758892534,"lng":-104.9780438054323,"neighborhood":"North Capitol Hill","city_fetched":"Denver","state":"CO","country":"United States","canonicalUrl":"https://foursquare.com/v/the-1up--colfax/4fc4cd86e4b06b77216f283c","category":"Bar","checkinsCount":3852,"usersCount":2269,"tipCount":18,"visitsCount":4194,"url":"http://www.the-1up.com","tier":2,"message":"Moderate","currency":"$","rating":8.6},{"name":"Prost - Fine Beers and Sausages","phone":"3034559012","address":"3464 W 32nd Ave","lat":39.76199335618378,"lng":-105.03379880867077,"neighborhood":"West Highland","city_fetched":"Denver","state":"CO","country":"United States","canonicalUrl":"https://foursquare.com/v/prost--fine-beers-and-sausages/53c588d5498e718d8c526850","category":"Beer Garden","checkinsCount":280,"usersCount":156,"tipCount":7,"visitsCount":303,"url":"http://www.prostfinebeers.com","tier":"","message":"","currency":"","rating":8.6},{"name":"The Horseshoe Lounge","phone":"3038321180","address":"414 E 20th Ave","lat":39.747435845838844,"lng":-104.9817522182284,"neighborhood":"North Capitol Hill","city_fetched":"Denver","state":"CO","country":"United States","canonicalUrl":"https://foursquare.com/v/the-horseshoe-lounge/4a726f4ff964a5200fdb1fe3","category":"Lounge","checkinsCount":7203,"usersCount":2009,"tipCount":42,"visitsCount":7725,"url":"http://www.thehorseshoelounge.com‎ ","tier":1,"message":"Cheap","currency":"$","rating":8.6},{"name":"Sloan's Bar & Grille","phone":"3032744244","twitter":"sloansbargrill","address":"5850 W 25th Ave","lat":39.75288932773115,"lng":-105.0612240094855,"city_fetched":"Denver","state":"CO","country":"United States","canonicalUrl":"https://foursquare.com/v/sloans-bar--grille/4aa0619af964a5206c3f20e3","category":"Pub","checkinsCount":2785,"usersCount":1164,"tipCount":32,"visitsCount":3376,"url":"http://sloansbarandgrill.com","tier":2,"message":"Moderate","currency":"$","rating":8.6},{"name":"Lowry Beer Garden","phone":"3033660114","twitter":"lowrybeer","address":"7577 E Academy Blvd","lat":39.720088145779094,"lng":-104.89595585331526,"neighborhood":"Lowry Field","city_fetched":"Denver","state":"CO","country":"United States","canonicalUrl":"https://foursquare.com/v/lowry-beer-garden/4f85c8cde4b0cf6fec684653","category":"Beer Garden","checkinsCount":4671,"usersCount":2628,"tipCount":52,"visitsCount":5850,"url":"http://www.lowrybeergarden.com","tier":2,"message":"Moderate","currency":"$","rating":8.5},{"name":"Asbury Provisions","phone":"3032825485","twitter":"asburybar","address":"2043 S University Blvd","lat":39.67939397735736,"lng":-104.95970838931208,"neighborhood":"University","city_fetched":"Denver","state":"CO","country":"United States","canonicalUrl":"https://foursquare.com/v/asbury-provisions/5409f665498e05abd2b5bce1","category":"Bar","checkinsCount":226,"usersCount":125,"tipCount":10,"visitsCount":238,"url":"http://www.asburyprovisions.com","tier":"","message":"","currency":"","rating":8.5},{"name":"Prost Brewing","phone":"3037291175","twitter":"prostbrewing","address":"2540 19th St","lat":39.7614532735583,"lng":-105.00662952661514,"neighborhood":"Highland","city_fetched":"Denver","state":"CO","country":"United States","canonicalUrl":"https://foursquare.com/v/prost-brewing/4f63fba1e4b036e3e792341d","category":"Brewery","checkinsCount":4830,"usersCount":3449,"tipCount":42,"visitsCount":5445,"url":"http://www.prostbrewing.com","tier":2,"message":"Moderate","currency":"$","rating":8.5},{"name":"Platt Park Brewing Co","phone":"3039934002","twitter":"plattparkbrew","address":"1875 S. Pearl St.","lat":39.682640643687925,"lng":-104.98067391706951,"neighborhood":"Old South Pearl","city_fetched":"Denver","state":"CO","country":"United States","canonicalUrl":"https://foursquare.com/v/platt-park-brewing-co/540b8d5c498ebc7a3b1e1474","category":"Brewery","checkinsCount":440,"usersCount":430,"tipCount":2,"visitsCount":644,"url":"http://www.plattparkbrewing.com","tier":"","message":"","currency":"","rating":8.5},{"name":"Hogshead Brewery","phone":"3034953105","address":"4460 W 29th Ave","lat":39.758227119630135,"lng":-105.04512790891165,"neighborhood":"Sloan Lake","city_fetched":"Denver","state":"CO","country":"United States","canonicalUrl":"https://foursquare.com/v/hogshead-brewery/4fb30bb7e4b0702bcf44a0ca","category":"Brewery","checkinsCount":2040,"usersCount":1114,"tipCount":31,"visitsCount":2285,"url":"http://hogsheadbrewery.com","tier":2,"message":"Moderate","currency":"$","rating":8.5},{"name":"Spangalang Brewery","lat":39.755096317516475,"lng":-104.97691418284741,"neighborhood":"Curtis Park","city_fetched":"Denver","state":"CO","country":"United States","canonicalUrl":"https://foursquare.com/v/spangalang-brewery/55271451498e2f11fe19bb60","category":"Brewery","checkinsCount":518,"usersCount":511,"tipCount":6,"visitsCount":728,"tier":"","message":"","currency":"","rating":8.5},{"name":"Kokopelli Beer Company","phone":"3032840135","twitter":"kokopellibeerco","address":"8931 Harlan St","lat":39.858436933566914,"lng":-105.06499141190483,"neighborhood":"West Westminster","city_fetched":"Denver","state":"CO","country":"United States","canonicalUrl":"https://foursquare.com/kokopellibeerco","category":"Brewery","checkinsCount":854,"usersCount":545,"tipCount":14,"visitsCount":1306,"url":"http://kokopellibeer.com","tier":1,"message":"Cheap","currency":"$","rating":8.5},{"name":"Beryl's Beer Co.","phone":"7204200826","twitter":"berylsbeerco","address":"3120 Blake Street","lat":39.76454,"lng":-104.98093,"neighborhood":"Curtis Park","city_fetched":"Denver","state":"CO","country":"United States","canonicalUrl":"https://foursquare.com/v/beryls-beer-co/52599cdd498ea75471e2f3b2","category":"Brewery","checkinsCount":577,"usersCount":617,"tipCount":4,"visitsCount":932,"url":"http://www.berylsbeerco.com/#eO0Vkw","tier":"","message":"","currency":"","rating":8.5},{"name":"Finn's Manor","address":"2927 Larimer St","lat":39.76182687252755,"lng":-104.98162099600769,"neighborhood":"Curtis Park","city_fetched":"Denver","state":"CO","country":"United States","canonicalUrl":"https://foursquare.com/v/finns-manor/55dfce22498e28312341b141","category":"Bar","checkinsCount":665,"usersCount":452,"tipCount":5,"visitsCount":744,"url":"http://finnsmanor.net","tier":"","message":"","currency":"","rating":8.5},{"name":"River North Brewery","phone":"3032962617","address":"2401 Blake St Unit 1","lat":39.75821864328474,"lng":-104.98952875231096,"neighborhood":"Ballpark","city_fetched":"Denver","state":"CO","country":"United States","canonicalUrl":"https://foursquare.com/v/river-north-brewery/4f345e80e4b0801eeb58174b","category":"Brewery","checkinsCount":4264,"usersCount":2421,"tipCount":31,"visitsCount":4941,"url":"http://rivernorthbrewery.com","tier":1,"message":"Cheap","currency":"$","rating":8.5},{"name":"Walnut Room","phone":"3032951868","twitter":"thewalnutroom","address":"3131 Walnut St","lat":39.76445457232135,"lng":-104.97973825420078,"neighborhood":"Curtis Park","city_fetched":"Denver","state":"CO","country":"United States","canonicalUrl":"https://foursquare.com/v/walnut-room/49fa50e3f964a520eb6d1fe3","category":"Pizza Place","checkinsCount":5000,"usersCount":2648,"tipCount":49,"visitsCount":5680,"url":"http://www.thewalnutroom.com","tier":1,"message":"Cheap","currency":"$","rating":8.5},{"name":"Solera","phone":"3033888429","twitter":"solerawinebar","address":"5410 E Colfax Ave","lat":39.7399296947322,"lng":-104.92433849458367,"neighborhood":"Hale","city_fetched":"Denver","state":"CO","country":"United States","canonicalUrl":"https://foursquare.com/v/solera/4ad1155ff964a5209bdc20e3","category":"American Restaurant","checkinsCount":910,"usersCount":567,"tipCount":19,"visitsCount":1035,"url":"http://solerarestaurant.com","tier":2,"message":"Moderate","currency":"$","rating":8.5},{"name":"Nocturne","phone":"3032953333","twitter":"nocturnedenver","address":"1330 27th St","lat":39.759583028031294,"lng":-104.98452502584512,"neighborhood":"Curtis Park","city_fetched":"Denver","state":"CO","country":"United States","canonicalUrl":"https://foursquare.com/nocturnedenver","category":"Jazz Club","checkinsCount":165,"usersCount":155,"tipCount":3,"visitsCount":183,"tier":"","message":"","currency":"","rating":8.5},{"name":"Alpine Dog Brewing Company","phone":"7202145170","address":"1505 Ogden Street","lat":39.7403085296174,"lng":-104.9749173946798,"neighborhood":"North Capitol Hill","city_fetched":"Denver","state":"CO","country":"United States","canonicalUrl":"https://foursquare.com/v/alpine-dog-brewing-company/5466d279498e241bb62c3b8c","category":"Brewery","checkinsCount":700,"usersCount":434,"tipCount":7,"visitsCount":873,"url":"http://alpinedogbrewery.com","tier":"","message":"","currency":"","rating":8.5},{"name":"The Refinery","address":"1932 Blake St","lat":39.753756,"lng":-104.994854,"neighborhood":"LoDo","city_fetched":"Denver","state":"CO","country":"United States","canonicalUrl":"https://foursquare.com/v/the-refinery/540137c9498eec932d4e43ef","category":"Bar","checkinsCount":580,"usersCount":316,"tipCount":5,"visitsCount":597,"url":"http://www.therefinerylounge.com","tier":"","message":"","currency":"","rating":8.5},{"name":"Black Sky Brewery","phone":"7207085816","address":"490 Santa Fe Dr","lat":39.72393234002201,"lng":-104.99851531058289,"neighborhood":"Baker","city_fetched":"Denver","state":"CO","country":"United States","canonicalUrl":"https://foursquare.com/v/black-sky-brewery/50f857cbe4b0385dddce4f5c","category":"Brewery","checkinsCount":1119,"usersCount":895,"tipCount":16,"visitsCount":1507,"url":"http://blackskybrewing.com","tier":1,"message":"Cheap","currency":"$","rating":8.5},{"name":"Recess Beer Garden","phone":"7206380020","address":"2715 17th St Ste 103","lat":39.761605494875255,"lng":-105.0104867548704,"neighborhood":"Highland","city_fetched":"Denver","state":"CO","country":"United States","canonicalUrl":"https://foursquare.com/v/recess-beer-garden/55e10b18498e55dbe8f466ea","category":"Beer Garden","checkinsCount":672,"usersCount":706,"tipCount":7,"visitsCount":1120,"url":"http://recessbeergarden.com","tier":"","message":"","currency":"","rating":8.5},{"name":"Cedar Creek Pub","phone":"3035374124","twitter":"cedarcreekpub","address":"2100 N Ursula St","lat":39.74824584774991,"lng":-104.83710050582886,"neighborhood":"Fitzsimons","city_fetched":"Denver","state":"CO","country":"United States","canonicalUrl":"https://foursquare.com/cedarcreekpub","category":"American Restaurant","checkinsCount":1892,"usersCount":603,"tipCount":14,"visitsCount":2190,"url":"http://www.cedarcreekpub.com","tier":2,"message":"Moderate","currency":"$","rating":8.5},{"name":"The Glenn","phone":"3032551400","twitter":"biggyglenn","address":"11140 Irma Dr","lat":39.89854072067221,"lng":-104.96597208856248,"city_fetched":"Denver","state":"CO","country":"United States","canonicalUrl":"https://foursquare.com/v/the-glenn/4b044f71f964a5202e5322e3","category":"Bar","checkinsCount":1909,"usersCount":852,"tipCount":26,"visitsCount":2387,"url":"http://theglennbarandgrill.com","tier":2,"message":"Moderate","currency":"$","rating":8.5},{"name":"Green Russell","phone":"3038936505","twitter":"thegreenrussell","address":"1422 Larimer St.","lat":39.7478079,"lng":-104.999063,"neighborhood":"LoDo","city_fetched":"Denver","state":"CO","country":"United States","canonicalUrl":"https://foursquare.com/v/green-russell/4cd6441b8e5b6a31ff0475ac","category":"Cocktail Bar","checkinsCount":5186,"usersCount":3359,"tipCount":94,"visitsCount":5239,"url":"http://www.greenrussell.com","tier":2,"message":"Moderate","currency":"$","rating":8.5},{"name":"Highland Tavern","phone":"3034331990","address":"3400 Navajo St","lat":39.76451425631072,"lng":-105.00394742879452,"neighborhood":"Highland","city_fetched":"Denver","state":"CO","country":"United States","canonicalUrl":"https://foursquare.com/v/highland-tavern/4ae26302f964a520e08d21e3","category":"Bar","checkinsCount":4915,"usersCount":2716,"tipCount":54,"visitsCount":5787,"url":"http://www.highlandtavern.com","tier":1,"message":"Cheap","currency":"$","rating":8.5},{"name":"Denver ChopHouse & Brewery","phone":"3032960800","twitter":"denverchophouse","address":"1735 19th St","lat":39.75493805138875,"lng":-104.99739125015158,"neighborhood":"LoDo","city_fetched":"Denver","state":"CO","country":"United States","canonicalUrl":"https://foursquare.com/v/denver-chophouse--brewery/4ae39034f964a520b79621e3","category":"Steakhouse","checkinsCount":5339,"usersCount":3802,"tipCount":53,"visitsCount":5659,"url":"http://www.denverchophouse.com","tier":3,"message":"Expensive","currency":"$","rating":8.4},{"name":"The 1up - LoDo","phone":"3037362230","twitter":"the1uplodo","address":"1925 Blake St","lat":39.753792172237965,"lng":-104.99513744701868,"neighborhood":"LoDo","city_fetched":"Denver","state":"CO","country":"United States","canonicalUrl":"https://foursquare.com/v/the-1up--lodo/4d8a35c976e1236a99721543","category":"Bar","checkinsCount":16122,"usersCount":8907,"tipCount":116,"visitsCount":16397,"url":"http://www.the-1up.com","tier":1,"message":"Cheap","currency":"$","rating":8.4},{"name":"Colorado Cider Company","phone":"3037593560","twitter":"co_cider","address":"2560 W 2nd Ave. #10","lat":39.71925848679397,"lng":-105.01924621465278,"neighborhood":"Valverde","city_fetched":"Denver","state":"CO","country":"United States","canonicalUrl":"https://foursquare.com/v/colorado-cider-company/4db97a8243a1e5b1e2c8d5e4","category":"Brewery","checkinsCount":460,"usersCount":353,"tipCount":6,"visitsCount":531,"url":"http://coloradocider.com","tier":"","message":"","currency":"","rating":8.4},{"name":"Fiction Beer Company","phone":"7204567163","twitter":"fictionbeer","address":"7101 East Colfax Ave","lat":39.740326364152075,"lng":-104.90565776824951,"neighborhood":"Park Hill","city_fetched":"Denver","state":"CO","country":"United States","canonicalUrl":"https://foursquare.com/v/fiction-beer-company/52c2428c11d28fbb36abbb63","category":"Brewery","checkinsCount":565,"usersCount":491,"tipCount":5,"visitsCount":919,"url":"http://www.fictionbeer.com","tier":"","message":"","currency":"","rating":8.4},{"name":"Fat Boy's Bar & Grill","phone":"3033441905","address":"10660 E Alameda Ave","lat":39.71072749,"lng":-104.86414315,"city_fetched":"Denver","state":"CO","country":"United States","canonicalUrl":"https://foursquare.com/v/fat-boys-bar--grill/4b23f949f964a520285e24e3","category":"Sports Bar","checkinsCount":1139,"usersCount":695,"tipCount":13,"visitsCount":1532,"url":"http://www.fatboys-sportsbar.com","tier":2,"message":"Moderate","currency":"$","rating":8.4},{"name":"Dunbar Kitchen & Taphouse","phone":"7206307641","twitter":"dunbarkandt","address":"2844 Welton St","lat":39.7561335218314,"lng":-104.97580738862517,"neighborhood":"Curtis Park","city_fetched":"Denver","state":"CO","country":"United States","canonicalUrl":"https://foursquare.com/v/dunbar-kitchen--taphouse/548c9bef498e88452c95576b","category":"Gastropub","checkinsCount":562,"usersCount":489,"tipCount":10,"visitsCount":1077,"url":"http://dunbarkitchenandtaphouse.com","tier":"","message":"","currency":"","rating":8.4},{"name":"World of Beer","phone":"3039342304","address":"7260 W Alaska Dr. Unit A.","lat":39.708812,"lng":-105.077841,"neighborhood":"Belmar","city_fetched":"Denver","state":"CO","country":"United States","canonicalUrl":"https://foursquare.com/v/world-of-beer/51f69586498ef44038331a79","category":"Bar","checkinsCount":1723,"usersCount":773,"tipCount":12,"visitsCount":2032,"url":"http://worldofbeer.com/Locations/Belmar","tier":3,"message":"Expensive","currency":"$","rating":8.4},{"name":"Federal Bar and Grill","phone":"3037289479","twitter":"fedbarandgrill","address":"2544 Federal Blvd","lat":39.754470773741865,"lng":-105.02501573367061,"neighborhood":"Jefferson Park","city_fetched":"Denver","state":"CO","country":"United States","canonicalUrl":"https://foursquare.com/v/federal-bar-and-grill/5186f139498e26e786b01e3e","category":"Gastropub","checkinsCount":1285,"usersCount":550,"tipCount":15,"visitsCount":1757,"url":"http://thefedbar.com","tier":2,"message":"Moderate","currency":"$","rating":8.4},{"name":"Rock Bottom Brewery","phone":"3035347616","twitter":"rockbottom","address":"1001 16th St","lat":39.74747949959693,"lng":-104.99497197917015,"neighborhood":"Central Business District","city_fetched":"Denver","state":"CO","country":"United States","canonicalUrl":"https://foursquare.com/v/rock-bottom-brewery/40e0b100f964a520ed031fe3","category":"Brewery","checkinsCount":17785,"usersCount":11860,"tipCount":132,"visitsCount":18701,"url":"http://rockbottom.com/Denver-Downtown","tier":3,"message":"Expensive","currency":"$","rating":8.4},{"name":"Stoney's Bar and Grill","phone":"3038306839","twitter":"stoneysdenver","address":"1111 Lincoln St","lat":39.73427867302592,"lng":-104.98619101555192,"neighborhood":"Capitol Hill","city_fetched":"Denver","state":"CO","country":"United States","canonicalUrl":"https://foursquare.com/v/stoneys-bar-and-grill/4c475eab89a6c9b69a009a88","category":"Sports Bar","checkinsCount":12855,"usersCount":5899,"tipCount":61,"visitsCount":14825,"url":"http://www.stoneysbarandgrill.com","tier":2,"message":"Moderate","currency":"$","rating":8.4},{"name":"Jakes Food & Spirits","phone":"3032953800","twitter":"jakesdenver","address":"3800 Walnut St","lat":39.770064,"lng":-104.971319,"neighborhood":"Cole","city_fetched":"Denver","state":"CO","country":"United States","canonicalUrl":"https://foursquare.com/v/jakes-food--spirits/4cad2a2ea6e08cfa13f3b194","category":"American Restaurant","checkinsCount":4429,"usersCount":1546,"tipCount":41,"visitsCount":4828,"url":"http://www.jakesdenver.com","tier":2,"message":"Moderate","currency":"$","rating":8.3},{"name":"Hi-Dive","phone":"3037330230","twitter":"hidivedenver","address":"7 S Broadway","lat":39.716348,"lng":-104.987615,"neighborhood":"Baker","city_fetched":"Denver","state":"CO","country":"United States","canonicalUrl":"https://foursquare.com/v/hidive/42814b00f964a520f2211fe3","category":"Rock Club","checkinsCount":5231,"usersCount":1982,"tipCount":29,"visitsCount":5421,"url":"http://www.hi-dive.com","tier":"","message":"","currency":"","rating":8.3},{"name":"La Biblioteca","phone":"3035723000","address":"1610 Little Raven St","lat":39.75498155035655,"lng":-105.00464928094262,"neighborhood":"LoDo","city_fetched":"Denver","state":"CO","country":"United States","canonicalUrl":"https://foursquare.com/v/la-biblioteca/526a9095498ea93d2e21ce56","category":"Tapas Restaurant","checkinsCount":576,"usersCount":413,"tipCount":14,"visitsCount":587,"url":"http://richardsandoval.com/labibliotecadenver/","tier":2,"message":"Moderate","currency":"$","rating":8.3},{"name":"Lannie's Clocktower Cabaret","phone":"3032930075","address":"1601 Arapahoe St","lat":39.74805593412208,"lng":-104.9957137329212,"neighborhood":"Central Business District","city_fetched":"Denver","state":"CO","country":"United States","canonicalUrl":"https://foursquare.com/v/lannies-clocktower-cabaret/4abbfa30f964a520c48520e3","category":"Music Venue","checkinsCount":2244,"usersCount":1458,"tipCount":10,"visitsCount":2270,"url":"http://www.lannies.com","tier":"","message":"","currency":"","rating":8.3},{"name":"Joyride Brewing Company","phone":"7204327560","twitter":"joyridebrewing","address":"2501 Sheridan Blvd","lat":39.753091957750335,"lng":-105.05330801010132,"city_fetched":"Denver","state":"CO","country":"United States","canonicalUrl":"https://foursquare.com/v/joyride-brewing-company/51c791068bbd776b7b995cf8","category":"Brewery","checkinsCount":1315,"usersCount":982,"tipCount":17,"visitsCount":2180,"url":"http://joyridebrewing.com","tier":1,"message":"Cheap","currency":"$","rating":8.3},{"name":"Historians Ale House","phone":"7204798505","twitter":"hahdenver","address":"24 Broadway","lat":39.71718524098403,"lng":-104.98726364819176,"neighborhood":"Central Denver","city_fetched":"Denver","state":"CO","country":"United States","canonicalUrl":"https://foursquare.com/v/historians-ale-house/519a5e418bbd3ecbd3bc96aa","category":"Bar","checkinsCount":3954,"usersCount":2650,"tipCount":40,"visitsCount":5085,"url":"http://historiansalehouse.com","tier":2,"message":"Moderate","currency":"$","rating":8.3},{"name":"Rocky Top Tavern","phone":"3034770265","twitter":"rockytoptavern","address":"4907 Lowell Blvd","lat":39.785856255666346,"lng":-105.03480327123478,"neighborhood":"Regis","city_fetched":"Denver","state":"CO","country":"United States","canonicalUrl":"https://foursquare.com/v/rocky-top-tavern/52d1948d498e67a452e78d42","category":"Bar","checkinsCount":340,"usersCount":234,"tipCount":12,"visitsCount":580,"url":"http://rockytopdenver.com","tier":1,"message":"Cheap","currency":"$","rating":8.3},{"name":"Old Chicago","phone":"3034317707","address":"8711 Wadsworth Blvd","lat":39.853886801374244,"lng":-105.0824082172497,"neighborhood":"West Westminster","city_fetched":"Denver","state":"CO","country":"United States","canonicalUrl":"https://foursquare.com/v/old-chicago/4b282c40f964a520399024e3","category":"Bar","checkinsCount":4821,"usersCount":1649,"tipCount":25,"visitsCount":5694,"url":"http://oldchicago.com","tier":2,"message":"Moderate","currency":"$","rating":8.3},{"name":"The Church","phone":"3038328628","twitter":"churchnightclub","address":"1160 Lincoln St","lat":39.73517612784892,"lng":-104.98593426943823,"neighborhood":"Capitol Hill","city_fetched":"Denver","state":"CO","country":"United States","canonicalUrl":"https://foursquare.com/v/the-church/40e0b100f964a52044031fe3","category":"Nightclub","checkinsCount":3525,"usersCount":1752,"tipCount":20,"visitsCount":3957,"url":"http://www.churchnightclub.co","tier":2,"message":"Moderate","currency":"$","rating":8.3},{"name":"The Village Cork","phone":"3032828399","twitter":"villagecork","address":"1300 S Pearl St","lat":39.69294472991177,"lng":-104.98032589548822,"neighborhood":"Old South Pearl","city_fetched":"Denver","state":"CO","country":"United States","canonicalUrl":"https://foursquare.com/v/the-village-cork/4b270b94f964a520568424e3","category":"Wine Bar","checkinsCount":663,"usersCount":447,"tipCount":12,"visitsCount":666,"url":"http://www.villagecork.com","tier":3,"message":"Expensive","currency":"$","rating":8.3},{"name":"Ale House at Amato's","phone":"3034339734","twitter":"alehousedenver","address":"2501 16th St","lat":39.75857276783263,"lng":-105.00919142229698,"neighborhood":"Highland","city_fetched":"Denver","state":"CO","country":"United States","canonicalUrl":"https://foursquare.com/v/ale-house-at-amatos/4d8fca501716a1431a8553f7","category":"Beer Garden","checkinsCount":15254,"usersCount":8072,"tipCount":123,"visitsCount":16653,"url":"http://www.alehousedenver.com","tier":2,"message":"Moderate","currency":"$","rating":8.3},{"name":"The Skylark Lounge","phone":"3037227844","address":"140 S Broadway","lat":39.71375831,"lng":-104.987347,"neighborhood":"Central Denver","city_fetched":"Denver","state":"CO","country":"United States","canonicalUrl":"https://foursquare.com/v/the-skylark-lounge/3fd66200f964a520c9ed1ee3","category":"Dive Bar","checkinsCount":2883,"usersCount":1576,"tipCount":22,"visitsCount":2988,"url":"http://skylarklounge.com","tier":1,"message":"Cheap","currency":"$","rating":8.3},{"name":"Launch Pad Brewery","phone":"3037454599","address":"884 S Buckley Rd","lat":39.70072502605196,"lng":-104.7901005760524,"city_fetched":"Denver","state":"CO","country":"United States","canonicalUrl":"https://foursquare.com/v/launch-pad-brewery/55b30f05498e8431bcfb9857","category":"Brewery","checkinsCount":196,"usersCount":164,"tipCount":2,"visitsCount":337,"url":"http://launchpadbrewery.com","tier":"","message":"","currency":"","rating":8.3},{"name":"Forest Room 5","phone":"3034337001","address":"2532 15th St","lat":39.75775425571693,"lng":-105.01120004816818,"neighborhood":"Highland","city_fetched":"Denver","state":"CO","country":"United States","canonicalUrl":"https://foursquare.com/v/forest-room-5/42dee580f964a5205d261fe3","category":"Bar","checkinsCount":6206,"usersCount":4227,"tipCount":59,"visitsCount":7382,"url":"http://forestroom5.com","tier":2,"message":"Moderate","currency":"$","rating":8.3},{"name":"The Pioneer","phone":"7205364802","address":"2401 S University Blvd","lat":39.67275407838643,"lng":-104.95980536639632,"neighborhood":"University","city_fetched":"Denver","state":"CO","country":"United States","canonicalUrl":"https://foursquare.com/v/the-pioneer/4a707358f964a5207dd71fe3","category":"Bar","checkinsCount":4943,"usersCount":1797,"tipCount":49,"visitsCount":5775,"url":"http://www.thepioneerbar.com","tier":2,"message":"Moderate","currency":"$","rating":8.3},{"name":"The Berkshire","phone":"3033214010","twitter":"berkshiredenver","address":"7352 E 29th Ave","lat":39.7581428480239,"lng":-104.90191481798965,"neighborhood":"Stapleton","city_fetched":"Denver","state":"CO","country":"United States","canonicalUrl":"https://foursquare.com/v/the-berkshire/4ac25279f964a520b39820e3","category":"American Restaurant","checkinsCount":4125,"usersCount":1503,"tipCount":50,"visitsCount":4241,"url":"http://theberkshirerestaurant.com","tier":2,"message":"Moderate","currency":"$","rating":8.3},{"name":"Appaloosa Grill","phone":"7209321700","twitter":"appaloosagrill","address":"535 16th St","lat":39.744471918929435,"lng":-104.99114344296976,"neighborhood":"Central Business District","city_fetched":"Denver","state":"CO","country":"United States","canonicalUrl":"https://foursquare.com/appaloosagrill","category":"American Restaurant","checkinsCount":7890,"usersCount":5502,"tipCount":74,"visitsCount":8322,"url":"http://www.appaloosagrill.com","tier":2,"message":"Moderate","currency":"$","rating":8.3},{"name":"Ace Eat Serve","phone":"3038007705","twitter":"aceeatserve","address":"501 E 17th Ave","lat":39.743499101116555,"lng":-104.98079372795219,"neighborhood":"North Capitol Hill","city_fetched":"Denver","state":"CO","country":"United States","canonicalUrl":"https://foursquare.com/v/ace-eat-serve/500588b0e4b0859fa79ba9f0","category":"Asian Restaurant","checkinsCount":6821,"usersCount":4323,"tipCount":73,"visitsCount":7446,"url":"http://www.acedenver.com","tier":2,"message":"Moderate","currency":"$","rating":8.3},{"name":"Tap Fourteen","address":"1920 Blake St","lat":39.75341944235899,"lng":-104.99493203868045,"neighborhood":"LoDo","city_fetched":"Denver","state":"CO","country":"United States","canonicalUrl":"https://foursquare.com/v/tap-fourteen/55280b57498e4f389d668617","category":"Beer Garden","checkinsCount":580,"usersCount":389,"tipCount":6,"visitsCount":593,"url":"http://tapfourteen.com","tier":"","message":"","currency":"","rating":8.3},{"name":"Grizzly Rose","phone":"3032951330","twitter":"thegrizzlyrose","address":"5450 N Valley Hwy","lat":39.795158278882084,"lng":-104.98672733097796,"city_fetched":"Denver","state":"CO","country":"United States","canonicalUrl":"https://foursquare.com/v/grizzly-rose/40e0b100f964a5207e031fe3","category":"Music Venue","checkinsCount":6826,"usersCount":3448,"tipCount":31,"visitsCount":7950,"url":"http://www.grizzlyrose.com","tier":"","message":"","currency":"","rating":8.2},{"name":"Old Chicago","phone":"3037530824","address":"1280 S Colorado Blvd","lat":39.69351596531796,"lng":-104.94014874223647,"neighborhood":"Virginia Village","city_fetched":"Denver","state":"CO","country":"United States","canonicalUrl":"https://foursquare.com/v/old-chicago/4ad5529ff964a520d30221e3","category":"American Restaurant","checkinsCount":6795,"usersCount":3030,"tipCount":32,"visitsCount":7845,"url":"http://oldchicago.com","tier":2,"message":"Moderate","currency":"$","rating":8.2},{"name":"The Retro Room Salon & Lounge","phone":"3032963242","address":"2034 Larimer St","lat":39.75337652649342,"lng":-104.99206205512998,"neighborhood":"Ballpark","city_fetched":"Denver","state":"CO","country":"United States","canonicalUrl":"https://foursquare.com/v/the-retro-room-salon--lounge/4a9ffdbff964a520dd3d20e3","category":"Cocktail Bar","checkinsCount":8541,"usersCount":3512,"tipCount":44,"visitsCount":8734,"url":"http://www.theretroroomlounge.com","tier":2,"message":"Moderate","currency":"$","rating":8.2},{"name":"Potager","phone":"3038325788","address":"1109 Ogden St","lat":39.734005,"lng":-104.9753737449646,"neighborhood":"Capitol Hill","city_fetched":"Denver","state":"CO","country":"United States","canonicalUrl":"https://foursquare.com/v/potager/4a1587dbf964a52098781fe3","category":"Wine Bar","checkinsCount":1238,"usersCount":668,"tipCount":18,"visitsCount":1249,"url":"http://potagerrestaurant.com","tier":"","message":"","currency":"","rating":8.2},{"name":"LAWS Whiskey House","phone":"7205701420","twitter":"lawswhiskey","address":"1420 S Acoma St","lat":39.69065856933594,"lng":-104.98847961425781,"neighborhood":"Overland","city_fetched":"Denver","state":"CO","country":"United States","canonicalUrl":"https://foursquare.com/v/laws-whiskey-house/54922b11498e778f194cc553","category":"Whisky Bar","checkinsCount":65,"usersCount":83,"tipCount":1,"visitsCount":93,"url":"http://www.lawswhiskeyhouse.com","tier":"","message":"","currency":"","rating":8.2},{"name":"Union Lodge No. 1","lat":39.746229817742076,"lng":-104.9946296324369,"neighborhood":"Central Business District","city_fetched":"Denver","state":"CO","country":"United States","canonicalUrl":"https://foursquare.com/v/union-lodge-no-1/5553df78498e2fc871698b85","category":"Cocktail Bar","checkinsCount":305,"usersCount":251,"tipCount":7,"visitsCount":312,"tier":"","message":"","currency":"","rating":8.2},{"name":"The Thin Man","phone":"3033207814","address":"2015 E 17th Ave","lat":39.74339792,"lng":-104.96296092,"neighborhood":"City Park West","city_fetched":"Denver","state":"CO","country":"United States","canonicalUrl":"https://foursquare.com/v/the-thin-man/4a07277ff964a5202d731fe3","category":"Bar","checkinsCount":6265,"usersCount":2712,"tipCount":57,"visitsCount":6571,"url":"http://www.thinmantavern.com","tier":2,"message":"Moderate","currency":"$","rating":8.2},{"name":"Roo Bar","phone":"3034558700","address":"3480 Park Ave W","lat":39.76545453071594,"lng":-104.99408,"neighborhood":"Globeville","city_fetched":"Denver","state":"CO","country":"United States","canonicalUrl":"https://foursquare.com/v/roo-bar/4aa0019bf964a520e93d20e3","category":"Bar","checkinsCount":2389,"usersCount":908,"tipCount":19,"visitsCount":2616,"url":"http://roobardenver.com","tier":1,"message":"Cheap","currency":"$","rating":8.2},{"name":"The Rooftop @ Coors Field","lat":39.75682276284094,"lng":-104.99344283606118,"neighborhood":"Ballpark","city_fetched":"Denver","state":"CO","country":"United States","canonicalUrl":"https://foursquare.com/v/the-rooftop--coors-field/5345ad61498ef465c883ca01","category":"Beer Garden","checkinsCount":323,"usersCount":255,"tipCount":3,"visitsCount":323,"tier":"","message":"","currency":"","rating":8.1},{"name":"Ursula Brewery","phone":"7203248529","twitter":"ursulabrewery","address":"2101 N Ursula St Unit 10","lat":39.74794063451765,"lng":-104.83728826045989,"neighborhood":"Fitzsimons","city_fetched":"Denver","state":"CO","country":"United States","canonicalUrl":"https://foursquare.com/v/ursula-brewery/51ca46f28bbd484e162209fe","category":"Brewery","checkinsCount":540,"usersCount":297,"tipCount":6,"visitsCount":616,"url":"http://ursulabrewery.com","tier":"","message":"","currency":"","rating":8.1},{"name":"Peaks Lounge","phone":"3033864433","twitter":"denverhyatt","address":"650 15th St Fl 27","lat":39.743667095519655,"lng":-104.9939278239082,"neighborhood":"Central Business District","city_fetched":"Denver","state":"CO","country":"United States","canonicalUrl":"https://foursquare.com/v/peaks-lounge/4b04b4fdf964a5203a5622e3","category":"Lounge","checkinsCount":3379,"usersCount":2660,"tipCount":26,"visitsCount":3443,"url":"http://www.thayerinteractive.com/clickthru/clickthrough.rry/119567","tier":2,"message":"Moderate","currency":"$","rating":8.1},{"name":"Charlie Brown's Bar & Grill","phone":"3038601655","address":"980 N Grant St","lat":39.732003,"lng":-104.98331844806671,"neighborhood":"Capitol Hill","city_fetched":"Denver","state":"CO","country":"United States","canonicalUrl":"https://foursquare.com/v/charlie-browns-bar--grill/3fd66200f964a520b9ed1ee3","category":"Karaoke Bar","checkinsCount":6601,"usersCount":2933,"tipCount":47,"visitsCount":7917,"url":"http://charliebrownsbarandgrill.com","tier":2,"message":"Moderate","currency":"$","rating":8.1},{"name":"World of Beer","phone":"3037570506","address":"660 S Colorado Blvd","lat":39.70499347158807,"lng":-104.93912775901597,"city_fetched":"Denver","state":"CO","country":"United States","canonicalUrl":"https://foursquare.com/v/world-of-beer/5166de1972dabe57719cab20","category":"Bar","checkinsCount":3382,"usersCount":1580,"tipCount":31,"visitsCount":3699,"url":"http://worldofbeer.com/Locations/CherryCreek","tier":2,"message":"Moderate","currency":"$","rating":8.1},{"name":"Argyll Whisky Beer, A Gastropub","phone":"3038470850","twitter":"argylldenver","address":"1035 E 17th Ave","lat":39.74330865153693,"lng":-104.97351229190826,"neighborhood":"North Capitol Hill","city_fetched":"Denver","state":"CO","country":"United States","canonicalUrl":"https://foursquare.com/v/argyll-whisky-beer-a-gastropub/4c5a2adc67ac0f475742064c","category":"Gastropub","checkinsCount":1030,"usersCount":1076,"tipCount":14,"visitsCount":1562,"url":"http://argylldenver.com","tier":2,"message":"Moderate","currency":"$","rating":8.1},{"name":"Irish Hound","phone":"3039960709","twitter":"irish_hound","address":"575 Saint Paul St","lat":39.72528040409088,"lng":-104.95117203333334,"neighborhood":"Cherry Creek","city_fetched":"Denver","state":"CO","country":"United States","canonicalUrl":"https://foursquare.com/v/irish-hound/4a20431bf964a520647c1fe3","category":"Bar","checkinsCount":2260,"usersCount":1247,"tipCount":26,"visitsCount":2597,"url":"http://www.irishhounddenver.com","tier":2,"message":"Moderate","currency":"$","rating":8.1},{"name":"Star Bar","phone":"7203282420","twitter":"starbar_denver","address":"2137 Larimer St","lat":39.754571329750895,"lng":-104.99084674947873,"neighborhood":"Ballpark","city_fetched":"Denver","state":"CO","country":"United States","canonicalUrl":"https://foursquare.com/v/star-bar/4abef492f964a520989020e3","category":"Karaoke Bar","checkinsCount":8879,"usersCount":2729,"tipCount":33,"visitsCount":9043,"url":"http://starbardenver.com","tier":1,"message":"Cheap","currency":"$","rating":8.1},{"name":"The Way Back","phone":"7207288156","address":"4132 W 38th Ave","lat":39.769331698373946,"lng":-105.04144657800444,"neighborhood":"West Highland","city_fetched":"Denver","state":"CO","country":"United States","canonicalUrl":"https://foursquare.com/v/the-way-back/56f725ca498ee2d7e96b83a7","category":"Lounge","checkinsCount":108,"usersCount":108,"tipCount":3,"visitsCount":148,"url":"http://thewaybackdenver.com/#local-seasonal","tier":"","message":"","currency":"","rating":8.1},{"name":"5280 Burger Bar","phone":"3038251020","twitter":"5280burgerbar","address":"500 16th Street","lat":39.74381,"lng":-104.99133,"neighborhood":"Central Business District","city_fetched":"Denver","state":"CO","country":"United States","canonicalUrl":"https://foursquare.com/v/5280-burger-bar/52f3da9b498e5fbf700b1612","category":"Burger Joint","checkinsCount":1753,"usersCount":1410,"tipCount":29,"visitsCount":1849,"url":"http://www.5280burgerbar.com/#986B0q","tier":2,"message":"Moderate","currency":"$","rating":8.1},{"name":"Jack N Grill","phone":"3039649544","address":"2524 Federal Blvd","lat":39.754125068704035,"lng":-105.02497007890462,"neighborhood":"Jefferson Park","city_fetched":"Denver","state":"CO","country":"United States","canonicalUrl":"https://foursquare.com/v/jack-n-grill/49f4e4b5f964a520696b1fe3","category":"Mexican Restaurant","checkinsCount":2540,"usersCount":1825,"tipCount":58,"visitsCount":2668,"url":"http://jackngrill.com","tier":1,"message":"Cheap","currency":"$","rating":8.1},{"name":"Bout Time Pub & Grub Riverpoint","phone":"3037611700","twitter":"bouttimepub","address":"3850 South Platte River Drive Suite A","lat":39.65172615748527,"lng":-105.00937402361652,"city_fetched":"Denver","state":"CO","country":"United States","canonicalUrl":"https://foursquare.com/v/bout-time-pub--grub-riverpoint/53f79ce2498e47b1dc1724ef","category":"Sports Bar","checkinsCount":169,"usersCount":185,"tipCount":7,"visitsCount":400,"url":"http://www.bouttimepub.com","tier":"","message":"","currency":"","rating":8.1},{"name":"Manneken Frites","phone":"3038474357","address":"5616 Olde Wadsworth Blvd","lat":39.799457,"lng":-105.08139021,"neighborhood":"Olde Town Arvada Area","city_fetched":"Denver","state":"CO","country":"United States","canonicalUrl":"https://foursquare.com/v/manneken-frites/4e359f38aeb7f67fbd331642","category":"Food","checkinsCount":801,"usersCount":428,"tipCount":17,"visitsCount":814,"url":"http://mannekenfrites.com ","tier":2,"message":"Moderate","currency":"$","rating":8.1},{"name":"Mile High Station","address":"2027 W Colfax Ave Lowr","lat":39.74010439401289,"lng":-105.01648992954198,"neighborhood":"Central Denver","city_fetched":"Denver","state":"CO","country":"United States","canonicalUrl":"https://foursquare.com/v/mile-high-station/4f00a5450e01089c565927bd","category":"Event Space","checkinsCount":2746,"usersCount":2519,"tipCount":18,"visitsCount":3589,"url":"http://milehighstation.com","tier":"","message":"","currency":"","rating":8.1},{"name":"Royal","phone":"3038629394","address":"4000 Tennyson St","lat":39.77183700487395,"lng":-105.04397498699933,"neighborhood":"Berkeley","city_fetched":"Denver","state":"CO","country":"United States","canonicalUrl":"https://foursquare.com/v/royal/549755e9498e91fedc6883ac","category":"Burger Joint","checkinsCount":322,"usersCount":197,"tipCount":13,"visitsCount":348,"url":"http://theroyalburger.com","tier":"","message":"","currency":"","rating":8.1},{"name":"Tracks Night Club","phone":"3038637326","twitter":"tracks_denver","address":"3500 Walnut St","lat":39.76784812414486,"lng":-104.97459791087687,"neighborhood":"Curtis Park","city_fetched":"Denver","state":"CO","country":"United States","canonicalUrl":"https://foursquare.com/v/tracks-night-club/42b60700f964a52085251fe3","category":"Gay Bar","checkinsCount":13105,"usersCount":3679,"tipCount":44,"visitsCount":14554,"url":"http://www.tracksdenver.com","tier":2,"message":"Moderate","currency":"$","rating":8.1},{"name":"BJ's Restaurant and Brewhouse","phone":"3033663550","twitter":"bjsrestaurants","address":"14442 E Cedar Ave","lat":39.712279694651706,"lng":-104.8198833309302,"neighborhood":"City Center North","city_fetched":"Denver","state":"CO","country":"United States","canonicalUrl":"https://foursquare.com/v/bjs-restaurant-and-brewhouse/4b9b04f8f964a5203fec35e3","category":"American Restaurant","checkinsCount":4634,"usersCount":2856,"tipCount":52,"visitsCount":5859,"url":"http://t.co/bl46gcjDLN","tier":2,"message":"Moderate","currency":"$","rating":8.1},{"name":"BJ's Restaurant and Brewhouse","phone":"3033896444","twitter":"bjsrestaurants","address":"10446 Town Center Dr","lat":39.88818078,"lng":-105.0743304,"neighborhood":"West Westminster","city_fetched":"Denver","state":"CO","country":"United States","canonicalUrl":"https://foursquare.com/v/bjs-restaurant-and-brewhouse/4a2f1cb6f964a520aa981fe3","category":"American Restaurant","checkinsCount":4668,"usersCount":2910,"tipCount":29,"visitsCount":5729,"url":"http://t.co/bl46gcjDLN","tier":2,"message":"Moderate","currency":"$","rating":8.1},{"name":"3 Kings Tavern","phone":"3037777352","twitter":"3_kings_tavern","address":"60 S Broadway","lat":39.715506,"lng":-104.987197,"neighborhood":"Central Denver","city_fetched":"Denver","state":"CO","country":"United States","canonicalUrl":"https://foursquare.com/v/3-kings-tavern/4a289770f964a52037951fe3","category":"Rock Club","checkinsCount":5112,"usersCount":1837,"tipCount":27,"visitsCount":5253,"tier":"","message":"","currency":"","rating":8.1},{"name":"Vinue","phone":"7202871156","twitter":"vinuewinebar","address":"2817 E 3rd Ave","lat":39.721172974708765,"lng":-104.95443748788801,"neighborhood":"Cherry Creek","city_fetched":"Denver","state":"CO","country":"United States","canonicalUrl":"https://foursquare.com/v/vinue/4e370328a809c70238a5a9cf","category":"Wine Bar","checkinsCount":746,"usersCount":547,"tipCount":16,"visitsCount":766,"url":"http://www.denverwinebar.net","tier":2,"message":"Moderate","currency":"$","rating":8.1},{"name":"Blake Street Tavern","phone":"3036750505","twitter":"blakestreet123","address":"2301 Blake St","lat":39.75761476868801,"lng":-104.99052723402295,"neighborhood":"Ballpark","city_fetched":"Denver","state":"CO","country":"United States","canonicalUrl":"https://foursquare.com/v/blake-street-tavern/4bfacb7c328d76b06ff914ec","category":"Bar","checkinsCount":14935,"usersCount":6434,"tipCount":69,"visitsCount":17327,"url":"http://www.blakestreettavern.com","tier":2,"message":"Moderate","currency":"$","rating":8.1},{"name":"The Matchbox","phone":"7204379100","address":"2625 Larimer St","lat":39.759143039348,"lng":-104.98507274658455,"neighborhood":"Curtis Park","city_fetched":"Denver","state":"CO","country":"United States","canonicalUrl":"https://foursquare.com/v/the-matchbox/4d7af243082e6ea8da272308","category":"Bar","checkinsCount":5800,"usersCount":2405,"tipCount":37,"visitsCount":6591,"url":"http://matchboxdenver.com","tier":1,"message":"Cheap","currency":"$","rating":8.1},{"name":"Grandma's House","phone":"3035786754","twitter":"grandmasbeerco","address":"1710 S Broadway","lat":39.68551286374479,"lng":-104.98738916949995,"neighborhood":"Platt Park","city_fetched":"Denver","state":"CO","country":"United States","canonicalUrl":"https://foursquare.com/v/grandmas-house/52fd2ddb498ef1b4b00b89b6","category":"Brewery","checkinsCount":458,"usersCount":519,"tipCount":7,"visitsCount":747,"url":"http://www.grandmasbeer.co","tier":1,"message":"Cheap","currency":"$","rating":8.1},{"name":"Cucina Colore","phone":"3033936917","twitter":"cucinacolore","address":"3041 E 3rd Ave","lat":39.721127,"lng":-104.95114,"neighborhood":"Cherry Creek","city_fetched":"Denver","state":"CO","country":"United States","canonicalUrl":"https://foursquare.com/v/cucina-colore/4a7e11ccf964a520dbf01fe3","category":"Italian Restaurant","checkinsCount":1170,"usersCount":965,"tipCount":24,"visitsCount":1421,"url":"http://www.cucinacolore.com","tier":2,"message":"Moderate","currency":"$","rating":8},{"name":"Inga's Alpine Lounge","phone":"7203896203","address":"5151 Leetsdale Dr","lat":39.708480131870004,"lng":-104.92740117988248,"neighborhood":"Washington Virginia Vale","city_fetched":"Denver","state":"CO","country":"United States","canonicalUrl":"https://foursquare.com/v/ingas-alpine-lounge/532ce5b5498ecad4a1d50fe0","category":"Cocktail Bar","checkinsCount":432,"usersCount":289,"tipCount":6,"visitsCount":629,"url":"http://ingasalpinelounge.com","tier":"","message":"","currency":"","rating":8},{"name":"Dive Inn","phone":"7202426157","twitter":"diveinndenver","address":"1380 S Broadway","lat":39.69143290757002,"lng":-104.98732640883361,"neighborhood":"Platt Park","city_fetched":"Denver","state":"CO","country":"United States","canonicalUrl":"https://foursquare.com/v/dive-inn/4f089516e4b08f5248e188ce","category":"Bar","checkinsCount":2313,"usersCount":1236,"tipCount":11,"visitsCount":2916,"url":"http://www.diveinndenver.com","tier":1,"message":"Cheap","currency":"$","rating":8},{"name":"Longshot Restaurant & Lounge","phone":"3037899653","address":"3665 S Federal Blvd","lat":39.65006904689001,"lng":-105.02564919487743,"city_fetched":"Denver","state":"CO","country":"United States","canonicalUrl":"https://foursquare.com/v/longshot-restaurant--lounge/4eb9dfea775bf193edd3493f","category":"Bar","checkinsCount":1169,"usersCount":165,"tipCount":18,"visitsCount":1328,"tier":"","message":"","currency":"","rating":8},{"name":"The Molecule Effect","phone":"7205026966","twitter":"moleculeeffect","address":"1201 Santa Fe Dr","lat":39.735351,"lng":-104.998702,"neighborhood":"Central Denver","city_fetched":"Denver","state":"CO","country":"United States","canonicalUrl":"https://foursquare.com/v/the-molecule-effect/54834d24498e9751c3fc1900","category":"Café","checkinsCount":324,"usersCount":299,"tipCount":8,"visitsCount":593,"url":"http://themoleculeeffect.com","tier":2,"message":"Moderate","currency":"$","rating":8},{"name":"Mu Brewery","address":"9735 E Colfax Ave","lat":39.740259,"lng":-104.874803,"neighborhood":"Northwest Aurora","city_fetched":"Denver","state":"CO","country":"United States","canonicalUrl":"https://foursquare.com/v/mu-brewery/518d126f498e0e7804f37f21","category":"Brewery","checkinsCount":243,"usersCount":208,"tipCount":6,"visitsCount":360,"url":"http://brewbymu.com","tier":"","message":"","currency":"","rating":8},{"name":"Benny's Cantina","phone":"3038940788","twitter":"bennysmexican","address":"301 E 7th Ave","lat":39.727394,"lng":-104.98341148,"neighborhood":"Capitol Hill","city_fetched":"Denver","state":"CO","country":"United States","canonicalUrl":"https://foursquare.com/v/bennys-cantina/4a10aaddf964a520ee761fe3","category":"Mexican Restaurant","checkinsCount":9528,"usersCount":4500,"tipCount":66,"visitsCount":10641,"url":"http://www.bennysrestaurant.com","tier":2,"message":"Moderate","currency":"$","rating":8},{"name":"The Corner Office Restaurant & Martini Bar","phone":"3038256500","twitter":"tcodenver","address":"1401 Curtis St","lat":39.745573123795374,"lng":-104.997239112854,"neighborhood":"Central Business District","city_fetched":"Denver","state":"CO","country":"United States","canonicalUrl":"https://foursquare.com/tcodenver","category":"American Restaurant","checkinsCount":8748,"usersCount":5098,"tipCount":81,"visitsCount":8918,"url":"http://www.thecornerofficedenver.com","tier":2,"message":"Moderate","currency":"$","rating":8},{"name":"Call To Arms Brewing Company","address":"4526 Tennyson St","lat":39.77883199575329,"lng":-105.04340423660669,"neighborhood":"Berkeley","city_fetched":"Denver","state":"CO","country":"United States","canonicalUrl":"https://foursquare.com/v/call-to-arms-brewing-company/55a309bd498edb720fa04f89","category":"Brewery","checkinsCount":616,"usersCount":476,"tipCount":8,"visitsCount":906,"url":"http://calltoarmsbrewing.com","tier":"","message":"","currency":"","rating":8},{"name":"Colorado Plus Brew Pub","phone":"7203534853","address":"6995 W 38th Ave","lat":39.769491963709,"lng":-105.0742506980896,"city_fetched":"Denver","state":"CO","country":"United States","canonicalUrl":"https://foursquare.com/v/colorado-plus-brew-pub/5191a42c50195039f6e9c9b7","category":"Brewery","checkinsCount":1631,"usersCount":1122,"tipCount":18,"visitsCount":2375,"url":"http://coloradoplus.net","tier":1,"message":"Cheap","currency":"$","rating":8},{"name":"Stapleton Tap House","phone":"7204492337","twitter":"stapletontap","address":"8286 Northfield Blvd #1525","lat":39.780920585700386,"lng":-104.89228963851929,"neighborhood":"Stapleton","city_fetched":"Denver","state":"CO","country":"United States","canonicalUrl":"https://foursquare.com/v/stapleton-tap-house/51633b44e4b053b3d482a702","category":"Beer Garden","checkinsCount":1157,"usersCount":419,"tipCount":4,"visitsCount":1270,"url":"http://stapletontaphouse.com","tier":1,"message":"Cheap","currency":"$","rating":8},{"name":"Caveau Wine Bar","phone":"3038613747","twitter":"caveauwinebar","address":"450 E 17th Ave","lat":39.74309314073442,"lng":-104.98101052882403,"neighborhood":"North Capitol Hill","city_fetched":"Denver","state":"CO","country":"United States","canonicalUrl":"https://foursquare.com/v/caveau-wine-bar/49e51569f964a52092631fe3","category":"Wine Bar","checkinsCount":2189,"usersCount":1073,"tipCount":32,"visitsCount":2235,"url":"http://www.caveauwinebar.com‎","tier":2,"message":"Moderate","currency":"$","rating":8},{"name":"Charlie's Denver","phone":"3038398890","twitter":"charliesdenver","address":"900 E Colfax Ave","lat":39.739839616200356,"lng":-104.97628569602966,"neighborhood":"Capitol Hill","city_fetched":"Denver","state":"CO","country":"United States","canonicalUrl":"https://foursquare.com/v/charlies-denver/40e0b100f964a5203e031fe3","category":"Gay Bar","checkinsCount":15046,"usersCount":3516,"tipCount":58,"visitsCount":17076,"url":"http://www.charliesdenver.com‎ ","tier":1,"message":"Cheap","currency":"$","rating":8},{"name":"Bar Fausto","address":"3126 Larimer St","lat":39.7635671054708,"lng":-104.97866567176011,"neighborhood":"Curtis Park","city_fetched":"Denver","state":"CO","country":"United States","canonicalUrl":"https://foursquare.com/v/bar-fausto/55c6ccfa498e12d8ded71246","category":"Cocktail Bar","checkinsCount":422,"usersCount":384,"tipCount":6,"visitsCount":613,"tier":"","message":"","currency":"","rating":8},{"name":"The Three Lions: A World Football Pub","phone":"3039976886","twitter":"three_lions_pub","address":"2239 E Colfax Ave","lat":39.740177739554575,"lng":-104.95999361619805,"neighborhood":"City Park West","city_fetched":"Denver","state":"CO","country":"United States","canonicalUrl":"https://foursquare.com/v/the-three-lions-a-world-football-pub/4e3c7599a809ba757bfcf4dd","category":"Pub","checkinsCount":4675,"usersCount":2412,"tipCount":43,"visitsCount":5212,"url":"http://www.threelionsdenver.com","tier":2,"message":"Moderate","currency":"$","rating":8},{"name":"De Steeg Brewing","phone":"3034849698","address":"4342 Tennyson St","lat":39.776115538698974,"lng":-105.04356404651439,"neighborhood":"Berkeley","city_fetched":"Denver","state":"CO","country":"United States","canonicalUrl":"https://foursquare.com/v/de-steeg-brewing/51034119e4b0fcbba8ace546","category":"Brewery","checkinsCount":1058,"usersCount":624,"tipCount":7,"visitsCount":1179,"url":"http://desteegbrewing.com","tier":2,"message":"Moderate","currency":"$","rating":8},{"name":"Syntax Physic Opera","phone":"7204567041","address":"554 S Broadway","lat":39.70654931015335,"lng":-104.98739487501629,"neighborhood":"South Broadway","city_fetched":"Denver","state":"CO","country":"United States","canonicalUrl":"https://foursquare.com/v/syntax-physic-opera/53bc8172498e3329fcb65d76","category":"Bar","checkinsCount":396,"usersCount":290,"tipCount":4,"visitsCount":509,"tier":"","message":"","currency":"","rating":7.9},{"name":"Dry Dock Brewing Company - North Dock","twitter":"drydockbrewing","address":"2801 Tower Rd","lat":39.75627616207112,"lng":-104.77326836745628,"city_fetched":"Denver","state":"CO","country":"United States","canonicalUrl":"https://foursquare.com/v/dry-dock-brewing-company--north-dock/510d77cde4b0ef5188d73e82","category":"Brewery","checkinsCount":237,"usersCount":161,"tipCount":3,"visitsCount":425,"url":"http://drydockbrewing.com","tier":"","message":"","currency":"","rating":7.9},{"name":"Baker St. Pub & Grill","phone":"3035772790","twitter":"bakerstreetpub","address":"8101 E Belleview Ave","lat":39.625856997873505,"lng":-104.89384033214091,"neighborhood":"Hampden South","city_fetched":"Denver","state":"CO","country":"United States","canonicalUrl":"https://foursquare.com/v/baker-st-pub--grill/4b089d0ff964a520780f23e3","category":"Pub","checkinsCount":6229,"usersCount":3501,"tipCount":32,"visitsCount":7364,"url":"http://bakerstreetpub.com","tier":2,"message":"Moderate","currency":"$","rating":7.9},{"name":"Fadó Irish Pub & Restaurant","phone":"3032970066","twitter":"fadoirishpub","address":"1735 19th St","lat":39.755486,"lng":-104.99679,"neighborhood":"LoDo","city_fetched":"Denver","state":"CO","country":"United States","canonicalUrl":"https://foursquare.com/v/fad%C3%B3-irish-pub--restaurant/40e0b100f964a5206b031fe3","category":"Pub","checkinsCount":5542,"usersCount":3691,"tipCount":21,"visitsCount":5869,"url":"http://fadoirishpub.com","tier":2,"message":"Moderate","currency":"$","rating":7.9},{"name":"Prohibition","phone":"3038324840","twitter":"prohibition5280","address":"504 E Colfax Ave","lat":39.739986739331826,"lng":-104.98102764469478,"neighborhood":"Capitol Hill","city_fetched":"Denver","state":"CO","country":"United States","canonicalUrl":"https://foursquare.com/v/prohibition/4dddb008b0fbc2c4eef3896a","category":"Pub","checkinsCount":4470,"usersCount":2857,"tipCount":52,"visitsCount":5275,"url":"http://www.prohibitiondenver.com","tier":2,"message":"Moderate","currency":"$","rating":7.9},{"name":"Spot Bar & Grill","twitter":"spot_bar_denver","address":"98 S Pennsylvania St","lat":39.71482228333333,"lng":-104.98133453231425,"neighborhood":"Central Denver","city_fetched":"Denver","state":"CO","country":"United States","canonicalUrl":"https://foursquare.com/v/spot-bar--grill/40e0b100f964a5200b041fe3","category":"Bar","checkinsCount":2974,"usersCount":1149,"tipCount":18,"visitsCount":3141,"tier":2,"message":"Moderate","currency":"$","rating":7.9},{"name":"Rock Bottom Brewery","phone":"7205660198","twitter":"rockbottom","address":"10633 Westminster Blvd","lat":39.88925350582532,"lng":-105.06932974078711,"neighborhood":"Central Westminster","city_fetched":"Denver","state":"CO","country":"United States","canonicalUrl":"https://foursquare.com/v/rock-bottom-brewery/49eb6f21f964a520da661fe3","category":"Brewery","checkinsCount":6310,"usersCount":3696,"tipCount":54,"visitsCount":7608,"url":"http://rockbottom.com/locations/westminster-promenade/","tier":2,"message":"Moderate","currency":"$","rating":7.9},{"name":"Milk","phone":"3035340222","address":"1037 Broadway","lat":39.73282612710017,"lng":-104.98781708378648,"neighborhood":"Civic Center","city_fetched":"Denver","state":"CO","country":"United States","canonicalUrl":"https://foursquare.com/v/milk/4ae47ecff964a520fb9a21e3","category":"Nightclub","checkinsCount":2014,"usersCount":719,"tipCount":17,"visitsCount":2268,"url":"http://www.coclubs.com/milk/","tier":"","message":"","currency":"","rating":7.9},{"name":"Atomic Cowboy","phone":"3033777900","twitter":"atomiccowboy","address":"3237 E Colfax Ave","lat":39.7403492,"lng":-104.94902908802032,"neighborhood":"City Park","city_fetched":"Denver","state":"CO","country":"United States","canonicalUrl":"https://foursquare.com/v/atomic-cowboy/4287e280f964a52037231fe3","category":"Bar","checkinsCount":7772,"usersCount":3077,"tipCount":41,"visitsCount":7862,"url":"http://atomiccowboy.net","tier":2,"message":"Moderate","currency":"$","rating":7.9},{"name":"Govnr's Park Tavern","phone":"3038318605","address":"672 Logan St","lat":39.726932644844055,"lng":-104.982153,"neighborhood":"Central Denver","city_fetched":"Denver","state":"CO","country":"United States","canonicalUrl":"https://foursquare.com/v/govnrs-park-tavern/4133bf80f964a520b61a1fe3","category":"Sports Bar","checkinsCount":12915,"usersCount":4898,"tipCount":72,"visitsCount":13750,"url":"http://www.govnrspark.com","tier":1,"message":"Cheap","currency":"$","rating":7.9},{"name":"Cervantes' Other Side","phone":"3032971772","twitter":"cervantesdenver","address":"2537 Welton St","lat":39.75432841104422,"lng":-104.97908215238951,"neighborhood":"Curtis Park","city_fetched":"Denver","state":"CO","country":"United States","canonicalUrl":"https://foursquare.com/v/cervantes-other-side/4c23bdfddb5195216ad22b3a","category":"Bar","checkinsCount":2125,"usersCount":1069,"tipCount":15,"visitsCount":2250,"url":"http://cervantesmasterpiece.com","tier":"","message":"","currency":"","rating":7.9},{"name":"Cerebral Brewing","phone":"3039277365","twitter":"cerebralbrewing","address":"1477 Monroe St","lat":39.73990496318928,"lng":-104.94542487683951,"neighborhood":"Congress Park","city_fetched":"Denver","state":"CO","country":"United States","canonicalUrl":"https://foursquare.com/cerebralbrewing","category":"Brewery","checkinsCount":703,"usersCount":470,"tipCount":3,"visitsCount":938,"url":"http://cerebralbrewing.com","tier":"","message":"","currency":"","rating":7.9},{"name":"Tom's Urban","phone":"7202140516","twitter":"tomsurban","address":"1460 Larimer St","lat":39.74813455589438,"lng":-104.99863513474602,"neighborhood":"LoDo","city_fetched":"Denver","state":"CO","country":"United States","canonicalUrl":"https://foursquare.com/tomsurban","category":"American Restaurant","checkinsCount":4562,"usersCount":3111,"tipCount":80,"visitsCount":4631,"url":"http://www.tomsurban.com/denver/larimer","tier":2,"message":"Moderate","currency":"$","rating":7.9},{"name":"Punch Bowl Social","phone":"3037652695","twitter":"punchbowldenver","address":"65 Broadway","lat":39.71799818989279,"lng":-104.987896961246,"neighborhood":"Baker","city_fetched":"Denver","state":"CO","country":"United States","canonicalUrl":"https://foursquare.com/punchbowldenver","category":"Gastropub","checkinsCount":9993,"usersCount":6708,"tipCount":68,"visitsCount":12143,"url":"http://www.punchbowlsocial.com","tier":2,"message":"Moderate","currency":"$","rating":7.9},{"name":"Diebolt Brewing Co.","address":"3855 Mariposa St","lat":39.770367,"lng":-105.003155,"neighborhood":"Sunnyside","city_fetched":"Denver","state":"CO","country":"United States","canonicalUrl":"https://foursquare.com/v/diebolt-brewing-co/520d52d211d278f948e618f3","category":"Brewery","checkinsCount":1087,"usersCount":541,"tipCount":15,"visitsCount":1307,"url":"http://dieboltbrewing.com","tier":1,"message":"Cheap","currency":"$","rating":7.9},{"name":"PS Lounge","phone":"3033201200","address":"3416 E Colfax Ave","lat":39.740037680697355,"lng":-104.94697637875255,"neighborhood":"Congress Park","city_fetched":"Denver","state":"CO","country":"United States","canonicalUrl":"https://foursquare.com/v/ps-lounge/40e0b100f964a520dc031fe3","category":"Dive Bar","checkinsCount":1646,"usersCount":707,"tipCount":16,"visitsCount":1735,"tier":1,"message":"Cheap","currency":"$","rating":7.9},{"name":"Eden","phone":"3038325482","twitter":"edendenver","address":"3090 N Downing St","lat":39.760520597606764,"lng":-104.9730461414474,"neighborhood":"Whittier","city_fetched":"Denver","state":"CO","country":"United States","canonicalUrl":"https://foursquare.com/v/eden/4ddf07dcfa76b3b015f72996","category":"Lounge","checkinsCount":1531,"usersCount":575,"tipCount":14,"visitsCount":1546,"url":"http://edendenver.com","tier":"","message":"","currency":"","rating":7.9},{"name":"Pints Pub","phone":"3035347543","address":"221 W 13th Ave","lat":39.736928,"lng":-104.990922,"neighborhood":"Civic Center","city_fetched":"Denver","state":"CO","country":"United States","canonicalUrl":"https://foursquare.com/v/pints-pub/4ae13631f964a520b08521e3","category":"Pub","checkinsCount":2617,"usersCount":1956,"tipCount":37,"visitsCount":2779,"url":"http://www.pintspub.com","tier":3,"message":"Expensive","currency":"$","rating":7.9},{"name":"Fusion Factory Warehouse","address":"3563 Walnut St","lat":39.76855045689065,"lng":-104.9747063070959,"neighborhood":"Curtis Park","city_fetched":"Denver","state":"CO","country":"United States","canonicalUrl":"https://foursquare.com/v/fusion-factory-warehouse/4e6ecd6f88779c905db42da1","category":"Lounge","checkinsCount":666,"usersCount":170,"tipCount":7,"visitsCount":713,"tier":1,"message":"Cheap","currency":"$","rating":7.9},{"name":"Atomic Cowboy","address":"141 S Broadway","lat":39.71369,"lng":-104.987663,"neighborhood":"Baker","city_fetched":"Denver","state":"CO","country":"United States","canonicalUrl":"https://foursquare.com/v/atomic-cowboy/527d77aa498e40610e35d60d","category":"Bar","checkinsCount":699,"usersCount":449,"tipCount":10,"visitsCount":718,"url":"http://atomiccowboy.net","tier":"","message":"","currency":"","rating":7.9},{"name":"Happy Leaf Kombucha","phone":"7207084954","twitter":"happyleafbucha","address":"5700 W 25th Ave, Edgewater","lat":39.770778396888026,"lng":-104.97869968414307,"neighborhood":"Five Points","city_fetched":"Denver","state":"CO","country":"United States","canonicalUrl":"https://foursquare.com/v/happy-leaf-kombucha/529e61c911d2ac394dcda032","category":"Brewery","checkinsCount":201,"usersCount":145,"tipCount":5,"visitsCount":238,"url":"http://www.happyleafkombucha.com","tier":"","message":"","currency":"","rating":7.9},{"name":"Odyssey Beerwerks Brewery and Tap Room","phone":"3034210772","twitter":"odysseybeerwrks","address":"5535 W 56th Ave Ste 107","lat":39.80059504050747,"lng":-105.05875241252042,"city_fetched":"Denver","state":"CO","country":"United States","canonicalUrl":"https://foursquare.com/v/odyssey-beerwerks-brewery-and-tap-room/519d5df6498e177ee288115e","category":"Brewery","checkinsCount":1099,"usersCount":556,"tipCount":11,"visitsCount":1522,"url":"http://www.odysseybeerwerks.com","tier":1,"message":"Cheap","currency":"$","rating":7.9},{"name":"Crafty Fox","address":"3901 Fox St","lat":39.77003368213767,"lng":-104.99489780398287,"neighborhood":"Globeville","city_fetched":"Denver","state":"CO","country":"United States","canonicalUrl":"https://foursquare.com/v/crafty-fox/56c7d595498ea736d7eb146b","category":"Beer Bar","checkinsCount":168,"usersCount":181,"tipCount":3,"visitsCount":320,"tier":"","message":"","currency":"","rating":7.9},{"name":"Paramount Cafe","phone":"3038932000","twitter":"paramount_cafe","address":"519 16th St","lat":39.744153430355226,"lng":-104.99076116491948,"neighborhood":"Central Business District","city_fetched":"Denver","state":"CO","country":"United States","canonicalUrl":"https://foursquare.com/v/paramount-cafe/4a14b61ef964a5206b781fe3","category":"American Restaurant","checkinsCount":14395,"usersCount":7233,"tipCount":112,"visitsCount":14751,"url":"http://www.paramountcafe.com","tier":2,"message":"Moderate","currency":"$","rating":7.8},{"name":"Pub On Pearl","phone":"3037776768","address":"1101 S Pearl St","lat":39.696508216666665,"lng":-104.980606,"neighborhood":"Washington Park West","city_fetched":"Denver","state":"CO","country":"United States","canonicalUrl":"https://foursquare.com/v/pub-on-pearl/4acaa07ef964a520a0c220e3","category":"Pub","checkinsCount":4898,"usersCount":2105,"tipCount":25,"visitsCount":5734,"url":"http://thepubonpearl.com","tier":2,"message":"Moderate","currency":"$","rating":7.8},{"name":"Vita Restaurant","phone":"3034774600","twitter":"vitarestaurant","address":"1575 Boulder St","lat":39.75893570672903,"lng":-105.01110076904297,"neighborhood":"Highland","city_fetched":"Denver","state":"CO","country":"United States","canonicalUrl":"https://foursquare.com/v/vita-restaurant/4a75099df964a52059e01fe3","category":"New American Restaurant","checkinsCount":3164,"usersCount":2057,"tipCount":25,"visitsCount":3204,"url":"http://www.vitadenver.com","tier":3,"message":"Expensive","currency":"$","rating":7.8},{"name":"Fire","address":"1201 Broadway","lat":39.735596844062826,"lng":-104.98764591793531,"neighborhood":"Civic Center","city_fetched":"Denver","state":"CO","country":"United States","canonicalUrl":"https://foursquare.com/v/fire/55e10513498e44d12474f5f0","category":"Gastropub","checkinsCount":87,"usersCount":73,"tipCount":3,"visitsCount":87,"tier":"","message":"","currency":"","rating":7.8},{"name":"Aspen/Snowmass Winter X Games Viewing Lounge","phone":"9703007014","twitter":"aspensnowmass","address":"700 14th St","lat":39.74281779983107,"lng":-104.99629497528076,"neighborhood":"Central Business District","city_fetched":"Denver","state":"CO","country":"United States","canonicalUrl":"https://foursquare.com/v/aspensnowmass-winter-x-games-viewing-lounge/4f2066da1081fe72010e34b0","category":"Beer Garden","checkinsCount":16,"usersCount":12,"tipCount":1,"visitsCount":16,"url":"http://facebook.com/skiaspensnowmass","tier":"","message":"","currency":"","rating":7.8},{"name":"El Charrito","phone":"3035231688","twitter":"elcharritobar","address":"2100 Larimer St","lat":39.75381561479132,"lng":-104.99129178992031,"neighborhood":"Ballpark","city_fetched":"Denver","state":"CO","country":"United States","canonicalUrl":"https://foursquare.com/v/el-charrito/4ba16f99f964a520d0b637e3","category":"Dive Bar","checkinsCount":2624,"usersCount":1231,"tipCount":11,"visitsCount":2741,"url":"http://elcharritobar.com","tier":1,"message":"Cheap","currency":"$","rating":7.8},{"name":"Bayou Bob's","phone":"3035736828","twitter":"bayoubobsdenver","address":"1635 Glenarm Pl","lat":39.74428202383446,"lng":-104.98975127055617,"neighborhood":"Central Business District","city_fetched":"Denver","state":"CO","country":"United States","canonicalUrl":"https://foursquare.com/v/bayou-bobs/3fd66200f964a5201eed1ee3","category":"Cajun / Creole Restaurant","checkinsCount":1730,"usersCount":1002,"tipCount":22,"visitsCount":1754,"url":"http://www.bayoubobs.com","tier":2,"message":"Moderate","currency":"$","rating":7.7},{"name":"Seedstock Brewery","address":"3610 W Colfax Ave","lat":39.74012632902387,"lng":-105.0348717575453,"neighborhood":"West Colfax","city_fetched":"Denver","state":"CO","country":"United States","canonicalUrl":"https://foursquare.com/v/seedstock-brewery/56bfdf1ccd103f2da6d2f708","category":"Brewery","checkinsCount":113,"usersCount":78,"tipCount":1,"visitsCount":132,"tier":"","message":"","currency":"","rating":7.7},{"name":"Kentucky Inn","twitter":"kentuckyinn","address":"890 S Pearl St","lat":39.700257,"lng":-104.98027381666667,"neighborhood":"Washington Park West","city_fetched":"Denver","state":"CO","country":"United States","canonicalUrl":"https://foursquare.com/v/kentucky-inn/4b232ac1f964a5200e5424e3","category":"Dive Bar","checkinsCount":1234,"usersCount":516,"tipCount":6,"visitsCount":1357,"url":"http://kentuckyinntavern.com","tier":"","message":"","currency":"","rating":7.7},{"name":"Chianti Ristorante & Wine Bar","phone":"3037960611","address":"5121 S Yosemite St","lat":39.623550151465196,"lng":-104.88580046882124,"city_fetched":"Denver","state":"CO","country":"United States","canonicalUrl":"https://foursquare.com/v/chianti-ristorante--wine-bar/4e4e5707bd4101d0d7a811d4","category":"Italian Restaurant","checkinsCount":170,"usersCount":138,"tipCount":9,"visitsCount":172,"url":"http://www.veniceristorante.com","tier":3,"message":"Expensive","currency":"$","rating":7.6},{"name":"Herman's Hideaway","phone":"3037775840","address":"1578 S Broadway","lat":39.68800258526052,"lng":-104.98731405003241,"neighborhood":"Platt Park","city_fetched":"Denver","state":"CO","country":"United States","canonicalUrl":"https://foursquare.com/v/hermans-hideaway/40e0b100f964a52082031fe3","category":"Bar","checkinsCount":2874,"usersCount":1856,"tipCount":22,"visitsCount":3285,"url":"http://www.hermanshideaway.com","tier":2,"message":"Moderate","currency":"$","rating":7.6},{"name":"Scooters","phone":"3033660019","address":"13698 E Alameda Ave","lat":39.710319836300364,"lng":-104.82860950900267,"neighborhood":"Aurora Hills","city_fetched":"Denver","state":"CO","country":"United States","canonicalUrl":"https://foursquare.com/v/scooters/4b999516f964a520588535e3","category":"Bar","checkinsCount":1683,"usersCount":574,"tipCount":17,"visitsCount":2051,"url":"http://www.scooterssportsbarandgrill.com","tier":"","message":"","currency":"","rating":7.6},{"name":"Thirsty Lion Gastropub & Grill","address":"201 Columbine St.","lat":39.719555,"lng":-104.957306,"neighborhood":"Cherry Creek North","city_fetched":"Denver","state":"CO","country":"United States","canonicalUrl":"https://foursquare.com/v/thirsty-lion-gastropub--grill/5760bd46498efe085fc07b7d","category":"Gastropub","checkinsCount":94,"usersCount":61,"tipCount":1,"visitsCount":101,"tier":"","message":"","currency":"","rating":7.3}]