[{"name":"El Bait Shop","phone":"5152841970","twitter":"elbaitshop","address":"200 SW 2nd St","lat":41.582989357769264,"lng":-93.61879470646365,"neighborhood":"Downtown Des Moines","city_fetched":"Des Moines","state":"IA","country":"United States","canonicalUrl":"https://foursquare.com/elbaitshop","category":"Bar","checkinsCount":20552,"usersCount":6745,"tipCount":116,"visitsCount":22197,"url":"http://www.elbaitshop.com","tier":2,"message":"Moderate","currency":"$","rating":9.5},{"name":"Confluence Brewing Company","phone":"5152859005","twitter":"confluencebrew","address":"1235 Thomas Beck Rd Ste A","lat":41.56826158038988,"lng":-93.63242524001036,"neighborhood":"Greater South Side","city_fetched":"Des Moines","state":"IA","country":"United States","canonicalUrl":"https://foursquare.com/v/confluence-brewing-company/504289b8e4b043734b3a7ff4","category":"Brewery","checkinsCount":4080,"usersCount":1807,"tipCount":45,"visitsCount":5453,"url":"http://confluencebrewing.com","tier":2,"message":"Moderate","currency":"$","rating":9.3},{"name":"Sakari Sushi Lounge","phone":"5152883381","address":"2605 Ingersoll Ave","lat":41.58593185317209,"lng":-93.65215770654997,"neighborhood":"Woodland Heights","city_fetched":"Des Moines","state":"IA","country":"United States","canonicalUrl":"https://foursquare.com/v/sakari-sushi-lounge/4b5faed1f964a520edc729e3","category":"Sushi Restaurant","checkinsCount":6331,"usersCount":2317,"tipCount":74,"visitsCount":7208,"url":"http://sakarisushilounge.com","tier":2,"message":"Moderate","currency":"$","rating":9.2},{"name":"Waveland Cafe","phone":"5152794341","address":"4708 University Ave","lat":41.60020497945227,"lng":-93.68220157921314,"neighborhood":"Waveland Park","city_fetched":"Des Moines","state":"IA","country":"United States","canonicalUrl":"https://foursquare.com/v/waveland-cafe/4b4d5e4bf964a52086d126e3","category":"Breakfast Spot","checkinsCount":4420,"usersCount":2128,"tipCount":70,"visitsCount":5140,"tier":1,"message":"Cheap","currency":"$","rating":9.1},{"name":"High Life Lounge","phone":"5152801965","twitter":"highlifelounge","address":"200 SW 2nd St","lat":41.583004933959806,"lng":-93.61853063106537,"neighborhood":"Downtown Des Moines","city_fetched":"Des Moines","state":"IA","country":"United States","canonicalUrl":"https://foursquare.com/highlifelounge","category":"Bar","checkinsCount":15363,"usersCount":5117,"tipCount":87,"visitsCount":15634,"url":"http://thehighlifelounge.com","tier":1,"message":"Cheap","currency":"$","rating":9.1},{"name":"Zombie Burger + Drink Lab","phone":"5152442929","twitter":"zombieburgerdm","address":"300 E Grand Ave","lat":41.590384616908004,"lng":-93.61326933184462,"neighborhood":"East Village","city_fetched":"Des Moines","state":"IA","country":"United States","canonicalUrl":"https://foursquare.com/v/zombie-burger--drink-lab/4df4d43522718759f8245edd","category":"Burger Joint","checkinsCount":24664,"usersCount":12384,"tipCount":320,"visitsCount":27675,"url":"http://www.zombieburgerdm.com","tier":2,"message":"Moderate","currency":"$","rating":9},{"name":"Exile Brewing Co.","phone":"5158832337","twitter":"exilebrewingco","address":"1514 Walnut St","lat":41.58309831560568,"lng":-93.63717081831973,"neighborhood":"Downtown Des Moines","city_fetched":"Des Moines","state":"IA","country":"United States","canonicalUrl":"https://foursquare.com/exilebrewingco","category":"Brewery","checkinsCount":7696,"usersCount":4067,"tipCount":79,"visitsCount":9599,"url":"http://www.exilebrewing.com","tier":2,"message":"Moderate","currency":"$","rating":8.9},{"name":"Hessen Haus","phone":"5152882520","twitter":"hessenhaus","address":"101 4th St","lat":41.58385559061387,"lng":-93.62087488174438,"neighborhood":"Downtown Des Moines","city_fetched":"Des Moines","state":"IA","country":"United States","canonicalUrl":"https://foursquare.com/v/hessen-haus/4b463ac4f964a520c91a26e3","category":"German Restaurant","checkinsCount":17017,"usersCount":6138,"tipCount":89,"visitsCount":18211,"url":"http://hessenhaus.com","tier":2,"message":"Moderate","currency":"$","rating":8.9},{"name":"The Royal Mile","phone":"5152803771","twitter":"royalmilebar","address":"210 4th St","lat":41.58562757953927,"lng":-93.6220795499377,"neighborhood":"Downtown Des Moines","city_fetched":"Des Moines","state":"IA","country":"United States","canonicalUrl":"https://foursquare.com/v/the-royal-mile/4b6865b3f964a52008762be3","category":"Pub","checkinsCount":15371,"usersCount":4432,"tipCount":94,"visitsCount":15805,"url":"http://royalmilebar.com","tier":2,"message":"Moderate","currency":"$","rating":8.7},{"name":"Francie's Bar & Grill","phone":"5152855207","address":"2100 Wakonda View Dr","lat":41.546313925841055,"lng":-93.64537147939117,"city_fetched":"Des Moines","state":"IA","country":"United States","canonicalUrl":"https://foursquare.com/v/francies-bar--grill/4b508efaf964a5204b2727e3","category":"American Restaurant","checkinsCount":3426,"usersCount":1313,"tipCount":34,"visitsCount":3631,"tier":2,"message":"Moderate","currency":"$","rating":8.7},{"name":"Louie's Wine Dive","phone":"5157773416","twitter":"louieswinedive","address":"4040 University Ave","lat":41.60010419071704,"lng":-93.67271661758421,"neighborhood":"Drake","city_fetched":"Des Moines","state":"IA","country":"United States","canonicalUrl":"https://foursquare.com/v/louies-wine-dive/4fa5f4766d8634b4145c763a","category":"Wine Bar","checkinsCount":2563,"usersCount":1210,"tipCount":33,"visitsCount":2947,"url":"http://louieswinedive.com","tier":3,"message":"Expensive","currency":"$","rating":8.5},{"name":"Splash Seafood Bar & Grill","phone":"5152445684","address":"303 Locust St","lat":41.587708695986706,"lng":-93.62158483087336,"neighborhood":"Downtown Des Moines","city_fetched":"Des Moines","state":"IA","country":"United States","canonicalUrl":"https://foursquare.com/v/splash-seafood-bar--grill/4b667eeaf964a520a4222be3","category":"Seafood Restaurant","checkinsCount":2078,"usersCount":1238,"tipCount":32,"visitsCount":2326,"url":"http://www.splash-seafood.com","tier":3,"message":"Expensive","currency":"$","rating":8.5},{"name":"Iowa TapRoom","phone":"5152430827","address":"215 E 3rd St","lat":41.58768792509687,"lng":-93.61324954645549,"neighborhood":"East Village","city_fetched":"Des Moines","state":"IA","country":"United States","canonicalUrl":"https://foursquare.com/v/iowa-taproom/56cb445a498e136991f79c6f","category":"Beer Bar","checkinsCount":977,"usersCount":900,"tipCount":16,"visitsCount":1667,"url":"http://iowataproom.com","tier":2,"message":"Moderate","currency":"$","rating":8.5},{"name":"The Fremont","phone":"5152652080","address":"1030 E 9th St","lat":41.59847560241904,"lng":-93.6063943780197,"neighborhood":"Capitol Park","city_fetched":"Des Moines","state":"IA","country":"United States","canonicalUrl":"https://foursquare.com/v/the-fremont/4cc47e63914137043a3bc355","category":"Dive Bar","checkinsCount":2259,"usersCount":447,"tipCount":13,"visitsCount":2440,"tier":1,"message":"Cheap","currency":"$","rating":8.5},{"name":"The Lift","phone":"5152883777","twitter":"dmlift","address":"222 4th St","lat":41.585986195593335,"lng":-93.6222642660141,"neighborhood":"Downtown Des Moines","city_fetched":"Des Moines","state":"IA","country":"United States","canonicalUrl":"https://foursquare.com/v/the-lift/4b43e462f964a5205ced25e3","category":"Lounge","checkinsCount":8349,"usersCount":2102,"tipCount":50,"visitsCount":8486,"url":"http://dmlift.com","tier":2,"message":"Moderate","currency":"$","rating":8.4},{"name":"Iowa Craft Beer Tent","twitter":"iacraftbeertent","address":"Rock Island Ave","lat":41.59367864075454,"lng":-93.55246115462444,"city_fetched":"Des Moines","state":"IA","country":"United States","canonicalUrl":"https://foursquare.com/v/iowa-craft-beer-tent/55cd1216498e1d086f15fb70","category":"Beer Garden","checkinsCount":269,"usersCount":263,"tipCount":0,"visitsCount":359,"url":"http://iowacraftbeertent.com","tier":"","message":"","currency":"","rating":8.3},{"name":"Court Avenue Restaurant & Brewing Company","phone":"5152822739","twitter":"courtavebrew","address":"309 Court Ave","lat":41.58541709483376,"lng":-93.62106538109259,"neighborhood":"Downtown Des Moines","city_fetched":"Des Moines","state":"IA","country":"United States","canonicalUrl":"https://foursquare.com/v/court-avenue-restaurant--brewing-company/4b46baddf964a5207c2726e3","category":"Brewery","checkinsCount":16806,"usersCount":5460,"tipCount":110,"visitsCount":17081,"url":"http://courtavebrew.com","tier":2,"message":"Moderate","currency":"$","rating":8.3},{"name":"Red Monk","phone":"5152803771","address":"210 4th St","lat":41.585460436644695,"lng":-93.62180745385018,"neighborhood":"Downtown Des Moines","city_fetched":"Des Moines","state":"IA","country":"United States","canonicalUrl":"https://foursquare.com/v/red-monk/4b46747ff964a5208e2126e3","category":"Bar","checkinsCount":3136,"usersCount":1045,"tipCount":24,"visitsCount":3148,"url":"http://theredmonk.com","tier":2,"message":"Moderate","currency":"$","rating":8.3},{"name":"Flix Brewhouse","phone":"5156129200","twitter":"flixbrewhouseia","address":"3800 Merle Hay Rd","lat":41.631380910701296,"lng":-93.70188685519196,"neighborhood":"Merle Hay","city_fetched":"Des Moines","state":"IA","country":"United States","canonicalUrl":"https://foursquare.com/v/flix-brewhouse/54662493498edc6b889ca22b","category":"Movie Theater","checkinsCount":2030,"usersCount":1539,"tipCount":20,"visitsCount":3603,"url":"http://www.flixbrewhouse.com/flix-brewhouse-des-moines","tier":"","message":"","currency":"","rating":8.3},{"name":"Open Sesame","phone":"5152883151","address":"313 E Locust St","lat":41.58932469214548,"lng":-93.61319513667559,"neighborhood":"East Village","city_fetched":"Des Moines","state":"IA","country":"United States","canonicalUrl":"https://foursquare.com/v/open-sesame/4b510a46f964a520113f27e3","category":"Middle Eastern Restaurant","checkinsCount":1736,"usersCount":767,"tipCount":26,"visitsCount":1752,"tier":"","message":"","currency":"","rating":8.3},{"name":"University Library Cafe","phone":"5152550433","address":"3506 University Ave","lat":41.60027896757446,"lng":-93.66453960313127,"neighborhood":"Drake","city_fetched":"Des Moines","state":"IA","country":"United States","canonicalUrl":"https://foursquare.com/v/university-library-cafe/4b5bde17f964a520911a29e3","category":"Bar","checkinsCount":3762,"usersCount":1332,"tipCount":29,"visitsCount":4562,"tier":1,"message":"Cheap","currency":"$","rating":8.2},{"name":"Sambetti's","phone":"5152459780","address":"1430 2nd Ave","lat":41.60436226341316,"lng":-93.61989787545048,"neighborhood":"River Bend","city_fetched":"Des Moines","state":"IA","country":"United States","canonicalUrl":"https://foursquare.com/v/sambettis/4b455daaf964a5206f0b26e3","category":"Pub","checkinsCount":1035,"usersCount":583,"tipCount":12,"visitsCount":1287,"tier":"","message":"","currency":"","rating":8.2},{"name":"Juniper Moon","phone":"5153697786","address":"2005 Ingersoll Ave","lat":41.58605747825323,"lng":-93.64382725773017,"neighborhood":"Sherman Hill","city_fetched":"Des Moines","state":"IA","country":"United States","canonicalUrl":"https://foursquare.com/v/juniper-moon/566b9cfb498ef1f9953cac4a","category":"Cocktail Bar","checkinsCount":198,"usersCount":163,"tipCount":2,"visitsCount":251,"url":"http://junipermoondm.com","tier":"","message":"","currency":"","rating":8.1},{"name":"Strudl Haus","phone":"5152599886","twitter":"strudlhaus","address":"1951 Indianola Ave","lat":41.57093,"lng":-93.61392,"neighborhood":"Indianola","city_fetched":"Des Moines","state":"IA","country":"United States","canonicalUrl":"https://foursquare.com/v/strudl-haus/54a8267e498ee573eff6bdd3","category":"Austrian Restaurant","checkinsCount":79,"usersCount":127,"tipCount":3,"visitsCount":162,"url":"http://www.strudlhaus.com","tier":"","message":"","currency":"","rating":8.1},{"name":"Orlondo's Bar and Grill on Park","phone":"5152443637","address":"4377 Park Ave","lat":41.55574981883812,"lng":-93.67734055848,"city_fetched":"Des Moines","state":"IA","country":"United States","canonicalUrl":"https://foursquare.com/v/orlondos-bar-and-grill-on-park/4b5a2dadf964a52054b228e3","category":"Italian Restaurant","checkinsCount":3816,"usersCount":1300,"tipCount":19,"visitsCount":4320,"url":"http://www.orlondos.com","tier":1,"message":"Cheap","currency":"$","rating":8.1},{"name":"Up-Down","twitter":"updowndsm","address":"500 E Locust St","lat":41.58988610392741,"lng":-93.61111968755722,"neighborhood":"East Village","city_fetched":"Des Moines","state":"IA","country":"United States","canonicalUrl":"https://foursquare.com/v/updown/524dc775498e350c4418dc7b","category":"Arcade","checkinsCount":3904,"usersCount":1727,"tipCount":39,"visitsCount":4288,"url":"http://updowndsm.com","tier":"","message":"","currency":"","rating":8.1},{"name":"Della Viti","phone":"5152599918","twitter":"dellaviti","address":"425 East Grand","lat":41.59048188928656,"lng":-93.61193383555825,"neighborhood":"East Village","city_fetched":"Des Moines","state":"IA","country":"United States","canonicalUrl":"https://foursquare.com/dellaviti","category":"Wine Bar","checkinsCount":173,"usersCount":126,"tipCount":1,"visitsCount":190,"url":"http://www.dellaviti.com","tier":"","message":"","currency":"","rating":8.1},{"name":"Carl's Place","phone":"5152439727","twitter":"carls_place","address":"1620 Woodland Ave","lat":41.58790408118884,"lng":-93.6398595571518,"neighborhood":"Sherman Hill","city_fetched":"Des Moines","state":"IA","country":"United States","canonicalUrl":"https://foursquare.com/v/carls-place/4b46c352f964a520e52726e3","category":"Dive Bar","checkinsCount":7620,"usersCount":1889,"tipCount":24,"visitsCount":8487,"tier":1,"message":"Cheap","currency":"$","rating":8.1},{"name":"Cr√®me Cupcake + Dessert","phone":"5152881050","twitter":"cremecupcakedsm","address":"543 28th St","lat":41.58603651781251,"lng":-93.6544051341129,"neighborhood":"Woodland Heights","city_fetched":"Des Moines","state":"IA","country":"United States","canonicalUrl":"https://foursquare.com/v/cr%C3%A8me-cupcake--dessert/501af3efe4b074cce6156107","category":"Dessert Shop","checkinsCount":1430,"usersCount":873,"tipCount":31,"visitsCount":1517,"url":"http://www.cremecupcake.com","tier":1,"message":"Cheap","currency":"$","rating":8.1},{"name":"Beechwood Lounge","phone":"5152882337","address":"416 E Walnut St","lat":41.58864209917265,"lng":-93.61164200961237,"neighborhood":"East Village","city_fetched":"Des Moines","state":"IA","country":"United States","canonicalUrl":"https://foursquare.com/v/beechwood-lounge/4b4807a7f964a5209d4626e3","category":"Bar","checkinsCount":5111,"usersCount":1602,"tipCount":21,"visitsCount":5551,"tier":2,"message":"Moderate","currency":"$","rating":8},{"name":"Jalapeno Pete's","address":"E 34th St & Grand Ave","lat":41.59588797166421,"lng":-93.55268508195877,"city_fetched":"Des Moines","state":"IA","country":"United States","canonicalUrl":"https://foursquare.com/v/jalapeno-petes/4c643c6f60a8b7130a443ade","category":"Bar","checkinsCount":1053,"usersCount":587,"tipCount":2,"visitsCount":1062,"tier":"","message":"","currency":"","rating":7.9},{"name":"Star Bar","phone":"5152440790","address":"2811 Ingersoll Ave","lat":41.58595203089309,"lng":-93.65508334228092,"neighborhood":"Woodland Heights","city_fetched":"Des Moines","state":"IA","country":"United States","canonicalUrl":"https://foursquare.com/v/star-bar/4b44c5bef964a520bbfb25e3","category":"American Restaurant","checkinsCount":9046,"usersCount":3367,"tipCount":86,"visitsCount":10013,"url":"http://www.starbardsm.com","tier":2,"message":"Moderate","currency":"$","rating":7.9},{"name":"Cooney's Tavern","phone":"5152749877","address":"3708 Beaver Ave","lat":41.62857264148926,"lng":-93.67761295448882,"neighborhood":"Beaverdale","city_fetched":"Des Moines","state":"IA","country":"United States","canonicalUrl":"https://foursquare.com/v/cooneys-tavern/4b466b7df964a520552026e3","category":"Bar","checkinsCount":2051,"usersCount":597,"tipCount":15,"visitsCount":2315,"url":"http://www.cooneystavern.com","tier":"","message":"","currency":"","rating":7.9},{"name":"Zoo Brew","address":"Blank Park Zoo","lat":41.51914965023016,"lng":-93.62398624420166,"city_fetched":"Des Moines","state":"IA","country":"United States","canonicalUrl":"https://foursquare.com/v/zoo-brew/4dd1d2f3cc3f7f8c122bcf7a","category":"Other Nightlife","checkinsCount":2037,"usersCount":1229,"tipCount":7,"visitsCount":2124,"url":"http://www.blankparkzoo.com/index.cfm?nodeID=18244&audienceID=1","tier":"","message":"","currency":"","rating":7.8},{"name":"The Blazing Saddle","phone":"5152461299","address":"416 E 5th St","lat":41.590245323972646,"lng":-93.61172609488062,"neighborhood":"East Village","city_fetched":"Des Moines","state":"IA","country":"United States","canonicalUrl":"https://foursquare.com/v/the-blazing-saddle/4b43db5cf964a5203dec25e3","category":"Gay Bar","checkinsCount":9715,"usersCount":1859,"tipCount":42,"visitsCount":10250,"url":"http://www.theblazingsaddle.com","tier":1,"message":"Cheap","currency":"$","rating":7.8},{"name":"Gas Lamp","phone":"5152803778","twitter":"gaslampdsm","address":"1501 Grand Ave","lat":41.585364274852054,"lng":-93.63727927207947,"neighborhood":"Downtown Des Moines","city_fetched":"Des Moines","state":"IA","country":"United States","canonicalUrl":"https://foursquare.com/gaslampdsm","category":"Bar","checkinsCount":5621,"usersCount":1999,"tipCount":21,"visitsCount":5910,"url":"http://www.gaslampdsm.com","tier":2,"message":"Moderate","currency":"$","rating":7.7},{"name":"Valley Junction Farmer's Market","address":"217 Fifth St","lat":41.5706526685755,"lng":-93.70892846549407,"city_fetched":"Des Moines","state":"IA","country":"United States","canonicalUrl":"https://foursquare.com/v/valley-junction-farmers-market/4be34bb4f07b0f4700a9f743","category":"Farmers Market","checkinsCount":2056,"usersCount":1087,"tipCount":9,"visitsCount":2173,"tier":"","message":"","currency":"","rating":7.7},{"name":"Shorty's","phone":"5152823663","address":"208 Court Ave","lat":41.585292644713924,"lng":-93.61955218157215,"neighborhood":"Downtown Des Moines","city_fetched":"Des Moines","state":"IA","country":"United States","canonicalUrl":"https://foursquare.com/v/shortys/4b4953bff964a520806d26e3","category":"Bar","checkinsCount":4149,"usersCount":1426,"tipCount":31,"visitsCount":4184,"url":"http://shortyssomewhatfancybar.com","tier":1,"message":"Cheap","currency":"$","rating":7.7},{"name":"Goodsons","phone":"5152551912","address":"2815 Beaver Ave","lat":41.6207945,"lng":-93.67334654999999,"neighborhood":"Beaverdale","city_fetched":"Des Moines","state":"IA","country":"United States","canonicalUrl":"https://foursquare.com/v/goodsons/4b48b1d2f964a520135326e3","category":"Bar","checkinsCount":4578,"usersCount":1359,"tipCount":19,"visitsCount":4791,"url":"http://www.goodsons-martini.com","tier":2,"message":"Moderate","currency":"$","rating":7.6},{"name":"The Bud Tent","twitter":"thebudtent","address":"Grand Avenue","lat":41.59595215974685,"lng":-93.55079412460327,"city_fetched":"Des Moines","state":"IA","country":"United States","canonicalUrl":"https://foursquare.com/v/the-bud-tent/4c60f6e3832fa593830bf1d3","category":"Bar","checkinsCount":1406,"usersCount":827,"tipCount":4,"visitsCount":1444,"tier":"","message":"","currency":"","rating":7.6},{"name":"Park Avenue Pub","phone":"5152438328","address":"1101 Park Ave","lat":41.555678844451904,"lng":-93.629098,"neighborhood":"Greater South Side","city_fetched":"Des Moines","state":"IA","country":"United States","canonicalUrl":"https://foursquare.com/v/park-avenue-pub/4be4e2782457a59393f1aa15","category":"Pub","checkinsCount":339,"usersCount":207,"tipCount":6,"visitsCount":420,"tier":"","message":"","currency":"","rating":7.6},{"name":"The Den","phone":"5153340030","address":"4369 Merle Hay Rd","lat":41.640738008620076,"lng":-93.69621859985476,"city_fetched":"Des Moines","state":"IA","country":"United States","canonicalUrl":"https://foursquare.com/v/the-den/4b6c6b45f964a5209f382ce3","category":"Bar","checkinsCount":1346,"usersCount":472,"tipCount":12,"visitsCount":1401,"tier":"","message":"","currency":"","rating":7.6},{"name":"The Rooftop","address":"525 E Grand Ave","lat":41.59071623287111,"lng":-93.61044999241308,"neighborhood":"East Village","city_fetched":"Des Moines","state":"IA","country":"United States","canonicalUrl":"https://foursquare.com/v/the-rooftop/4ff3c208e4b0cfb36e365da6","category":"American Restaurant","checkinsCount":937,"usersCount":574,"tipCount":13,"visitsCount":960,"tier":"","message":"","currency":"","rating":7.6},{"name":"Mickey's Irish Pub","phone":"5152888323","address":"206 3rd St","lat":41.585442011515774,"lng":-93.62066466635574,"neighborhood":"Downtown Des Moines","city_fetched":"Des Moines","state":"IA","country":"United States","canonicalUrl":"https://foursquare.com/v/mickeys-irish-pub/4c814a39d4e237041a645c88","category":"Pub","checkinsCount":22323,"usersCount":4167,"tipCount":52,"visitsCount":22907,"url":"http://mickeysirishpub.com","tier":2,"message":"Moderate","currency":"$","rating":7.6},{"name":"Sam's Sports Bar & Grill","phone":"5159579790","twitter":"samsbaraltoona","address":"3160 8th St SW Ste P","lat":41.64310982464242,"lng":-93.50156685323495,"city_fetched":"Des Moines","state":"IA","country":"United States","canonicalUrl":"https://foursquare.com/v/sams-sports-bar--grill/4e506ea2b3ad1a69ac176bf7","category":"Sports Bar","checkinsCount":861,"usersCount":255,"tipCount":6,"visitsCount":941,"url":"http://samsbarandgrille.net","tier":2,"message":"Moderate","currency":"$","rating":7.5},{"name":"Plaza Pub","phone":"5153340871","address":"6202 Douglas Ave","lat":41.62915681807665,"lng":-93.70272922004695,"neighborhood":"Merle Hay","city_fetched":"Des Moines","state":"IA","country":"United States","canonicalUrl":"https://foursquare.com/v/plaza-pub/4b43f659f964a52022ef25e3","category":"Bar","checkinsCount":2798,"usersCount":315,"tipCount":5,"visitsCount":2989,"tier":"","message":"","currency":"","rating":7.5},{"name":"G. Mig's 5th Street Pub","phone":"5152554550","twitter":"gmigspub","address":"128 5th St","lat":41.570608447229056,"lng":-93.70913660680799,"city_fetched":"Des Moines","state":"IA","country":"United States","canonicalUrl":"https://foursquare.com/v/g-migs-5th-street-pub/4ff9b762e4b0ae40ee1fa769","category":"Pub","checkinsCount":2092,"usersCount":810,"tipCount":16,"visitsCount":2418,"url":"http://www.gmigs.com","tier":"","message":"","currency":"","rating":7.5},{"name":"Vaudeville Mews","twitter":"vaudevillemews","address":"212 4th St","lat":41.585634158515475,"lng":-93.62205976108169,"neighborhood":"Downtown Des Moines","city_fetched":"Des Moines","state":"IA","country":"United States","canonicalUrl":"https://foursquare.com/v/vaudeville-mews/4b43afd8f964a52064e625e3","category":"Bar","checkinsCount":4017,"usersCount":1711,"tipCount":22,"visitsCount":4038,"url":"http://vaudevillemews.com","tier":"","message":"","currency":"","rating":7.5},{"name":"The Continental Lounge","phone":"5152445845","address":"428 E Locust St","lat":41.58967140534424,"lng":-93.6116766329411,"neighborhood":"East Village","city_fetched":"Des Moines","state":"IA","country":"United States","canonicalUrl":"https://foursquare.com/v/the-continental-lounge/4b46681ef964a520ef1f26e3","category":"Wine Bar","checkinsCount":4818,"usersCount":1848,"tipCount":37,"visitsCount":4902,"url":"http://www.continental-bar.com","tier":2,"message":"Moderate","currency":"$","rating":7.5},{"name":"The Stuffed Olive","phone":"5152434456","twitter":"stuffeddm","address":"208 3rd St","lat":41.585566,"lng":-93.620775,"neighborhood":"Downtown Des Moines","city_fetched":"Des Moines","state":"IA","country":"United States","canonicalUrl":"https://foursquare.com/v/the-stuffed-olive/539a3397498ed490cdd96974","category":"Cocktail Bar","checkinsCount":438,"usersCount":234,"tipCount":2,"visitsCount":446,"url":"http://thestuffedolive.com/dsm","tier":"","message":"","currency":"","rating":7.5},{"name":"West End Lounge","phone":"5152794085","twitter":"westendlounge","address":"2309 Forest Ave","lat":41.60424,"lng":-93.648736,"city_fetched":"Des Moines","state":"IA","country":"United States","canonicalUrl":"https://foursquare.com/v/west-end-lounge/4b48b8c1f964a520195426e3","category":"Bar","checkinsCount":2343,"usersCount":402,"tipCount":7,"visitsCount":2470,"tier":"","message":"","currency":"","rating":7.4},{"name":"Z's Bar & Grill","phone":"5152886100","twitter":"zsbar","address":"1511 South Union","lat":41.57631995,"lng":-93.614234,"city_fetched":"Des Moines","state":"IA","country":"United States","canonicalUrl":"https://foursquare.com/v/zs-bar--grill/4baec1e8f964a52062d53be3","category":"Bar","checkinsCount":238,"usersCount":83,"tipCount":9,"visitsCount":239,"tier":"","message":"","currency":"","rating":7.4},{"name":"Cheap Seats","address":"2301 Hubbell Ave","lat":41.603751163393916,"lng":-93.57413423900937,"city_fetched":"Des Moines","state":"IA","country":"United States","canonicalUrl":"https://foursquare.com/v/cheap-seats/4d5f3bc329ef236a8d969659","category":"Sports Bar","checkinsCount":971,"usersCount":286,"tipCount":4,"visitsCount":1327,"tier":"","message":"","currency":"","rating":7.4},{"name":"Madhouse Brewing Company","phone":"5159885535","twitter":"madhousebeer","address":"501 Scott Ave","lat":41.5812492085368,"lng":-93.60777918515521,"neighborhood":"Capitol View South","city_fetched":"Des Moines","state":"IA","country":"United States","canonicalUrl":"https://foursquare.com/v/madhouse-brewing-company/532644aa498e8e25a4666557","category":"Brewery","checkinsCount":252,"usersCount":276,"tipCount":13,"visitsCount":495,"url":"http://madhousebeer.com","tier":"","message":"","currency":"","rating":7.3},{"name":"Ingersoll Tap","phone":"5152433169","address":"2837 Ingersoll Ave","lat":41.586078779826764,"lng":-93.65579126272537,"neighborhood":"Woodland Heights","city_fetched":"Des Moines","state":"IA","country":"United States","canonicalUrl":"https://foursquare.com/v/ingersoll-tap/53eeb03c498e27814c12ca93","category":"Bar","checkinsCount":308,"usersCount":187,"tipCount":1,"visitsCount":356,"tier":"","message":"","currency":"","rating":7.3},{"name":"Lime Lounge","phone":"5153334643","twitter":"limedsm","address":"435 E Grand Ave","lat":41.590516005294035,"lng":-93.61170172691344,"neighborhood":"East Village","city_fetched":"Des Moines","state":"IA","country":"United States","canonicalUrl":"https://foursquare.com/limedsm","category":"Lounge","checkinsCount":3719,"usersCount":1330,"tipCount":19,"visitsCount":3753,"url":"http://www.limelounge.com","tier":1,"message":"Cheap","currency":"$","rating":7.3},{"name":"Pal Joey's Lounge","phone":"5152749028","address":"6224 Grand Ave","lat":41.58160828333333,"lng":-93.70251668,"city_fetched":"Des Moines","state":"IA","country":"United States","canonicalUrl":"https://foursquare.com/v/pal-joeys-lounge/4b80cdaff964a520eb8c30e3","category":"Bar","checkinsCount":687,"usersCount":395,"tipCount":4,"visitsCount":937,"tier":"","message":"","currency":"","rating":7.3},{"name":"The Garden","phone":"5152433965","twitter":"gardennightclub","address":"112 SE 4th St","lat":41.58526315356871,"lng":-93.61148373184199,"neighborhood":"Capitol View South","city_fetched":"Des Moines","state":"IA","country":"United States","canonicalUrl":"https://foursquare.com/v/the-garden/4b4b85a0f964a5200d9f26e3","category":"Nightclub","checkinsCount":5013,"usersCount":1469,"tipCount":22,"visitsCount":6134,"url":"http://www.grdn.com","tier":3,"message":"Expensive","currency":"$","rating":7.3},{"name":"Fat Tuesdays","phone":"5152853552","address":"6112 SW 9th St","lat":41.52880607,"lng":-93.62604312,"neighborhood":"Watrous South","city_fetched":"Des Moines","state":"IA","country":"United States","canonicalUrl":"https://foursquare.com/v/fat-tuesdays/4b6c3daef964a520502b2ce3","category":"Cajun / Creole Restaurant","checkinsCount":590,"usersCount":398,"tipCount":18,"visitsCount":650,"url":"http://fattuesday-restaurant.com","tier":2,"message":"Moderate","currency":"$","rating":7.3},{"name":"Charlie's Filling Station Lounge","phone":"5152749041","address":"305 Grand Ave","lat":41.5829269499243,"lng":-93.70662905648294,"city_fetched":"Des Moines","state":"IA","country":"United States","canonicalUrl":"https://foursquare.com/v/charlies-filling-station-lounge/4b647e15f964a520b1b72ae3","category":"Bar","checkinsCount":3261,"usersCount":1093,"tipCount":22,"visitsCount":3721,"tier":"","message":"","currency":"","rating":7.3},{"name":"Norwood Inn","address":"4592 NE 29th St","lat":41.64385265083183,"lng":-93.56171035231267,"city_fetched":"Des Moines","state":"IA","country":"United States","canonicalUrl":"https://foursquare.com/v/norwood-inn/4c813a73d34ca143445e2080","category":"American Restaurant","checkinsCount":202,"usersCount":128,"tipCount":3,"visitsCount":258,"tier":"","message":"","currency":"","rating":7.3},{"name":"Cal's II","phone":"5159534600","twitter":"calstwo","address":"2351 Sunset Dr Ste 106","lat":41.49036,"lng":-93.67486482,"city_fetched":"Des Moines","state":"IA","country":"United States","canonicalUrl":"https://foursquare.com/v/cals-ii/4bb12d2cf964a520e9803ce3","category":"American Restaurant","checkinsCount":1202,"usersCount":302,"tipCount":13,"visitsCount":1239,"tier":"","message":"","currency":"","rating":7.2},{"name":"Club 2000","phone":"5152459769","address":"422 Indianola Rd","lat":41.572884470186374,"lng":-93.62057447433472,"neighborhood":"Indianola Hills","city_fetched":"Des Moines","state":"IA","country":"United States","canonicalUrl":"https://foursquare.com/v/club-2000/4b6c29a7f964a5200b272ce3","category":"Bar","checkinsCount":654,"usersCount":240,"tipCount":5,"visitsCount":686,"tier":"","message":"","currency":"","rating":7.2},{"name":"The Copper Cup","phone":"5155542606","address":"207 4th St","lat":41.58534861610839,"lng":-93.62149578195853,"neighborhood":"Downtown Des Moines","city_fetched":"Des Moines","state":"IA","country":"United States","canonicalUrl":"https://foursquare.com/v/the-copper-cup/5050b563e4b0b28cb0c93de1","category":"Bar","checkinsCount":5085,"usersCount":803,"tipCount":14,"visitsCount":5273,"tier":2,"message":"Moderate","currency":"$","rating":7.1},{"name":"AJ's on East Court","phone":"5152821888","twitter":"ajsoneastcourt","address":"419 E Court Ave","lat":41.58734502055249,"lng":-93.6109693325306,"neighborhood":"East Village","city_fetched":"Des Moines","state":"IA","country":"United States","canonicalUrl":"https://foursquare.com/v/ajs-on-east-court/4b592e4df964a520598028e3","category":"Karaoke Bar","checkinsCount":1777,"usersCount":793,"tipCount":14,"visitsCount":2059,"tier":"","message":"","currency":"","rating":7.1},{"name":"Legends American Grill","phone":"5155641100","address":"1280 Copper Creek Dr","lat":41.601663391616846,"lng":-93.52553359647553,"city_fetched":"Des Moines","state":"IA","country":"United States","canonicalUrl":"https://foursquare.com/v/legends-american-grill/4b4aaec0f964a520cf8c26e3","category":"American Restaurant","checkinsCount":2163,"usersCount":1018,"tipCount":10,"visitsCount":2396,"tier":1,"message":"Cheap","currency":"$","rating":7.1},{"name":"Players Bar & Grill","address":"1760 Beaver Ave","lat":41.61031869888218,"lng":-93.6727892861277,"neighborhood":"Beaverdale","city_fetched":"Des Moines","state":"IA","country":"United States","canonicalUrl":"https://foursquare.com/v/players-bar--grill/4cbe2e457dc9a093129331f5","category":"Sports Bar","checkinsCount":897,"usersCount":260,"tipCount":13,"visitsCount":949,"tier":"","message":"","currency":"","rating":7.1},{"name":"The Greenwood Lounge","address":"3707 Ingersoll Ave","lat":41.58649593,"lng":-93.6671841,"neighborhood":"North of Grand","city_fetched":"Des Moines","state":"IA","country":"United States","canonicalUrl":"https://foursquare.com/v/the-greenwood-lounge/4b494036f964a520776b26e3","category":"Dive Bar","checkinsCount":1121,"usersCount":550,"tipCount":6,"visitsCount":1136,"tier":"","message":"","currency":"","rating":7.1},{"name":"L.D.'s Corner Bar","phone":"5152459050","address":"344 E Jackson Ave","lat":41.57478,"lng":-93.60859,"city_fetched":"Des Moines","state":"IA","country":"United States","canonicalUrl":"https://foursquare.com/v/lds-corner-bar/4e0bbb5c1f6e04f464edaa3b","category":"Bar","checkinsCount":992,"usersCount":83,"tipCount":5,"visitsCount":1042,"tier":"","message":"","currency":"","rating":7},{"name":"Coda Lounge","phone":"5153657244","twitter":"codaloungedsm","address":"401 Locust St","lat":41.58749081776934,"lng":-93.62274169921875,"neighborhood":"Downtown Des Moines","city_fetched":"Des Moines","state":"IA","country":"United States","canonicalUrl":"https://foursquare.com/codaloungedsm","category":"Lounge","checkinsCount":491,"usersCount":229,"tipCount":10,"visitsCount":495,"tier":"","message":"","currency":"","rating":7},{"name":"Peggy's Tavern","phone":"5156330475","address":"3020 Forest Ave","lat":41.60381376743317,"lng":-93.659352,"neighborhood":"Drake","city_fetched":"Des Moines","state":"IA","country":"United States","canonicalUrl":"https://foursquare.com/v/peggys-tavern/4b4911b0f964a520986426e3","category":"Bar","checkinsCount":3507,"usersCount":854,"tipCount":9,"visitsCount":3632,"url":"http://peggysdesmoines.com","tier":1,"message":"Cheap","currency":"$","rating":7},{"name":"GT Lounge","phone":"5152796444","address":"3013 Ingersoll Ave","lat":41.58625469,"lng":-93.65858208333333,"neighborhood":"Woodland Heights","city_fetched":"Des Moines","state":"IA","country":"United States","canonicalUrl":"https://foursquare.com/v/gt-lounge/4b6a4f03f964a520acd12be3","category":"Bar","checkinsCount":2350,"usersCount":778,"tipCount":8,"visitsCount":2387,"tier":1,"message":"Cheap","currency":"$","rating":6.9},{"name":"The Depot","address":"Grand Ave","lat":41.59542260615627,"lng":-93.55656087398529,"city_fetched":"Des Moines","state":"IA","country":"United States","canonicalUrl":"https://foursquare.com/v/the-depot/4c6752619cedd13aaf6c78a1","category":"Beer Garden","checkinsCount":671,"usersCount":462,"tipCount":2,"visitsCount":683,"tier":"","message":"","currency":"","rating":6.9},{"name":"Wellman's Pub","phone":"5152459737","address":"2920 Ingersoll Ave","lat":41.58572885908854,"lng":-93.65755368126001,"city_fetched":"Des Moines","state":"IA","country":"United States","canonicalUrl":"https://foursquare.com/v/wellmans-pub/4b650b89f964a52035e12ae3","category":"Bar","checkinsCount":10446,"usersCount":2802,"tipCount":55,"visitsCount":10901,"url":"http://wellmanspub.com","tier":2,"message":"Moderate","currency":"$","rating":6.8}]