[{"name":"Green Dot Stables","phone":"3139651523","twitter":"greendotstables","address":"2200 W Lafayette Blvd","lat":42.321852,"lng":-83.071468,"neighborhood":"Downtown Detroit","city_fetched":"Detroit","state":"MI","country":"United States","canonicalUrl":"https://foursquare.com/v/green-dot-stables/41326e00f964a520a60e1fe3","category":"Burger Joint","checkinsCount":11910,"usersCount":6294,"tipCount":146,"visitsCount":14188,"url":"http://www.greendotstables.com","tier":2,"message":"Moderate","currency":"$","rating":9.4},{"name":"Mercury Burger & Bar","phone":"3139245000","address":"2163 Michigan Ave","lat":42.33113878082107,"lng":-83.07601690292358,"neighborhood":"Corktown","city_fetched":"Detroit","state":"MI","country":"United States","canonicalUrl":"https://foursquare.com/v/mercury-burger--bar/4eee4b44754afe5c2c3a27ce","category":"Burger Joint","checkinsCount":7542,"usersCount":3933,"tipCount":108,"visitsCount":7943,"url":"http://mercuryburgerbar.com","tier":2,"message":"Moderate","currency":"$","rating":9.4},{"name":"The Fillmore Detroit","phone":"3139615451","twitter":"fillmoredetroit","address":"2115 Woodward Ave","lat":42.33758905638648,"lng":-83.05195051190532,"neighborhood":"Downtown Detroit","city_fetched":"Detroit","state":"MI","country":"United States","canonicalUrl":"https://foursquare.com/fillmoredetroit","category":"Concert Hall","checkinsCount":15207,"usersCount":8598,"tipCount":52,"visitsCount":16108,"url":"http://www.thefillmoredetroit.com","tier":"","message":"","currency":"","rating":9.2},{"name":"HopCat","phone":"3137698828","twitter":"hopcatd","address":"4265 Woodward Ave","lat":42.35244200101349,"lng":-83.0615973683878,"neighborhood":"Midtown","city_fetched":"Detroit","state":"MI","country":"United States","canonicalUrl":"https://foursquare.com/v/hopcat/54872d9d498ef51e69f3c1e5","category":"Beer Garden","checkinsCount":3805,"usersCount":3714,"tipCount":68,"visitsCount":6696,"url":"http://hopcat.com/detroit","tier":2,"message":"Moderate","currency":"$","rating":9.2},{"name":"The Sugar House","phone":"3139620123","twitter":"sugarhousebar","address":"2130 Michigan Ave","lat":42.33154881000729,"lng":-83.07583438010758,"neighborhood":"Corktown","city_fetched":"Detroit","state":"MI","country":"United States","canonicalUrl":"https://foursquare.com/v/the-sugar-house/4df542faa809141629a8c6e0","category":"Cocktail Bar","checkinsCount":6168,"usersCount":3086,"tipCount":90,"visitsCount":6232,"url":"http://www.sugarhousedetroit.com","tier":3,"message":"Expensive","currency":"$","rating":9.2},{"name":"Roast","phone":"3139612500","twitter":"roastdetroit","address":"1128 Washington Blvd","lat":42.33202475701407,"lng":-83.05077601535973,"neighborhood":"Downtown Detroit","city_fetched":"Detroit","state":"MI","country":"United States","canonicalUrl":"https://foursquare.com/v/roast/4b78aac8f964a520f9dc2ee3","category":"Steakhouse","checkinsCount":6771,"usersCount":3920,"tipCount":130,"visitsCount":6860,"url":"http://www.roastdetroit.com","tier":4,"message":"Very Expensive","currency":"$","rating":9.1},{"name":"Baker's Keyboard Lounge","phone":"3133456300","twitter":"bakers_keyboard","address":"20510 Livernois Ave","lat":42.445338920077134,"lng":-83.14163251361546,"neighborhood":"Palmer Park","city_fetched":"Detroit","state":"MI","country":"United States","canonicalUrl":"https://foursquare.com/v/bakers-keyboard-lounge/41326e00f964a5206f0d1fe3","category":"Jazz Club","checkinsCount":1448,"usersCount":1040,"tipCount":36,"visitsCount":1884,"url":"http://theofficialbakerskeyboardlounge.com","tier":"","message":"","currency":"","rating":9.1},{"name":"‎Batch Brewing Company","phone":"3133388008","twitter":"batchbrewing","address":"1400 Porter St","lat":42.32830322161789,"lng":-83.06337833404541,"neighborhood":"Corktown","city_fetched":"Detroit","state":"MI","country":"United States","canonicalUrl":"https://foursquare.com/v/batch-brewing-company/513906c38aca6b6931303b04","category":"Brewery","checkinsCount":1415,"usersCount":1202,"tipCount":22,"visitsCount":2278,"url":"http://batchbrewingcompany.com","tier":"","message":"","currency":"","rating":9},{"name":"Northern Lights Lounge","phone":"3138731739","twitter":"nolightsdetroit","address":"660 W Baltimore St","lat":42.36683605692808,"lng":-83.07670891284943,"neighborhood":"New Center","city_fetched":"Detroit","state":"MI","country":"United States","canonicalUrl":"https://foursquare.com/v/northern-lights-lounge/4b7e1cf1f964a5202ae32fe3","category":"Lounge","checkinsCount":5065,"usersCount":2088,"tipCount":23,"visitsCount":5841,"url":"http://northernlightslounge.com","tier":2,"message":"Moderate","currency":"$","rating":9},{"name":"Cliff Bell's","phone":"3139612543","twitter":"cliffbells","address":"2030 Park Ave","lat":42.33680158500915,"lng":-83.05273532867432,"neighborhood":"Downtown Detroit","city_fetched":"Detroit","state":"MI","country":"United States","canonicalUrl":"https://foursquare.com/cliffbells","category":"Jazz Club","checkinsCount":6682,"usersCount":4008,"tipCount":79,"visitsCount":6746,"url":"http://www.cliffbells.com","tier":"","message":"","currency":"","rating":9},{"name":"Walkerville Brewery","phone":"5192546067","twitter":"walkervillebrew","address":"525 Argyle Rd","lat":42.32373918992259,"lng":-83.0115494338951,"neighborhood":"Walkerville","city_fetched":"Detroit","state":"ON","country":"Canada","canonicalUrl":"https://foursquare.com/walkervillebrew","category":"Brewery","checkinsCount":526,"usersCount":331,"tipCount":10,"visitsCount":657,"url":"http://www.walkervillebrewery.com","tier":"","message":"","currency":"","rating":8.9},{"name":"London Chop House","phone":"3139620277","address":"155 W Congress St","lat":42.32941167958362,"lng":-83.04759323405888,"neighborhood":"Downtown Detroit","city_fetched":"Detroit","state":"MI","country":"United States","canonicalUrl":"https://foursquare.com/v/london-chop-house/4eefb9c50e61196dc831ea84","category":"Steakhouse","checkinsCount":1329,"usersCount":871,"tipCount":14,"visitsCount":1596,"url":"http://thelondonchophouse.com","tier":3,"message":"Expensive","currency":"$","rating":8.8},{"name":"The Park Bar","phone":"3139622933","twitter":"parkbardetroit","address":"2040 Park Ave","lat":42.336940372827776,"lng":-83.05276215076447,"neighborhood":"Downtown Detroit","city_fetched":"Detroit","state":"MI","country":"United States","canonicalUrl":"https://foursquare.com/v/the-park-bar/4d17904b8312236ab4cc5eba","category":"Bar","checkinsCount":5928,"usersCount":2372,"tipCount":25,"visitsCount":5955,"url":"http://www.parkbardetroit.com","tier":2,"message":"Moderate","currency":"$","rating":8.8},{"name":"Atwater Block Brewery","phone":"3138779205","twitter":"atwaterbeer","address":"237 Joseph Campau St","lat":42.33734209906963,"lng":-83.0185320988375,"neighborhood":"Rivertown - Warehouse District","city_fetched":"Detroit","state":"MI","country":"United States","canonicalUrl":"https://foursquare.com/v/atwater-block-brewery/4aa0353df964a520b53e20e3","category":"Brewery","checkinsCount":3876,"usersCount":2579,"tipCount":44,"visitsCount":4692,"url":"http://atwaterbeer.com","tier":2,"message":"Moderate","currency":"$","rating":8.8},{"name":"Vivio's Food & Spirits","phone":"3133931711","address":"2460 Market St","lat":42.34608257135625,"lng":-83.0389092785206,"neighborhood":"Eastern Market","city_fetched":"Detroit","state":"MI","country":"United States","canonicalUrl":"https://foursquare.com/v/vivios-food--spirits/4b4927daf964a5201a6826e3","category":"Bar","checkinsCount":3289,"usersCount":1661,"tipCount":22,"visitsCount":3397,"url":"http://viviosbloodymary.com","tier":1,"message":"Cheap","currency":"$","rating":8.8},{"name":"Grand Trunk Pub","phone":"3139613043","twitter":"grandtrunkpub","address":"612 Woodward Ave","lat":42.33055185038616,"lng":-83.0457615852356,"neighborhood":"Downtown Detroit","city_fetched":"Detroit","state":"MI","country":"United States","canonicalUrl":"https://foursquare.com/v/grand-trunk-pub/41326e00f964a5207f0e1fe3","category":"Pub","checkinsCount":12919,"usersCount":5475,"tipCount":128,"visitsCount":13635,"url":"http://www.grandtrunkpub.com","tier":2,"message":"Moderate","currency":"$","rating":8.8},{"name":"Motor City Brewing Works Inc","phone":"3138322700","twitter":"motorcitybeer","address":"470 W Canfield St","lat":42.3517358,"lng":-83.066049,"neighborhood":"Midtown","city_fetched":"Detroit","state":"MI","country":"United States","canonicalUrl":"https://foursquare.com/v/motor-city-brewing-works-inc/41326e00f964a520900f1fe3","category":"Brewery","checkinsCount":10206,"usersCount":4615,"tipCount":137,"visitsCount":10694,"url":"http://www.motorcitybeer.com","tier":2,"message":"Moderate","currency":"$","rating":8.7},{"name":"TV Lounge","phone":"3139654789","address":"2548 Grand River Ave","lat":42.33812962747727,"lng":-83.0625672185812,"neighborhood":"University","city_fetched":"Detroit","state":"MI","country":"United States","canonicalUrl":"https://foursquare.com/v/tv-lounge/4a974b3cf964a520442920e3","category":"Lounge","checkinsCount":3960,"usersCount":1998,"tipCount":18,"visitsCount":4907,"tier":1,"message":"Cheap","currency":"$","rating":8.7},{"name":"The Westin Book Cadillac Detroit","phone":"3134421600","twitter":"spg","address":"1114 Washington Blvd","lat":42.33190897783369,"lng":-83.05050336137704,"neighborhood":"Downtown Detroit","city_fetched":"Detroit","state":"MI","country":"United States","canonicalUrl":"https://foursquare.com/v/the-westin-book-cadillac-detroit/4a908f84f964a520891820e3","category":"Hotel","checkinsCount":15730,"usersCount":6618,"tipCount":57,"visitsCount":16603,"url":"http://www.spg.com/foursquare/","tier":"","message":"","currency":"","rating":8.7},{"name":"St. CeCe's Pub","phone":"3139622121","twitter":"stceces","address":"1426 Bagley St","lat":42.329828247033895,"lng":-83.06517787933448,"neighborhood":"Corktown","city_fetched":"Detroit","state":"MI","country":"United States","canonicalUrl":"https://foursquare.com/v/st-ceces-pub/4e3b39b352b1a04afefb0ccd","category":"Pub","checkinsCount":2835,"usersCount":1370,"tipCount":27,"visitsCount":3429,"url":"http://www.stceces.com","tier":2,"message":"Moderate","currency":"$","rating":8.7},{"name":"Z's Villa","phone":"3138742680","address":"42 Piquette St","lat":42.3665052652359,"lng":-83.069603,"neighborhood":"Central","city_fetched":"Detroit","state":"MI","country":"United States","canonicalUrl":"https://foursquare.com/v/zs-villa/4beddbf0946c0f47550fa363","category":"Bar","checkinsCount":1677,"usersCount":1016,"tipCount":20,"visitsCount":2097,"url":"http://www.zsvilladet.com","tier":2,"message":"Moderate","currency":"$","rating":8.7},{"name":"The Keg Steakhouse & Bar","phone":"5192541646","twitter":"thekeg","address":"1 Riverside Dr W","lat":42.31924095997869,"lng":-83.0415628309135,"neighborhood":"City Centre","city_fetched":"Detroit","state":"ON","country":"Canada","canonicalUrl":"https://foursquare.com/v/the-keg-steakhouse--bar/4c3bc497be4620a166de0c13","category":"Steakhouse","checkinsCount":939,"usersCount":688,"tipCount":15,"visitsCount":1022,"url":"https://www.kegsteakhouse.com","tier":3,"message":"Expensive","currency":"$","rating":8.7},{"name":"Bronx Bar","phone":"3138328464","address":"4476 2nd Ave","lat":42.352246,"lng":-83.06706456666667,"neighborhood":"Midtown","city_fetched":"Detroit","state":"MI","country":"United States","canonicalUrl":"https://foursquare.com/v/bronx-bar/41326e00f964a520b20d1fe3","category":"Bar","checkinsCount":7914,"usersCount":3087,"tipCount":85,"visitsCount":8991,"tier":1,"message":"Cheap","currency":"$","rating":8.7},{"name":"Iridescence","phone":"8667829622","twitter":"motorcitycasino","address":"2901 Grand River Avenue inside the MotorCity Casino Hotel","lat":42.33918076237481,"lng":-83.06766986846924,"city_fetched":"Detroit","state":"MI","country":"United States","canonicalUrl":"https://foursquare.com/v/iridescence/4b706902f964a520b2182de3","category":"American Restaurant","checkinsCount":1031,"usersCount":759,"tipCount":15,"visitsCount":1043,"url":"http://www.motorcitycasino.com","tier":4,"message":"Very Expensive","currency":"$","rating":8.7},{"name":"Jacoby's German Biergarten","phone":"3139627067","twitter":"jacobysdetroit","address":"624 Brush St","lat":42.33216778235753,"lng":-83.04210821183266,"neighborhood":"Bricktown","city_fetched":"Detroit","state":"MI","country":"United States","canonicalUrl":"https://foursquare.com/v/jacobys-german-biergarten/4b631985f964a520e5622ae3","category":"German Restaurant","checkinsCount":6043,"usersCount":2838,"tipCount":44,"visitsCount":6351,"url":"http://www.jacobysbar.com","tier":2,"message":"Moderate","currency":"$","rating":8.6},{"name":"Sound Board","phone":"3137829622","twitter":"motorcitycasino","address":"2901 Grand River Ave","lat":42.33939488392246,"lng":-83.06770205497742,"city_fetched":"Detroit","state":"MI","country":"United States","canonicalUrl":"https://foursquare.com/v/sound-board/4b930e27f964a520d43134e3","category":"Nightclub","checkinsCount":2406,"usersCount":1665,"tipCount":10,"visitsCount":2488,"url":"http://www.motorcitycasino.com","tier":3,"message":"Expensive","currency":"$","rating":8.6},{"name":"Detroit Beer Company","phone":"3139621529","twitter":"detroitbeerco","address":"1529 Broadway St","lat":42.33603540302849,"lng":-83.04887265723872,"neighborhood":"Downtown Detroit","city_fetched":"Detroit","state":"MI","country":"United States","canonicalUrl":"https://foursquare.com/v/detroit-beer-company/456fdad7f964a5203c3e1fe3","category":"Brewery","checkinsCount":15610,"usersCount":7246,"tipCount":128,"visitsCount":16400,"url":"http://www.detroitbeerco.com","tier":2,"message":"Moderate","currency":"$","rating":8.6},{"name":"Two James Distillery","address":"2445 Michigan Ave","lat":42.33128424915091,"lng":-83.07941411500478,"neighborhood":"Corktown","city_fetched":"Detroit","state":"MI","country":"United States","canonicalUrl":"https://foursquare.com/v/two-james-distillery/4ffddfc3e4b0346120e62459","category":"Distillery","checkinsCount":2345,"usersCount":1940,"tipCount":41,"visitsCount":3324,"url":"http://twojames.com","tier":"","message":"","currency":"","rating":8.6},{"name":"The Rattlesnake Club","phone":"3135674400","twitter":"rattlesnake_det","address":"300 River Place Dr","lat":42.33615967792463,"lng":-83.01724159433932,"neighborhood":"Rivertown - Warehouse District","city_fetched":"Detroit","state":"MI","country":"United States","canonicalUrl":"https://foursquare.com/v/the-rattlesnake-club/413f9d00f964a520661c1fe3","category":"American Restaurant","checkinsCount":1489,"usersCount":1224,"tipCount":11,"visitsCount":1786,"url":"http://www.rattlesnakedetroit.com","tier":3,"message":"Expensive","currency":"$","rating":8.6},{"name":"The Manchester Pub","phone":"5199778020","twitter":"manchester_buzz","address":"546 Ouellette Ave","lat":42.314834338275794,"lng":-83.03704753267984,"neighborhood":"City Centre","city_fetched":"Detroit","state":"ON","country":"Canada","canonicalUrl":"https://foursquare.com/v/the-manchester-pub/4b6e3a44f964a520eeb22ce3","category":"Bar","checkinsCount":1673,"usersCount":686,"tipCount":25,"visitsCount":1775,"url":"http://www.themanchester.ca","tier":2,"message":"Moderate","currency":"$","rating":8.6},{"name":"Cadieux Cafe","phone":"3138828560","address":"4300 Cadieux Rd","lat":42.40150042,"lng":-82.92662,"neighborhood":"Far East Detroit","city_fetched":"Detroit","state":"MI","country":"United States","canonicalUrl":"https://foursquare.com/v/cadieux-cafe/4b6d05e9f964a52082632ce3","category":"Bar","checkinsCount":2922,"usersCount":1621,"tipCount":23,"visitsCount":3207,"url":"http://cadieuxcafe.com","tier":2,"message":"Moderate","currency":"$","rating":8.6},{"name":"Rock Bottom Bar & Grill","phone":"5192587553","address":"3236 Sandwich Street","lat":42.301287,"lng":-83.076152,"neighborhood":"Sandwich","city_fetched":"Detroit","state":"ON","country":"Canada","canonicalUrl":"https://foursquare.com/v/rock-bottom-bar--grill/4b55137ef964a52050da27e3","category":"Pub","checkinsCount":1170,"usersCount":455,"tipCount":16,"visitsCount":1509,"url":"http://rockbottom.ca","tier":2,"message":"Moderate","currency":"$","rating":8.5},{"name":"Ye Olde Tap Room","phone":"3138241030","address":"14915 Charlevoix St","lat":42.384802371636766,"lng":-82.94558431912559,"neighborhood":"Mack","city_fetched":"Detroit","state":"MI","country":"United States","canonicalUrl":"https://foursquare.com/v/ye-olde-tap-room/41326e00f964a520fb101fe3","category":"Dive Bar","checkinsCount":2816,"usersCount":946,"tipCount":18,"visitsCount":3245,"url":"http://yeoldetaproom.com","tier":2,"message":"Moderate","currency":"$","rating":8.5},{"name":"La Casa De La Habana Cigar Bar","phone":"3132858332","twitter":"lacasadetroit","address":"1502 Randolph St","lat":42.33676782563287,"lng":-83.04620891210888,"neighborhood":"Downtown Detroit","city_fetched":"Detroit","state":"MI","country":"United States","canonicalUrl":"https://foursquare.com/v/la-casa-de-la-habana-cigar-bar/4b490577f964a520666226e3","category":"Lounge","checkinsCount":2666,"usersCount":1136,"tipCount":27,"visitsCount":3017,"url":"http://lacasadelahabana.com","tier":"","message":"","currency":"","rating":8.5},{"name":"Old Miami","phone":"3138313830","address":"3930 Cass Ave","lat":42.348949637785445,"lng":-83.06229461348634,"neighborhood":"Midtown","city_fetched":"Detroit","state":"MI","country":"United States","canonicalUrl":"https://foursquare.com/v/old-miami/41326e00f964a520bf0f1fe3","category":"Bar","checkinsCount":4460,"usersCount":2748,"tipCount":37,"visitsCount":5226,"url":"http://www.theoldmiamidetroit.com","tier":1,"message":"Cheap","currency":"$","rating":8.5},{"name":"Atwater in the Park","phone":"3133445104","address":"1175 Lakepointe St","lat":42.38127730393016,"lng":-82.93999671936035,"neighborhood":"Grosse Pointe","city_fetched":"Detroit","state":"MI","country":"United States","canonicalUrl":"https://foursquare.com/v/atwater-in-the-park/53a335bd498e9733bb070f1a","category":"Beer Garden","checkinsCount":1381,"usersCount":1169,"tipCount":18,"visitsCount":2090,"url":"http://atwaterbeer.com","tier":"","message":"","currency":"","rating":8.5},{"name":"The Dakota Inn-Rathskeller","phone":"3138679722","twitter":"dakotainn","address":"17324 John R St","lat":42.41981,"lng":-83.10166,"neighborhood":"State Fair-Nolan","city_fetched":"Detroit","state":"MI","country":"United States","canonicalUrl":"https://foursquare.com/v/the-dakota-innrathskeller/4aac0acef964a520d45b20e3","category":"German Restaurant","checkinsCount":1000,"usersCount":815,"tipCount":12,"visitsCount":1123,"url":"http://dakota-inn.com","tier":2,"message":"Moderate","currency":"$","rating":8.5},{"name":"Town Pump Tavern","phone":"3139611929","address":"100 W Montcalm St","lat":42.33807518333333,"lng":-83.05403,"neighborhood":"Downtown Detroit","city_fetched":"Detroit","state":"MI","country":"United States","canonicalUrl":"https://foursquare.com/v/town-pump-tavern/41326e00f964a520ba101fe3","category":"Bar","checkinsCount":5395,"usersCount":3033,"tipCount":34,"visitsCount":5595,"url":"http://www.thetownpumptavern.com","tier":2,"message":"Moderate","currency":"$","rating":8.4},{"name":"Starter's Lounge","phone":"3138373630","address":"18440 Plymouth Rd","lat":42.37251576846186,"lng":-83.22093686718293,"neighborhood":"North West Detroit","city_fetched":"Detroit","state":"MI","country":"United States","canonicalUrl":"https://foursquare.com/v/starters-lounge/41326e00f964a52077101fe3","category":"Bar","checkinsCount":2026,"usersCount":736,"tipCount":35,"visitsCount":2640,"url":"http://www.startersbarandgrill.com","tier":2,"message":"Moderate","currency":"$","rating":8.4},{"name":"Traffic Jam & Snug","phone":"3138319470","twitter":"trafficjamnsnug","address":"511 W Canfield St","lat":42.351027725287636,"lng":-83.06617856025696,"neighborhood":"Midtown","city_fetched":"Detroit","state":"MI","country":"United States","canonicalUrl":"https://foursquare.com/v/traffic-jam--snug/4ace754ef964a520add020e3","category":"Brewery","checkinsCount":7121,"usersCount":4065,"tipCount":91,"visitsCount":7497,"url":"http://www.trafficjamdetroit.com","tier":2,"message":"Moderate","currency":"$","rating":8.4},{"name":"Honest John's Bar & No Grill","phone":"3138325646","address":"488 Selden St","lat":42.347762736568,"lng":-83.06397740765196,"neighborhood":"Midtown","city_fetched":"Detroit","state":"MI","country":"United States","canonicalUrl":"https://foursquare.com/v/honest-johns-bar--no-grill/41326e00f964a520ce0e1fe3","category":"American Restaurant","checkinsCount":7465,"usersCount":2601,"tipCount":86,"visitsCount":8209,"url":"http://www.honestjohnsdetroit.com","tier":2,"message":"Moderate","currency":"$","rating":8.4},{"name":"3rd Street Bar","phone":"3138330603","address":"4626 3rd St.","lat":42.35225273564605,"lng":-83.06952059268951,"neighborhood":"Midtown","city_fetched":"Detroit","state":"MI","country":"United States","canonicalUrl":"https://foursquare.com/v/3rd-street-bar/41326e00f964a520a7101fe3","category":"Bar","checkinsCount":5389,"usersCount":1869,"tipCount":38,"visitsCount":6357,"tier":1,"message":"Cheap","currency":"$","rating":8.4},{"name":"Cass Café","phone":"3138311400","address":"4620 Cass Ave","lat":42.35349,"lng":-83.06493,"neighborhood":"Midtown","city_fetched":"Detroit","state":"MI","country":"United States","canonicalUrl":"https://foursquare.com/v/cass-caf%C3%A9/456fd4eff964a520323e1fe3","category":"Café","checkinsCount":4846,"usersCount":2285,"tipCount":66,"visitsCount":5281,"url":"http://casscafe.com","tier":2,"message":"Moderate","currency":"$","rating":8.3},{"name":"McShane's Pub & Whiskey Bar","phone":"3139611960","twitter":"mcshanespub","address":"1460 Michigan Ave","lat":42.33163052913101,"lng":-83.06681156158447,"neighborhood":"Corktown","city_fetched":"Detroit","state":"MI","country":"United States","canonicalUrl":"https://foursquare.com/v/mcshanes-pub--whiskey-bar/4b624479f964a520783f2ae3","category":"Bar","checkinsCount":2550,"usersCount":1470,"tipCount":20,"visitsCount":3099,"url":"http://mcshanespub.com","tier":1,"message":"Cheap","currency":"$","rating":8.3},{"name":"The Anchor Bar","phone":"3139649127","twitter":"theofficialbar","address":"450 W Fort St","lat":42.329284,"lng":-83.05155848333334,"neighborhood":"Downtown Detroit","city_fetched":"Detroit","state":"MI","country":"United States","canonicalUrl":"https://foursquare.com/v/the-anchor-bar/4b7c259ff964a52005802fe3","category":"Sports Bar","checkinsCount":5606,"usersCount":1786,"tipCount":32,"visitsCount":6128,"url":"http://www.anchorbardetroit.com","tier":2,"message":"Moderate","currency":"$","rating":8.3},{"name":"Harry's Detroit","phone":"3139641575","twitter":"harrysdetroit","address":"2482 Clifford St","lat":42.339127068566455,"lng":-83.0562865295691,"neighborhood":"Midtown","city_fetched":"Detroit","state":"MI","country":"United States","canonicalUrl":"https://foursquare.com/v/harrys-detroit/41326e00f964a520ba0e1fe3","category":"American Restaurant","checkinsCount":3470,"usersCount":1882,"tipCount":22,"visitsCount":3962,"url":"http://harrysdetroit.com","tier":2,"message":"Moderate","currency":"$","rating":8.3},{"name":"Rock City Eatery","phone":"2486333072","address":"11411 Joseph Campau St","lat":42.40080214883168,"lng":-83.06077429510574,"neighborhood":"Downtown Hamtramck","city_fetched":"Detroit","state":"MI","country":"United States","canonicalUrl":"https://foursquare.com/v/rock-city-eatery/523cb3f911d23d1c59a05eaf","category":"New American Restaurant","checkinsCount":689,"usersCount":553,"tipCount":23,"visitsCount":955,"url":"http://rockcityeatery.com","tier":2,"message":"Moderate","currency":"$","rating":8.3},{"name":"Cafe d'Mongo's","address":"1439 Griswold St","lat":42.334321510651314,"lng":-83.04994231981942,"neighborhood":"Downtown Detroit","city_fetched":"Detroit","state":"MI","country":"United States","canonicalUrl":"https://foursquare.com/v/cafe-dmongos/4abd97bdf964a520148b20e3","category":"Jazz Club","checkinsCount":3230,"usersCount":1860,"tipCount":37,"visitsCount":3530,"tier":"","message":"","currency":"","rating":8.3},{"name":"Jolly Pumpkin Pizzeria and Brewery","phone":"3132626115","address":"441 W Canfield St","lat":42.35141220955572,"lng":-83.06540329296887,"neighborhood":"Midtown","city_fetched":"Detroit","state":"MI","country":"United States","canonicalUrl":"https://foursquare.com/v/jolly-pumpkin-pizzeria-and-brewery/54f8889d498e4321459eead8","category":"Brewery","checkinsCount":1687,"usersCount":1415,"tipCount":22,"visitsCount":2125,"url":"http://jollypumpkin.com","tier":"","message":"","currency":"","rating":8.3},{"name":"The Old Shillelagh","phone":"3139640007","twitter":"oldshillelagh","address":"349 Monroe St","lat":42.33456921120238,"lng":-83.04371810800092,"neighborhood":"Greektown","city_fetched":"Detroit","state":"MI","country":"United States","canonicalUrl":"https://foursquare.com/v/the-old-shillelagh/41326e00f964a520c10f1fe3","category":"Pub","checkinsCount":12516,"usersCount":6666,"tipCount":34,"visitsCount":13204,"url":"http://www.oldshillelagh.com","tier":2,"message":"Moderate","currency":"$","rating":8.3},{"name":"Cornerstone Barrel House","address":"1456 Woodward Ave","lat":42.3349864526831,"lng":-83.04922396990607,"neighborhood":"Downtown Detroit","city_fetched":"Detroit","state":"MI","country":"United States","canonicalUrl":"https://foursquare.com/v/cornerstone-barrel-house/540e13df498ea2728a5453c8","category":"Whisky Bar","checkinsCount":971,"usersCount":443,"tipCount":5,"visitsCount":1056,"url":"http://www.cornerstonedetroit.com","tier":"","message":"","currency":"","rating":8.2},{"name":"PJ's Lager House","phone":"3139614668","twitter":"pjs_lagerhouse","address":"1254 Michigan Ave","lat":42.33165690435347,"lng":-83.0633168767617,"neighborhood":"Corktown","city_fetched":"Detroit","state":"MI","country":"United States","canonicalUrl":"https://foursquare.com/v/pjs-lager-house/41326e00f964a520390f1fe3","category":"Bar","checkinsCount":4048,"usersCount":1795,"tipCount":30,"visitsCount":4267,"url":"http://www.pjslagerhouse.com","tier":1,"message":"Cheap","currency":"$","rating":8.2},{"name":"Teresa's Place","phone":"3138622831","address":"14000 W McNichols Rd","lat":42.416823506355286,"lng":-83.18377196788788,"neighborhood":"North West Detroit","city_fetched":"Detroit","state":"MI","country":"United States","canonicalUrl":"https://foursquare.com/v/teresas-place/41326e00f964a520a2101fe3","category":"Lounge","checkinsCount":312,"usersCount":205,"tipCount":6,"visitsCount":401,"tier":"","message":"","currency":"","rating":8.2},{"name":"Tiger Club","phone":"3134712582","twitter":"tigers","address":"2100 Woodward Ave","lat":42.338244963350846,"lng":-83.04949522018433,"neighborhood":"Downtown Detroit","city_fetched":"Detroit","state":"MI","country":"United States","canonicalUrl":"https://foursquare.com/v/tiger-club/4c6f1d3ab5a5236af1524c52","category":"Lounge","checkinsCount":1702,"usersCount":995,"tipCount":7,"visitsCount":1712,"url":"http://detroit.tigers.mlb.com/det/ballpark/information/index.jsp?content=tigerclub","tier":"","message":"","currency":"","rating":8.2},{"name":"Motor City Wine","phone":"3134837283","twitter":"motorcitywine","address":"1949 Michigan Ave","lat":42.33119678468325,"lng":-83.07288868317568,"neighborhood":"Downtown Detroit","city_fetched":"Detroit","state":"MI","country":"United States","canonicalUrl":"https://foursquare.com/v/motor-city-wine/4c02fec1187ec9283a18b57b","category":"Wine Bar","checkinsCount":2439,"usersCount":1483,"tipCount":35,"visitsCount":2903,"url":"http://motorcitywine.com","tier":2,"message":"Moderate","currency":"$","rating":8.1},{"name":"My Dad's Bar","phone":"3133313237","address":"14911 Kercheval St","lat":42.380674991169286,"lng":-82.94282913208008,"neighborhood":"Mack","city_fetched":"Detroit","state":"MI","country":"United States","canonicalUrl":"https://foursquare.com/v/my-dads-bar/4c37f40d1e06d13ab306773e","category":"Dive Bar","checkinsCount":1326,"usersCount":424,"tipCount":11,"visitsCount":1594,"tier":"","message":"","currency":"","rating":8.1},{"name":"Whiskey In The Jar","phone":"3138734154","address":"2741 Yemans St","lat":42.39773311134105,"lng":-83.0590861762568,"city_fetched":"Detroit","state":"MI","country":"United States","canonicalUrl":"https://foursquare.com/v/whiskey-in-the-jar/41326e00f964a520e8101fe3","category":"Bar","checkinsCount":5640,"usersCount":852,"tipCount":15,"visitsCount":6134,"tier":1,"message":"Cheap","currency":"$","rating":8.1},{"name":"Cutter's Bar & Grill Eastern Market","phone":"3133930960","twitter":"cuttersbargrill","address":"2638 Orleans St","lat":42.348359464898586,"lng":-83.0377765042218,"neighborhood":"Eastern Market","city_fetched":"Detroit","state":"MI","country":"United States","canonicalUrl":"https://foursquare.com/v/cutters-bar--grill-eastern-market/4bee3fb9e8c3c9280b879892","category":"Burger Joint","checkinsCount":1145,"usersCount":786,"tipCount":23,"visitsCount":1558,"url":"http://bit.ly/CuttersWebsite","tier":2,"message":"Moderate","currency":"$","rating":8.1},{"name":"Trumpps","phone":"3135921190","twitter":"trumppsdetroit","address":"21413 W 8 Mile Rd","lat":42.4433293979192,"lng":-83.25429894255814,"neighborhood":"North West Detroit","city_fetched":"Detroit","state":"MI","country":"United States","canonicalUrl":"https://foursquare.com/trumppsdetroit","category":"Strip Club","checkinsCount":308,"usersCount":197,"tipCount":5,"visitsCount":372,"url":"http://www.trumppsdetroit.com","tier":"","message":"","currency":"","rating":8},{"name":"Miller's Bar","phone":"3135652577","twitter":"millersbar","address":"23700 Michigan Ave","lat":42.301064821738244,"lng":-83.26734421480828,"city_fetched":"Detroit","state":"MI","country":"United States","canonicalUrl":"https://foursquare.com/v/millers-bar/4ab59fa1f964a520ab7520e3","category":"Burger Joint","checkinsCount":4150,"usersCount":2767,"tipCount":93,"visitsCount":4886,"url":"http://www.millersbar.com","tier":1,"message":"Cheap","currency":"$","rating":8},{"name":"O'Flaherty's","phone":"3138241140","address":"15119 Charlevoix St","lat":42.38561762222791,"lng":-82.94369893634207,"neighborhood":"Grosse Pointe","city_fetched":"Detroit","state":"MI","country":"United States","canonicalUrl":"https://foursquare.com/v/oflahertys/4b9c1dfaf964a520dd4b36e3","category":"Pub","checkinsCount":859,"usersCount":207,"tipCount":4,"visitsCount":919,"tier":"","message":"","currency":"","rating":8},{"name":"Nemo's Party Bus","phone":"3139653180","address":"1384 Michigan Ave","lat":42.33155608177185,"lng":-83.06526,"neighborhood":"Corktown","city_fetched":"Detroit","state":"MI","country":"United States","canonicalUrl":"https://foursquare.com/v/nemos-party-bus/4e3339d8227111ae768c4cb7","category":"Sports Bar","checkinsCount":290,"usersCount":153,"tipCount":2,"visitsCount":290,"url":"http://www.nemosdetroit.com","tier":"","message":"","currency":"","rating":8},{"name":"Detroiter Bar/Malaka's","phone":"3139633355","address":"649 Beaubien St","lat":42.33318040099984,"lng":-83.04151039020242,"neighborhood":"Bricktown","city_fetched":"Detroit","state":"MI","country":"United States","canonicalUrl":"https://foursquare.com/v/detroiter-barmalakas/41326e00f964a520340e1fe3","category":"Bar","checkinsCount":3447,"usersCount":1972,"tipCount":26,"visitsCount":3635,"tier":1,"message":"Cheap","currency":"$","rating":8},{"name":"Craft Heads Brewing Company","phone":"2262463925","twitter":"craftheadsbrew","address":"89 University Ave W","lat":42.317132770767486,"lng":-83.03984275380752,"neighborhood":"City Centre","city_fetched":"Detroit","state":"ON","country":"Canada","canonicalUrl":"https://foursquare.com/v/craft-heads-brewing-company/550237b0498e322efec9e561","category":"Brewery","checkinsCount":108,"usersCount":83,"tipCount":3,"visitsCount":123,"url":"http://www.craftheads.ca","tier":"","message":"","currency":"","rating":8},{"name":"Woodbridge Pub","phone":"3138332701","twitter":"woodbridgepub","address":"5169 Trumbull St","lat":42.354073,"lng":-83.080014,"neighborhood":"Woodbridge","city_fetched":"Detroit","state":"MI","country":"United States","canonicalUrl":"https://foursquare.com/v/woodbridge-pub/4add0b48f964a520b26321e3","category":"Pub","checkinsCount":6762,"usersCount":2592,"tipCount":79,"visitsCount":7554,"url":"http://www.woodbridgepub.com","tier":2,"message":"Moderate","currency":"$","rating":8},{"name":"Centaur Bar","phone":"3139634040","address":"2233 Park Ave","lat":42.33815748511644,"lng":-83.05363881395107,"neighborhood":"Downtown Detroit","city_fetched":"Detroit","state":"MI","country":"United States","canonicalUrl":"https://foursquare.com/v/centaur-bar/45a67fddf964a5200a411fe3","category":"Lounge","checkinsCount":5004,"usersCount":2255,"tipCount":65,"visitsCount":5117,"url":"http://www.centaurbar.com","tier":2,"message":"Moderate","currency":"$","rating":8},{"name":"Abick's Bar","phone":"3138949329","address":"3500 Gilbert St","lat":42.32700662324161,"lng":-83.11900877129419,"neighborhood":"Michigan - Martin","city_fetched":"Detroit","state":"MI","country":"United States","canonicalUrl":"https://foursquare.com/v/abicks-bar/41326e00f964a5204d0d1fe3","category":"Bar","checkinsCount":263,"usersCount":217,"tipCount":1,"visitsCount":386,"tier":"","message":"","currency":"","rating":8},{"name":"Small's","phone":"3138731117","twitter":"smallsbar","address":"10339 Conant St","lat":42.402212100099064,"lng":-83.05271602068711,"city_fetched":"Detroit","state":"MI","country":"United States","canonicalUrl":"https://foursquare.com/v/smalls/41326e00f964a5205e101fe3","category":"Rock Club","checkinsCount":4881,"usersCount":1320,"tipCount":14,"visitsCount":5528,"url":"http://www.smallsbardetroit.com","tier":"","message":"","currency":"","rating":7.9},{"name":"Flood's Bar & Grill","phone":"3139631090","twitter":"floodsdetroit","address":"733 Saint Antoine St","lat":42.33439528211663,"lng":-83.04032521899339,"neighborhood":"Bricktown","city_fetched":"Detroit","state":"MI","country":"United States","canonicalUrl":"https://foursquare.com/v/floods-bar--grill/41326e00f964a5207d0e1fe3","category":"Bar","checkinsCount":1802,"usersCount":1022,"tipCount":28,"visitsCount":2073,"url":"http://www.floodsdetroit.com","tier":1,"message":"Cheap","currency":"$","rating":7.9},{"name":"The Whiskey Six","address":"17101 Kercheval","lat":42.39070689770484,"lng":-82.9155746485744,"neighborhood":"Downtown Grosse Pointe","city_fetched":"Detroit","state":"MI","country":"United States","canonicalUrl":"https://foursquare.com/v/the-whiskey-six/566b8c9c498e1bdb13213101","category":"Whisky Bar","checkinsCount":142,"usersCount":172,"tipCount":4,"visitsCount":256,"tier":"","message":"","currency":"","rating":7.9},{"name":"Nancy Whiskey's Pub","phone":"3139624247","address":"2644 Harrison St","lat":42.335364818573,"lng":-83.072565,"city_fetched":"Detroit","state":"MI","country":"United States","canonicalUrl":"https://foursquare.com/v/nancy-whiskeys-pub/41326e00f964a520a10f1fe3","category":"Pub","checkinsCount":2793,"usersCount":1288,"tipCount":20,"visitsCount":3186,"url":"http://www.nancywhiskeydetroit.com","tier":"","message":"","currency":"","rating":7.9},{"name":"Chevelle's","phone":"3133979938","address":"19339 Schoolcraft","lat":42.3861499551107,"lng":-83.23181371478296,"neighborhood":"Brightmoor","city_fetched":"Detroit","state":"MI","country":"United States","canonicalUrl":"https://foursquare.com/v/chevelles/4d53576e8652224bfe39cfd7","category":"Bar","checkinsCount":266,"usersCount":142,"tipCount":4,"visitsCount":343,"tier":"","message":"","currency":"","rating":7.9},{"name":"The Works Club & Grill","phone":"3139611742","address":"1846 Michigan Ave","lat":42.33169150783133,"lng":-83.0714524769631,"neighborhood":"Corktown","city_fetched":"Detroit","state":"MI","country":"United States","canonicalUrl":"https://foursquare.com/v/the-works-club--grill/4bd8be9c03979c74f728bdd2","category":"Nightclub","checkinsCount":2843,"usersCount":1252,"tipCount":10,"visitsCount":3110,"url":"http://www.myspace.com/theworksdetroit","tier":2,"message":"Moderate","currency":"$","rating":7.9},{"name":"Kildare House","phone":"5199151066","address":"1880 Wyandotte St E","lat":42.32269503490244,"lng":-83.0133332051959,"neighborhood":"Walkerville","city_fetched":"Detroit","state":"ON","country":"Canada","canonicalUrl":"https://foursquare.com/v/kildare-house/4c294eecce3fc92805a16e88","category":"Pub","checkinsCount":1209,"usersCount":401,"tipCount":15,"visitsCount":1317,"url":"http://kildarehouse.com","tier":"","message":"","currency":"","rating":7.9},{"name":"Detroit City Distillery","phone":"3133383760","lat":42.34633488168579,"lng":-83.0383533824568,"neighborhood":"Eastern Market","city_fetched":"Detroit","state":"MI","country":"United States","canonicalUrl":"https://foursquare.com/v/detroit-city-distillery/536ed265498e39bf2abfcec0","category":"Distillery","checkinsCount":722,"usersCount":682,"tipCount":15,"visitsCount":1033,"url":"http://detroitcitydistillery.com","tier":"","message":"","currency":"","rating":7.9},{"name":"Hockeytown Cafe","phone":"3134713454","twitter":"hockeytowncafe","address":"2301 Woodward Ave","lat":42.33899439673061,"lng":-83.05260121822357,"neighborhood":"Downtown Detroit","city_fetched":"Detroit","state":"MI","country":"United States","canonicalUrl":"https://foursquare.com/v/hockeytown-cafe/4a7e2053f964a52011f11fe3","category":"Sports Bar","checkinsCount":11148,"usersCount":8235,"tipCount":55,"visitsCount":11878,"url":"http://www.hockeytowncafe.com","tier":2,"message":"Moderate","currency":"$","rating":7.9},{"name":"Ignite Sushi Bar & Lounge","phone":"3134651777","address":"MGM Grand Detroit Casino & Hotel","lat":42.333730955139835,"lng":-83.05957374298524,"neighborhood":"Downtown Detroit","city_fetched":"Detroit","state":"MI","country":"United States","canonicalUrl":"https://foursquare.com/v/ignite-sushi-bar--lounge/4c3cdb0ca97bbe9adf15fbdd","category":"Nightclub","checkinsCount":1303,"usersCount":755,"tipCount":6,"visitsCount":1303,"url":"http://mgmgranddetroit.com","tier":"","message":"","currency":"","rating":7.9},{"name":"Cafe 78","phone":"3137849636","address":"4454 Woodward Ave","lat":42.353796,"lng":-83.061657,"neighborhood":"University","city_fetched":"Detroit","state":"MI","country":"United States","canonicalUrl":"https://foursquare.com/v/cafe-78/54f268bb498ec9c89ee0dcc0","category":"Cocktail Bar","checkinsCount":134,"usersCount":85,"tipCount":4,"visitsCount":135,"tier":"","message":"","currency":"","rating":7.9},{"name":"Craft Work","phone":"3134475418","address":"8047 Agnes St","lat":42.35531080489266,"lng":-82.99651137577867,"neighborhood":"Lower East Detroit","city_fetched":"Detroit","state":"MI","country":"United States","canonicalUrl":"https://foursquare.com/v/craft-work/52aba931498eb6c1e80ab470","category":"New American Restaurant","checkinsCount":982,"usersCount":664,"tipCount":21,"visitsCount":1247,"url":"http://craftworkdetroit.com","tier":2,"message":"Moderate","currency":"$","rating":7.9},{"name":"Firebird Tavern","phone":"3137824189","twitter":"firebirdtavern","address":"419 Monroe St","lat":42.33472045352259,"lng":-83.04331432666741,"neighborhood":"Greektown","city_fetched":"Detroit","state":"MI","country":"United States","canonicalUrl":"https://foursquare.com/firebirdtavern","category":"New American Restaurant","checkinsCount":2113,"usersCount":1339,"tipCount":25,"visitsCount":2479,"url":"http://www.firebirdtavern.com","tier":2,"message":"Moderate","currency":"$","rating":7.9},{"name":"Uncle Ray's Bar And Grill","phone":"3135623309","address":"24502 W Warren St","lat":42.341378758480495,"lng":-83.27822893809494,"city_fetched":"Detroit","state":"MI","country":"United States","canonicalUrl":"https://foursquare.com/v/uncle-rays-bar-and-grill/524f69f111d2f2de2ca59f14","category":"Bar","checkinsCount":101,"usersCount":44,"tipCount":3,"visitsCount":111,"tier":"","message":"","currency":"","rating":7.8},{"name":"Bailey's","phone":"3132773212","twitter":"baileysgrille","address":"22091 Michigan Ave.","lat":42.30552012,"lng":-83.24580272,"city_fetched":"Detroit","state":"MI","country":"United States","canonicalUrl":"https://foursquare.com/v/baileys/4a98925cf964a520bc2c20e3","category":"Pub","checkinsCount":5615,"usersCount":2606,"tipCount":31,"visitsCount":6305,"url":"http://t.co/IGrH8HORCs","tier":2,"message":"Moderate","currency":"$","rating":7.8},{"name":"Shelter","phone":"3139618961","address":"431 E Congress St","lat":42.33238060536701,"lng":-83.04165198002649,"neighborhood":"Bricktown","city_fetched":"Detroit","state":"MI","country":"United States","canonicalUrl":"https://foursquare.com/v/shelter/41326e00f964a52011111fe3","category":"Concert Hall","checkinsCount":1475,"usersCount":906,"tipCount":5,"visitsCount":1483,"tier":"","message":"","currency":"","rating":7.8},{"name":"Bert's Market Place","phone":"3135672030","twitter":"bertswarehouse","address":"2727 Russell St","lat":42.347546,"lng":-83.04124,"neighborhood":"Eastern Market","city_fetched":"Detroit","state":"MI","country":"United States","canonicalUrl":"https://foursquare.com/v/berts-market-place/4c5ce2389b28d13a264d5870","category":"Jazz Club","checkinsCount":629,"usersCount":391,"tipCount":14,"visitsCount":639,"url":"http://www.bertsentertainmentcomplex.com","tier":"","message":"","currency":"","rating":7.8},{"name":"Punch Bowl Social","phone":"3137499738","address":"1331 Broadway","lat":42.33501780502067,"lng":-83.04619842471024,"neighborhood":"Downtown Detroit","city_fetched":"Detroit","state":"MI","country":"United States","canonicalUrl":"https://foursquare.com/v/punch-bowl-social/533c2ceb498eaee0e33ead82","category":"Cocktail Bar","checkinsCount":2701,"usersCount":2909,"tipCount":31,"visitsCount":4493,"url":"http://punchbowlsocial.com","tier":"","message":"","currency":"","rating":7.8},{"name":"Greenwich Time","phone":"3139617885","address":"130 Cadillac Sq","lat":42.33128154685553,"lng":-83.04375529289246,"neighborhood":"Downtown Detroit","city_fetched":"Detroit","state":"MI","country":"United States","canonicalUrl":"https://foursquare.com/v/greenwich-time/41326e00f964a520a70e1fe3","category":"Dive Bar","checkinsCount":1031,"usersCount":409,"tipCount":11,"visitsCount":1118,"tier":1,"message":"Cheap","currency":"$","rating":7.8},{"name":"Bookies Bar & Grille","phone":"3139620319","twitter":"bookiesdetroit","address":"2208 Cass Ave","lat":42.33679563695293,"lng":-83.0555409193039,"neighborhood":"Downtown Detroit","city_fetched":"Detroit","state":"MI","country":"United States","canonicalUrl":"https://foursquare.com/v/bookies-bar--grille/4ad9fa29f964a520a51c21e3","category":"Sports Bar","checkinsCount":6045,"usersCount":3556,"tipCount":40,"visitsCount":6574,"url":"http://www.bookiesbar.com","tier":1,"message":"Cheap","currency":"$","rating":7.8},{"name":"Big League Brews","phone":"3134066931","address":"20428 Ecorse Rd","lat":42.25653593798615,"lng":-83.2365403909525,"city_fetched":"Detroit","state":"MI","country":"United States","canonicalUrl":"https://foursquare.com/v/big-league-brews/4c680f2bf101ef3b61d479e9","category":"Sports Bar","checkinsCount":5071,"usersCount":622,"tipCount":39,"visitsCount":5426,"tier":2,"message":"Moderate","currency":"$","rating":7.8},{"name":"Gaelic League Detroit: Irish American Club","phone":"3139648700","address":"2040 Michigan Ave.","lat":42.3314051820715,"lng":-83.0744925843714,"neighborhood":"Corktown","city_fetched":"Detroit","state":"MI","country":"United States","canonicalUrl":"https://foursquare.com/v/gaelic-league-detroit-irish-american-club/4c4b715b42b4d13a4c67ac7e","category":"Bar","checkinsCount":1260,"usersCount":673,"tipCount":12,"visitsCount":1315,"url":"http://www.gaelicleagueofdetroit.org","tier":"","message":"","currency":"","rating":7.8},{"name":"The Whiskey Parlor","address":"608 Woodward Ave","lat":42.33042737775734,"lng":-83.04613550028334,"neighborhood":"Downtown Detroit","city_fetched":"Detroit","state":"MI","country":"United States","canonicalUrl":"https://foursquare.com/v/the-whiskey-parlor/54f267d9498e11410447d6b0","category":"Whisky Bar","checkinsCount":255,"usersCount":172,"tipCount":1,"visitsCount":255,"tier":"","message":"","currency":"","rating":7.8},{"name":"The Alley Deck","phone":"3138339700","address":"4120 Woodward Ave","lat":42.35107133448046,"lng":-83.0599182844162,"neighborhood":"Midtown","city_fetched":"Detroit","state":"MI","country":"United States","canonicalUrl":"https://foursquare.com/v/the-alley-deck/4be1cbffae55a593dd965b62","category":"Bar","checkinsCount":1072,"usersCount":300,"tipCount":13,"visitsCount":1075,"url":"http://majesticdetroit.com","tier":"","message":"","currency":"","rating":7.8},{"name":"Temple Bar","address":"2906 Cass Ave","lat":42.342101061478594,"lng":-83.05856714963687,"neighborhood":"Midtown","city_fetched":"Detroit","state":"MI","country":"United States","canonicalUrl":"https://foursquare.com/v/temple-bar/41326e00f964a520a0101fe3","category":"Bar","checkinsCount":1838,"usersCount":935,"tipCount":14,"visitsCount":2218,"tier":"","message":"","currency":"","rating":7.8},{"name":"Granite City Food & Brewery","phone":"3133099120","twitter":"gcfb","address":"100 Renaissance Ctr Ste 1101","lat":42.329290276751784,"lng":-83.0410226895889,"neighborhood":"Downtown Detroit","city_fetched":"Detroit","state":"MI","country":"United States","canonicalUrl":"https://foursquare.com/v/granite-city-food--brewery/56b35369498ea78eadbf0a65","category":"American Restaurant","checkinsCount":394,"usersCount":339,"tipCount":6,"visitsCount":477,"url":"http://www.gcfb.com","tier":2,"message":"Moderate","currency":"$","rating":7.7},{"name":"Antietam","phone":"3137824378","address":"1428 Gratiot, Detroit MI","lat":42.34388347189443,"lng":-83.03827471754049,"neighborhood":"Lafayette Park","city_fetched":"Detroit","state":"MI","country":"United States","canonicalUrl":"https://foursquare.com/v/antietam/53c4741d498e60253d8b8866","category":"Restaurant","checkinsCount":284,"usersCount":311,"tipCount":15,"visitsCount":398,"url":"http://www.antietamdetroit.com","tier":"","message":"","currency":"","rating":7.7},{"name":"Baker Streetcar Bar","phone":"3138738296","address":"9817 Joseph Campau St","lat":42.39738910673676,"lng":-83.05825782879351,"neighborhood":"Downtown Hamtramck","city_fetched":"Detroit","state":"MI","country":"United States","canonicalUrl":"https://foursquare.com/v/baker-streetcar-bar/41326e00f964a5206e0d1fe3","category":"Dive Bar","checkinsCount":740,"usersCount":180,"tipCount":6,"visitsCount":817,"url":"http://bakerstreetcarbar.hostrator.com","tier":1,"message":"Cheap","currency":"$","rating":7.7},{"name":"Exodos Lounge","phone":"3139621300","twitter":"yannisdetroit","address":"525 Monroe St","lat":42.33523957441603,"lng":-83.04217638412987,"neighborhood":"Greektown","city_fetched":"Detroit","state":"MI","country":"United States","canonicalUrl":"https://foursquare.com/v/exodos-lounge/4ba1bd47f964a5205bca37e3","category":"Lounge","checkinsCount":1234,"usersCount":760,"tipCount":9,"visitsCount":1263,"url":"http://exodosrooftop.com","tier":"","message":"","currency":"","rating":7.7},{"name":"Bumbo's","address":"3001 Holbrook St","lat":42.394294,"lng":-83.054699,"city_fetched":"Detroit","state":"MI","country":"United States","canonicalUrl":"https://foursquare.com/v/bumbos/54fba6cb498e7a31391f1710","category":"Bar","checkinsCount":208,"usersCount":129,"tipCount":1,"visitsCount":344,"tier":"","message":"","currency":"","rating":7.7},{"name":"Midtown","lat":42.35420214313919,"lng":-83.06353181214517,"city_fetched":"Detroit","state":"MI","country":"United States","canonicalUrl":"https://foursquare.com/v/midtown/4c77079c941876b09053dcf8","category":"Neighborhood","checkinsCount":3870,"usersCount":552,"tipCount":4,"visitsCount":3904,"tier":"","message":"","currency":"","rating":7.7},{"name":"Fire Water II Bar & Grill","phone":"3138720812","address":"6521 John R","lat":42.370096,"lng":-83.07062029838562,"neighborhood":"Central","city_fetched":"Detroit","state":"MI","country":"United States","canonicalUrl":"https://foursquare.com/v/fire-water-ii-bar--grill/4be9e433f90e9c740c59e3ed","category":"Bar","checkinsCount":280,"usersCount":214,"tipCount":4,"visitsCount":317,"tier":"","message":"","currency":"","rating":7.7},{"name":"Hard Rock Cafe Detroit","phone":"3139647625","twitter":"hardrock","address":"45 Monroe St","lat":42.33231460808727,"lng":-83.04635971784592,"neighborhood":"Downtown Detroit","city_fetched":"Detroit","state":"MI","country":"United States","canonicalUrl":"https://foursquare.com/v/hard-rock-cafe-detroit/4a7b1ce9f964a52010ea1fe3","category":"Theme Restaurant","checkinsCount":9135,"usersCount":5644,"tipCount":69,"visitsCount":9334,"url":"http://www.facebook.com/hardrock","tier":2,"message":"Moderate","currency":"$","rating":7.7},{"name":"Varsity Club Lounge","phone":"3132779968","address":"24676 Ford Rd","lat":42.32701463,"lng":-83.27949181,"city_fetched":"Detroit","state":"MI","country":"United States","canonicalUrl":"https://foursquare.com/v/varsity-club-lounge/41326e00f964a520cd101fe3","category":"Bar","checkinsCount":620,"usersCount":137,"tipCount":9,"visitsCount":620,"tier":1,"message":"Cheap","currency":"$","rating":7.6},{"name":"Starter's Bar & Grill","phone":"3134410400","address":"18900 Michigan Ave","lat":42.31566149952359,"lng":-83.22219721079689,"neighborhood":"Fairlane Town Center","city_fetched":"Detroit","state":"MI","country":"United States","canonicalUrl":"https://foursquare.com/v/starters-bar--grill/4c742b15d8948cfa853e64da","category":"Sports Bar","checkinsCount":1246,"usersCount":820,"tipCount":13,"visitsCount":1376,"url":"http://www.startersbarandgrill.com","tier":"","message":"","currency":"","rating":7.6},{"name":"Corktown Tavern","phone":"3139645103","address":"1716 Michigan Ave","lat":42.331659,"lng":-83.0699497461319,"neighborhood":"Corktown","city_fetched":"Detroit","state":"MI","country":"United States","canonicalUrl":"https://foursquare.com/v/corktown-tavern/42ae1e00f964a52053251fe3","category":"Whisky Bar","checkinsCount":1113,"usersCount":683,"tipCount":6,"visitsCount":1256,"url":"http://www.corktowntavern.com","tier":"","message":"","currency":"","rating":7.6},{"name":"Cheli's Chili Bar","phone":"3139611700","address":"47 E Adams Ave","lat":42.33764106655112,"lng":-83.04983220829787,"neighborhood":"Downtown Detroit","city_fetched":"Detroit","state":"MI","country":"United States","canonicalUrl":"https://foursquare.com/v/chelis-chili-bar/4a9c2755f964a520363620e3","category":"Sports Bar","checkinsCount":7883,"usersCount":6444,"tipCount":30,"visitsCount":9118,"url":"http://www.chelischilibar.com","tier":2,"message":"Moderate","currency":"$","rating":7.6},{"name":"The Boom Boom Room","phone":"5199710000","twitter":"boomboomroom","address":"315 Ouellette Avenue","lat":42.31719373681018,"lng":-83.03903192281723,"neighborhood":"City Centre","city_fetched":"Detroit","state":"ON","country":"Canada","canonicalUrl":"https://foursquare.com/boomboomroom","category":"Nightclub","checkinsCount":595,"usersCount":170,"tipCount":5,"visitsCount":607,"tier":"","message":"","currency":"","rating":7.6},{"name":"The Oakwood Bar & Grill","phone":"3134518970","address":"17621 Oakwood Blvd","lat":42.29015379111931,"lng":-83.20782993404748,"city_fetched":"Detroit","state":"MI","country":"United States","canonicalUrl":"https://foursquare.com/v/the-oakwood-bar--grill/41326e00f964a520bc0f1fe3","category":"Bar","checkinsCount":1054,"usersCount":691,"tipCount":15,"visitsCount":1629,"url":"http://theoakwoodgrill.com","tier":"","message":"","currency":"","rating":7.6},{"name":"Phog Lounge","phone":"5192531605","address":"157 University Ave W","lat":42.317003339396194,"lng":-83.04080486297607,"neighborhood":"City Centre","city_fetched":"Detroit","state":"ON","country":"Canada","canonicalUrl":"https://foursquare.com/v/phog-lounge/4b42c2bef964a520aed925e3","category":"Bar","checkinsCount":853,"usersCount":202,"tipCount":12,"visitsCount":875,"tier":2,"message":"Moderate","currency":"$","rating":7.6},{"name":"3 Nicks","phone":"3135513526","address":"4822 Greenfield Rd","lat":42.320982813835144,"lng":-83.19503724575043,"neighborhood":"Woodworth","city_fetched":"Detroit","state":"MI","country":"United States","canonicalUrl":"https://foursquare.com/v/3-nicks/4ba6e740f964a5208c7639e3","category":"Bar","checkinsCount":550,"usersCount":217,"tipCount":7,"visitsCount":614,"url":"http://3nicksbars.com","tier":"","message":"","currency":"","rating":7.6},{"name":"Hayloft Saloon","phone":"3135818913","address":"8070 Greenfield Rd","lat":42.3521,"lng":-83.1963,"city_fetched":"Detroit","state":"MI","country":"United States","canonicalUrl":"https://foursquare.com/v/hayloft-saloon/41326e00f964a520bd0e1fe3","category":"Gay Bar","checkinsCount":1808,"usersCount":480,"tipCount":15,"visitsCount":2220,"url":"http://hayloftsaloon.com","tier":1,"message":"Cheap","currency":"$","rating":7.6},{"name":"Opyum","phone":"3135331700","address":"24587 W 8 Mile Rd","lat":42.44228119,"lng":-83.28500792,"neighborhood":"Redford","city_fetched":"Detroit","state":"MI","country":"United States","canonicalUrl":"https://foursquare.com/v/opyum/4de705971f6e396609778092","category":"Cocktail Bar","checkinsCount":415,"usersCount":245,"tipCount":10,"visitsCount":534,"tier":"","message":"","currency":"","rating":7.6},{"name":"City Theatre","phone":"3134713200","twitter":"oeonthego","address":"2301 Woodward Ave","lat":42.338953024650486,"lng":-83.05250629313977,"neighborhood":"Downtown Detroit","city_fetched":"Detroit","state":"MI","country":"United States","canonicalUrl":"https://foursquare.com/v/city-theatre/4bd1dafb41b9ef3b16c1fce5","category":"Music Venue","checkinsCount":893,"usersCount":668,"tipCount":5,"visitsCount":898,"tier":"","message":"","currency":"","rating":7.6},{"name":"Checker Bar","phone":"3139619249","twitter":"checkerdetroit","address":"124 Cadillac Sq","lat":42.331320903958535,"lng":-83.04406420431548,"neighborhood":"Downtown Detroit","city_fetched":"Detroit","state":"MI","country":"United States","canonicalUrl":"https://foursquare.com/v/checker-bar/54a3758c498eb46942e4aa20","category":"Bar","checkinsCount":773,"usersCount":483,"tipCount":9,"visitsCount":983,"url":"http://checkerbar.com","tier":"","message":"","currency":"","rating":7.6},{"name":"Foundry Pub","lat":42.31557657310878,"lng":-83.03776601547983,"neighborhood":"City Centre","city_fetched":"Detroit","country":"Canada","canonicalUrl":"https://foursquare.com/v/foundry-pub/5360473c498e585c3ebaf603","category":"Pub","checkinsCount":140,"usersCount":90,"tipCount":1,"visitsCount":151,"tier":"","message":"","currency":"","rating":7.6},{"name":"Nemo's Bar","phone":"3139653180","address":"1384 Michigan Ave","lat":42.33164254439657,"lng":-83.06549240977381,"neighborhood":"Corktown","city_fetched":"Detroit","state":"MI","country":"United States","canonicalUrl":"https://foursquare.com/v/nemos-bar/41326e00f964a520a50f1fe3","category":"Sports Bar","checkinsCount":4234,"usersCount":2478,"tipCount":29,"visitsCount":4458,"url":"http://www.nemosdetroit.com","tier":"","message":"","currency":"","rating":7.6},{"name":"Menjo's Complex","phone":"3138633934","twitter":"menjoscomplex","address":"928 W McNichols Rd","lat":42.417826447523105,"lng":-83.11527405354755,"neighborhood":"Palmer Park","city_fetched":"Detroit","state":"MI","country":"United States","canonicalUrl":"https://foursquare.com/v/menjos-complex/41326e00f964a52009111fe3","category":"Gay Bar","checkinsCount":2938,"usersCount":932,"tipCount":16,"visitsCount":3609,"url":"http://newmenjoscomplex.com","tier":1,"message":"Cheap","currency":"$","rating":7.6},{"name":"Donovan's Pub","address":"3003 W Vernor Hwy","lat":42.32530507996433,"lng":-83.0820765144911,"neighborhood":"Hubbard - Richard","city_fetched":"Detroit","state":"MI","country":"United States","canonicalUrl":"https://foursquare.com/v/donovans-pub/41326e00f964a5203e0e1fe3","category":"Bar","checkinsCount":1211,"usersCount":335,"tipCount":1,"visitsCount":1300,"tier":1,"message":"Cheap","currency":"$","rating":7.5},{"name":"Le Cigar","phone":"3133591716","address":"22263 Michigan Ave","lat":42.30471396,"lng":-83.248809,"city_fetched":"Detroit","state":"MI","country":"United States","canonicalUrl":"https://foursquare.com/v/le-cigar/4bf5f4ec5e800f4719a4e6d4","category":"Smoke Shop","checkinsCount":487,"usersCount":223,"tipCount":5,"visitsCount":496,"url":"http://lecigardearborn.com","tier":"","message":"","currency":"","rating":7.5},{"name":"Tommy's Detroit Bar & Grill","phone":"3139652269","address":"624 3rd St","lat":42.32720121329311,"lng":-83.05376989148958,"neighborhood":"Downtown Detroit","city_fetched":"Detroit","state":"MI","country":"United States","canonicalUrl":"https://foursquare.com/v/tommys-detroit-bar--grill/4ddee2882271754e21edf126","category":"Bar","checkinsCount":1459,"usersCount":729,"tipCount":10,"visitsCount":1769,"url":"http://tommysdetroit.com","tier":1,"message":"Cheap","currency":"$","rating":7.5},{"name":"Friends Lounge","phone":"3135354664","address":"21633 W 8 Mile Rd","lat":42.443094086492074,"lng":-83.2570535121873,"neighborhood":"North West Detroit","city_fetched":"Detroit","state":"MI","country":"United States","canonicalUrl":"https://foursquare.com/v/friends-lounge/4cae98b3ef1b3704fd212c00","category":"Bar","checkinsCount":337,"usersCount":179,"tipCount":4,"visitsCount":406,"tier":2,"message":"Moderate","currency":"$","rating":7.5},{"name":"Downtown Louie's","phone":"3139611600","address":"30 Clifford St","lat":42.334473964329995,"lng":-83.05016254230964,"neighborhood":"Downtown Detroit","city_fetched":"Detroit","state":"MI","country":"United States","canonicalUrl":"https://foursquare.com/v/downtown-louies/53454c08498ea3a12847256f","category":"Lounge","checkinsCount":858,"usersCount":546,"tipCount":16,"visitsCount":990,"url":"http://downtownlouieslounge.com","tier":"","message":"","currency":"","rating":7.5},{"name":"WXYZ Bar @ Aloft Detroit","phone":"3133211700","twitter":"aloftdetroit","address":"1 Park Ave","lat":42.335711679115285,"lng":-83.05071833864994,"neighborhood":"Downtown Detroit","city_fetched":"Detroit","state":"MI","country":"United States","canonicalUrl":"https://foursquare.com/v/wxyz-bar--aloft-detroit/5493675c498e6cfc14f0fd3e","category":"Hotel Bar","checkinsCount":183,"usersCount":111,"tipCount":2,"visitsCount":186,"tier":"","message":"","currency":"","rating":7.4},{"name":"Irish Coffee Bar & Grill","phone":"3138815675","address":"18666 Mack Ave","lat":42.41322063135645,"lng":-82.91204908108814,"neighborhood":"Grosse Pointe","city_fetched":"Detroit","state":"MI","country":"United States","canonicalUrl":"https://foursquare.com/v/irish-coffee-bar--grill/41326e00f964a520e30e1fe3","category":"Pub","checkinsCount":1218,"usersCount":301,"tipCount":7,"visitsCount":1416,"tier":2,"message":"Moderate","currency":"$","rating":7.4},{"name":"The Beer Hall","phone":"3139624000","twitter":"tigers","address":"2100 Woodward Ave","lat":42.340068965515286,"lng":-83.04818630218506,"neighborhood":"Downtown Detroit","city_fetched":"Detroit","state":"MI","country":"United States","canonicalUrl":"https://foursquare.com/v/the-beer-hall/4c03f63a0d0e0f47e544039a","category":"Sports Bar","checkinsCount":1436,"usersCount":688,"tipCount":3,"visitsCount":1442,"url":"http://www.tigers.com","tier":2,"message":"Moderate","currency":"$","rating":7.4},{"name":"Casey's Pub","phone":"3139632440","address":"1830 Michigan Ave","lat":42.331437,"lng":-83.070994,"neighborhood":"Corktown","city_fetched":"Detroit","state":"MI","country":"United States","canonicalUrl":"https://foursquare.com/v/caseys-pub/41326e00f964a520c90d1fe3","category":"Pub","checkinsCount":625,"usersCount":402,"tipCount":5,"visitsCount":636,"tier":1,"message":"Cheap","currency":"$","rating":7.4},{"name":"Bogart'z Sports & Music Cafe","phone":"3138853995","address":"17441 Mack Ave","lat":42.398884892463684,"lng":-82.91946709156036,"neighborhood":"Far East Detroit","city_fetched":"Detroit","state":"MI","country":"United States","canonicalUrl":"https://foursquare.com/v/bogartz-sports--music-cafe/4bc0feeb4cdfc9b67bef9321","category":"Sports Bar","checkinsCount":1032,"usersCount":334,"tipCount":6,"visitsCount":1374,"tier":2,"message":"Moderate","currency":"$","rating":7.4},{"name":"Ghost Bar","phone":"3138325200","address":"4421 Woodward Ave","lat":42.352755316666666,"lng":-83.062075,"neighborhood":"Midtown","city_fetched":"Detroit","state":"MI","country":"United States","canonicalUrl":"https://foursquare.com/v/ghost-bar/4b7f4c4cf964a520d22530e3","category":"Bar","checkinsCount":198,"usersCount":161,"tipCount":1,"visitsCount":198,"tier":"","message":"","currency":"","rating":7.4},{"name":"Delux Lounge","phone":"3139624200","address":"350 Monroe St","lat":42.33432347469496,"lng":-83.04420054478824,"neighborhood":"Downtown Detroit","city_fetched":"Detroit","state":"MI","country":"United States","canonicalUrl":"https://foursquare.com/v/delux-lounge/4af0ae97f964a52039de21e3","category":"Lounge","checkinsCount":3247,"usersCount":1698,"tipCount":14,"visitsCount":3261,"url":"http://www.deluxlounge.com","tier":2,"message":"Moderate","currency":"$","rating":7.4},{"name":"Harbor House","phone":"3139679900","address":"440 Clinton St","lat":42.336168799999996,"lng":-83.04366646666666,"neighborhood":"Downtown Detroit","city_fetched":"Detroit","state":"MI","country":"United States","canonicalUrl":"https://foursquare.com/v/harbor-house/4b52a224f964a5207c8427e3","category":"Seafood Restaurant","checkinsCount":1512,"usersCount":1262,"tipCount":30,"visitsCount":1808,"url":"http://www.harborhousewcm.com","tier":3,"message":"Expensive","currency":"$","rating":7.3},{"name":"1701 Executive Cigar Bar","phone":"3132232626","address":"140 Cadillac Sq","lat":42.33158223124777,"lng":-83.04367091290794,"neighborhood":"Downtown Detroit","city_fetched":"Detroit","state":"MI","country":"United States","canonicalUrl":"https://foursquare.com/v/1701-executive-cigar-bar/4bd9e57e3904a5938f20449e","category":"Lounge","checkinsCount":1401,"usersCount":554,"tipCount":16,"visitsCount":1423,"url":"http://www.wix.com/tdan617/1701-cigar-bar","tier":"","message":"","currency":"","rating":7.3},{"name":"Level Two Bar & Rooftop","address":"535 Monroe St","lat":42.335310412822444,"lng":-83.04195613491521,"neighborhood":"Greektown","city_fetched":"Detroit","state":"MI","country":"United States","canonicalUrl":"https://foursquare.com/v/level-two-bar--rooftop/50e9e81ae4b09c384c3067b4","category":"Bar","checkinsCount":1457,"usersCount":970,"tipCount":14,"visitsCount":1475,"url":"http://leveltwodetroit.com","tier":2,"message":"Moderate","currency":"$","rating":7.3},{"name":"Ford Lanes","phone":"3132921700","address":"23100 Van Born Rd","lat":42.26977896981415,"lng":-83.25923826763497,"city_fetched":"Detroit","state":"MI","country":"United States","canonicalUrl":"https://foursquare.com/v/ford-lanes/4b116427f964a520857b23e3","category":"Bowling Alley","checkinsCount":1375,"usersCount":653,"tipCount":10,"visitsCount":1683,"url":"http://www.fordlanes.com","tier":"","message":"","currency":"","rating":7.3},{"name":"Majestic Cafe","phone":"3138339700","address":"4140 Woodward Ave","lat":42.35129326074884,"lng":-83.06039158873192,"neighborhood":"Midtown","city_fetched":"Detroit","state":"MI","country":"United States","canonicalUrl":"https://foursquare.com/v/majestic-cafe/4ae24227f964a520838c21e3","category":"Lounge","checkinsCount":3951,"usersCount":1790,"tipCount":33,"visitsCount":3996,"url":"http://ticketsus.at/yahooinc/65582.html","tier":2,"message":"Moderate","currency":"$","rating":7.3},{"name":"John Max Sports & Wings","address":"Dougall Ave, Windsor, ON","lat":42.2690018,"lng":-83.010119,"neighborhood":"South Windsor","city_fetched":"Detroit","state":"ON","country":"Canada","canonicalUrl":"https://foursquare.com/v/john-max-sports--wings/4eb5e46a4901cef9d8c1e997","category":"Sports Bar","checkinsCount":331,"usersCount":202,"tipCount":10,"visitsCount":383,"tier":"","message":"","currency":"","rating":7.3},{"name":"Union Street Saloon","phone":"3138313965","address":"4145 Woodward Ave","lat":42.35137099730173,"lng":-83.06063798898151,"neighborhood":"Midtown","city_fetched":"Detroit","state":"MI","country":"United States","canonicalUrl":"https://foursquare.com/v/union-street-saloon/456fe1fbf964a520453e1fe3","category":"American Restaurant","checkinsCount":5038,"usersCount":2830,"tipCount":70,"visitsCount":5128,"url":"http://unionstreetdetroit.com","tier":2,"message":"Moderate","currency":"$","rating":7.3},{"name":"New Dodge Lounge","phone":"3138745963","twitter":"newdodgelounge","address":"8850 Joseph Campau St","lat":42.390989224961224,"lng":-83.05377513458568,"city_fetched":"Detroit","state":"MI","country":"United States","canonicalUrl":"https://foursquare.com/v/new-dodge-lounge/41326e00f964a520a80f1fe3","category":"Bar","checkinsCount":1354,"usersCount":668,"tipCount":9,"visitsCount":1663,"tier":1,"message":"Cheap","currency":"$","rating":7.3},{"name":"The Henry - Club Lounge","phone":"3134412000","twitter":"henrydearborn","address":"300 Town Center Dr","lat":42.320453,"lng":-83.217413,"neighborhood":"Fairlane Town Center","city_fetched":"Detroit","state":"MI","country":"United States","canonicalUrl":"https://foursquare.com/v/the-henry--club-lounge/4dd54340fa7645a53cab968d","category":"Lounge","checkinsCount":324,"usersCount":161,"tipCount":2,"visitsCount":324,"tier":1,"message":"Cheap","currency":"$","rating":7.3},{"name":"Randy's Bar & Grill","phone":"3132783833","address":"25122 W Warren St","lat":42.34140136741888,"lng":-83.28471813966546,"city_fetched":"Detroit","state":"MI","country":"United States","canonicalUrl":"https://foursquare.com/v/randys-bar--grill/41326e00f964a52000101fe3","category":"Bar","checkinsCount":965,"usersCount":254,"tipCount":7,"visitsCount":1138,"tier":"","message":"","currency":"","rating":7.3},{"name":"Elwood Bar & Grill","phone":"3139622337","address":"300 E Adams Ave","lat":42.33872708319815,"lng":-83.04668084331783,"neighborhood":"Downtown Detroit","city_fetched":"Detroit","state":"MI","country":"United States","canonicalUrl":"https://foursquare.com/v/elwood-bar--grill/4aaffcd3f964a520736520e3","category":"Sports Bar","checkinsCount":3707,"usersCount":2605,"tipCount":16,"visitsCount":3859,"url":"http://www.elwoodgrill.com","tier":2,"message":"Moderate","currency":"$","rating":7.3},{"name":"Dearborn Brewing","twitter":"dearbornbrew","address":"21930 Michigan Ave","lat":42.306514725385874,"lng":-83.24355840682983,"city_fetched":"Detroit","state":"MI","country":"United States","canonicalUrl":"https://foursquare.com/v/dearborn-brewing/525c584711d2eb32c53874fc","category":"Brewery","checkinsCount":222,"usersCount":79,"tipCount":2,"visitsCount":234,"url":"http://dearbornbrewing.com","tier":"","message":"","currency":"","rating":7.3},{"name":"Signature Grille Bar","phone":"1313940667","twitter":"signaturegrill","address":"250 Riverfront Dr","lat":42.32396682124744,"lng":-83.05523794207325,"neighborhood":"Downtown Detroit","city_fetched":"Detroit","state":"MI","country":"United States","canonicalUrl":"https://foursquare.com/v/signature-grille-bar/4bb3e606643cd13aad25395c","category":"Bar","checkinsCount":634,"usersCount":339,"tipCount":8,"visitsCount":676,"url":"http://www.signaturedetroit.com","tier":"","message":"","currency":"","rating":7.3},{"name":"Andrews on the Corner","phone":"3132598325","address":"201 Joseph Campau St","lat":42.336491855649236,"lng":-83.01777143867159,"neighborhood":"Rivertown - Warehouse District","city_fetched":"Detroit","state":"MI","country":"United States","canonicalUrl":"https://foursquare.com/v/andrews-on-the-corner/4b59dd6ef964a520e29c28e3","category":"Bar","checkinsCount":1490,"usersCount":997,"tipCount":15,"visitsCount":1873,"url":"http://www.andrewsonthecorner.com","tier":1,"message":"Cheap","currency":"$","rating":7.3},{"name":"Adam's Apple","phone":"3132408482","address":"18931 W Warren Ave","lat":42.343054,"lng":-83.224961,"neighborhood":"Warrendale","city_fetched":"Detroit","state":"MI","country":"United States","canonicalUrl":"https://foursquare.com/v/adams-apple/427ab380f964a52093211fe3","category":"Gay Bar","checkinsCount":565,"usersCount":220,"tipCount":3,"visitsCount":667,"tier":"","message":"","currency":"","rating":7.3},{"name":"Drive Table Tennis Social Club","phone":"3139621830","twitter":"drivepingpong","address":"1441 Woodward Ave","lat":42.334523221724936,"lng":-83.04924494373732,"neighborhood":"Downtown Detroit","city_fetched":"Detroit","state":"MI","country":"United States","canonicalUrl":"https://foursquare.com/v/drive-table-tennis-social-club/50d2033fe4b0935b0bc10c9c","category":"Other Nightlife","checkinsCount":199,"usersCount":148,"tipCount":5,"visitsCount":199,"tier":"","message":"","currency":"","rating":7.2},{"name":"Motor City Sports Bar","phone":"3138754710","address":"9122 Joseph Campau St","lat":42.3927499535648,"lng":-83.05563640729135,"neighborhood":"Downtown Hamtramck","city_fetched":"Detroit","state":"MI","country":"United States","canonicalUrl":"https://foursquare.com/v/motor-city-sports-bar/4b77205bf964a520f57f2ee3","category":"Sports Bar","checkinsCount":434,"usersCount":235,"tipCount":11,"visitsCount":577,"tier":1,"message":"Cheap","currency":"$","rating":7.2},{"name":"Our/Detroit","twitter":"ourdetroit","address":"2545 Bagley St","lat":42.32549881281524,"lng":-83.07765309851588,"neighborhood":"Hubbard - Richard","city_fetched":"Detroit","state":"MI","country":"United States","canonicalUrl":"https://foursquare.com/v/ourdetroit/538f248b498e29915f9cd8ab","category":"Cocktail Bar","checkinsCount":178,"usersCount":130,"tipCount":3,"visitsCount":183,"tier":"","message":"","currency":"","rating":7.2},{"name":"Sky Lounge","phone":"3138465500","address":"13209 W Warren Ave","lat":42.343979,"lng":-83.17359091177826,"city_fetched":"Detroit","state":"MI","country":"United States","canonicalUrl":"https://foursquare.com/v/sky-lounge/4c3a004093db0f478f522492","category":"Bar","checkinsCount":1017,"usersCount":871,"tipCount":31,"visitsCount":1733,"url":"http://skyloungecafe.com","tier":"","message":"","currency":"","rating":7.2},{"name":"South Detroit","phone":"2269462192","twitter":"southdetroit255","address":"255 Ouellette Ave","lat":42.31758342727818,"lng":-83.0393025983726,"neighborhood":"City Centre","city_fetched":"Detroit","state":"ON","country":"Canada","canonicalUrl":"https://foursquare.com/v/south-detroit/5204479e498e37b800e41971","category":"Pub","checkinsCount":272,"usersCount":96,"tipCount":8,"visitsCount":290,"url":"http://www.255downtown.com","tier":"","message":"","currency":"","rating":7.2},{"name":"Chick's Bar","phone":"3134416055","address":"18550 W Warren Ave","lat":42.34340183,"lng":-83.22186062,"neighborhood":"Warrendale","city_fetched":"Detroit","state":"MI","country":"United States","canonicalUrl":"https://foursquare.com/v/chicks-bar/41326e00f964a520e00d1fe3","category":"Dive Bar","checkinsCount":900,"usersCount":118,"tipCount":6,"visitsCount":1144,"url":"http://www.chicksbar.net ","tier":1,"message":"Cheap","currency":"$","rating":7.2},{"name":"Toms Tavern","phone":"3138629768","address":"10193 W 7 Mile Rd.","lat":42.430995717868846,"lng":-83.16281318664551,"neighborhood":"Bagley","city_fetched":"Detroit","state":"MI","country":"United States","canonicalUrl":"https://foursquare.com/v/toms-tavern/4be606dc2457a5938865ac15","category":"Dive Bar","checkinsCount":210,"usersCount":258,"tipCount":4,"visitsCount":337,"tier":"","message":"","currency":"","rating":7.2},{"name":"The Locker Room Lounge","phone":"3138641220","address":"18290 Livernois Ave","lat":42.42567457243333,"lng":-83.14088898735221,"neighborhood":"University District","city_fetched":"Detroit","state":"MI","country":"United States","canonicalUrl":"https://foursquare.com/v/the-locker-room-lounge/4e1ba309e4cd1f7c5d7986d0","category":"Bar","checkinsCount":274,"usersCount":84,"tipCount":3,"visitsCount":290,"tier":"","message":"","currency":"","rating":7.2},{"name":"The Keep","address":"1407 Randolph St","lat":42.33146640211936,"lng":-83.04370762020541,"neighborhood":"Downtown Detroit","city_fetched":"Detroit","state":"MI","country":"United States","canonicalUrl":"https://foursquare.com/v/the-keep/54b9c761498ee959588fc2dc","category":"Speakeasy","checkinsCount":341,"usersCount":217,"tipCount":1,"visitsCount":387,"tier":"","message":"","currency":"","rating":7.2},{"name":"Chromatics","phone":"8667829622","twitter":"motorcitycasino","address":"MotorCity Casino","lat":42.33916733843626,"lng":-83.06733762468991,"city_fetched":"Detroit","state":"MI","country":"United States","canonicalUrl":"https://foursquare.com/v/chromatics/4b958bf6f964a520aca834e3","category":"Lounge","checkinsCount":503,"usersCount":185,"tipCount":9,"visitsCount":503,"url":"http://www.motorcitycasino.com","tier":"","message":"","currency":"","rating":7.2},{"name":"Pantheon Dearborn","phone":"3135849110","address":"12906 Michigan Ave","lat":42.32442639579335,"lng":-83.16895907774492,"city_fetched":"Detroit","state":"MI","country":"United States","canonicalUrl":"https://foursquare.com/v/pantheon-dearborn/4b967a4ef964a520b0ce34e3","category":"Strip Club","checkinsCount":652,"usersCount":272,"tipCount":7,"visitsCount":718,"tier":"","message":"","currency":"","rating":7.2},{"name":"The Beach Bar","lat":42.33139240991084,"lng":-83.04658645734678,"neighborhood":"Downtown Detroit","city_fetched":"Detroit","state":"MI","country":"United States","canonicalUrl":"https://foursquare.com/v/the-beach-bar/51c4eccd498e13f891d3f39b","category":"Beer Garden","checkinsCount":264,"usersCount":172,"tipCount":2,"visitsCount":267,"tier":"","message":"","currency":"","rating":7.2},{"name":"Thomas Magee's Sporting House","phone":"3132634342","address":"1408 E Fisher Fwy","lat":42.344913331156576,"lng":-83.03919771330844,"neighborhood":"Lafayette Park","city_fetched":"Detroit","state":"MI","country":"United States","canonicalUrl":"https://foursquare.com/v/thomas-magees-sporting-house/528e911811d274b8b970d0bb","category":"Whisky Bar","checkinsCount":763,"usersCount":449,"tipCount":5,"visitsCount":1002,"tier":2,"message":"Moderate","currency":"$","rating":7.2},{"name":"Rack And Roll","lat":42.305859,"lng":-82.914565,"city_fetched":"Detroit","state":"ON","country":"Canada","canonicalUrl":"https://foursquare.com/v/rack-and-roll/4be44de32468c928de92fe42","category":"Bar","checkinsCount":390,"usersCount":128,"tipCount":13,"visitsCount":394,"tier":"","message":"","currency":"","rating":7.2},{"name":"City Club","phone":"3139622300","address":"400 Bagley St","lat":42.33365018710026,"lng":-83.05480801636695,"neighborhood":"Downtown Detroit","city_fetched":"Detroit","state":"MI","country":"United States","canonicalUrl":"https://foursquare.com/v/city-club/456fde5bf964a520423e1fe3","category":"Nightclub","checkinsCount":3215,"usersCount":1060,"tipCount":23,"visitsCount":3351,"url":"http://www.lelandcityclub.net","tier":"","message":"","currency":"","rating":7.2},{"name":"Scoreboard Lounge","phone":"3135638349","address":"18713 Van Born Rd","lat":42.269763350486755,"lng":-83.22744905948639,"city_fetched":"Detroit","state":"MI","country":"United States","canonicalUrl":"https://foursquare.com/v/scoreboard-lounge/41326e00f964a52042101fe3","category":"Bar","checkinsCount":1009,"usersCount":349,"tipCount":11,"visitsCount":1233,"tier":"","message":"","currency":"","rating":7.1},{"name":"Brew Detroit","phone":"3139747366","twitter":"brewdetroit","address":"1400 Abbott","lat":42.32772558885759,"lng":-83.0612828193057,"neighborhood":"Downtown Detroit","city_fetched":"Detroit","state":"MI","country":"United States","canonicalUrl":"https://foursquare.com/v/brew-detroit/5209293211d272bd674ccb71","category":"Brewery","checkinsCount":351,"usersCount":265,"tipCount":5,"visitsCount":400,"url":"http://www.brewdetroit.com","tier":"","message":"","currency":"","rating":7.1},{"name":"Jumbo's Bar","phone":"3138318949","address":"3736 3rd St","lat":42.346151666666664,"lng":-83.06600216,"neighborhood":"Midtown","city_fetched":"Detroit","state":"MI","country":"United States","canonicalUrl":"https://foursquare.com/v/jumbos-bar/41326e00f964a520190f1fe3","category":"Dive Bar","checkinsCount":1678,"usersCount":531,"tipCount":10,"visitsCount":1840,"tier":1,"message":"Cheap","currency":"$","rating":7.1},{"name":"Moose's Martini Pub","phone":"3137301630","address":"22217 Michigan Ave","lat":42.30510500019462,"lng":-83.24872149447205,"city_fetched":"Detroit","state":"MI","country":"United States","canonicalUrl":"https://foursquare.com/v/mooses-martini-pub/4c412d61af052d7f47157d79","category":"Cocktail Bar","checkinsCount":1661,"usersCount":722,"tipCount":19,"visitsCount":1695,"url":"http://www.moosesmartinipub.com","tier":2,"message":"Moderate","currency":"$","rating":7.1},{"name":"B.Boomers Sports Bar & Grille","phone":"3137696997","address":"16006 Southfield Rd","lat":42.26076609626716,"lng":-83.21048710012816,"city_fetched":"Detroit","state":"MI","country":"United States","canonicalUrl":"https://foursquare.com/v/bboomers-sports-bar--grille/4b299c78f964a520b0a124e3","category":"Bar","checkinsCount":664,"usersCount":359,"tipCount":13,"visitsCount":746,"tier":"","message":"","currency":"","rating":7.1},{"name":"2 Way Inn","phone":"3138914925","address":"17897 Mount Elliott St","lat":42.42627662,"lng":-83.03902924060822,"city_fetched":"Detroit","state":"MI","country":"United States","canonicalUrl":"https://foursquare.com/v/2-way-inn/4b91c877f964a52010d733e3","category":"Dive Bar","checkinsCount":1020,"usersCount":310,"tipCount":10,"visitsCount":1125,"url":"http://www.2wayinn.com","tier":"","message":"","currency":"","rating":7.1},{"name":"Firewater Bar & Grill Inc.","phone":"3138720812","address":"6521 John R St.","lat":42.370142340660095,"lng":-83.07064729,"neighborhood":"Central","city_fetched":"Detroit","state":"MI","country":"United States","canonicalUrl":"https://foursquare.com/v/firewater-bar--grill-inc/4b775629f964a52021932ee3","category":"Bar","checkinsCount":227,"usersCount":154,"tipCount":4,"visitsCount":229,"tier":"","message":"","currency":"","rating":7.1},{"name":"Kelly's Irish Pub","address":"3701 S Telegraph Rd","lat":42.283417342958856,"lng":-83.27049015629925,"city_fetched":"Detroit","state":"MI","country":"United States","canonicalUrl":"https://foursquare.com/v/kellys-irish-pub/41326e00f964a520230f1fe3","category":"Pub","checkinsCount":1161,"usersCount":401,"tipCount":5,"visitsCount":1314,"tier":"","message":"","currency":"","rating":7.1},{"name":"Atheneum Suite Hotel","phone":"3139622323","address":"1000 Brush St","lat":42.33401708080596,"lng":-83.04294725057866,"neighborhood":"Greektown","city_fetched":"Detroit","state":"MI","country":"United States","canonicalUrl":"https://foursquare.com/v/atheneum-suite-hotel/4c003de6360a9c74b0efd8a0","category":"Hotel","checkinsCount":3596,"usersCount":2165,"tipCount":24,"visitsCount":3772,"tier":"","message":"","currency":"","rating":7.1},{"name":"Dominion House","phone":"5199717400","address":"3140 Sandwich St.","lat":42.303456,"lng":-83.075028,"neighborhood":"Sandwich","city_fetched":"Detroit","state":"ON","country":"Canada","canonicalUrl":"https://foursquare.com/v/dominion-house/4b685097f964a5203b712be3","category":"Bar","checkinsCount":788,"usersCount":238,"tipCount":2,"visitsCount":854,"url":"http://www.thedominionhouse.ca","tier":"","message":"","currency":"","rating":7.1},{"name":"Olympia Club","address":"600 Civic Center Dr","lat":42.32538821283585,"lng":-83.0522096157074,"neighborhood":"Downtown Detroit","city_fetched":"Detroit","state":"MI","country":"United States","canonicalUrl":"https://foursquare.com/v/olympia-club/4b772d1af964a520ff842ee3","category":"Lounge","checkinsCount":997,"usersCount":663,"tipCount":2,"visitsCount":1013,"tier":"","message":"","currency":"","rating":7.1},{"name":"Loco's Bar & Grill","phone":"3139653737","address":"454 E Lafayette Blvd","lat":42.33390936187725,"lng":-83.04204528349563,"neighborhood":"Bricktown","city_fetched":"Detroit","state":"MI","country":"United States","canonicalUrl":"https://foursquare.com/v/locos-bar--grill/4ade5a79f964a520457521e3","category":"Mexican Restaurant","checkinsCount":3822,"usersCount":2178,"tipCount":40,"visitsCount":4002,"url":"http://www.locobarandgrill.net","tier":2,"message":"Moderate","currency":"$","rating":7.1},{"name":"Bagley Bar Food & Spirits","phone":"3139647135","address":"210 Bagley St","lat":42.33465823813574,"lng":-83.05272650704693,"neighborhood":"Downtown Detroit","city_fetched":"Detroit","state":"MI","country":"United States","canonicalUrl":"https://foursquare.com/v/bagley-bar-food--spirits/4ba3a82af964a520d85038e3","category":"Pub","checkinsCount":216,"usersCount":126,"tipCount":4,"visitsCount":217,"tier":"","message":"","currency":"","rating":7.1},{"name":"Hop's And Barley","phone":"3135863125","address":"18561 Allen Rd","lat":42.28054281398469,"lng":-83.18903836573995,"city_fetched":"Detroit","state":"MI","country":"United States","canonicalUrl":"https://foursquare.com/v/hops-and-barley/4ba14e97f964a5200aab37e3","category":"Bar","checkinsCount":813,"usersCount":474,"tipCount":12,"visitsCount":1214,"tier":"","message":"","currency":"","rating":7.1},{"name":"Vertical Detroit","lat":42.33632462576732,"lng":-83.0472786179909,"neighborhood":"Downtown Detroit","city_fetched":"Detroit","state":"MI","country":"United States","canonicalUrl":"https://foursquare.com/v/vertical-detroit/562582a4498e0de436631ad6","category":"Winery","checkinsCount":162,"usersCount":212,"tipCount":3,"visitsCount":248,"tier":"","message":"","currency":"","rating":7.1},{"name":"Tiger Den","phone":"3139624000","twitter":"tigers","address":"2100 Woodward Ave","lat":42.34024343251506,"lng":-83.04842233657837,"neighborhood":"Downtown Detroit","city_fetched":"Detroit","state":"MI","country":"United States","canonicalUrl":"https://foursquare.com/v/tiger-den/4be8b4e8c5220f474320aaca","category":"Lounge","checkinsCount":1107,"usersCount":751,"tipCount":2,"visitsCount":1115,"url":"http://www.tigers.com","tier":"","message":"","currency":"","rating":7.1},{"name":"The Kilt and Fiddle","phone":"5192523111","address":"28 Chatham St E","lat":42.31846863482703,"lng":-83.03895647702687,"neighborhood":"City Centre","city_fetched":"Detroit","state":"ON","country":"Canada","canonicalUrl":"https://foursquare.com/v/the-kilt-and-fiddle/5106c8b9e4b022bf0dbc0de8","category":"Pub","checkinsCount":488,"usersCount":128,"tipCount":3,"visitsCount":495,"url":"http://www.kiltandfiddle.com","tier":"","message":"","currency":"","rating":7.1},{"name":"Krakus Restaurant","phone":"3133684848","address":"12900 Joseph Campau St","lat":42.40983822409132,"lng":-83.0663416344392,"neighborhood":"State Fair-Nolan","city_fetched":"Detroit","state":"MI","country":"United States","canonicalUrl":"https://foursquare.com/v/krakus-restaurant/4cdedfc9ffcf3704c6b01582","category":"Eastern European Restaurant","checkinsCount":185,"usersCount":122,"tipCount":6,"visitsCount":272,"tier":1,"message":"Cheap","currency":"$","rating":7},{"name":"Buffalo Wild Wings","address":"3100 Howard","lat":42.27505788505772,"lng":-83.0040360798696,"city_fetched":"Detroit","state":"ON","country":"Canada","canonicalUrl":"https://foursquare.com/v/buffalo-wild-wings/514d9e1be4b06ae7544e19d1","category":"Wings Joint","checkinsCount":578,"usersCount":303,"tipCount":3,"visitsCount":659,"url":"http://www.buffalowildwings.com","tier":2,"message":"Moderate","currency":"$","rating":7},{"name":"M!X Bricktown","phone":"3139629548","address":"641 Beaubien St","lat":42.333003032777,"lng":-83.04146843760348,"neighborhood":"Bricktown","city_fetched":"Detroit","state":"MI","country":"United States","canonicalUrl":"https://foursquare.com/v/mx-bricktown/4daf3c857abaaae42102a33e","category":"Lounge","checkinsCount":2318,"usersCount":677,"tipCount":23,"visitsCount":2387,"url":"http://www.mixbricktown.com","tier":"","message":"","currency":"","rating":7},{"name":"Detroit Pub Greektown","phone":"3139633500","twitter":"detpubgreektown","address":"1326 Brush St","lat":42.33562503795564,"lng":-83.0447301724071,"neighborhood":"Downtown Detroit","city_fetched":"Detroit","state":"MI","country":"United States","canonicalUrl":"https://foursquare.com/v/detroit-pub-greektown/4b11f37af964a520688723e3","category":"Bar","checkinsCount":2594,"usersCount":1750,"tipCount":14,"visitsCount":2646,"url":"http://www.detroitpubgreektown.com","tier":2,"message":"Moderate","currency":"$","rating":7},{"name":"Club Gold Coast","phone":"3133666135","address":"2971 E 7 Mile Rd","lat":42.43317265878576,"lng":-83.07264232886746,"city_fetched":"Detroit","state":"MI","country":"United States","canonicalUrl":"https://foursquare.com/v/club-gold-coast/41326e00f964a520fd0d1fe3","category":"Gay Bar","checkinsCount":2574,"usersCount":643,"tipCount":6,"visitsCount":3111,"tier":"","message":"","currency":"","rating":7},{"name":"White Rhino Sports Bar & Grill","phone":"3133833751","twitter":"whiterhinobar","address":"4328 Oakwood Blvd","lat":42.28310540720815,"lng":-83.19127142429352,"city_fetched":"Detroit","state":"MI","country":"United States","canonicalUrl":"https://foursquare.com/v/white-rhino-sports-bar--grill/4b57dbb1f964a520144428e3","category":"Sports Bar","checkinsCount":816,"usersCount":351,"tipCount":16,"visitsCount":885,"url":"http://whiterhinosportsbar-hub.com","tier":"","message":"","currency":"","rating":7},{"name":"Pappy's Bar & Grill","phone":"3139834000","address":"517 Monroe St","lat":42.33512817634233,"lng":-83.04224789142609,"neighborhood":"Greektown","city_fetched":"Detroit","state":"MI","country":"United States","canonicalUrl":"https://foursquare.com/v/pappys-bar--grill/4b64b749f964a520a1ca2ae3","category":"Sports Bar","checkinsCount":2772,"usersCount":1415,"tipCount":15,"visitsCount":2803,"url":"http://www.pappysdetroit.com","tier":2,"message":"Moderate","currency":"$","rating":7},{"name":"Populux","lat":42.35116262019999,"lng":-83.05997742452932,"neighborhood":"Midtown","city_fetched":"Detroit","state":"MI","country":"United States","canonicalUrl":"https://foursquare.com/v/populux/55333dfb498ebecc196328fc","category":"Nightclub","checkinsCount":234,"usersCount":156,"tipCount":0,"visitsCount":241,"tier":"","message":"","currency":"","rating":6.9}]