[{"name":"The Rock","phone":"7014837623","address":"47 1st Ave W","lat":46.87984653403085,"lng":-102.78755478282353,"city_fetched":"Dickinson,US","state":"ND","country":"United States","canonicalUrl":"https://foursquare.com/v/the-rock/4dbcd24f43a1d8504b977903","categoryId":"4bf58dd8d48988d116941735","category":"Bar","checkinsCount":2251,"usersCount":112,"tipCount":7,"visitsCount":2264,"tier":"","message":"","currency":"","rating":8},{"name":"Liquid Assets","phone":"7014835477","address":"745 State Ave","lat":46.886624,"lng":-102.812262,"city_fetched":"Dickinson,US","state":"ND","country":"United States","canonicalUrl":"https://foursquare.com/v/liquid-assets/4bc69018f360ef3bf3ffdb2d","categoryId":"4bf58dd8d48988d116941735","category":"Bar","checkinsCount":1058,"usersCount":165,"tipCount":6,"visitsCount":1098,"tier":"","message":"","currency":"","rating":7.3},{"name":"Players Sports Bar and Grill","phone":"7014831733","address":"2050 1st Ave E","lat":46.90406718936696,"lng":-102.7823673935968,"city_fetched":"Dickinson,US","state":"ND","country":"United States","canonicalUrl":"https://foursquare.com/v/players-sports-bar-and-grill/5104878de4b0cc5c79cb18fd","categoryId":"4bf58dd8d48988d11d941735","category":"Sports Bar","checkinsCount":435,"usersCount":241,"tipCount":7,"visitsCount":669,"url":"http://playersbar-grill.com","tier":2,"message":"Moderate","currency":"$","rating":7.3},{"name":"Bernie's Esquire Club","phone":"7014834495","address":"43 Sims St","lat":46.879692,"lng":-102.785632,"city_fetched":"Dickinson,US","state":"ND","country":"United States","canonicalUrl":"https://foursquare.com/v/bernies-esquire-club/4ccb8a6d54f0b1f7725c10ca","categoryId":"4bf58dd8d48988d118941735","category":"Dive Bar","checkinsCount":726,"usersCount":138,"tipCount":6,"visitsCount":753,"tier":"","message":"","currency":"","rating":6.4},{"name":"Maverick's Saloon and Casino","address":"196 W Museum Dr","lat":46.89500228333333,"lng":-102.78726316666666,"city_fetched":"Dickinson,US","state":"ND","country":"United States","canonicalUrl":"https://foursquare.com/v/mavericks-saloon-and-casino/4df69c7ec65b87473b04d9e9","categoryId":"4bf58dd8d48988d116941735","category":"Bar","checkinsCount":3066,"usersCount":134,"tipCount":10,"visitsCount":3069,"tier":"","message":"","currency":"","rating":6}]