[{"name":"Ruhstaller Farm & Yard","phone":"9164471881","address":"8949 Olmo Ln","lat":38.50560270475837,"lng":-121.78896745534288,"city_fetched":"Dixon,US","state":"CA","country":"United States","canonicalUrl":"https://foursquare.com/v/ruhstaller-farm--yard/51b15389498e14fdbea3b1ed","categoryId":"50327c8591d4c4b30a586d5d","category":"Brewery","checkinsCount":108,"usersCount":162,"tipCount":1,"visitsCount":195,"url":"http://ruhstallerbeer.com/farm-yard/","tier":"","message":"","currency":"","rating":7.6},{"name":"The Brass Tap","phone":"7077240634","twitter":"brasstap","address":"783 Orange Dr","lat":38.38565547494045,"lng":-121.93563112357376,"city_fetched":"Dixon,US","state":"CA","country":"United States","canonicalUrl":"https://foursquare.com/v/the-brass-tap/56303ce0498e6cb3be5d2cc2","categoryId":"4bf58dd8d48988d11b941735","category":"Pub","checkinsCount":132,"usersCount":207,"tipCount":5,"visitsCount":352,"tier":"","message":"","currency":"","rating":7.6},{"name":"Bud's","phone":"7076784745","address":"100 S 1st St","lat":38.44547782656641,"lng":-121.82270136771825,"city_fetched":"Dixon,US","state":"CA","country":"United States","canonicalUrl":"https://foursquare.com/v/buds/4b6cfb83f964a52079612ce3","categoryId":"4bf58dd8d48988d116941735","category":"Bar","checkinsCount":666,"usersCount":323,"tipCount":8,"visitsCount":782,"url":"http://www.budspubgrilleandcatering.com","tier":"","message":"","currency":"","rating":7.4},{"name":"Hide-A-Way","phone":"7074481900","address":"1080 Orange Dr","lat":38.386987473495715,"lng":-121.9329810964477,"city_fetched":"Dixon,US","state":"CA","country":"United States","canonicalUrl":"https://foursquare.com/v/hideaway/4bf8cf875ec320a10d6f89d3","categoryId":"4bf58dd8d48988d116941735","category":"Bar","checkinsCount":412,"usersCount":259,"tipCount":6,"visitsCount":518,"url":"http://www.hideawaylounge-grill.com","tier":"","message":"","currency":"","rating":6.5}]