[{"name":"Folklore Brewing & Meadery","phone":"3347022337","address":"153 Mary Lou Ln","lat":31.149869337786562,"lng":-85.39547285105787,"city_fetched":"Dothan,US","state":"AL","country":"United States","canonicalUrl":"https://foursquare.com/v/folklore-brewing--meadery/529903d811d27c1924de0ac8","categoryId":"50327c8591d4c4b30a586d5d","category":"Brewery","checkinsCount":98,"usersCount":94,"tipCount":7,"visitsCount":232,"url":"http://www.folklorebrewingandmeadery.com","tier":"","message":"","currency":"","rating":8.7},{"name":"Oak & Olive","phone":"3346996548","twitter":"oakandolive","address":"2620 Montgomery Hwy Ste 1","lat":31.24495830766634,"lng":-85.41975047736949,"city_fetched":"Dothan,US","state":"AL","country":"United States","canonicalUrl":"https://foursquare.com/v/oak--olive/4e6be182814dbfe20e574b53","categoryId":"4bf58dd8d48988d121941735","category":"Lounge","checkinsCount":283,"usersCount":170,"tipCount":2,"visitsCount":373,"url":"http://oakandolivelounge.com","tier":"","message":"","currency":"","rating":8.6},{"name":"McLeod's Publick House","phone":"3346481912","address":"5540 W Main St","lat":31.240603825705374,"lng":-85.47901533913404,"city_fetched":"Dothan,US","state":"AL","country":"United States","canonicalUrl":"https://foursquare.com/v/mcleods-publick-house/50d5377be4b0f4383a465cf6","categoryId":"4bf58dd8d48988d116941735","category":"Bar","checkinsCount":75,"usersCount":46,"tipCount":2,"visitsCount":85,"url":"http://mcleodspublickhouse.com","tier":"","message":"","currency":"","rating":7.9},{"name":"Houligan's","phone":"3346718822","address":"3611 Montgomery Hwy Ste 1","lat":31.25707237320083,"lng":-85.43401361626836,"city_fetched":"Dothan,US","state":"AL","country":"United States","canonicalUrl":"https://foursquare.com/v/houligans/4ba46adbf964a520159c38e3","categoryId":"4bf58dd8d48988d116941735","category":"Bar","checkinsCount":367,"usersCount":126,"tipCount":8,"visitsCount":413,"tier":"","message":"","currency":"","rating":7.7},{"name":"Bullets","address":"176 S Foster St","lat":31.222352,"lng":-85.392144,"city_fetched":"Dothan,US","state":"AL","country":"United States","canonicalUrl":"https://foursquare.com/v/bullets/4b5bbb0af964a520d41229e3","categoryId":"4bf58dd8d48988d116941735","category":"Bar","checkinsCount":399,"usersCount":84,"tipCount":3,"visitsCount":401,"tier":"","message":"","currency":"","rating":7.3},{"name":"Mother Rucker's","phone":"3345030396","address":"Bldg. 319, Ruf Avenue","lat":31.325432471399782,"lng":-85.72059420938471,"city_fetched":"Dothan,US","state":"AL","country":"United States","canonicalUrl":"https://foursquare.com/v/mother-ruckers/4e88af84f5b9f03ee87de06f","categoryId":"4bf58dd8d48988d116941735","category":"Bar","checkinsCount":393,"usersCount":155,"tipCount":2,"visitsCount":496,"url":"http://rucker.armymwr.com/us/rucker/programs/mother-ruckers-sports-bar","tier":1,"message":"Cheap","currency":"$","rating":7.3},{"name":"Slick Willies","address":"164 S Foster St","lat":31.222549932630425,"lng":-85.39228173082718,"city_fetched":"Dothan,US","state":"AL","country":"United States","canonicalUrl":"https://foursquare.com/v/slick-willies/4eec40db61af1accad53c169","categoryId":"4bf58dd8d48988d116941735","category":"Bar","checkinsCount":380,"usersCount":116,"tipCount":2,"visitsCount":385,"tier":"","message":"","currency":"","rating":7.1},{"name":"Alabama Slammer Sports Bar","phone":"3346992494","address":"3011 Ross Clark Circle","lat":31.22414,"lng":-85.43319641666666,"city_fetched":"Dothan,US","state":"AL","country":"United States","canonicalUrl":"https://foursquare.com/v/alabama-slammer-sports-bar/4c86ed80e602b1f7a32dc47a","categoryId":"4bf58dd8d48988d11d941735","category":"Sports Bar","checkinsCount":156,"usersCount":93,"tipCount":6,"visitsCount":156,"tier":"","message":"","currency":"","rating":7},{"name":"KT's Tavern","address":"162 S Foster St","lat":31.22244111,"lng":-85.39213741666667,"city_fetched":"Dothan,US","state":"AL","country":"United States","canonicalUrl":"https://foursquare.com/v/kts-tavern/4e0554e718a8382643a68017","categoryId":"4bf58dd8d48988d11b941735","category":"Pub","checkinsCount":368,"usersCount":99,"tipCount":6,"visitsCount":390,"tier":"","message":"","currency":"","rating":6.8},{"name":"The Landing Zone","phone":"3345988025","address":"Building 113 on Novosel Street","lat":31.33109540888037,"lng":-85.71550369262695,"city_fetched":"Dothan,US","state":"AL","country":"United States","canonicalUrl":"https://foursquare.com/v/the-landing-zone/4b97e27ff964a5209f1c35e3","categoryId":"4bf58dd8d48988d116941735","category":"Bar","checkinsCount":944,"usersCount":320,"tipCount":17,"visitsCount":1240,"url":"http://rucker.armymwr.com/us/rucker/programs/landing-zone","tier":"","message":"","currency":"","rating":6.7},{"name":"District Ultra Lounge","phone":"3346732623","address":"158 N Foster St","lat":31.224574633333333,"lng":-85.39200313333333,"city_fetched":"Dothan,US","state":"AL","country":"United States","canonicalUrl":"https://foursquare.com/v/district-ultra-lounge/4b5bdf8df964a520f31a29e3","categoryId":"4bf58dd8d48988d11f941735","category":"Nightclub","checkinsCount":310,"usersCount":152,"tipCount":7,"visitsCount":332,"tier":"","message":"","currency":"","rating":6.5}]