[{"name":"Irish Bred Pub","phone":"6783241649","twitter":"irishbred","address":"6682 Broad St","lat":33.75105617832127,"lng":-84.74863606770599,"neighborhood":"Downtown Douglasville","city_fetched":"Douglas","state":"GA","country":"United States","canonicalUrl":"https://foursquare.com/v/irish-bred-pub/4b64f5c5f964a5206bdc2ae3","category":"Pub","checkinsCount":2274,"usersCount":903,"tipCount":30,"visitsCount":2372,"url":"http://theirishbredpub.com","tier":2,"message":"Moderate","currency":"$","rating":8.1},{"name":"Taco Mac","phone":"7709420499","twitter":"tmacrestaurants","address":"7397 Douglas Blvd","lat":33.7244062,"lng":-84.7653334,"city_fetched":"Douglas","state":"GA","country":"United States","canonicalUrl":"https://foursquare.com/v/taco-mac/4ad10768f964a52013dc20e3","category":"Sports Bar","checkinsCount":6100,"usersCount":2339,"tipCount":34,"visitsCount":7246,"url":"http://www.tacomac.com","tier":2,"message":"Moderate","currency":"$","rating":7.4},{"name":"Topps Bar & Grill","phone":"7704891927","address":"7214 Douglas Blvd #J","lat":33.72498482473277,"lng":-84.76460695856395,"city_fetched":"Douglas","state":"GA","country":"United States","canonicalUrl":"https://foursquare.com/v/topps-bar--grill/4bdf9bad921d95210e226932","category":"Dive Bar","checkinsCount":708,"usersCount":213,"tipCount":7,"visitsCount":717,"url":"http://douglasvillega.areaguides.net/ypcyellowdetail/topps_bar_grill_6191317.html?what=bar+and+grill","tier":"","message":"","currency":"","rating":7.1},{"name":"Highlanders: Tavern and Grill","phone":"7709496900","address":"Douglas Boulevard","lat":33.72502454876891,"lng":-84.76802288498976,"city_fetched":"Douglas","state":"GA","country":"United States","canonicalUrl":"https://foursquare.com/v/highlanders-tavern-and-grill/4dff6691d164f31b7bd114d3","category":"Bar","checkinsCount":411,"usersCount":183,"tipCount":3,"visitsCount":456,"url":"http://highlanderstavern.com","tier":"","message":"","currency":"","rating":6.8},{"name":"Bonz Sports Grill","phone":"7705576991","address":"2123 Fairburn Rd","lat":33.74727872488878,"lng":-84.70042100907804,"city_fetched":"Douglas","state":"GA","country":"United States","canonicalUrl":"https://foursquare.com/v/bonz-sports-grill/4a6c97baf964a520f2d01fe3","category":"Bar","checkinsCount":568,"usersCount":146,"tipCount":5,"visitsCount":577,"tier":"","message":"","currency":"","rating":6.4},{"name":"Joe's Crab Shack","phone":"7709475990","address":"2868 Chapel Hill Rd","lat":33.727189364381196,"lng":-84.73609895509684,"city_fetched":"Douglas","state":"GA","country":"United States","canonicalUrl":"https://foursquare.com/v/joes-crab-shack/4b620876f964a52097312ae3","category":"Seafood Restaurant","checkinsCount":1078,"usersCount":853,"tipCount":24,"visitsCount":1232,"url":"http://www.joes.net","tier":2,"message":"Moderate","currency":"$","rating":6.3}]