[{"name":"Fordham Brewing Company","phone":"3026784810","twitter":"fordhambrewing","address":"1284 McD Dr","lat":39.15384203962452,"lng":-75.48832248355463,"city_fetched":"Dover","state":"DE","country":"United States","canonicalUrl":"https://foursquare.com/v/fordham-brewing-company/4bb4f5cbeb6dd13ad19296e4","category":"Brewery","checkinsCount":821,"usersCount":538,"tipCount":17,"visitsCount":946,"url":"http://fordhambrewing.com","tier":"","message":"","currency":"","rating":8.7},{"name":"Touchdown Bar & Grill","phone":"3026740975","address":"1666 S DuPont Hwy","lat":39.13023922390264,"lng":-75.53017484514342,"city_fetched":"Dover","state":"DE","country":"United States","canonicalUrl":"https://foursquare.com/v/touchdown-bar--grill/4b9316aaf964a520313434e3","category":"Sports Bar","checkinsCount":429,"usersCount":226,"tipCount":3,"visitsCount":605,"tier":"","message":"","currency":"","rating":7.7},{"name":"The Greene Turtle","phone":"3022649612","address":"391 N DuPont Hwy","lat":39.172916,"lng":-75.520204,"city_fetched":"Dover","state":"DE","country":"United States","canonicalUrl":"https://foursquare.com/v/the-greene-turtle/52af471f11d227ba5b4c196f","category":"Sports Bar","checkinsCount":775,"usersCount":684,"tipCount":12,"visitsCount":1456,"url":"http://thegreeneturtle.com","tier":2,"message":"Moderate","currency":"$","rating":7.4},{"name":"Cowboy Up","phone":"3022649322","address":"1036 Lafferty Ln","lat":39.141286323763744,"lng":-75.49664384371509,"city_fetched":"Dover","state":"DE","country":"United States","canonicalUrl":"https://foursquare.com/v/cowboy-up/505e6c9ae4b023b9a01b0bde","category":"Bar","checkinsCount":358,"usersCount":286,"tipCount":7,"visitsCount":555,"url":"http://cowboyupde.com","tier":"","message":"","currency":"","rating":7.3},{"name":"TGI Fridays","phone":"3027353500","twitter":"tgifridays","address":"222 S DuPont Hwy","lat":39.16095083,"lng":-75.51380754,"city_fetched":"Dover","state":"DE","country":"United States","canonicalUrl":"https://foursquare.com/v/tgi-fridays/4b490b1ef964a520626326e3","category":"American Restaurant","checkinsCount":2305,"usersCount":1281,"tipCount":17,"visitsCount":2766,"url":"http://tgifridays.com","tier":2,"message":"Moderate","currency":"$","rating":7.3},{"name":"McGlynn's Pub","phone":"3026740144","address":"800 N State St","lat":39.175422036841596,"lng":-75.53057289509974,"city_fetched":"Dover","state":"DE","country":"United States","canonicalUrl":"https://foursquare.com/v/mcglynns-pub/4b2a9fe1f964a5208aac24e3","category":"Pub","checkinsCount":2661,"usersCount":1453,"tipCount":37,"visitsCount":3306,"url":"http://www.mcglynnspub.com","tier":2,"message":"Moderate","currency":"$","rating":7.2},{"name":"The Golden Fleece Tavern","phone":"3026741776","twitter":"goldenfleecepub","address":"132 W Loockerman St","lat":39.157619,"lng":-75.526307,"neighborhood":"Downtown Dover","city_fetched":"Dover","state":"DE","country":"United States","canonicalUrl":"https://foursquare.com/v/the-golden-fleece-tavern/4b48c78ef964a520a15626e3","category":"Bar","checkinsCount":900,"usersCount":280,"tipCount":10,"visitsCount":926,"url":"http://www.thegoldenfleecetavern.com","tier":"","message":"","currency":"","rating":7.1},{"name":"Mr. B's Liquor Store","phone":"3026748247","address":"321 Independence Blvd Ste H","lat":39.15930337294899,"lng":-75.55132119241587,"city_fetched":"Dover","state":"DE","country":"United States","canonicalUrl":"https://foursquare.com/v/mr-bs-liquor-store/4c425f3bce54e21e89a40c1a","category":"Liquor Store","checkinsCount":238,"usersCount":113,"tipCount":3,"visitsCount":249,"tier":"","message":"","currency":"","rating":6.8},{"name":"Irish Mike's Old Towne Pub","phone":"3027344578","address":"107 W Loockerman St","lat":39.15788110194988,"lng":-75.52610546350479,"neighborhood":"Downtown Dover","city_fetched":"Dover","state":"DE","country":"United States","canonicalUrl":"https://foursquare.com/v/irish-mikes-old-towne-pub/4b57d97ff964a520c54328e3","category":"Bar","checkinsCount":612,"usersCount":208,"tipCount":3,"visitsCount":616,"tier":"","message":"","currency":"","rating":6.7},{"name":"Bubba's Rock Shack!","phone":"3027308445","twitter":"bubbasrockshack","address":"865 N DuPont Hwy","lat":39.18293088700293,"lng":-75.53029426024231,"city_fetched":"Dover","state":"DE","country":"United States","canonicalUrl":"https://foursquare.com/v/bubbas-rock-shack/4b52634ef964a520d97a27e3","category":"Nightclub","checkinsCount":613,"usersCount":325,"tipCount":5,"visitsCount":615,"url":"http://bubbasrockshack.com","tier":"","message":"","currency":"","rating":6},{"name":"Fire & Ice at Dover Downs Hotel & Casino","phone":"8007115882","twitter":"doverdowns","address":"1131 N DuPont Hwy","lat":39.18914199778015,"lng":-75.53383827209473,"city_fetched":"Dover","state":"DE","country":"United States","canonicalUrl":"https://foursquare.com/v/fire--ice-at-dover-downs-hotel--casino/4b8a8584f964a5207b7032e3","category":"Nightclub","checkinsCount":520,"usersCount":290,"tipCount":2,"visitsCount":522,"url":"http://www.doverdowns.com/dining/bars/fire-and-ice","tier":"","message":"","currency":"","rating":5.5}]