[{"name":"The Friendly Tavern","phone":"8143750966","address":"S Brady St","lat":41.10974918981906,"lng":-78.77059107460853,"city_fetched":"DuBois","state":"PA","country":"United States","canonicalUrl":"https://foursquare.com/v/the-friendly-tavern/4ba539b3f964a52060ee38e3","category":"Bar","checkinsCount":339,"usersCount":130,"tipCount":3,"visitsCount":384,"tier":"","message":"","currency":"","rating":7.7},{"name":"Super Sub & Six Pak","phone":"8143710700","twitter":"supersubsixpak","address":"85 McCracken Run Rd","lat":41.1259881,"lng":-78.74169821666666,"city_fetched":"DuBois","state":"PA","country":"United States","canonicalUrl":"https://foursquare.com/supersubsixpak","category":"Beer Garden","checkinsCount":282,"usersCount":76,"tipCount":5,"visitsCount":289,"url":"http://supersubsixpak.com","tier":"","message":"","currency":"","rating":7.7},{"name":"Fort Worth Restaurant","phone":"8143717570","address":"229 W Long Ave","lat":41.12086647126678,"lng":-78.76531178355332,"city_fetched":"DuBois","state":"PA","country":"United States","canonicalUrl":"https://foursquare.com/v/fort-worth-restaurant/4c785007df08a1cd2212d75d","category":"American Restaurant","checkinsCount":133,"usersCount":104,"tipCount":6,"visitsCount":147,"tier":2,"message":"Moderate","currency":"$","rating":7.4},{"name":"Eastside Sports Bar","phone":"8143752727","address":"318 W Dubois Ave","lat":41.12912875,"lng":-78.762362,"city_fetched":"DuBois","state":"PA","country":"United States","canonicalUrl":"https://foursquare.com/v/eastside-sports-bar/4c0eb21398102d7f5413e406","category":"Bar","checkinsCount":258,"usersCount":81,"tipCount":5,"visitsCount":259,"tier":"","message":"","currency":"","rating":6.6},{"name":"The Hitching Post","phone":"8143716921","address":"692 Liberty Blvd","lat":41.12611566325305,"lng":-78.7554663146578,"city_fetched":"DuBois","state":"PA","country":"United States","canonicalUrl":"https://foursquare.com/v/the-hitching-post/4ba8ffdbf964a5201a023ae3","category":"Wings Joint","checkinsCount":333,"usersCount":201,"tipCount":9,"visitsCount":369,"tier":"","message":"","currency":"","rating":6}]