[{"name":"1st & Main","lat":42.49504771193019,"lng":-90.66446674666885,"city_fetched":"Dubuque","state":"IA","country":"United States","canonicalUrl":"https://foursquare.com/v/1st--main/53eeda13498e27814c16c0fb","category":"Bar","checkinsCount":298,"usersCount":143,"tipCount":3,"visitsCount":341,"tier":"","message":"","currency":"","rating":8.7},{"name":"Monk's Kaffee Pub","phone":"5635850919","address":"373 Bluff St","lat":42.49656738380203,"lng":-90.66754672804356,"neighborhood":"Bluff St.","city_fetched":"Dubuque","state":"IA","country":"United States","canonicalUrl":"https://foursquare.com/v/monks-kaffee-pub/4bc143e6461576b06aca7b32","category":"Coffee Shop","checkinsCount":1103,"usersCount":441,"tipCount":19,"visitsCount":1431,"tier":1,"message":"Cheap","currency":"$","rating":8.5},{"name":"Lot One","phone":"5635870200","address":"100 Main St","lat":42.495271573147754,"lng":-90.66394340488777,"city_fetched":"Dubuque","state":"IA","country":"United States","canonicalUrl":"https://foursquare.com/v/lot-one/4bc15556461576b09ce77b32","category":"Bar","checkinsCount":2326,"usersCount":867,"tipCount":15,"visitsCount":2610,"url":"http://lotonedbq.com","tier":2,"message":"Moderate","currency":"$","rating":8.4},{"name":"club heat","address":"1700 Central Ave","lat":42.50890041256861,"lng":-90.66900730133057,"city_fetched":"Dubuque","state":"IA","country":"United States","canonicalUrl":"https://foursquare.com/v/club-heat/509879b37ab487648d9dd457","category":"Nightclub","checkinsCount":78,"usersCount":32,"tipCount":0,"visitsCount":80,"tier":"","message":"","currency":"","rating":8.2},{"name":"Jubeck New World Brewing","phone":"7753755692","address":"115 W 11th St","lat":42.503501892089844,"lng":-90.66761779785156,"city_fetched":"Dubuque","state":"IA","country":"United States","canonicalUrl":"https://foursquare.com/v/jubeck-new-world-brewing/53c85234498e31473d09755a","category":"Brewery","checkinsCount":238,"usersCount":119,"tipCount":2,"visitsCount":361,"url":"http://jubeckbrewing.com","tier":"","message":"","currency":"","rating":8},{"name":"Fat Tuesdays","phone":"5635570867","address":"1121 University Ave","lat":42.49914855,"lng":-90.682221,"city_fetched":"Dubuque","state":"IA","country":"United States","canonicalUrl":"https://foursquare.com/v/fat-tuesdays/4c0bd27a6071a59384c7e132","category":"Bar","checkinsCount":789,"usersCount":329,"tipCount":6,"visitsCount":903,"url":"http://fattuesday-restaurant.com","tier":"","message":"","currency":"","rating":7.8},{"name":"Mississippi Moon Bar","phone":"5636904782","address":"301 Bell St","lat":42.49727046679003,"lng":-90.65967356129107,"city_fetched":"Dubuque","state":"IA","country":"United States","canonicalUrl":"https://foursquare.com/v/mississippi-moon-bar/4f24b40be4b0831876ec7733","category":"Nightclub","checkinsCount":1013,"usersCount":463,"tipCount":10,"visitsCount":1064,"url":"http://www.diamondjodubuque.com/entertain/mississippi-moon-bar","tier":2,"message":"Moderate","currency":"$","rating":7.7},{"name":"Busted Lift","address":"180 Main St","lat":42.4956488594746,"lng":-90.66409623850826,"city_fetched":"Dubuque","state":"IA","country":"United States","canonicalUrl":"https://foursquare.com/v/busted-lift/4bce4b79ef1095215cf28386","category":"Pub","checkinsCount":1102,"usersCount":516,"tipCount":6,"visitsCount":1114,"tier":"","message":"","currency":"","rating":7.7},{"name":"Easy Street","address":"30 Main St","lat":42.49318063259125,"lng":-90.662912,"city_fetched":"Dubuque","state":"IA","country":"United States","canonicalUrl":"https://foursquare.com/v/easy-street/4d97fc60af3d236ac59a32c7","category":"Bar","checkinsCount":928,"usersCount":248,"tipCount":5,"visitsCount":1035,"tier":"","message":"","currency":"","rating":7.7},{"name":"Eronel","twitter":"eroneldbq","address":"285 Main St","lat":42.49667341510748,"lng":-90.66508272405049,"city_fetched":"Dubuque","state":"IA","country":"United States","canonicalUrl":"https://foursquare.com/v/eronel/50f0c5e8f0e4c1a457cb510c","category":"Performing Arts Venue","checkinsCount":317,"usersCount":146,"tipCount":2,"visitsCount":334,"tier":"","message":"","currency":"","rating":7.6},{"name":"Shenanigans Pub","phone":"5635134001","address":"3203 Jackson St","lat":42.52810027560502,"lng":-90.6819261855763,"city_fetched":"Dubuque","state":"IA","country":"United States","canonicalUrl":"https://foursquare.com/v/shenanigans-pub/4db8f5e80cb6ddfae42baec7","category":"Dive Bar","checkinsCount":2388,"usersCount":120,"tipCount":4,"visitsCount":2460,"tier":1,"message":"Cheap","currency":"$","rating":7.4},{"name":"The Whisky","phone":"5635570878","address":"1064 University Ave","lat":42.49917268752928,"lng":-90.680396,"city_fetched":"Dubuque","state":"IA","country":"United States","canonicalUrl":"https://foursquare.com/v/the-whisky/4ca6b6ceb0b8236a237ca2e6","category":"Whisky Bar","checkinsCount":716,"usersCount":106,"tipCount":1,"visitsCount":833,"url":"http://whiskeydurham.com","tier":"","message":"","currency":"","rating":7.4},{"name":"The Yardarm","phone":"5635823653","twitter":"yardarmdbq","address":"1201 Shiras Ave Ext","lat":42.525147,"lng":-90.64455859,"city_fetched":"Dubuque","state":"IA","country":"United States","canonicalUrl":"https://foursquare.com/yardarmdbq","category":"Beach Bar","checkinsCount":292,"usersCount":191,"tipCount":6,"visitsCount":333,"tier":"","message":"","currency":"","rating":7.4},{"name":"Paul's","phone":"5635569944","address":"176 Locust St","lat":42.49537514433286,"lng":-90.66528187665337,"city_fetched":"Dubuque","state":"IA","country":"United States","canonicalUrl":"https://foursquare.com/v/pauls/4bb80421cf2fc9b6272c9f02","category":"Bar","checkinsCount":937,"usersCount":518,"tipCount":17,"visitsCount":993,"tier":1,"message":"Cheap","currency":"$","rating":7.3},{"name":"Gin Ricky's","phone":"5635830063","address":"1447 Central Ave","lat":42.50663670179512,"lng":-90.66803769426512,"city_fetched":"Dubuque","state":"IA","country":"United States","canonicalUrl":"https://foursquare.com/v/gin-rickys/4bd2130ca8b3a5935f12675f","category":"Cocktail Bar","checkinsCount":771,"usersCount":263,"tipCount":2,"visitsCount":893,"tier":"","message":"","currency":"","rating":7.2},{"name":"Courtside Sports Bar and Grill","phone":"5635830574","address":"2095 Holliday Dr","lat":42.51204558959673,"lng":-90.7426600389453,"city_fetched":"Dubuque","state":"IA","country":"United States","canonicalUrl":"https://foursquare.com/v/courtside-sports-bar-and-grill/4c707305fa49a1cdd348a6e3","category":"Sports Bar","checkinsCount":1630,"usersCount":614,"tipCount":15,"visitsCount":1872,"url":"http://www.courtsidedbq.com","tier":"","message":"","currency":"","rating":7.2},{"name":"Town Clock Inn","phone":"5635561022","address":"799 Main St","lat":42.500990910596876,"lng":-90.66726922988892,"city_fetched":"Dubuque","state":"IA","country":"United States","canonicalUrl":"https://foursquare.com/v/town-clock-inn/4ba52f63f964a5200ae938e3","category":"Pizza Place","checkinsCount":408,"usersCount":209,"tipCount":6,"visitsCount":410,"url":"http://townclockpizza.com","tier":"","message":"","currency":"","rating":7.2},{"name":"The Lounge","phone":"5635577768","address":"331 W 4th St","lat":42.497735,"lng":-90.66705465316772,"city_fetched":"Dubuque","state":"IA","country":"United States","canonicalUrl":"https://foursquare.com/v/the-lounge/4c538b4406901b8d87cb404a","category":"Bar","checkinsCount":371,"usersCount":184,"tipCount":4,"visitsCount":394,"tier":"","message":"","currency":"","rating":7.1},{"name":"Dog House Lounge","phone":"5635567611","address":"1646 Asbury Rd","lat":42.50009640673949,"lng":-90.6963942172003,"city_fetched":"Dubuque","state":"IA","country":"United States","canonicalUrl":"https://foursquare.com/v/dog-house-lounge/4be8d5c888ed2d7f0b68cc1d","category":"Pub","checkinsCount":862,"usersCount":322,"tipCount":5,"visitsCount":954,"url":"http://www.doghouselounge.net","tier":"","message":"","currency":"","rating":7},{"name":"The Hub","phone":"5635833480","address":"253 Main St","lat":42.49643533823077,"lng":-90.66486504675359,"city_fetched":"Dubuque","state":"IA","country":"United States","canonicalUrl":"https://foursquare.com/v/the-hub/4b94ab10f964a520148034e3","category":"Bar","checkinsCount":1366,"usersCount":422,"tipCount":10,"visitsCount":1382,"tier":"","message":"","currency":"","rating":6.8},{"name":"Rainbow Lounge","address":"36 W 4th St","lat":42.498037216100116,"lng":-90.66388319786364,"city_fetched":"Dubuque","state":"IA","country":"United States","canonicalUrl":"https://foursquare.com/v/rainbow-lounge/4f1255d5e4b045626825498d","category":"Karaoke Bar","checkinsCount":487,"usersCount":191,"tipCount":2,"visitsCount":493,"tier":"","message":"","currency":"","rating":6.8},{"name":"Hilton Garden Inn Dubuque Downtown","phone":"5635855200","address":"1801 Greyhound Park Rd","lat":42.51836850583066,"lng":-90.64583442480688,"city_fetched":"Dubuque","state":"IA","country":"United States","canonicalUrl":"https://foursquare.com/v/hilton-garden-inn-dubuque-downtown/4b5df19af964a520357529e3","category":"Hotel","checkinsCount":1142,"usersCount":517,"tipCount":7,"visitsCount":1320,"url":"http://www.hiltongardeninndubuque.com","tier":"","message":"","currency":"","rating":6.7},{"name":"Star Brewery","phone":"5635564800","address":"600 Tower St","lat":42.49944361495839,"lng":-90.65432068959495,"city_fetched":"Dubuque","state":"IA","country":"United States","canonicalUrl":"https://foursquare.com/v/star-brewery/4b5f82dff964a520b5be29e3","category":"Brewery","checkinsCount":592,"usersCount":444,"tipCount":7,"visitsCount":594,"tier":"","message":"","currency":"","rating":6.5},{"name":"Denny's Lux Club","phone":"5635570880","address":"3050 Asbury Rd","lat":42.50968676666667,"lng":-90.71380663333333,"city_fetched":"Dubuque","state":"IA","country":"United States","canonicalUrl":"https://foursquare.com/v/dennys-lux-club/4c4a6ac646240f473eb6ccf1","category":"Bar","checkinsCount":448,"usersCount":185,"tipCount":3,"visitsCount":528,"tier":"","message":"","currency":"","rating":6.4},{"name":"Diamond Jo Casino","phone":"5636904800","address":"301 Bell St","lat":42.496909,"lng":-90.658708,"city_fetched":"Dubuque","state":"IA","country":"United States","canonicalUrl":"https://foursquare.com/v/diamond-jo-casino/4b88d1c1f964a520e80e32e3","category":"Casino","checkinsCount":4391,"usersCount":2209,"tipCount":15,"visitsCount":4745,"url":"http://www.theborgata.com","tier":"","message":"","currency":"","rating":6.4},{"name":"Spirits Bar & Gril","phone":"5635833297","address":"1111 Dodge St","lat":42.490422587328126,"lng":-90.67655645000423,"city_fetched":"Dubuque","state":"IA","country":"United States","canonicalUrl":"https://foursquare.com/v/spirits-bar--gril/4c4a68ad42b4d13ad5d1297d","category":"Bar","checkinsCount":331,"usersCount":192,"tipCount":5,"visitsCount":355,"tier":"","message":"","currency":"","rating":6.1},{"name":"Knickers","phone":"5635570887","address":"2186 Central Ave","lat":42.51338385,"lng":-90.67095328333333,"city_fetched":"Dubuque","state":"IA","country":"United States","canonicalUrl":"https://foursquare.com/v/knickers/4cc5f7af1e596dcb296edb67","category":"Bar","checkinsCount":378,"usersCount":136,"tipCount":4,"visitsCount":430,"tier":"","message":"","currency":"","rating":5.9},{"name":"Jumpers","phone":"5635566100","address":"2600 Dodge St","lat":42.48929288798204,"lng":-90.70139111335536,"city_fetched":"Dubuque","state":"IA","country":"United States","canonicalUrl":"https://foursquare.com/v/jumpers/4c4bc23a9e6dbe9a6fb87f0c","category":"Bar","checkinsCount":453,"usersCount":216,"tipCount":3,"visitsCount":491,"url":"http://www.myspace.com/jumpersdbq","tier":"","message":"","currency":"","rating":5.9},{"name":"Mojo's Sports Bar","address":"310 Bell St","lat":42.49751301021949,"lng":-90.65875203857054,"city_fetched":"Dubuque","state":"IA","country":"United States","canonicalUrl":"https://foursquare.com/v/mojos-sports-bar/4c2fd9b0452620a1aa4e1e0f","category":"Sports Bar","checkinsCount":541,"usersCount":323,"tipCount":14,"visitsCount":541,"url":"http://www.theborgata.com","tier":"","message":"","currency":"","rating":5.7},{"name":"Days Inn Dubuque","address":"1111 Dodge St","lat":42.49057231891233,"lng":-90.67572719325648,"city_fetched":"Dubuque","state":"IA","country":"United States","canonicalUrl":"https://foursquare.com/v/days-inn-dubuque/4bc3452ddce4eee14086719d","category":"Hotel Bar","checkinsCount":560,"usersCount":333,"tipCount":7,"visitsCount":679,"tier":"","message":"","currency":"","rating":5.2}]