[{"name":"Bent Paddle Brewing","phone":"2182792722","twitter":"bentpaddlebeer","address":"1912 W Michigan St","lat":46.76773339936661,"lng":-92.12202070229411,"neighborhood":"West End","city_fetched":"Duluth","state":"MN","country":"United States","canonicalUrl":"https://foursquare.com/v/bent-paddle-brewing/50eccfaf19a923a81b58bd26","category":"Brewery","checkinsCount":1215,"usersCount":1069,"tipCount":16,"visitsCount":1661,"url":"http://www.bentpaddlebrewing.com","tier":1,"message":"Cheap","currency":"$","rating":9},{"name":"Fitger's Brewhouse Brewery & Grille","phone":"2187261392","twitter":"duluthbrewhouse","address":"600 E Superior St","lat":46.79216902102401,"lng":-92.09096389089986,"city_fetched":"Duluth","state":"MN","country":"United States","canonicalUrl":"https://foursquare.com/v/fitgers-brewhouse-brewery--grille/445df3cbf964a520f7321fe3","category":"Brewery","checkinsCount":10145,"usersCount":5507,"tipCount":106,"visitsCount":11009,"url":"http://brewhouse.net","tier":2,"message":"Moderate","currency":"$","rating":8.9},{"name":"Thirsty Pagan Brewing","phone":"7153942500","address":"1623 Broadway St","lat":46.72682788812297,"lng":-92.1022679730616,"city_fetched":"Duluth","state":"WI","country":"United States","canonicalUrl":"https://foursquare.com/v/thirsty-pagan-brewing/4a7e214cf964a52016f11fe3","category":"Brewery","checkinsCount":1918,"usersCount":1267,"tipCount":33,"visitsCount":2275,"url":"http://www.thirstypaganbrewing.com","tier":2,"message":"Moderate","currency":"$","rating":8.9},{"name":"Black Water Lounge","phone":"2187227466","twitter":"blackwaterbar","address":"231 E Superior St","lat":46.78947085314294,"lng":-92.09490625111677,"neighborhood":"Downtown Duluth","city_fetched":"Duluth","state":"MN","country":"United States","canonicalUrl":"https://foursquare.com/blackwaterbar","category":"Lounge","checkinsCount":4016,"usersCount":1465,"tipCount":31,"visitsCount":4190,"url":"http://blackwaterlounge.com","tier":3,"message":"Expensive","currency":"$","rating":8.8},{"name":"Canal Park Brewing Company","phone":"2184644790","twitter":"canalparkbrew","address":"300 Canal Park Dr","lat":46.78491576992316,"lng":-92.09383027215544,"neighborhood":"Downtown Duluth","city_fetched":"Duluth","state":"MN","country":"United States","canonicalUrl":"https://foursquare.com/v/canal-park-brewing-company/4f7e0114e4b06277b5a08421","category":"Brewery","checkinsCount":3976,"usersCount":3275,"tipCount":58,"visitsCount":5068,"url":"http://www.canalparkbrewery.com","tier":2,"message":"Moderate","currency":"$","rating":8.7},{"name":"Anchor Bar","phone":"7153949747","address":"413 Tower Ave","lat":46.733186120000425,"lng":-92.10393795253233,"city_fetched":"Duluth","state":"WI","country":"United States","canonicalUrl":"https://foursquare.com/v/anchor-bar/4aac5fe5f964a520b05d20e3","category":"Burger Joint","checkinsCount":4306,"usersCount":1780,"tipCount":60,"visitsCount":4689,"url":"http://anchorbar.freeservers.com","tier":1,"message":"Cheap","currency":"$","rating":8.5},{"name":"Grandma's Saloon & Grill","phone":"2187274192","address":"522 S Lake Ave","lat":46.780248395480136,"lng":-92.09330112776196,"neighborhood":"Downtown Duluth","city_fetched":"Duluth","state":"MN","country":"United States","canonicalUrl":"https://foursquare.com/v/grandmas-saloon--grill/445df275f964a520f6321fe3","category":"American Restaurant","checkinsCount":8019,"usersCount":5696,"tipCount":84,"visitsCount":8912,"url":"http://www.grandmasrestaurants.com/gmas_cp.htm","tier":2,"message":"Moderate","currency":"$","rating":8.4},{"name":"The Rathskeller","address":"132 E Superior St","lat":46.78866425157061,"lng":-92.09563429978769,"neighborhood":"Downtown Duluth","city_fetched":"Duluth","state":"MN","country":"United States","canonicalUrl":"https://foursquare.com/v/the-rathskeller/4f625c3ae4b0ee949a3008b1","category":"Speakeasy","checkinsCount":884,"usersCount":455,"tipCount":11,"visitsCount":892,"tier":"","message":"","currency":"","rating":8.3},{"name":"Tbonz","address":"2531 W Superior St","lat":46.76241515157946,"lng":-92.13053428973501,"neighborhood":"West End","city_fetched":"Duluth","state":"MN","country":"United States","canonicalUrl":"https://foursquare.com/v/tbonz/4b9eed3ff964a520ed0a37e3","category":"Bar","checkinsCount":559,"usersCount":222,"tipCount":5,"visitsCount":642,"tier":"","message":"","currency":"","rating":8.3},{"name":"Buffalo House Restaurant, Bar & Sports Complex","phone":"2186249901","address":"2590 Guss Rd","lat":46.69769622492166,"lng":-92.29653955974923,"city_fetched":"Duluth","state":"MN","country":"United States","canonicalUrl":"https://foursquare.com/v/buffalo-house-restaurant-bar--sports-complex/4c0aa5226071a59337f1df32","category":"American Restaurant","checkinsCount":886,"usersCount":512,"tipCount":5,"visitsCount":1140,"url":"http://buffalohouseduluth.com","tier":2,"message":"Moderate","currency":"$","rating":8.3},{"name":"Lake Superior Brewing Co.","phone":"2187234000","address":"2711 W Superior St","lat":46.76118359,"lng":-92.132873,"neighborhood":"West End","city_fetched":"Duluth","state":"MN","country":"United States","canonicalUrl":"https://foursquare.com/v/lake-superior-brewing-co/4b8fcad9f964a5208b6233e3","category":"Brewery","checkinsCount":192,"usersCount":185,"tipCount":3,"visitsCount":219,"url":"http://www.lakesuperiorbrewing.com","tier":"","message":"","currency":"","rating":8.2},{"name":"Vista Fleet","phone":"2187226218","address":"323 Harbor Dr","lat":46.780951494064226,"lng":-92.09668632419945,"neighborhood":"Downtown Duluth","city_fetched":"Duluth","state":"MN","country":"United States","canonicalUrl":"https://foursquare.com/v/vista-fleet/4c0034e2147bd13a6e872a4d","category":"Boat or Ferry","checkinsCount":651,"usersCount":564,"tipCount":47,"visitsCount":677,"url":"http://www.vistafleet.com","tier":"","message":"","currency":"","rating":8.2},{"name":"Bellisio's Restaurant & Wine Bar","phone":"2187274921","address":"405 S Lake Ave","lat":46.78141616734162,"lng":-92.09489107131958,"neighborhood":"Downtown Duluth","city_fetched":"Duluth","state":"MN","country":"United States","canonicalUrl":"https://foursquare.com/v/bellisios-restaurant--wine-bar/448ea3d6f964a5205f341fe3","category":"Italian Restaurant","checkinsCount":786,"usersCount":609,"tipCount":23,"visitsCount":793,"url":"http://www.grandmasrestaurants.com","tier":3,"message":"Expensive","currency":"$","rating":8.1},{"name":"Red Herring Lounge","phone":"2184817318","address":"208 E 1st St","lat":46.789700396559006,"lng":-92.09653683761901,"neighborhood":"Downtown Duluth","city_fetched":"Duluth","state":"MN","country":"United States","canonicalUrl":"https://foursquare.com/v/red-herring-lounge/537571de498ea66b7af879a4","category":"Bar","checkinsCount":465,"usersCount":212,"tipCount":3,"visitsCount":633,"url":"http://redherringlounge.com","tier":"","message":"","currency":"","rating":8.1},{"name":"Dry Dock","lat":46.713746,"lng":-92.279436,"city_fetched":"Duluth","state":"MN","country":"United States","canonicalUrl":"https://foursquare.com/v/dry-dock/4c68a7cefe6ad13afabb70ae","category":"Pub","checkinsCount":245,"usersCount":222,"tipCount":3,"visitsCount":385,"tier":"","message":"","currency":"","rating":8.1},{"name":"Keyport Lounge & Liquor","phone":"7153923377","address":"1900 Belknap St","lat":46.720225587011434,"lng":-92.10647821426392,"city_fetched":"Duluth","state":"WI","country":"United States","canonicalUrl":"https://foursquare.com/v/keyport-lounge--liquor/4c08289a6071a59363d3db32","category":"Karaoke Bar","checkinsCount":1115,"usersCount":536,"tipCount":8,"visitsCount":1366,"url":"http://www.keyportliquors.com","tier":"","message":"","currency":"","rating":8.1},{"name":"Dubh Linn Brew Pub","phone":"2187271559","address":"109 W Superior St","lat":46.785732500438726,"lng":-92.09989675355182,"neighborhood":"Downtown Duluth","city_fetched":"Duluth","state":"MN","country":"United States","canonicalUrl":"https://foursquare.com/v/dubh-linn-brew-pub/4ba58baff964a5201c1139e3","category":"Pub","checkinsCount":4247,"usersCount":1973,"tipCount":34,"visitsCount":4716,"url":"http://www.dubhlinnpub.com","tier":2,"message":"Moderate","currency":"$","rating":8},{"name":"O'neills Pub and Liquor","phone":"7153927388","address":"3333 Tower Ave","lat":46.69922954585598,"lng":-92.10463285446167,"city_fetched":"Duluth","state":"WI","country":"United States","canonicalUrl":"https://foursquare.com/v/oneills-pub-and-liquor/4babd130f964a520ffcb3ae3","category":"Pub","checkinsCount":1073,"usersCount":277,"tipCount":3,"visitsCount":1122,"tier":"","message":"","currency":"","rating":8},{"name":"Gronk's Grill & Bar","phone":"7153980333","address":"4909 E 2nd St","lat":46.67862808,"lng":-92.01097608333333,"city_fetched":"Duluth","state":"WI","country":"United States","canonicalUrl":"https://foursquare.com/v/gronks-grill--bar/4a95a5daf964a520042420e3","category":"Pub","checkinsCount":985,"usersCount":562,"tipCount":13,"visitsCount":1121,"tier":2,"message":"Moderate","currency":"$","rating":8},{"name":"Beaner's Central Coffeehouse","phone":"2186245957","address":"324 N Central Ave","lat":46.738583,"lng":-92.1664117,"city_fetched":"Duluth","state":"MN","country":"United States","canonicalUrl":"https://foursquare.com/v/beaners-central-coffeehouse/4a7dbef7f964a52075ef1fe3","category":"Coffee Shop","checkinsCount":1355,"usersCount":416,"tipCount":13,"visitsCount":1510,"url":"http://www.beanerscentral.com","tier":2,"message":"Moderate","currency":"$","rating":8},{"name":"Endion Station","address":"Canal Park","lat":46.78638512201877,"lng":-92.09498728183462,"neighborhood":"Downtown Duluth","city_fetched":"Duluth","state":"MN","country":"United States","canonicalUrl":"https://foursquare.com/v/endion-station/53d2bd4e498ed91728288c6c","category":"Bar","checkinsCount":195,"usersCount":170,"tipCount":4,"visitsCount":233,"tier":"","message":"","currency":"","rating":7.9},{"name":"Carmody Irish Pub and Brewing","phone":"2187404747","twitter":"carmodyirishpub","address":"308 E Superior St","lat":46.7899736742908,"lng":-92.0940601670004,"neighborhood":"Downtown Duluth","city_fetched":"Duluth","state":"MN","country":"United States","canonicalUrl":"https://foursquare.com/v/carmody-irish-pub-and-brewing/4a3700ccf964a520229e1fe3","category":"Irish Pub","checkinsCount":3981,"usersCount":1146,"tipCount":20,"visitsCount":4153,"url":"http://carmodyirishpub.com","tier":2,"message":"Moderate","currency":"$","rating":7.8},{"name":"DeWitt-Seitz Marketplace","phone":"2187220047","address":"394 S Lake Ave","lat":46.781925627831335,"lng":-92.09471375123417,"neighborhood":"Downtown Duluth","city_fetched":"Duluth","state":"MN","country":"United States","canonicalUrl":"https://foursquare.com/v/dewittseitz-marketplace/4bbdfaf8593fef3b5b180456","category":"Miscellaneous Shop","checkinsCount":1165,"usersCount":678,"tipCount":3,"visitsCount":1173,"tier":"","message":"","currency":"","rating":7.8},{"name":"Tycoon's Zenith Alehouse","phone":"2186231889","twitter":"duluthtycoons","address":"132 E Superior St","lat":46.788687118903376,"lng":-92.09564585932839,"neighborhood":"Downtown Duluth","city_fetched":"Duluth","state":"MN","country":"United States","canonicalUrl":"https://foursquare.com/v/tycoons-zenith-alehouse/4eff8ec093adc8245881ccaf","category":"New American Restaurant","checkinsCount":3182,"usersCount":1612,"tipCount":32,"visitsCount":3530,"url":"http://www.duluthtycoons.com/index.htm","tier":2,"message":"Moderate","currency":"$","rating":7.8},{"name":"Club Saratoga","phone":"2187225577","address":"331 Canal Park Dr","lat":46.78339691810202,"lng":-92.09462301430372,"neighborhood":"Downtown Duluth","city_fetched":"Duluth","state":"MN","country":"United States","canonicalUrl":"https://foursquare.com/v/club-saratoga/4b522b48f964a5201e6d27e3","category":"Strip Club","checkinsCount":416,"usersCount":264,"tipCount":5,"visitsCount":422,"url":"http://clubsaratoga.com","tier":"","message":"","currency":"","rating":7.8},{"name":"Copasetic Lounge","lat":46.800139099999996,"lng":-92.124831,"neighborhood":"Duluth Heights","city_fetched":"Duluth","state":"MN","country":"United States","canonicalUrl":"https://foursquare.com/v/copasetic-lounge/4bf84ea35efe2d7f318d6a34","category":"Bar","checkinsCount":423,"usersCount":234,"tipCount":4,"visitsCount":532,"tier":"","message":"","currency":"","rating":7.8},{"name":"The Shack","phone":"7153929836","address":"3301 Belknap St","lat":46.721207350483894,"lng":-92.12633495033812,"city_fetched":"Duluth","state":"WI","country":"United States","canonicalUrl":"https://foursquare.com/v/the-shack/4b04a953f964a520025622e3","category":"American Restaurant","checkinsCount":896,"usersCount":321,"tipCount":13,"visitsCount":1006,"url":"http://www.shackonline.com","tier":"","message":"","currency":"","rating":7.7},{"name":"Clyde Iron Works","phone":"2187271150","twitter":"clydeironworks","address":"2920 W Michigan St","lat":46.75852,"lng":-92.13398,"neighborhood":"West End","city_fetched":"Duluth","state":"MN","country":"United States","canonicalUrl":"https://foursquare.com/v/clyde-iron-works/4c08061cbbc676b0aae245d5","category":"Restaurant","checkinsCount":2232,"usersCount":1390,"tipCount":39,"visitsCount":2577,"url":"http://clydeironworks.com/#0lBOB7","tier":2,"message":"Moderate","currency":"$","rating":7.6},{"name":"Burrito Union","phone":"2187284414","address":"1332 E 4th St","lat":46.802819,"lng":-92.084987,"city_fetched":"Duluth","state":"MN","country":"United States","canonicalUrl":"https://foursquare.com/v/burrito-union/4a85a997f964a520d1fe1fe3","category":"Burrito Place","checkinsCount":4545,"usersCount":1691,"tipCount":53,"visitsCount":5066,"url":"http://www.burritounion.com","tier":2,"message":"Moderate","currency":"$","rating":7.5},{"name":"7 West Tap House","phone":"2187272494","address":"7 W Superior St","lat":46.78671985987613,"lng":-92.09856643438532,"neighborhood":"Downtown Duluth","city_fetched":"Duluth","state":"MN","country":"United States","canonicalUrl":"https://foursquare.com/v/7-west-tap-house/5078998fe4b0459b75bac46f","category":"Burger Joint","checkinsCount":1700,"usersCount":941,"tipCount":29,"visitsCount":1977,"url":"http://7westtaphouse.com","tier":1,"message":"Cheap","currency":"$","rating":7.4},{"name":"Choo Choo Bar & Grill","phone":"7153983788","address":"5002 E 2nd St.","lat":46.67745816042942,"lng":-92.01079857052198,"city_fetched":"Duluth","state":"WI","country":"United States","canonicalUrl":"https://foursquare.com/v/choo-choo-bar--grill/4bcb0cb1cc8cd13a1296becf","category":"Bar","checkinsCount":343,"usersCount":151,"tipCount":6,"visitsCount":384,"tier":"","message":"","currency":"","rating":7.3},{"name":"Tower Avenue Tavern","lat":46.733572376793816,"lng":-92.10396060957035,"city_fetched":"Duluth","state":"WI","country":"United States","canonicalUrl":"https://foursquare.com/v/tower-avenue-tavern/4be4c80ebcef2d7fd41c03e5","category":"Bar","checkinsCount":333,"usersCount":102,"tipCount":2,"visitsCount":335,"tier":"","message":"","currency":"","rating":7.3},{"name":"The Sports Garden","phone":"2187224724","address":"425 S Lake Ave","lat":46.78118103352152,"lng":-92.09470049647874,"neighborhood":"Downtown Duluth","city_fetched":"Duluth","state":"MN","country":"United States","canonicalUrl":"https://foursquare.com/v/the-sports-garden/4a526fc4f964a520a2b11fe3","category":"Bar","checkinsCount":3162,"usersCount":2136,"tipCount":19,"visitsCount":3481,"url":"http://www.grandmasrestaurants.com","tier":1,"message":"Cheap","currency":"$","rating":7.1},{"name":"Schultz's","address":"1301-1347 N 5th St","lat":46.73267911344425,"lng":-92.096870331074,"city_fetched":"Duluth","state":"WI","country":"United States","canonicalUrl":"https://foursquare.com/v/schultzs/4c033f07310fc9b665bbc561","category":"Bar","checkinsCount":487,"usersCount":236,"tipCount":4,"visitsCount":599,"tier":"","message":"","currency":"","rating":7.1},{"name":"Roper's Saloon","phone":"7153943000","address":"705 Tower Ave","lat":46.72986227517538,"lng":-92.1041777992369,"city_fetched":"Duluth","state":"WI","country":"United States","canonicalUrl":"https://foursquare.com/v/ropers-saloon/4b651a73f964a52040e42ae3","category":"Bar","checkinsCount":505,"usersCount":245,"tipCount":6,"visitsCount":522,"url":"http://www.roperssaloon.com","tier":"","message":"","currency":"","rating":7},{"name":"Grizzly's Wood-Fired Grill","phone":"2187229231","address":"1722 Miller Trunk Hwy","lat":46.80676078123395,"lng":-92.16280996799469,"neighborhood":"Duluth Heights","city_fetched":"Duluth","state":"MN","country":"United States","canonicalUrl":"https://foursquare.com/v/grizzlys-woodfired-grill/4a9c7d50f964a5205c3720e3","category":"American Restaurant","checkinsCount":2090,"usersCount":928,"tipCount":23,"visitsCount":2549,"url":"http://www.grizzlysgrill.com","tier":2,"message":"Moderate","currency":"$","rating":7},{"name":"Mr. D's Bar","phone":"2186244178","address":"5622 Grand Ave","lat":46.739243447652605,"lng":-92.16833757252472,"city_fetched":"Duluth","state":"MN","country":"United States","canonicalUrl":"https://foursquare.com/v/mr-ds-bar/4b589e7ff964a520b26128e3","category":"Bar","checkinsCount":1231,"usersCount":502,"tipCount":10,"visitsCount":1378,"tier":2,"message":"Moderate","currency":"$","rating":6.9}]