[{"name":"Rumors","phone":"9727805544","address":"4222 Independence Dr","lat":32.661262250794564,"lng":-96.8886808939987,"neighborhood":"Redbird","city_fetched":"Duncan","state":"TX","country":"United States","canonicalUrl":"https://foursquare.com/v/rumors/4db39083cda1c57c824a3071","category":"Nightclub","checkinsCount":218,"usersCount":57,"tipCount":3,"visitsCount":235,"url":"http://rumorsbarngrill.com","tier":"","message":"","currency":"","rating":7.7},{"name":"Sabor A La Mexicana Restaurant","phone":"9725725900","address":"715 Skyline Dr","lat":32.65834959617567,"lng":-96.89410820437055,"neighborhood":"Southwest Dallas","city_fetched":"Duncan","state":"TX","country":"United States","canonicalUrl":"https://foursquare.com/v/sabor-a-la-mexicana-restaurant/4ba26a2ff964a520b0f637e3","category":"Mexican Restaurant","checkinsCount":214,"usersCount":173,"tipCount":8,"visitsCount":322,"tier":"","message":"","currency":"","rating":7.5},{"name":"Coachs Corner","phone":"9722834448","address":"7427 S Westmoreland Rd","lat":32.65567808244191,"lng":-96.88669553283623,"neighborhood":"Southwest Dallas","city_fetched":"Duncan","state":"TX","country":"United States","canonicalUrl":"https://foursquare.com/v/coachs-corner/40e0b100f964a5202f081fe3","category":"Nightclub","checkinsCount":110,"usersCount":91,"tipCount":1,"visitsCount":135,"url":"http://www.coachescornerdallas.net","tier":"","message":"","currency":"","rating":7.1}]