[{"name":"Choctaw Casino Resort","phone":"5809200160","twitter":"choctawresort","address":"4216 S Hwy 69/75","lat":33.95337245916436,"lng":-96.41518414020538,"city_fetched":"Durant","state":"OK","country":"United States","canonicalUrl":"https://foursquare.com/v/choctaw-casino-resort/4ae38863f964a5204f9621e3","category":"Casino","checkinsCount":10914,"usersCount":6284,"tipCount":47,"visitsCount":13137,"url":"http://choctawcasinos.com/Durant.aspx","tier":"","message":"","currency":"","rating":7.4},{"name":"Gilley's @ Choctaw Casino Resort","phone":"5809200160","twitter":"choctawresort","address":"c/o Teresa Drew 3735 Choctaw Rd","lat":33.95246118647321,"lng":-96.41346832659835,"city_fetched":"Durant","state":"OK","country":"United States","canonicalUrl":"https://foursquare.com/v/gilleys--choctaw-casino-resort/4fceae50e4b046dae198060f","category":"Other Nightlife","checkinsCount":521,"usersCount":317,"tipCount":6,"visitsCount":596,"url":"http://choctawcasinos.com/Durant/Entertainment/Gilley's.aspx","tier":"","message":"","currency":"","rating":7.2},{"name":"1832 Steakhouse @ Choctaw Casino Resort","phone":"5809200160","twitter":"choctawresort","address":"c/o Teresa Drew 3735 Choctaw Rd","lat":33.952013577471995,"lng":-96.41354632417844,"city_fetched":"Durant","state":"OK","country":"United States","canonicalUrl":"https://foursquare.com/v/1832-steakhouse--choctaw-casino-resort/4d44d2a12e326ea81d6fe8a6","category":"Steakhouse","checkinsCount":304,"usersCount":185,"tipCount":7,"visitsCount":304,"url":"http://choctawcasinos.com/Durant/Restaurants/1832Steakhouse.aspx","tier":"","message":"","currency":"","rating":5.8}]