[{"name":"Steamworks Brewing Company","phone":"9702599200","twitter":"stmworks","address":"801 E 2nd Ave","lat":37.27233484593459,"lng":-107.87993381381622,"city_fetched":"Durango,US","state":"CO","country":"United States","canonicalUrl":"https://foursquare.com/v/steamworks-brewing-company/4a207bc9f964a520917c1fe3","categoryId":"50327c8591d4c4b30a586d5d","category":"Brewery","checkinsCount":3955,"usersCount":2945,"tipCount":72,"visitsCount":4761,"url":"http://www.steamworksbrewing.com","tier":2,"message":"Moderate","currency":"$","rating":9},{"name":"Ska Brewing Co. World Headquarters","phone":"9702475792","twitter":"skabrewing","address":"225 Girard St","lat":37.238792145356314,"lng":-107.8759534674646,"city_fetched":"Durango,US","state":"CO","country":"United States","canonicalUrl":"https://foursquare.com/v/ska-brewing-co-world-headquarters/4b479e29f964a520a03726e3","categoryId":"50327c8591d4c4b30a586d5d","category":"Brewery","checkinsCount":1407,"usersCount":944,"tipCount":14,"visitsCount":1659,"url":"http://www.skabrewing.com","tier":1,"message":"Cheap","currency":"$","rating":8.8},{"name":"Derailed Saloon","phone":"9702475440","address":"725 Main Ave","lat":37.27173236666667,"lng":-107.881543,"city_fetched":"Durango,US","state":"CO","country":"United States","canonicalUrl":"https://foursquare.com/v/derailed-saloon/4b610d5ef964a520e9072ae3","categoryId":"4bf58dd8d48988d116941735","category":"Bar","checkinsCount":398,"usersCount":254,"tipCount":2,"visitsCount":401,"url":"http://www.derailedsaloon.com","tier":"","message":"","currency":"","rating":8.4},{"name":"BREW Pub & Kitchen","phone":"9702595959","twitter":"brewpubkitchen","address":"117 W College Dr","lat":37.27049963122326,"lng":-107.88246205620109,"city_fetched":"Durango,US","state":"CO","country":"United States","canonicalUrl":"https://foursquare.com/v/brew-pub--kitchen/51d8d2c5454a6d959fd575ad","categoryId":"4bf58dd8d48988d11b941735","category":"Pub","checkinsCount":305,"usersCount":211,"tipCount":8,"visitsCount":342,"url":"http://brewpubkitchen.com","tier":"","message":"","currency":"","rating":8.3},{"name":"El Moro Spirits","address":"945 Main Ave","lat":37.274052716616524,"lng":-107.8806627784809,"city_fetched":"Durango,US","state":"CO","country":"United States","canonicalUrl":"https://foursquare.com/v/el-moro-spirits/51f5c9f6498ee637e090907c","categoryId":"4bf58dd8d48988d116941735","category":"Bar","checkinsCount":271,"usersCount":179,"tipCount":6,"visitsCount":281,"url":"http://elmorotavern.com","tier":"","message":"","currency":"","rating":8.3},{"name":"Lady Falconburgh's Barley Exchange","phone":"9703829664","address":"640 Main Ave","lat":37.270641765936155,"lng":-107.88131074860053,"city_fetched":"Durango,US","state":"CO","country":"United States","canonicalUrl":"https://foursquare.com/v/lady-falconburghs-barley-exchange/4b47a028f964a520ed3726e3","categoryId":"4bf58dd8d48988d116941735","category":"Bar","checkinsCount":1427,"usersCount":632,"tipCount":23,"visitsCount":1470,"url":"http://ladyfalconburgh.com","tier":2,"message":"Moderate","currency":"$","rating":8.2},{"name":"Carver Brewing Co.","phone":"9702592545","twitter":"carverbrewing","address":"1022 Main Ave","lat":37.27488950318121,"lng":-107.87998009723285,"city_fetched":"Durango,US","state":"CO","country":"United States","canonicalUrl":"https://foursquare.com/v/carver-brewing-co/4b479ec1f964a520b73726e3","categoryId":"50327c8591d4c4b30a586d5d","category":"Brewery","checkinsCount":2324,"usersCount":1640,"tipCount":48,"visitsCount":2631,"url":"http://www.carverbrewing.com","tier":1,"message":"Cheap","currency":"$","rating":8.2},{"name":"The Irish Embassy Pub","phone":"9704031200","address":"900 Main Ave","lat":37.273425,"lng":-107.8805764,"city_fetched":"Durango,US","state":"CO","country":"United States","canonicalUrl":"https://foursquare.com/v/the-irish-embassy-pub/4b5b94fef964a520bb0829e3","categoryId":"4bf58dd8d48988d11b941735","category":"Pub","checkinsCount":1555,"usersCount":879,"tipCount":28,"visitsCount":1719,"url":"http://theirishembassypub.com","tier":"","message":"","currency":"","rating":8.1},{"name":"The Office Spiritorium","phone":"9703757260","twitter":"theoffice_dgo","address":"699 Main Ave","lat":37.27098804274856,"lng":-107.88151902501593,"city_fetched":"Durango,US","state":"CO","country":"United States","canonicalUrl":"https://foursquare.com/theoffice_dgo","categoryId":"4bf58dd8d48988d11e941735","category":"Cocktail Bar","checkinsCount":482,"usersCount":283,"tipCount":11,"visitsCount":483,"url":"http://strater.com","tier":"","message":"","currency":"","rating":8.1},{"name":"Diamond Belle Saloon","phone":"9703757150","twitter":"diamond_belle_","address":"699 Main Ave","lat":37.27119558873632,"lng":-107.8815826650614,"city_fetched":"Durango,US","state":"CO","country":"United States","canonicalUrl":"https://foursquare.com/diamond_belle_","categoryId":"4bf58dd8d48988d116941735","category":"Bar","checkinsCount":936,"usersCount":579,"tipCount":15,"visitsCount":954,"url":"http://www.diamondbelle.com","tier":2,"message":"Moderate","currency":"$","rating":7.9},{"name":"Durango Brewing Co.","address":"3000 Main Ave","lat":37.297634716666664,"lng":-107.87182403333334,"city_fetched":"Durango,US","state":"CO","country":"United States","canonicalUrl":"https://foursquare.com/v/durango-brewing-co/4b15be57f964a5209cb323e3","categoryId":"50327c8591d4c4b30a586d5d","category":"Brewery","checkinsCount":634,"usersCount":443,"tipCount":8,"visitsCount":691,"url":"http://durangobrewing.com","tier":"","message":"","currency":"","rating":7.9},{"name":"El Rancho","phone":"9702598111","address":"975 Main Ave","lat":37.27444722188111,"lng":-107.88053549880505,"city_fetched":"Durango,US","state":"CO","country":"United States","canonicalUrl":"https://foursquare.com/v/el-rancho/4b535476f964a5209a9727e3","categoryId":"4bf58dd8d48988d118941735","category":"Dive Bar","checkinsCount":751,"usersCount":395,"tipCount":2,"visitsCount":816,"tier":1,"message":"Cheap","currency":"$","rating":7.8},{"name":"Animas Brewing Company","twitter":"animasbrewingco","address":"1560 E 2nd Ave","lat":37.280129667662926,"lng":-107.8770758270687,"city_fetched":"Durango,US","state":"CO","country":"United States","canonicalUrl":"https://foursquare.com/v/animas-brewing-company/549f1d89498ef340b3619ef8","categoryId":"50327c8591d4c4b30a586d5d","category":"Brewery","checkinsCount":189,"usersCount":195,"tipCount":1,"visitsCount":316,"tier":"","message":"","currency":"","rating":7.8},{"name":"The Balcony Bar & Grill","lat":37.27028772102923,"lng":-107.88150745410007,"city_fetched":"Durango,US","state":"CO","country":"United States","canonicalUrl":"https://foursquare.com/v/the-balcony-bar--grill/4bf03adfd4e4d13a830816a7","categoryId":"4bf58dd8d48988d116941735","category":"Bar","checkinsCount":571,"usersCount":362,"tipCount":4,"visitsCount":588,"tier":"","message":"","currency":"","rating":7.4},{"name":"8th Ave Tavern","phone":"9702598801","address":"509 E 8th Ave","lat":37.267659009012846,"lng":-107.87259798515414,"city_fetched":"Durango,US","state":"CO","country":"United States","canonicalUrl":"https://foursquare.com/v/8th-ave-tavern/4bc161a02a89ef3b845df288","categoryId":"4bf58dd8d48988d118941735","category":"Dive Bar","checkinsCount":530,"usersCount":92,"tipCount":3,"visitsCount":557,"tier":"","message":"","currency":"","rating":7.2},{"name":"Moe's","phone":"9702599018","address":"937 Main Ave","lat":37.273998856544495,"lng":-107.88072,"city_fetched":"Durango,US","state":"CO","country":"United States","canonicalUrl":"https://foursquare.com/v/moes/4b497033f964a520cd6f26e3","categoryId":"4bf58dd8d48988d116941735","category":"Bar","checkinsCount":431,"usersCount":192,"tipCount":2,"visitsCount":435,"url":"http://moes.durangolatenight.com","tier":"","message":"","currency":"","rating":6.8}]