[{"name":"Fullsteam Brewery","phone":"9196822337","twitter":"fullsteam","address":"726 Rigsbee Ave","lat":36.0031015472657,"lng":-78.89978998542776,"neighborhood":"Old North Durham","city_fetched":"Durham,US","state":"NC","country":"United States","canonicalUrl":"https://foursquare.com/fullsteam","categoryId":"50327c8591d4c4b30a586d5d","category":"Brewery","checkinsCount":14692,"usersCount":6237,"tipCount":103,"visitsCount":16348,"url":"http://fullsteam.ag/tavern","tier":1,"message":"Cheap","currency":"$","rating":9.5},{"name":"Motorco Music Hall","phone":"9199010875","twitter":"motorcomh","address":"723 Rigsbee Ave","lat":36.00346436260866,"lng":-78.90024315050746,"neighborhood":"Old North Durham","city_fetched":"Durham,US","state":"NC","country":"United States","canonicalUrl":"https://foursquare.com/v/motorco-music-hall/4c798bd776ce9c74b757ab0c","categoryId":"4bf58dd8d48988d116941735","category":"Bar","checkinsCount":6110,"usersCount":2732,"tipCount":25,"visitsCount":6298,"url":"http://motorcomusic.com","tier":1,"message":"Cheap","currency":"$","rating":9.2},{"name":"Alley Twenty Six","phone":"9192131267","twitter":"alleytwentysix","address":"320 E Chapel Hill St","lat":35.99688777358536,"lng":-78.90053629875183,"neighborhood":"City Center","city_fetched":"Durham,US","state":"NC","country":"United States","canonicalUrl":"https://foursquare.com/v/alley-twenty-six/4fecc1f8067d24d28ea8d65c","categoryId":"4bf58dd8d48988d11e941735","category":"Cocktail Bar","checkinsCount":1674,"usersCount":1032,"tipCount":28,"visitsCount":2025,"url":"http://alleytwentysix.com","tier":2,"message":"Moderate","currency":"$","rating":9.1},{"name":"Ponysaurus Brewing","phone":"9784827701","address":"219 Hood St","lat":35.989566,"lng":-78.895324,"neighborhood":"Downtown Durham","city_fetched":"Durham,US","state":"NC","country":"United States","canonicalUrl":"https://foursquare.com/v/ponysaurus-brewing/560db724498ef0204819585c","categoryId":"50327c8591d4c4b30a586d5d","category":"Brewery","checkinsCount":963,"usersCount":908,"tipCount":10,"visitsCount":1749,"url":"http://ponysaurusbrewing.com","tier":2,"message":"Moderate","currency":"$","rating":9},{"name":"Big Boss Brewing Company","phone":"9198340045","twitter":"bigbossbeer","address":"1249 Wicker Dr","lat":35.809717438615635,"lng":-78.6172002651952,"neighborhood":"East Raleigh","city_fetched":"Durham,US","state":"NC","country":"United States","canonicalUrl":"https://foursquare.com/v/big-boss-brewing-company/4a594fbbf964a52036b91fe3","categoryId":"50327c8591d4c4b30a586d5d","category":"Brewery","checkinsCount":8883,"usersCount":3080,"tipCount":72,"visitsCount":10072,"url":"http://www.bigbossbrewing.com","tier":1,"message":"Cheap","currency":"$","rating":8.8},{"name":"Bar Virgile","address":"105 S Mangum St","lat":35.99464138449359,"lng":-78.90088973605644,"neighborhood":"City Center","city_fetched":"Durham,US","state":"NC","country":"United States","canonicalUrl":"https://foursquare.com/v/bar-virgile/5495eb1b498ee0902b564ef7","categoryId":"4bf58dd8d48988d11e941735","category":"Cocktail Bar","checkinsCount":378,"usersCount":399,"tipCount":6,"visitsCount":585,"tier":"","message":"","currency":"","rating":8.7},{"name":"Bull Durham Bar","phone":"9194900999","address":"3001 Cameron Blvd","lat":35.99301874637604,"lng":-78.948076,"city_fetched":"Durham,US","state":"NC","country":"United States","canonicalUrl":"https://foursquare.com/v/bull-durham-bar/4b11622ef964a520587b23e3","categoryId":"4bf58dd8d48988d1d5941735","category":"Hotel Bar","checkinsCount":1511,"usersCount":663,"tipCount":7,"visitsCount":1532,"url":"http://www.washingtondukeinn.com/Dining/bull_durham_bar.asp","tier":2,"message":"Moderate","currency":"$","rating":8.7},{"name":"Tyler's Restaurant & Taproom","phone":"9193551380","twitter":"tylersapex","address":"1479 Beaver Creek Commons Dr","lat":35.744875209443045,"lng":-78.8844645023346,"neighborhood":"Beaver Creek Crossings","city_fetched":"Durham,US","state":"NC","country":"United States","canonicalUrl":"https://foursquare.com/tylersapex","categoryId":"4bf58dd8d48988d11b941735","category":"Pub","checkinsCount":12750,"usersCount":3666,"tipCount":95,"visitsCount":13713,"url":"http://www.tylerstaproom.com","tier":2,"message":"Moderate","currency":"$","rating":8.6},{"name":"The Federal","phone":"9196808611","address":"914 W Main St","lat":36.00061798122167,"lng":-78.91000717878342,"neighborhood":"Brightleaf","city_fetched":"Durham,US","state":"NC","country":"United States","canonicalUrl":"https://foursquare.com/v/the-federal/4ad7b956f964a520160e21e3","categoryId":"4bf58dd8d48988d116941735","category":"Bar","checkinsCount":6754,"usersCount":2592,"tipCount":52,"visitsCount":7166,"url":"http://thefederal.net","tier":2,"message":"Moderate","currency":"$","rating":8.5},{"name":"Salem Street Pub","phone":"9193879992","twitter":"salemstreetpub","address":"113 N Salem St","lat":35.731245220833166,"lng":-78.85137762426162,"city_fetched":"Durham,US","state":"NC","country":"United States","canonicalUrl":"https://foursquare.com/v/salem-street-pub/4b53490cf964a520dd9527e3","categoryId":"4bf58dd8d48988d11b941735","category":"Pub","checkinsCount":2216,"usersCount":1108,"tipCount":29,"visitsCount":2500,"url":"http://www.salemstreetpub.com","tier":2,"message":"Moderate","currency":"$","rating":8.5},{"name":"Red Fox","phone":"9194672566","address":"300 Prestonwood Pkwy","lat":35.79599488955508,"lng":-78.8360993738864,"neighborhood":"Preston","city_fetched":"Durham,US","state":"NC","country":"United States","canonicalUrl":"https://foursquare.com/v/red-fox/4c6f0996b5a5236aad044c52","categoryId":"4bf58dd8d48988d11b941735","category":"Pub","checkinsCount":964,"usersCount":118,"tipCount":1,"visitsCount":1028,"url":"http://prestonwood.com/Amenities/Dining.aspx","tier":"","message":"","currency":"","rating":8.4},{"name":"Hibernian Pub","phone":"9198030290","address":"8021 Falls of Neuse Rd","lat":35.893864733396995,"lng":-78.62448803160756,"neighborhood":"North Raleigh","city_fetched":"Durham,US","state":"NC","country":"United States","canonicalUrl":"https://foursquare.com/v/hibernian-pub/511560d6e4b03f38709e3c98","categoryId":"4bf58dd8d48988d11b941735","category":"Pub","checkinsCount":2416,"usersCount":1573,"tipCount":31,"visitsCount":3504,"url":"http://hibernianpub.com","tier":2,"message":"Moderate","currency":"$","rating":8.2},{"name":"Criterion","address":"347 W Main St","lat":35.99691514018634,"lng":-78.90396234033747,"neighborhood":"City Center","city_fetched":"Durham,US","state":"NC","country":"United States","canonicalUrl":"https://foursquare.com/v/criterion/54220f2f498eeed0135cbf26","categoryId":"4bf58dd8d48988d11b941735","category":"Pub","checkinsCount":446,"usersCount":215,"tipCount":8,"visitsCount":473,"tier":"","message":"","currency":"","rating":8.2},{"name":"Pipers Tavern","phone":"9196767413","address":"8304 Falls of Neuse Rd","lat":35.89470469253539,"lng":-78.61993254682952,"neighborhood":"North Raleigh","city_fetched":"Durham,US","state":"NC","country":"United States","canonicalUrl":"https://foursquare.com/v/pipers-tavern/4ada0b11f964a520b11d21e3","categoryId":"4bf58dd8d48988d11b941735","category":"Pub","checkinsCount":3351,"usersCount":1596,"tipCount":49,"visitsCount":4190,"url":"http://thepiperstavern.com","tier":2,"message":"Moderate","currency":"$","rating":8.2},{"name":"Goodfellows","phone":"9199608685","address":"149 1/2 E Franklin St","lat":35.91382,"lng":-79.05409817142858,"neighborhood":"Downtown Chapel Hill","city_fetched":"Durham,US","state":"NC","country":"United States","canonicalUrl":"https://foursquare.com/v/goodfellows/4ad79f1df964a520e50c21e3","categoryId":"4bf58dd8d48988d116941735","category":"Bar","checkinsCount":6637,"usersCount":2046,"tipCount":25,"visitsCount":6888,"url":"http://goodfellowsbar.com","tier":1,"message":"Cheap","currency":"$","rating":8.1},{"name":"Tobacco Road Sports Caf√©","phone":"9199379909","twitter":"tobaccoroadnc","address":"280 S Mangum St #100","lat":35.99237963198328,"lng":-78.90349814015238,"neighborhood":"Bull Durham","city_fetched":"Durham,US","state":"NC","country":"United States","canonicalUrl":"https://foursquare.com/v/tobacco-road-sports-caf%C3%A9/4bd77cd6885595216db687a7","categoryId":"4bf58dd8d48988d11d941735","category":"Sports Bar","checkinsCount":10074,"usersCount":5453,"tipCount":89,"visitsCount":10758,"url":"http://www.tobaccoroadsportscafe.com","tier":2,"message":"Moderate","currency":"$","rating":8.1},{"name":"The Peak City Grill & Bar","phone":"9193038001","twitter":"peakcity","address":"126 N Salem St","lat":35.73152,"lng":-78.85065,"city_fetched":"Durham,US","state":"NC","country":"United States","canonicalUrl":"https://foursquare.com/v/the-peak-city-grill--bar/4b494ff5f964a5202d6d26e3","categoryId":"4bf58dd8d48988d11b941735","category":"Pub","checkinsCount":1462,"usersCount":945,"tipCount":16,"visitsCount":1624,"url":"http://www.thepeakcitygrill.com/#zNlB8","tier":"","message":"","currency":"","rating":8.1},{"name":"Bar Lusconi","phone":"9193391432","twitter":"lusconidurham","address":"117B E Main St","lat":35.994706110866915,"lng":-78.9000607794484,"neighborhood":"Downtown Durham","city_fetched":"Durham,US","state":"NC","country":"United States","canonicalUrl":"https://foursquare.com/v/bar-lusconi/516f2bd7e4b01e6ab3410392","categoryId":"4bf58dd8d48988d123941735","category":"Wine Bar","checkinsCount":501,"usersCount":300,"tipCount":8,"visitsCount":564,"url":"http://www.barlusconi.com","tier":2,"message":"Moderate","currency":"$","rating":8.1},{"name":"Gatehouse Tavern","phone":"9195696745","twitter":"gatehousewf","address":"964 Gateway Commons Cir","lat":35.96815846197449,"lng":-78.49453717152734,"city_fetched":"Durham,US","state":"NC","country":"United States","canonicalUrl":"https://foursquare.com/v/gatehouse-tavern/4c350ec87cc0c9b6e76cf49a","categoryId":"4bf58dd8d48988d116941735","category":"Bar","checkinsCount":2039,"usersCount":772,"tipCount":21,"visitsCount":2423,"url":"http://gatehousetavernnc.com","tier":2,"message":"Moderate","currency":"$","rating":8},{"name":"Bull City Ciderworks","address":"113 S Elizabeth St","lat":35.990452653948765,"lng":-78.89472212990829,"neighborhood":"Downtown Durham","city_fetched":"Durham,US","state":"NC","country":"United States","canonicalUrl":"https://foursquare.com/v/bull-city-ciderworks/53d40a87498eaf958855a436","categoryId":"50327c8591d4c4b30a586d5d","category":"Brewery","checkinsCount":494,"usersCount":423,"tipCount":6,"visitsCount":811,"url":"http://bullcityciderworks.com","tier":"","message":"","currency":"","rating":8},{"name":"Craft Public House","phone":"9198519173","twitter":"craftpubhouse","address":"1040 Tryon Village Dr","lat":35.746303406212625,"lng":-78.74467889489996,"city_fetched":"Durham,US","state":"NC","country":"United States","canonicalUrl":"https://foursquare.com/craftpubhouse","categoryId":"4bf58dd8d48988d11b941735","category":"Pub","checkinsCount":4477,"usersCount":1554,"tipCount":29,"visitsCount":4848,"url":"http://www.craftpublichouse.com","tier":2,"message":"Moderate","currency":"$","rating":8},{"name":"Surf Club","address":"703 Rigsbee Ave","lat":36.00222558953826,"lng":-78.90018788658624,"neighborhood":"Old North Durham","city_fetched":"Durham,US","state":"NC","country":"United States","canonicalUrl":"https://foursquare.com/v/surf-club/4eeaa261f9ab12e3b05d21f6","categoryId":"4bf58dd8d48988d116941735","category":"Bar","checkinsCount":2198,"usersCount":1079,"tipCount":14,"visitsCount":2654,"tier":1,"message":"Cheap","currency":"$","rating":8},{"name":"JD's Tavern","phone":"9196297285","address":"800 W Williams St","lat":35.73925161460599,"lng":-78.86440897834389,"city_fetched":"Durham,US","state":"NC","country":"United States","canonicalUrl":"https://foursquare.com/v/jds-tavern/4ec6986c722eeaa24cf86249","categoryId":"4bf58dd8d48988d116941735","category":"Bar","checkinsCount":3643,"usersCount":1148,"tipCount":37,"visitsCount":4633,"tier":"","message":"","currency":"","rating":8},{"name":"106 Main","phone":"9195930560","twitter":"106main","address":"106 E Main St","lat":35.994823607988636,"lng":-78.9004421003643,"neighborhood":"City Center","city_fetched":"Durham,US","state":"NC","country":"United States","canonicalUrl":"https://foursquare.com/v/106-main/5245f72411d26d8797962315","categoryId":"4bf58dd8d48988d11e941735","category":"Cocktail Bar","checkinsCount":297,"usersCount":166,"tipCount":13,"visitsCount":315,"url":"http://106main.com","tier":1,"message":"Cheap","currency":"$","rating":7.9},{"name":"Crosstown Pub & Grill","phone":"9196502853","twitter":"crosstownpub14","address":"140 E Chatham St","lat":35.78735817413577,"lng":-78.77980425563898,"city_fetched":"Durham,US","state":"NC","country":"United States","canonicalUrl":"https://foursquare.com/v/crosstown-pub--grill/548b56ce498e32b9368a7225","categoryId":"4bf58dd8d48988d11b941735","category":"Pub","checkinsCount":334,"usersCount":230,"tipCount":3,"visitsCount":460,"url":"http://www.crosstowndowntown.com","tier":"","message":"","currency":"","rating":7.9},{"name":"Mitch's Tavern","phone":"9198217771","twitter":"mitchstavern","address":"2426 Hillsborough St","lat":35.787827922072466,"lng":-78.66762399673462,"city_fetched":"Durham,US","state":"NC","country":"United States","canonicalUrl":"https://foursquare.com/v/mitchs-tavern/4ad899baf964a520b51221e3","categoryId":"4bf58dd8d48988d11b941735","category":"Pub","checkinsCount":5493,"usersCount":2039,"tipCount":43,"visitsCount":5637,"url":"http://www.mitchstavern.com","tier":1,"message":"Cheap","currency":"$","rating":7.9},{"name":"Bralie's Sports Bar","phone":"9198061441","address":"1725 Carpenter Fletcher Rd","lat":35.91555317200964,"lng":-78.88916763443576,"city_fetched":"Durham,US","state":"NC","country":"United States","canonicalUrl":"https://foursquare.com/v/bralies-sports-bar/4ae22100f964a520028b21e3","categoryId":"4bf58dd8d48988d118941735","category":"Dive Bar","checkinsCount":938,"usersCount":464,"tipCount":8,"visitsCount":1597,"url":"http://braliesbar.com","tier":1,"message":"Cheap","currency":"$","rating":7.9},{"name":"MacGregor Draft House","phone":"9194611633","address":"107 Edinburgh South Dr","lat":35.73697030716555,"lng":-78.79829317331314,"city_fetched":"Durham,US","state":"NC","country":"United States","canonicalUrl":"https://foursquare.com/v/macgregor-draft-house/4ae8c960f964a5204ab221e3","categoryId":"4bf58dd8d48988d11b941735","category":"Pub","checkinsCount":5100,"usersCount":2027,"tipCount":28,"visitsCount":6378,"url":"http://www.mydrafthouse.com","tier":2,"message":"Moderate","currency":"$","rating":7.8},{"name":"West 94th Street Pub","phone":"9199678600","twitter":"west94thstpub","address":"4711 Hope Valley Rd","lat":35.92116929323824,"lng":-78.95719802229985,"city_fetched":"Durham,US","state":"NC","country":"United States","canonicalUrl":"https://foursquare.com/v/west-94th-street-pub/4b1025e4f964a520016a23e3","categoryId":"4bf58dd8d48988d11b941735","category":"Pub","checkinsCount":2352,"usersCount":597,"tipCount":22,"visitsCount":2644,"url":"http://www.west94thstpub.com","tier":2,"message":"Moderate","currency":"$","rating":7.8},{"name":"Social Games and Brews","twitter":"thesocialdurham","address":"1007 W Main St","lat":36.00084744946715,"lng":-78.91069852007877,"neighborhood":"Brightleaf","city_fetched":"Durham,US","state":"NC","country":"United States","canonicalUrl":"https://foursquare.com/v/social-games-and-brews/532e5746498e4d7cb6b8f310","categoryId":"4bf58dd8d48988d116941735","category":"Bar","checkinsCount":325,"usersCount":297,"tipCount":6,"visitsCount":479,"url":"http://socialdurham.com","tier":"","message":"","currency":"","rating":7.8},{"name":"Atomic Fern","lat":35.995297,"lng":-78.900007,"neighborhood":"City Center","city_fetched":"Durham,US","state":"NC","country":"United States","canonicalUrl":"https://foursquare.com/v/atomic-fern/54b84af7498ebfa6dc58bcba","categoryId":"4bf58dd8d48988d116941735","category":"Bar","checkinsCount":136,"usersCount":86,"tipCount":4,"visitsCount":142,"tier":"","message":"","currency":"","rating":7.7},{"name":"Capital Cabaret Gentleman's Club","phone":"9192064040","address":"6713 Mt. Herman Rd.","lat":35.90303862728887,"lng":-78.77117335796356,"city_fetched":"Durham,US","state":"NC","country":"United States","canonicalUrl":"https://foursquare.com/v/capital-cabaret-gentlemans-club/4b5a5859f964a520d4be28e3","categoryId":"4bf58dd8d48988d1d6941735","category":"Strip Club","checkinsCount":1464,"usersCount":947,"tipCount":12,"visitsCount":2270,"url":"http://capitalcabaret.com","tier":"","message":"","currency":"","rating":7.6},{"name":"West End Billiards","address":"601 W Main St","lat":35.997845632383054,"lng":-78.90606226590354,"neighborhood":"Warehouse District","city_fetched":"Durham,US","state":"NC","country":"United States","canonicalUrl":"https://foursquare.com/v/west-end-billiards/53238e78498edea36959321e","categoryId":"4bf58dd8d48988d116941735","category":"Bar","checkinsCount":379,"usersCount":242,"tipCount":3,"visitsCount":431,"url":"http://westendwinebar.com","tier":"","message":"","currency":"","rating":7.6},{"name":"Orange County Social Club","phone":"9199330669","address":"108 E Main St","lat":35.91029049247343,"lng":-79.07113552093506,"city_fetched":"Durham,US","state":"NC","country":"United States","canonicalUrl":"https://foursquare.com/v/orange-county-social-club/4aea7afaf964a520b5bb21e3","categoryId":"4bf58dd8d48988d116941735","category":"Bar","checkinsCount":1931,"usersCount":655,"tipCount":11,"visitsCount":1953,"tier":"","message":"","currency":"","rating":7.5},{"name":"The Goat Bar","phone":"9192334143","address":"5111 Western Blvd","lat":35.786278578334716,"lng":-78.71215455571209,"neighborhood":"Southwest Raleigh","city_fetched":"Durham,US","state":"NC","country":"United States","canonicalUrl":"https://foursquare.com/v/the-goat-bar/4ada084bf964a520871d21e3","categoryId":"4bf58dd8d48988d118941735","category":"Dive Bar","checkinsCount":9416,"usersCount":1210,"tipCount":27,"visitsCount":9853,"tier":1,"message":"Cheap","currency":"$","rating":7.4},{"name":"Rudy's Pub & Grill","phone":"9193035061","address":"780 W Williams St","lat":35.73843117306677,"lng":-78.8633394241333,"city_fetched":"Durham,US","state":"NC","country":"United States","canonicalUrl":"https://foursquare.com/v/rudys-pub--grill/4aeb5e7ef964a52077c121e3","categoryId":"4bf58dd8d48988d11b941735","category":"Pub","checkinsCount":2240,"usersCount":594,"tipCount":27,"visitsCount":2331,"url":"http://rudysofapex.com","tier":2,"message":"Moderate","currency":"$","rating":7.2},{"name":"Pure Gold","phone":"9194699305","twitter":"pgcary","address":"301 N Harrison Ave","lat":35.78863582596523,"lng":-78.78369400720028,"city_fetched":"Durham,US","state":"NC","country":"United States","canonicalUrl":"https://foursquare.com/v/pure-gold/4aea7db7f964a520babb21e3","categoryId":"4bf58dd8d48988d1d6941735","category":"Strip Club","checkinsCount":3201,"usersCount":541,"tipCount":10,"visitsCount":3273,"url":"http://puregoldclubs.com","tier":"","message":"","currency":"","rating":7.1},{"name":"Bowbarr","phone":"9199679725","address":"705 W Rosemary St","lat":35.91081187119093,"lng":-79.06609296798706,"city_fetched":"Durham,US","state":"NC","country":"United States","canonicalUrl":"https://foursquare.com/v/bowbarr/4b89a512f964a520b94832e3","categoryId":"4bf58dd8d48988d118941735","category":"Dive Bar","checkinsCount":1930,"usersCount":669,"tipCount":15,"visitsCount":2010,"tier":"","message":"","currency":"","rating":7},{"name":"The Brickhouse","phone":"9198293666","twitter":"brickhouseralnc","address":"3801 Hillsborough St","lat":35.79392392413131,"lng":-78.68878028268388,"city_fetched":"Durham,US","state":"NC","country":"United States","canonicalUrl":"https://foursquare.com/v/the-brickhouse/4aff024af964a520e93222e3","categoryId":"4bf58dd8d48988d11b941735","category":"Pub","checkinsCount":6217,"usersCount":2093,"tipCount":33,"visitsCount":6831,"url":"http://brickhouse-nc.com","tier":2,"message":"Moderate","currency":"$","rating":7},{"name":"Tilted Kilt Raleigh","phone":"9197908898","twitter":"tiltedkiltpub","address":"4516 Falls of Neuse Rd","lat":35.84362813226223,"lng":-78.61322640854382,"city_fetched":"Durham,US","state":"NC","country":"United States","canonicalUrl":"https://foursquare.com/v/tilted-kilt-raleigh/4f981d1fe4b0d0a26a68f94e","categoryId":"4bf58dd8d48988d11b941735","category":"Pub","checkinsCount":3601,"usersCount":1602,"tipCount":28,"visitsCount":4448,"url":"http://www.tiltedkilt.com","tier":2,"message":"Moderate","currency":"$","rating":7},{"name":"The Tavern","phone":"9192867665","address":"1900 W Markham Ave","lat":36.01007970344211,"lng":-78.92110303941008,"neighborhood":"Old West Durham","city_fetched":"Durham,US","state":"NC","country":"United States","canonicalUrl":"https://foursquare.com/v/the-tavern/4adfd6d3f964a520b47d21e3","categoryId":"4bf58dd8d48988d116941735","category":"Bar","checkinsCount":1757,"usersCount":803,"tipCount":20,"visitsCount":2233,"url":"http://thetaverndurham.com","tier":1,"message":"Cheap","currency":"$","rating":6.9},{"name":"The Cellar","phone":"9199677599","address":"450 W. Franklin St","lat":35.91089487646448,"lng":-79.0624615134584,"neighborhood":"Downtown Chapel Hill","city_fetched":"Durham,US","state":"NC","country":"United States","canonicalUrl":"https://foursquare.com/v/the-cellar/4b889acaf964a520e20332e3","categoryId":"4bf58dd8d48988d116941735","category":"Bar","checkinsCount":820,"usersCount":338,"tipCount":8,"visitsCount":823,"tier":"","message":"","currency":"","rating":6.9},{"name":"Bull City Homebrew","phone":"9196820300","twitter":"bullcitybrew","address":"1906 NC 54 Hwy, Suite 200 B","lat":35.90203285217285,"lng":-78.89856219291687,"city_fetched":"Durham,US","state":"NC","country":"United States","canonicalUrl":"https://foursquare.com/v/bull-city-homebrew/4dd2a1a7c65b9d071fa0b74d","categoryId":"50327c8591d4c4b30a586d5d","category":"Brewery","checkinsCount":438,"usersCount":218,"tipCount":2,"visitsCount":553,"url":"http://bullcityhomebrew.com","tier":"","message":"","currency":"","rating":6.9},{"name":"The Bar Durham","phone":"9199562929","twitter":"thebardurham","address":"711 Rigsbee Ave","lat":36.002389752645705,"lng":-78.90024867689786,"neighborhood":"Old North Durham","city_fetched":"Durham,US","state":"NC","country":"United States","canonicalUrl":"https://foursquare.com/v/the-bar-durham/4e3383031838df3b5f6f9b6c","categoryId":"4bf58dd8d48988d1d8941735","category":"Gay Bar","checkinsCount":1654,"usersCount":607,"tipCount":4,"visitsCount":1680,"url":"http://thebardurham.com","tier":2,"message":"Moderate","currency":"$","rating":6.8},{"name":"Time Out Bar & Grill","phone":"9195443232","address":"4310 S Miami Blvd","lat":35.89899075267918,"lng":-78.85060906850472,"city_fetched":"Durham,US","state":"NC","country":"United States","canonicalUrl":"https://foursquare.com/v/time-out-bar--grill/4b2c56d0f964a52003c624e3","categoryId":"4bf58dd8d48988d116941735","category":"Bar","checkinsCount":686,"usersCount":314,"tipCount":4,"visitsCount":712,"tier":"","message":"","currency":"","rating":6.8},{"name":"Speakeasy","address":"651 Jackie Robinson Dr","lat":35.992837722644,"lng":-78.90569754523979,"neighborhood":"Bull Durham","city_fetched":"Durham,US","state":"NC","country":"United States","canonicalUrl":"https://foursquare.com/v/speakeasy/4d294b1455a8b60c85dad5c0","categoryId":"4bf58dd8d48988d116941735","category":"Bar","checkinsCount":1018,"usersCount":188,"tipCount":1,"visitsCount":1027,"tier":"","message":"","currency":"","rating":6.8},{"name":"Alivia's Durham Bistro","phone":"9196828978","address":"900 W Main St","lat":36.00017929711156,"lng":-78.9092783798703,"neighborhood":"Brightleaf","city_fetched":"Durham,US","state":"NC","country":"United States","canonicalUrl":"https://foursquare.com/v/alivias-durham-bistro/4ac3dbe9f964a520219d20e3","categoryId":"4bf58dd8d48988d116941735","category":"Bar","checkinsCount":6775,"usersCount":3269,"tipCount":56,"visitsCount":7262,"url":"http://www.aliviasdurhambistro.com","tier":2,"message":"Moderate","currency":"$","rating":6.8},{"name":"Icon Night Club","address":"331 E Durham Rd","lat":35.79019347719719,"lng":-78.77570961466016,"city_fetched":"Durham,US","state":"NC","country":"United States","canonicalUrl":"https://foursquare.com/v/icon-night-club/4bdbc845c79cc928667b84e9","categoryId":"4bf58dd8d48988d1d8941735","category":"Gay Bar","checkinsCount":183,"usersCount":75,"tipCount":4,"visitsCount":183,"tier":"","message":"","currency":"","rating":6.8},{"name":"North Ridge Pub","phone":"9197909125","address":"6010 suite B. Falls of Neuse Road","lat":35.86656456163797,"lng":-78.6193395427302,"neighborhood":"North Raleigh","city_fetched":"Durham,US","state":"NC","country":"United States","canonicalUrl":"https://foursquare.com/v/north-ridge-pub/4b281656f964a520d08e24e3","categoryId":"4bf58dd8d48988d11b941735","category":"Pub","checkinsCount":867,"usersCount":386,"tipCount":16,"visitsCount":918,"url":"http://www.northridgepub.com","tier":2,"message":"Moderate","currency":"$","rating":6.8},{"name":"Skewers Bar & Grill","phone":"9196808048","address":"1013 W Main St","lat":36.001200593057625,"lng":-78.91109085087915,"neighborhood":"Brightleaf","city_fetched":"Durham,US","state":"NC","country":"United States","canonicalUrl":"https://foursquare.com/v/skewers-bar--grill/5215822611d283ee4dec5908","categoryId":"4bf58dd8d48988d119941735","category":"Hookah Bar","checkinsCount":699,"usersCount":536,"tipCount":9,"visitsCount":944,"url":"http://skewersbarandbar.com","tier":2,"message":"Moderate","currency":"$","rating":6.7},{"name":"Back Nine Pub","phone":"9194623550","address":"4220 NW Cary Pkwy","lat":35.790947953341764,"lng":-78.82711821281663,"neighborhood":"Preston","city_fetched":"Durham,US","state":"NC","country":"United States","canonicalUrl":"https://foursquare.com/v/back-nine-pub/4ae5085ff964a5201ca021e3","categoryId":"4bf58dd8d48988d11b941735","category":"Pub","checkinsCount":1023,"usersCount":298,"tipCount":8,"visitsCount":1040,"url":"http://back9pub.com","tier":"","message":"","currency":"","rating":6.7},{"name":"Mac's Tavern","phone":"9194674114","twitter":"macstavern","address":"1014 Ryan Rd","lat":35.77720942620043,"lng":-78.76845359802246,"city_fetched":"Durham,US","state":"NC","country":"United States","canonicalUrl":"https://foursquare.com/v/macs-tavern/4afdde0bf964a520982b22e3","categoryId":"4bf58dd8d48988d11d941735","category":"Sports Bar","checkinsCount":2926,"usersCount":869,"tipCount":28,"visitsCount":3008,"url":"http://www.macstavern.net","tier":1,"message":"Cheap","currency":"$","rating":6.7},{"name":"West End Wine Bar","phone":"9193814228","twitter":"westenddurham","address":"601 W Main St","lat":35.99806824971812,"lng":-78.90625567782229,"neighborhood":"Warehouse District","city_fetched":"Durham,US","state":"NC","country":"United States","canonicalUrl":"https://foursquare.com/v/west-end-wine-bar/4adcdb59f964a520fb6121e3","categoryId":"4bf58dd8d48988d123941735","category":"Wine Bar","checkinsCount":2145,"usersCount":1345,"tipCount":7,"visitsCount":2445,"url":"http://www.westendwinebar.com","tier":"","message":"","currency":"","rating":6.7},{"name":"The Maywood","lat":35.761685,"lng":-78.657814,"neighborhood":"Southwest Raleigh","city_fetched":"Durham,US","state":"NC","country":"United States","canonicalUrl":"https://foursquare.com/v/the-maywood/516f3997e4b0d738eea76b02","categoryId":"4bf58dd8d48988d118941735","category":"Dive Bar","checkinsCount":184,"usersCount":147,"tipCount":3,"visitsCount":246,"tier":"","message":"","currency":"","rating":6.6},{"name":"Champps","phone":"9193613393","twitter":"champps","address":"8030 Renaissance Parkway,  Suite 885","lat":35.90498758,"lng":-78.94434378,"city_fetched":"Durham,US","state":"NC","country":"United States","canonicalUrl":"https://foursquare.com/v/champps/4bb784dfcf2fc9b63a539e02","categoryId":"4bf58dd8d48988d11d941735","category":"Sports Bar","checkinsCount":6918,"usersCount":3546,"tipCount":46,"visitsCount":7041,"url":"http://t.co/9OBCSXZCsI","tier":2,"message":"Moderate","currency":"$","rating":6.5},{"name":"The Lobby Bar","phone":"9199416000","twitter":"hiltonhotels","address":"4810 Page Creek Ln","lat":35.88443170420827,"lng":-78.84397933357718,"city_fetched":"Durham,US","state":"NC","country":"United States","canonicalUrl":"https://foursquare.com/v/the-lobby-bar/50ca02c4245f2d4aa8c2c360","categoryId":"4bf58dd8d48988d1d5941735","category":"Hotel Bar","checkinsCount":41,"usersCount":29,"tipCount":0,"visitsCount":41,"url":"http://www.hilton.com","tier":"","message":"","currency":"","rating":6.5},{"name":"West End Wine Bar","phone":"9199677599","twitter":"westendch","address":"450 W Franklin St.","lat":35.91078246053329,"lng":-79.06244496211333,"neighborhood":"Downtown Chapel Hill","city_fetched":"Durham,US","state":"NC","country":"United States","canonicalUrl":"https://foursquare.com/v/west-end-wine-bar/4ad81bc6f964a520bf1021e3","categoryId":"4bf58dd8d48988d123941735","category":"Wine Bar","checkinsCount":2095,"usersCount":1117,"tipCount":19,"visitsCount":2108,"url":"http://westendwinebar.com","tier":"","message":"","currency":"","rating":6.5},{"name":"Carolina Ale House","phone":"9198510858","twitter":"hmshost","address":"2400 Terminal Blvd.","lat":35.87884204296709,"lng":-78.79171648109202,"city_fetched":"Durham,US","state":"NC","country":"United States","canonicalUrl":"https://foursquare.com/v/carolina-ale-house/4bd35c20462cb713a643de07","categoryId":"4bf58dd8d48988d11d941735","category":"Sports Bar","checkinsCount":2358,"usersCount":1841,"tipCount":23,"visitsCount":2375,"url":"http://carolinaalehouse.com","tier":2,"message":"Moderate","currency":"$","rating":6.2},{"name":"Carolina Ale House","phone":"9194902001","twitter":"carolinalehouse","address":"3911 Durham Chapel Hill Blvd","lat":35.96865272257894,"lng":-78.95689424855951,"city_fetched":"Durham,US","state":"NC","country":"United States","canonicalUrl":"https://foursquare.com/v/carolina-ale-house/4ae231baf964a520a78b21e3","categoryId":"4bf58dd8d48988d11d941735","category":"Sports Bar","checkinsCount":4622,"usersCount":2040,"tipCount":48,"visitsCount":5095,"url":"http://www.carolinaalehouse.com","tier":2,"message":"Moderate","currency":"$","rating":6.2},{"name":"Teasers Mens Club","phone":"9196832737","address":"212 W. Ramsuer St.","lat":35.99633968434479,"lng":-78.9032384081309,"neighborhood":"City Center","city_fetched":"Durham,US","state":"NC","country":"United States","canonicalUrl":"https://foursquare.com/v/teasers-mens-club/4bf4ba34cad2c92887539c99","categoryId":"4bf58dd8d48988d1d6941735","category":"Strip Club","checkinsCount":343,"usersCount":162,"tipCount":5,"visitsCount":343,"url":"http://teasersmensclub.com","tier":"","message":"","currency":"","rating":6.2},{"name":"Republic","phone":"9196827300","address":"353 W Main St","lat":35.996916208300604,"lng":-78.90432154134284,"neighborhood":"City Center","city_fetched":"Durham,US","state":"NC","country":"United States","canonicalUrl":"https://foursquare.com/v/republic/4c12eecfa9c220a1dbff549d","categoryId":"4bf58dd8d48988d121941735","category":"Lounge","checkinsCount":796,"usersCount":448,"tipCount":5,"visitsCount":801,"url":"http://www.therepublicnc.com","tier":"","message":"","currency":"","rating":6.1},{"name":"The Bull And Bear","phone":"9198473617","address":"5442 Six Forks Rd","lat":35.85543095876056,"lng":-78.64027082920074,"city_fetched":"Durham,US","state":"NC","country":"United States","canonicalUrl":"https://foursquare.com/v/the-bull-and-bear/4ba5875ff964a520990f39e3","categoryId":"4bf58dd8d48988d116941735","category":"Bar","checkinsCount":902,"usersCount":169,"tipCount":10,"visitsCount":929,"tier":"","message":"","currency":"","rating":6},{"name":"Shooters II","phone":"9196800428","address":"827 W Morgan St","lat":36.00112357461223,"lng":-78.90949487686157,"neighborhood":"Brightleaf","city_fetched":"Durham,US","state":"NC","country":"United States","canonicalUrl":"https://foursquare.com/v/shooters-ii/4adfd73bf964a520b67d21e3","categoryId":"4bf58dd8d48988d116941735","category":"Bar","checkinsCount":3683,"usersCount":1691,"tipCount":18,"visitsCount":4315,"tier":1,"message":"Cheap","currency":"$","rating":5.9},{"name":"Charlie's Pub & Grille","phone":"9192864446","address":"758 9th St","lat":36.00975584070205,"lng":-78.92198154317067,"neighborhood":"Old West Durham","city_fetched":"Durham,US","state":"NC","country":"United States","canonicalUrl":"https://foursquare.com/v/charlies-pub--grille/4b4cd219f964a5202ac026e3","categoryId":"4bf58dd8d48988d116941735","category":"Bar","checkinsCount":761,"usersCount":450,"tipCount":14,"visitsCount":764,"url":"http://www.charlies-durhamnc.com","tier":"","message":"","currency":"","rating":5.9},{"name":"Star Karaoke","phone":"9192931900","address":"2105 E NC Highway 54","lat":35.90367535759958,"lng":-78.89395944181202,"neighborhood":"durham nc","city_fetched":"Durham,US","state":"NC","country":"United States","canonicalUrl":"https://foursquare.com/v/star-karaoke/4b21ec23f964a5206e4224e3","categoryId":"4bf58dd8d48988d120941735","category":"Karaoke Bar","checkinsCount":421,"usersCount":300,"tipCount":8,"visitsCount":423,"url":"http://starkaraokenc.com","tier":"","message":"","currency":"","rating":5.7},{"name":"Gordon Biersch Bar & Restaurant","twitter":"hmshost","address":"Raleigh Durham Airport, 1025 Airside Drive","lat":35.87836266328499,"lng":-78.79237484823643,"city_fetched":"Durham,US","state":"NC","country":"United States","canonicalUrl":"https://foursquare.com/v/gordon-biersch-bar--restaurant/4f9ab1dcd4f2465542bc67f5","categoryId":"4bf58dd8d48988d11b941735","category":"Pub","checkinsCount":2185,"usersCount":1771,"tipCount":29,"visitsCount":2188,"tier":"","message":"","currency":"","rating":5.6},{"name":"Devines Restaurant & Sports Bar","phone":"9196820228","address":"904 W Main St","lat":36.000346,"lng":-78.9094,"neighborhood":"Brightleaf","city_fetched":"Durham,US","state":"NC","country":"United States","canonicalUrl":"https://foursquare.com/v/devines-restaurant--sports-bar/4adfd5a3f964a520b17d21e3","categoryId":"4bf58dd8d48988d11d941735","category":"Sports Bar","checkinsCount":2453,"usersCount":1036,"tipCount":12,"visitsCount":2473,"tier":"","message":"","currency":"","rating":5.6}]