[{"name":"Sarah Street Grill","phone":"5704249120","twitter":"sarahstgrill","address":"550 Quaker Aly","lat":40.98691069123003,"lng":-75.19199397768897,"city_fetched":"East Stroudsburg","state":"PA","country":"United States","canonicalUrl":"https://foursquare.com/sarahstgrill","category":"American Restaurant","checkinsCount":6309,"usersCount":1706,"tipCount":43,"visitsCount":7067,"url":"http://sarahstreetgrill.com","tier":2,"message":"Moderate","currency":"$","rating":8.8},{"name":"The Happy Pipe","lat":40.98588094532794,"lng":-75.19260377679004,"city_fetched":"East Stroudsburg","state":"PA","country":"United States","canonicalUrl":"https://foursquare.com/v/the-happy-pipe/4e8ba24f4901755a2dd4dda6","category":"Hookah Bar","checkinsCount":189,"usersCount":63,"tipCount":7,"visitsCount":190,"tier":"","message":"","currency":"","rating":8.6},{"name":"Rudy's Tavern","phone":"5704241131","twitter":"rudystavern","address":"90 Washington St","lat":40.997044977190185,"lng":-75.18349643640343,"city_fetched":"East Stroudsburg","state":"PA","country":"United States","canonicalUrl":"https://foursquare.com/v/rudys-tavern/4c1d990eb4e62d7f731edd93","category":"Bar","checkinsCount":14023,"usersCount":449,"tipCount":17,"visitsCount":14329,"tier":1,"message":"Cheap","currency":"$","rating":8.5},{"name":"Siamsa Irish Pub","phone":"5704218434","address":"636 Main St","lat":40.98547142338373,"lng":-75.1941933572827,"city_fetched":"East Stroudsburg","state":"PA","country":"United States","canonicalUrl":"https://foursquare.com/v/siamsa-irish-pub/4b54abbdf964a52023c627e3","category":"Pub","checkinsCount":3343,"usersCount":1536,"tipCount":19,"visitsCount":3468,"url":"http://siamsairishpub.com","tier":2,"message":"Moderate","currency":"$","rating":8.1},{"name":"Flood's","phone":"5704245743","address":"732 Main St","lat":40.98517614073261,"lng":-75.19515692851624,"city_fetched":"East Stroudsburg","state":"PA","country":"United States","canonicalUrl":"https://foursquare.com/v/floods/4c058f375753c92869a939f1","category":"Bar","checkinsCount":4879,"usersCount":1094,"tipCount":38,"visitsCount":5054,"url":"http://floodsbar.com","tier":2,"message":"Moderate","currency":"$","rating":7.9},{"name":"Philly Steaks","phone":"5708729199","address":"632 Main St","lat":40.985465,"lng":-75.194114,"city_fetched":"East Stroudsburg","state":"PA","country":"United States","canonicalUrl":"https://foursquare.com/v/philly-steaks/4e50a296a80997aa8a4b19c2","category":"Sandwich Place","checkinsCount":285,"usersCount":164,"tipCount":7,"visitsCount":286,"tier":"","message":"","currency":"","rating":7.8},{"name":"Cinder Inn","address":"1 Stokes Ave","lat":41.0187989861992,"lng":-75.19419380251612,"city_fetched":"East Stroudsburg","state":"PA","country":"United States","canonicalUrl":"https://foursquare.com/v/cinder-inn/4c2ab9988ef52d7f456630ba","category":"Bar","checkinsCount":538,"usersCount":133,"tipCount":6,"visitsCount":676,"tier":"","message":"","currency":"","rating":7.7},{"name":"Teddys University","address":"10 n 2nd st","lat":40.990939872610525,"lng":-75.18855170267061,"city_fetched":"East Stroudsburg","state":"PA","country":"United States","canonicalUrl":"https://foursquare.com/v/teddys-university/4c275c06c11dc9b65f692a24","category":"Bar","checkinsCount":3089,"usersCount":282,"tipCount":2,"visitsCount":3282,"tier":"","message":"","currency":"","rating":7.6},{"name":"Liquid","phone":"5704200100","address":"50 Crystal St","lat":40.99828975160825,"lng":-75.18167495727539,"city_fetched":"East Stroudsburg","state":"PA","country":"United States","canonicalUrl":"https://foursquare.com/v/liquid/4c2d3295e116e21eba3d8e60","category":"Cocktail Bar","checkinsCount":990,"usersCount":357,"tipCount":15,"visitsCount":1021,"url":"http://www.liquidmartinibar.com","tier":"","message":"","currency":"","rating":7.6},{"name":"Marita's Cantina","phone":"5704248355","address":"745 Main St","lat":40.984745,"lng":-75.19527481666667,"city_fetched":"East Stroudsburg","state":"PA","country":"United States","canonicalUrl":"https://foursquare.com/v/maritas-cantina/4bae86abf964a520d3bc3be3","category":"Bar","checkinsCount":2040,"usersCount":568,"tipCount":22,"visitsCount":2052,"tier":2,"message":"Moderate","currency":"$","rating":7.4},{"name":"Beer House Cafe","address":"Crystal Street","lat":40.998843,"lng":-75.182084,"city_fetched":"East Stroudsburg","state":"PA","country":"United States","canonicalUrl":"https://foursquare.com/v/beer-house-cafe/56c0dfffcd105e2635c07726","category":"Beer Bar","checkinsCount":82,"usersCount":27,"tipCount":3,"visitsCount":91,"tier":"","message":"","currency":"","rating":7.2},{"name":"Yard Of Ale","phone":"5705170130","address":"622 Main Street","lat":40.98566662488108,"lng":-75.19373218380946,"city_fetched":"East Stroudsburg","state":"PA","country":"United States","canonicalUrl":"https://foursquare.com/v/yard-of-ale/50d84c8de4b06e4a07233bda","category":"Beer Garden","checkinsCount":1255,"usersCount":657,"tipCount":22,"visitsCount":1405,"url":"http://www.newberrysyardofale.com","tier":1,"message":"Cheap","currency":"$","rating":6.8},{"name":"Glare Hookah Lounge","phone":"5704848204","address":"628 Main Street","lat":40.985475,"lng":-75.193818,"city_fetched":"East Stroudsburg","state":"PA","country":"United States","canonicalUrl":"https://foursquare.com/v/glare-hookah-lounge/4f89e481e4b0e5ed74ea2fe6","category":"Hookah Bar","checkinsCount":190,"usersCount":85,"tipCount":8,"visitsCount":191,"url":"http://www.glarelounge.com","tier":"","message":"","currency":"","rating":6.7},{"name":"Warrior Bar And Grill","address":"418 Main St","lat":40.987034599189684,"lng":-75.19017026525772,"city_fetched":"East Stroudsburg","state":"PA","country":"United States","canonicalUrl":"https://foursquare.com/v/warrior-bar-and-grill/51fadee0498e6f7f51c2cf10","category":"Bar","checkinsCount":810,"usersCount":137,"tipCount":2,"visitsCount":975,"tier":2,"message":"Moderate","currency":"$","rating":6.5},{"name":"CiCi's Pizza","phone":"5704222424","address":"314 Lincoln Ave Ste 1","lat":40.991953004145934,"lng":-75.18243064917932,"city_fetched":"East Stroudsburg","state":"PA","country":"United States","canonicalUrl":"https://foursquare.com/v/cicis-pizza/4e73d8027d8b91760257e6b8","category":"Pizza Place","checkinsCount":662,"usersCount":413,"tipCount":9,"visitsCount":690,"tier":"","message":"","currency":"","rating":6.5},{"name":"Jock & Jills","phone":"5705170724","address":"700 Main St","lat":40.98531535904745,"lng":-75.19445025676434,"city_fetched":"East Stroudsburg","state":"PA","country":"United States","canonicalUrl":"https://foursquare.com/v/jock--jills/4c3357e7452620a15568230f","category":"Bar","checkinsCount":3484,"usersCount":1044,"tipCount":24,"visitsCount":3528,"url":"http://jocknjillsbar.com","tier":1,"message":"Cheap","currency":"$","rating":5.8},{"name":"Ciro's Bistro","phone":"5704762476","address":"728 Main St","lat":40.985276129358326,"lng":-75.19495746503884,"city_fetched":"East Stroudsburg","state":"PA","country":"United States","canonicalUrl":"https://foursquare.com/v/ciros-bistro/4cf5c67eeb096ea80a09c248","category":"Speakeasy","checkinsCount":393,"usersCount":87,"tipCount":7,"visitsCount":393,"tier":"","message":"","currency":"","rating":5.6},{"name":"Grace O'Malley's","phone":"5705170724","address":"700 Main St","lat":40.98535751666667,"lng":-75.1945104,"city_fetched":"East Stroudsburg","state":"PA","country":"United States","canonicalUrl":"https://foursquare.com/v/grace-omalleys/4bace5e1f964a52020173be3","category":"Bar","checkinsCount":1336,"usersCount":525,"tipCount":7,"visitsCount":1336,"url":"http://graceomalleysirishpub.com","tier":"","message":"","currency":"","rating":5.5}]