[{"name":"Weyerbacher Brewing Coâ€Žmpany","phone":"6105595561","twitter":"weyerbacher","address":"905 Line St","lat":40.67342374718713,"lng":-75.22607638425421,"city_fetched":"Easton","state":"PA","country":"United States","canonicalUrl":"https://foursquare.com/v/weyerbacher-brewing-company/4b43c15bf964a520a3e825e3","category":"Brewery","checkinsCount":2340,"usersCount":1623,"tipCount":22,"visitsCount":3015,"url":"http://www.weyerbacher.com","tier":"","message":"","currency":"","rating":9.1},{"name":"Porters' Pub & Restaurant","phone":"6102506561","address":"700 Northampton St","lat":40.69069775493727,"lng":-75.21836757659912,"neighborhood":"West Ward","city_fetched":"Easton","state":"PA","country":"United States","canonicalUrl":"https://foursquare.com/v/porters-pub--restaurant/4b7779b0f964a520d29c2ee3","category":"Gastropub","checkinsCount":3080,"usersCount":1462,"tipCount":34,"visitsCount":3689,"url":"http://www.porterspubeaston.com","tier":2,"message":"Moderate","currency":"$","rating":9.1},{"name":"Two Rivers Brewing Co.","phone":"6108291131","twitter":"2riversbrew","address":"542 Northampton St","lat":40.69091675488994,"lng":-75.21449797696334,"city_fetched":"Easton","state":"PA","country":"United States","canonicalUrl":"https://foursquare.com/v/two-rivers-brewing-co/4e308cb42271352f54404f58","category":"Brewery","checkinsCount":1626,"usersCount":1175,"tipCount":30,"visitsCount":2263,"url":"http://tworiversbrewing.com","tier":2,"message":"Moderate","currency":"$","rating":8.9},{"name":"Pearly Baker's Alehouse","phone":"6102539949","address":"11 Centre Sq","lat":40.690815712837065,"lng":-75.2085828781128,"city_fetched":"Easton","state":"PA","country":"United States","canonicalUrl":"https://foursquare.com/v/pearly-bakers-alehouse/4ace9d5af964a52070d120e3","category":"Pub","checkinsCount":2498,"usersCount":1280,"tipCount":36,"visitsCount":2579,"url":"http://pearlybakers.net","tier":2,"message":"Moderate","currency":"$","rating":8.4},{"name":"1818 Tavern","phone":"6102580064","address":"2501 Seip Ave","lat":40.69465122807222,"lng":-75.26395089392538,"city_fetched":"Easton","state":"PA","country":"United States","canonicalUrl":"https://foursquare.com/v/1818-tavern/4bf74dd95317a593dff1fd7e","category":"Pub","checkinsCount":661,"usersCount":365,"tipCount":10,"visitsCount":859,"tier":"","message":"","currency":"","rating":8.2},{"name":"Slainte Irish Pub","phone":"6104388731","address":"665 Northampton St","lat":40.691085,"lng":-75.217095625,"neighborhood":"West Ward","city_fetched":"Easton","state":"PA","country":"United States","canonicalUrl":"https://foursquare.com/v/slainte-irish-pub/4bce1ecf29d4b71358fda7dc","category":"Bar","checkinsCount":177,"usersCount":94,"tipCount":5,"visitsCount":186,"tier":"","message":"","currency":"","rating":8.1},{"name":"Ashley's Signature Restaurant & Lounge","phone":"6102531971","address":"229 N 11th St","lat":40.693083270781074,"lng":-75.22456075589895,"neighborhood":"West Ward","city_fetched":"Easton","state":"PA","country":"United States","canonicalUrl":"https://foursquare.com/v/ashleys-signature-restaurant--lounge/4c2825a1ce3fc928e9d56c88","category":"Bar","checkinsCount":159,"usersCount":92,"tipCount":6,"visitsCount":228,"tier":"","message":"","currency":"","rating":8},{"name":"Black and Blue","phone":"6104383604","address":"683 Walnut St","lat":40.689023950511,"lng":-75.21742343902588,"neighborhood":"West Ward","city_fetched":"Easton","state":"PA","country":"United States","canonicalUrl":"https://foursquare.com/v/black-and-blue/4e037566091a06e9af84505c","category":"American Restaurant","checkinsCount":1103,"usersCount":491,"tipCount":18,"visitsCount":1334,"url":"http://blackandblueeaston.com","tier":2,"message":"Moderate","currency":"$","rating":7.9},{"name":"DUBS on 5th","phone":"6104383827","address":"402 5th St","lat":40.67738288805042,"lng":-75.2382407609965,"city_fetched":"Easton","state":"PA","country":"United States","canonicalUrl":"https://foursquare.com/v/dubs-on-5th/4fff2de8e4b0cd563a1fe6a8","category":"Sports Bar","checkinsCount":734,"usersCount":237,"tipCount":13,"visitsCount":1027,"url":"http://dubson5th.com","tier":2,"message":"Moderate","currency":"$","rating":7.9},{"name":"Rivals Sports Bar & Restaurant","phone":"6103922932","twitter":"rivalseaston","address":"5 Lehns Ct","lat":40.69078,"lng":-75.20859,"city_fetched":"Easton","state":"PA","country":"United States","canonicalUrl":"https://foursquare.com/rivalseaston","category":"Sports Bar","checkinsCount":764,"usersCount":349,"tipCount":8,"visitsCount":791,"url":"http://www.rivalseaston.com/#V5NYqX","tier":"","message":"","currency":"","rating":7.8},{"name":"Colonial Pizza","phone":"6102523033","address":"140 Spring Garden St","lat":40.693371,"lng":-75.20662486553192,"city_fetched":"Easton","state":"PA","country":"United States","canonicalUrl":"https://foursquare.com/v/colonial-pizza/4c252753f1272d7f8d4c84c5","category":"Pizza Place","checkinsCount":1307,"usersCount":533,"tipCount":14,"visitsCount":1502,"url":"http://www.http://www.google.com/local_url?q=http://www.colonialpizzapub.com/&dq=Colonial+Pizza+near+140+Spring+Garden+St.,+Easton,+PA+18042&ved=0CBQQ5AQ&sa=X&ei=j8w0TrTiGIvwyATbj9WJDA&s=ANYYN7l36YefXVoJwC-b3H8XQI8yGc26bQ","tier":2,"message":"Moderate","currency":"$","rating":7.7},{"name":"Fat Jack's","address":"2227 Freemansburg Ave","lat":40.6722402424373,"lng":-75.25129860055996,"city_fetched":"Easton","state":"PA","country":"United States","canonicalUrl":"https://foursquare.com/v/fat-jacks/4b932436f964a520703734e3","category":"Dive Bar","checkinsCount":975,"usersCount":344,"tipCount":9,"visitsCount":1156,"url":"http://fat-jacks.ne","tier":1,"message":"Cheap","currency":"$","rating":7.6},{"name":"College Hill Tavern","phone":"6108295470","address":"420 Cattell St","lat":40.7021253729175,"lng":-75.20684504366767,"city_fetched":"Easton","state":"PA","country":"United States","canonicalUrl":"https://foursquare.com/v/college-hill-tavern/4c1ad97f55e4c9b6ee844823","category":"Bar","checkinsCount":967,"usersCount":393,"tipCount":6,"visitsCount":1198,"url":"http://cht.bar","tier":"","message":"","currency":"","rating":7.1},{"name":"Shruty's Pub & Restaurant","phone":"6108291211","twitter":"shrutyspub","address":"1853 Northampton St","lat":40.68954627,"lng":-75.23913007,"city_fetched":"Easton","state":"PA","country":"United States","canonicalUrl":"https://foursquare.com/shrutyspub","category":"Sports Bar","checkinsCount":257,"usersCount":193,"tipCount":1,"visitsCount":371,"tier":"","message":"","currency":"","rating":6.9},{"name":"Sand Bar","address":"4 Union Sq","lat":40.69088728,"lng":-75.20248353481293,"city_fetched":"Easton","state":"NJ","country":"United States","canonicalUrl":"https://foursquare.com/v/sand-bar/4c3a36653849c928b797c2b1","category":"Bar","checkinsCount":373,"usersCount":148,"tipCount":6,"visitsCount":382,"tier":"","message":"","currency":"","rating":6.7},{"name":"Campus Pizza","phone":"6102537541","address":"133 McCartney St","lat":40.699289,"lng":-75.206497,"city_fetched":"Easton","state":"PA","country":"United States","canonicalUrl":"https://foursquare.com/v/campus-pizza/4c732648d944224be8c80e29","category":"Pizza Place","checkinsCount":271,"usersCount":121,"tipCount":6,"visitsCount":271,"tier":"","message":"","currency":"","rating":6.7},{"name":"The Tilted Kilt","twitter":"tiltedkiltpub","address":"80 Kunkle Dr","lat":40.684724907089,"lng":-75.2540387842026,"city_fetched":"Easton","state":"PA","country":"United States","canonicalUrl":"https://foursquare.com/v/the-tilted-kilt/54726b07498efd572e2ada6a","category":"Pub","checkinsCount":113,"usersCount":151,"tipCount":0,"visitsCount":305,"url":"http://www.tiltedkilt.com","tier":"","message":"","currency":"","rating":6.6},{"name":"Phenom Thai","phone":"6102589777","address":"159 Northampton St","lat":40.69150718598089,"lng":-75.20673751831055,"city_fetched":"Easton","state":"PA","country":"United States","canonicalUrl":"https://foursquare.com/v/phenom-thai/4b16b1a0f964a52025bc23e3","category":"Thai Restaurant","checkinsCount":352,"usersCount":168,"tipCount":12,"visitsCount":369,"tier":"","message":"","currency":"","rating":6.4},{"name":"Mothers Bar & Grill","phone":"6105591700","address":"3 Lehns Ct","lat":40.69082384785693,"lng":-75.20850777626038,"city_fetched":"Easton","state":"PA","country":"United States","canonicalUrl":"https://foursquare.com/v/mothers-bar--grill/4b352ec5f964a520082b25e3","category":"Bar","checkinsCount":820,"usersCount":383,"tipCount":4,"visitsCount":838,"url":"http://www.mothersbarandgrill.com","tier":"","message":"","currency":"","rating":6.3},{"name":"Lafayette Bar","phone":"6102520711","address":"15 N 4th St","lat":40.69131524246784,"lng":-75.21094223038656,"city_fetched":"Easton","state":"PA","country":"United States","canonicalUrl":"https://foursquare.com/v/lafayette-bar/4d7313bd3815f04db7679767","category":"Bar","checkinsCount":159,"usersCount":80,"tipCount":4,"visitsCount":160,"tier":"","message":"","currency":"","rating":6.1},{"name":"Drinky's","phone":"6102523800","twitter":"drinkyspa","address":"240 Northampton St","lat":40.691100437941785,"lng":-75.20838975906372,"city_fetched":"Easton","state":"PA","country":"United States","canonicalUrl":"https://foursquare.com/v/drinkys/4ac15a97f964a520df9620e3","category":"Bar","checkinsCount":3419,"usersCount":887,"tipCount":17,"visitsCount":3467,"url":"http://drinkys.com","tier":"","message":"","currency":"","rating":5.8},{"name":"Bar-Don Lanes","address":"3700 Nicholas St","lat":40.67086622711578,"lng":-75.26552879764195,"city_fetched":"Easton","state":"PA","country":"United States","canonicalUrl":"https://foursquare.com/v/bardon-lanes/4c2954e497d00f47555a41ea","category":"Bowling Alley","checkinsCount":754,"usersCount":314,"tipCount":4,"visitsCount":993,"tier":"","message":"","currency":"","rating":5.8}]