[{"name":"Ray's Place","address":"838 Water St","lat":44.80233308727339,"lng":-91.51763097449553,"city_fetched":"Eau Claire,US","state":"WI","country":"United States","canonicalUrl":"https://foursquare.com/v/rays-place/4b5a6ec7f964a520c9c428e3","categoryId":"4bf58dd8d48988d118941735","category":"Dive Bar","checkinsCount":919,"usersCount":518,"tipCount":15,"visitsCount":1124,"tier":"","message":"","currency":"","rating":8.8},{"name":"Jacob Leinenkugel Brewing Company","phone":"7157235557","twitter":"jakeleinenkugel","address":"124 E Elm St","lat":44.94329455569039,"lng":-91.39532732082935,"city_fetched":"Eau Claire,US","state":"WI","country":"United States","canonicalUrl":"https://foursquare.com/v/jacob-leinenkugel-brewing-company/4b742b0bf964a520edca2de3","categoryId":"50327c8591d4c4b30a586d5d","category":"Brewery","checkinsCount":3413,"usersCount":2907,"tipCount":25,"visitsCount":3603,"url":"http://www.leinie.com","tier":"","message":"","currency":"","rating":8.7},{"name":"The Fire House","phone":"7155140406","address":"202 Gibson St","lat":44.811370811812424,"lng":-91.50077553005393,"neighborhood":"Downtown Eau Claire","city_fetched":"Eau Claire,US","state":"WI","country":"United States","canonicalUrl":"https://foursquare.com/v/the-fire-house/4c817c12e63376b0c772ad3d","categoryId":"4bf58dd8d48988d116941735","category":"Bar","checkinsCount":3929,"usersCount":985,"tipCount":18,"visitsCount":4452,"url":"http://eauclairebar.com","tier":2,"message":"Moderate","currency":"$","rating":8.6},{"name":"Mogies","address":"436 Water St","lat":44.80227232398666,"lng":-91.50925914325225,"city_fetched":"Eau Claire,US","state":"WI","country":"United States","canonicalUrl":"https://foursquare.com/v/mogies/4a64944ef964a5204ec61fe3","categoryId":"4bf58dd8d48988d11b941735","category":"Pub","checkinsCount":1574,"usersCount":767,"tipCount":19,"visitsCount":1663,"url":"http://mogiespub.com","tier":2,"message":"Moderate","currency":"$","rating":8.2},{"name":"Girolamo’s Court ‘n House","phone":"7158325478","address":"113 W Grand Ave","lat":44.8091760081543,"lng":-91.50369616080907,"city_fetched":"Eau Claire,US","state":"WI","country":"United States","canonicalUrl":"https://foursquare.com/v/girolamos-court-n-house/4a64a2b8f964a52065c61fe3","categoryId":"4bf58dd8d48988d116941735","category":"Bar","checkinsCount":1241,"usersCount":582,"tipCount":19,"visitsCount":1648,"tier":1,"message":"Cheap","currency":"$","rating":8.1},{"name":"Lazy Monk Brewing","twitter":"lazymonkbrewing","address":"97 W Madison St","lat":44.815473284299046,"lng":-91.5089625120163,"neighborhood":"Cannery District","city_fetched":"Eau Claire,US","state":"WI","country":"United States","canonicalUrl":"https://foursquare.com/v/lazy-monk-brewing/4eb582a4e5e8743705159e38","categoryId":"50327c8591d4c4b30a586d5d","category":"Brewery","checkinsCount":938,"usersCount":332,"tipCount":10,"visitsCount":1381,"url":"http://lazymonkbrewing.com","tier":"","message":"","currency":"","rating":8},{"name":"Dooley's Pub","phone":"7158342388","address":"442 Water St","lat":44.802336856859704,"lng":-91.50958528785318,"city_fetched":"Eau Claire,US","state":"WI","country":"United States","canonicalUrl":"https://foursquare.com/v/dooleys-pub/4a65060ef964a5202ec71fe3","categoryId":"4bf58dd8d48988d11b941735","category":"Pub","checkinsCount":3160,"usersCount":1230,"tipCount":29,"visitsCount":3617,"url":"http://dooleyspub.com","tier":2,"message":"Moderate","currency":"$","rating":8},{"name":"Wigwam Tavern","phone":"7158349061","address":"314 E Madison St","lat":44.816400861527285,"lng":-91.50239177680662,"neighborhood":"Downtown Eau Claire","city_fetched":"Eau Claire,US","state":"WI","country":"United States","canonicalUrl":"https://foursquare.com/v/wigwam-tavern/4bb6dbe66edc76b0f29d311c","categoryId":"4bf58dd8d48988d118941735","category":"Dive Bar","checkinsCount":2476,"usersCount":563,"tipCount":12,"visitsCount":2768,"url":"http://wigwamtavern.com","tier":1,"message":"Cheap","currency":"$","rating":7.8},{"name":"Amber Inn","phone":"7158320568","address":"840 E Madison St","lat":44.81794774532318,"lng":-91.49557828903198,"city_fetched":"Eau Claire,US","state":"WI","country":"United States","canonicalUrl":"https://foursquare.com/v/amber-inn/4bd6392529eb9c7433da94e1","categoryId":"4bf58dd8d48988d118941735","category":"Dive Bar","checkinsCount":237,"usersCount":120,"tipCount":5,"visitsCount":266,"tier":"","message":"","currency":"","rating":7.7},{"name":"The Joynt","phone":"7158356959","address":"322 Water St","lat":44.80221693685661,"lng":-91.50671151949489,"city_fetched":"Eau Claire,US","state":"WI","country":"United States","canonicalUrl":"https://foursquare.com/v/the-joynt/4a550e01f964a5209eb31fe3","categoryId":"4bf58dd8d48988d116941735","category":"Bar","checkinsCount":5663,"usersCount":772,"tipCount":18,"visitsCount":5852,"tier":1,"message":"Cheap","currency":"$","rating":7.7},{"name":"The Brewing Projekt","address":"2000 N Oxford Ave","lat":44.81870729327646,"lng":-91.51004378518954,"city_fetched":"Eau Claire,US","state":"WI","country":"United States","canonicalUrl":"https://foursquare.com/v/the-brewing-projekt/5541795b498e1ce42b863c5c","categoryId":"50327c8591d4c4b30a586d5d","category":"Brewery","checkinsCount":178,"usersCount":89,"tipCount":0,"visitsCount":203,"url":"http://www.thebrewingprojekt.com","tier":"","message":"","currency":"","rating":7.6},{"name":"Clancy's","phone":"7158325481","address":"Barstow","lat":44.80961351729548,"lng":-91.4983843529955,"neighborhood":"Downtown Eau Claire","city_fetched":"Eau Claire,US","state":"WI","country":"United States","canonicalUrl":"https://foursquare.com/v/clancys/4b359b4ff964a5202d2e25e3","categoryId":"4bf58dd8d48988d116941735","category":"Bar","checkinsCount":1101,"usersCount":333,"tipCount":5,"visitsCount":1123,"tier":1,"message":"Cheap","currency":"$","rating":7.5},{"name":"Playmaker's Bar & Grill","phone":"7158308292","address":"101 Graham Ave","lat":44.81184570453915,"lng":-91.50119612640202,"neighborhood":"Downtown Eau Claire","city_fetched":"Eau Claire,US","state":"WI","country":"United States","canonicalUrl":"https://foursquare.com/v/playmakers-bar--grill/4ccf5cd706b5468878afd494","categoryId":"4bf58dd8d48988d11d941735","category":"Sports Bar","checkinsCount":1802,"usersCount":510,"tipCount":17,"visitsCount":1859,"url":"http://www.playmakerseauclaire.com","tier":"","message":"","currency":"","rating":7.4},{"name":"From The Vine Wine Room","phone":"7158338989","address":"2526 Golf Rd","lat":44.771929185618156,"lng":-91.46414282091435,"city_fetched":"Eau Claire,US","state":"WI","country":"United States","canonicalUrl":"https://foursquare.com/v/from-the-vine-wine-room/4e42fdbd7d8b2eefb3b1fb05","categoryId":"4bf58dd8d48988d123941735","category":"Wine Bar","checkinsCount":596,"usersCount":127,"tipCount":5,"visitsCount":608,"url":"http://fromthevineftv.com","tier":"","message":"","currency":"","rating":7.3},{"name":"Stones Throw","phone":"7155525882","address":"304 Eau Claire St","lat":44.812151,"lng":-91.500274,"neighborhood":"Downtown Eau Claire","city_fetched":"Eau Claire,US","state":"WI","country":"United States","canonicalUrl":"https://foursquare.com/v/stones-throw/4de847c045dde4a28d4cff5a","categoryId":"4bf58dd8d48988d116941735","category":"Bar","checkinsCount":385,"usersCount":216,"tipCount":6,"visitsCount":424,"url":"http://www.thestonesthrow.com","tier":"","message":"","currency":"","rating":7.3},{"name":"Dana's Grill & Bar","phone":"7158745954","address":"6505 Texaco Dr","lat":44.844242277368195,"lng":-91.60202186663115,"city_fetched":"Eau Claire,US","state":"WI","country":"United States","canonicalUrl":"https://foursquare.com/v/danas-grill--bar/4c44e6ce74ffc9284b4076cc","categoryId":"4bf58dd8d48988d116941735","category":"Bar","checkinsCount":543,"usersCount":212,"tipCount":16,"visitsCount":682,"tier":"","message":"","currency":"","rating":7.3},{"name":"Big T's Saloon","lat":44.81935922438628,"lng":-91.51339049178277,"city_fetched":"Eau Claire,US","state":"Wisconsin","country":"United States","canonicalUrl":"https://foursquare.com/v/big-ts-saloon/4d69d4bc6297721e072aceb5","categoryId":"4bf58dd8d48988d116941735","category":"Bar","checkinsCount":260,"usersCount":85,"tipCount":2,"visitsCount":326,"tier":"","message":"","currency":"","rating":7},{"name":"The Fox Run","address":"1515 S 65th Ave","lat":44.83357354562066,"lng":-91.3973874317987,"city_fetched":"Eau Claire,US","state":"WI","country":"United States","canonicalUrl":"https://foursquare.com/v/the-fox-run/4f00efaebe7bbcd4f49a223e","categoryId":"4bf58dd8d48988d116941735","category":"Bar","checkinsCount":300,"usersCount":161,"tipCount":0,"visitsCount":402,"tier":"","message":"","currency":"","rating":6.9},{"name":"Scooter's","address":"411 Galloway St","lat":44.81432220475256,"lng":-91.50079915895263,"neighborhood":"Downtown Eau Claire","city_fetched":"Eau Claire,US","state":"WI","country":"United States","canonicalUrl":"https://foursquare.com/v/scooters/4dbd023a6a23e294ba3cf0ca","categoryId":"4bf58dd8d48988d1d8941735","category":"Gay Bar","checkinsCount":1610,"usersCount":371,"tipCount":7,"visitsCount":1733,"tier":"","message":"","currency":"","rating":6.8},{"name":"Hallie Bar & Grill","phone":"7158613870","address":"1713 County Highway Oo","lat":44.86803535510096,"lng":-91.45027735977239,"city_fetched":"Eau Claire,US","state":"WI","country":"United States","canonicalUrl":"https://foursquare.com/v/hallie-bar--grill/4c241908f7ced13ab264226d","categoryId":"4bf58dd8d48988d116941735","category":"Bar","checkinsCount":891,"usersCount":203,"tipCount":4,"visitsCount":1020,"tier":"","message":"","currency":"","rating":6.6},{"name":"Stella's Red Room","phone":"7158550000","address":"302 E Madison St","lat":44.81639969,"lng":-91.50310203333333,"neighborhood":"Downtown Eau Claire","city_fetched":"Eau Claire,US","state":"WI","country":"United States","canonicalUrl":"https://foursquare.com/v/stellas-red-room/4bb6c50c2f70c9b6fefe8530","categoryId":"4bf58dd8d48988d11b941735","category":"Pub","checkinsCount":792,"usersCount":259,"tipCount":4,"visitsCount":808,"tier":"","message":"","currency":"","rating":6.5},{"name":"Grand Illusion","phone":"7158357797","address":"418 Water St","lat":44.80225534990272,"lng":-91.50847451569616,"city_fetched":"Eau Claire,US","state":"WI","country":"United States","canonicalUrl":"https://foursquare.com/v/grand-illusion/4a64f4abf964a5200dc71fe3","categoryId":"4bf58dd8d48988d116941735","category":"Bar","checkinsCount":2592,"usersCount":610,"tipCount":17,"visitsCount":2661,"tier":2,"message":"Moderate","currency":"$","rating":6.5},{"name":"The Depot","lat":44.81639206409454,"lng":-91.5034532546997,"neighborhood":"Downtown Eau Claire","city_fetched":"Eau Claire,US","state":"WI","country":"United States","canonicalUrl":"https://foursquare.com/v/the-depot/4be366cad27a20a12935925b","categoryId":"4bf58dd8d48988d116941735","category":"Bar","checkinsCount":627,"usersCount":115,"tipCount":1,"visitsCount":638,"tier":"","message":"","currency":"","rating":6.3},{"name":"The Livery","phone":"7158337666","address":"316 Wisconsin St","lat":44.815666046612755,"lng":-91.50221219081901,"neighborhood":"Downtown Eau Claire","city_fetched":"Eau Claire,US","state":"WI","country":"United States","canonicalUrl":"https://foursquare.com/v/the-livery/4bb6b90046d4a59381bcc6c0","categoryId":"4bf58dd8d48988d122941735","category":"Whisky Bar","checkinsCount":2810,"usersCount":1206,"tipCount":23,"visitsCount":3222,"url":"http://theliveryec.com","tier":2,"message":"Moderate","currency":"$","rating":6.3},{"name":"Shots Bar & Grill","address":"2112 Esmond Rd","lat":44.79686000845557,"lng":-91.46553575342604,"city_fetched":"Eau Claire,US","state":"WI","country":"United States","canonicalUrl":"https://foursquare.com/v/shots-bar--grill/4e1de7831838f4ab744318e7","categoryId":"4bf58dd8d48988d116941735","category":"Bar","checkinsCount":703,"usersCount":179,"tipCount":5,"visitsCount":786,"tier":"","message":"","currency":"","rating":6.1},{"name":"Double Day's Sports Bar & Grill","phone":"7158332255","address":"3020 London Rd","lat":44.78808381012512,"lng":-91.46351955736485,"city_fetched":"Eau Claire,US","state":"WI","country":"United States","canonicalUrl":"https://foursquare.com/v/double-days-sports-bar--grill/4c101adbf1b6a593df5f7b27","categoryId":"4bf58dd8d48988d116941735","category":"Bar","checkinsCount":763,"usersCount":352,"tipCount":3,"visitsCount":920,"tier":"","message":"","currency":"","rating":6.1},{"name":"VFW","phone":"7155528438","address":"1300 Starr Ave","lat":44.830532347259,"lng":-91.47994464778189,"city_fetched":"Eau Claire,US","state":"WI","country":"United States","canonicalUrl":"https://foursquare.com/v/vfw/4b358bcef964a520d72d25e3","categoryId":"4bf58dd8d48988d118941735","category":"Dive Bar","checkinsCount":525,"usersCount":219,"tipCount":6,"visitsCount":806,"tier":"","message":"","currency":"","rating":6.1},{"name":"Do Dodge Inn","address":"101-199 S Michigan St","lat":44.79920197858134,"lng":-91.53262021290026,"city_fetched":"Eau Claire,US","state":"WI","country":"United States","canonicalUrl":"https://foursquare.com/v/do-dodge-inn/4ce5ab29678aa09307bdd7ea","categoryId":"4bf58dd8d48988d116941735","category":"Bar","checkinsCount":556,"usersCount":144,"tipCount":6,"visitsCount":580,"tier":"","message":"","currency":"","rating":6},{"name":"The Mousetrap","phone":"7158328418","address":"311 S Barstow St","lat":44.810530058764016,"lng":-91.4989372417399,"neighborhood":"Downtown Eau Claire","city_fetched":"Eau Claire,US","state":"WI","country":"United States","canonicalUrl":"https://foursquare.com/v/the-mousetrap/4be8b0ec88ed2d7fb03dcc1d","categoryId":"4bf58dd8d48988d116941735","category":"Bar","checkinsCount":1142,"usersCount":454,"tipCount":4,"visitsCount":1243,"tier":1,"message":"Cheap","currency":"$","rating":6},{"name":"Pioneer Tavern","phone":"7158324455","address":"401 Water St","lat":44.8021011,"lng":-91.50780916213989,"city_fetched":"Eau Claire,US","state":"WI","country":"United States","canonicalUrl":"https://foursquare.com/v/pioneer-tavern/4b5a6f0af964a520dec428e3","categoryId":"4bf58dd8d48988d116941735","category":"Bar","checkinsCount":3626,"usersCount":785,"tipCount":11,"visitsCount":3693,"tier":"","message":"","currency":"","rating":6},{"name":"Shenannigans","phone":"7158368333","address":"415 Water St","lat":44.80202882908168,"lng":-91.50859740821895,"city_fetched":"Eau Claire,US","state":"WI","country":"United States","canonicalUrl":"https://foursquare.com/v/shenannigans/4ba1b0bdf964a5202bc837e3","categoryId":"4bf58dd8d48988d11f941735","category":"Nightclub","checkinsCount":2242,"usersCount":645,"tipCount":10,"visitsCount":2270,"tier":"","message":"","currency":"","rating":6},{"name":"Missy's","phone":"7158313922","address":"1705 County Road OO","lat":44.86786403630925,"lng":-91.45038120414394,"city_fetched":"Eau Claire,US","state":"WI","country":"United States","canonicalUrl":"https://foursquare.com/v/missys/4f9cdc8de4b0de62684262a6","categoryId":"4bf58dd8d48988d116941735","category":"Bar","checkinsCount":448,"usersCount":126,"tipCount":3,"visitsCount":504,"tier":"","message":"","currency":"","rating":6},{"name":"O'Leary's Pub","address":"809 W Clairemont Ave","lat":44.792386231177666,"lng":-91.51022813086344,"city_fetched":"Eau Claire,US","state":"WI","country":"United States","canonicalUrl":"https://foursquare.com/v/olearys-pub/4bd8f6312e6f0f4729630908","categoryId":"4bf58dd8d48988d116941735","category":"Bar","checkinsCount":606,"usersCount":317,"tipCount":2,"visitsCount":629,"tier":"","message":"","currency":"","rating":6},{"name":"Hobbsy & Me","address":"3620 Locust Ln","lat":44.86039886385492,"lng":-91.45804750550953,"city_fetched":"Eau Claire,US","state":"WI","country":"United States","canonicalUrl":"https://foursquare.com/v/hobbsy--me/4bba45b798c7ef3b9de83202","categoryId":"4bf58dd8d48988d116941735","category":"Bar","checkinsCount":280,"usersCount":125,"tipCount":1,"visitsCount":419,"tier":"","message":"","currency":"","rating":5.9},{"name":"Miami Steve's Grill & Bar","phone":"7158352485","address":"1807 N Clairemont Ave","lat":44.81749217384048,"lng":-91.54099660885358,"city_fetched":"Eau Claire,US","state":"WI","country":"United States","canonicalUrl":"https://foursquare.com/v/miami-steves-grill--bar/52647479498efbb22ae86ace","categoryId":"4bf58dd8d48988d116941735","category":"Bar","checkinsCount":203,"usersCount":70,"tipCount":4,"visitsCount":275,"tier":2,"message":"Moderate","currency":"$","rating":5.8},{"name":"Happy Hollow Tavern","phone":"7158322826","address":"1628 N Hillcrest Pkwy","lat":44.79609651863579,"lng":-91.43739790010935,"city_fetched":"Eau Claire,US","state":"WI","country":"United States","canonicalUrl":"https://foursquare.com/v/happy-hollow-tavern/4bbd506fa0a0c9b6a8931b0f","categoryId":"4bf58dd8d48988d116941735","category":"Bar","checkinsCount":2109,"usersCount":649,"tipCount":12,"visitsCount":2634,"tier":1,"message":"Cheap","currency":"$","rating":5.8},{"name":"Idlewild","address":"Seymour rd","lat":44.8252495,"lng":-91.46637439727783,"city_fetched":"Eau Claire,US","state":"WI","country":"United States","canonicalUrl":"https://foursquare.com/v/idlewild/4bbdfe418ec3d13aecb81c28","categoryId":"4bf58dd8d48988d118941735","category":"Dive Bar","checkinsCount":211,"usersCount":96,"tipCount":1,"visitsCount":357,"tier":"","message":"","currency":"","rating":5.8},{"name":"The House Of Rock","phone":"7158380158","address":"422 Water St","lat":44.80227121082424,"lng":-91.50871557443895,"city_fetched":"Eau Claire,US","state":"WI","country":"United States","canonicalUrl":"https://foursquare.com/v/the-house-of-rock/4bd63a547b1876b0e84a8c86","categoryId":"4bf58dd8d48988d116941735","category":"Bar","checkinsCount":1294,"usersCount":378,"tipCount":8,"visitsCount":1307,"tier":"","message":"","currency":"","rating":5.8},{"name":"Tailgates Sports Bar","phone":"7155521733","address":"1505 N Clairemont Ave","lat":44.81507702026466,"lng":-91.53973838966844,"city_fetched":"Eau Claire,US","state":"WI","country":"United States","canonicalUrl":"https://foursquare.com/v/tailgates-sports-bar/4bc902b7511f9521f6f2acc7","categoryId":"4bf58dd8d48988d11d941735","category":"Sports Bar","checkinsCount":1378,"usersCount":355,"tipCount":5,"visitsCount":1510,"tier":"","message":"","currency":"","rating":5.7},{"name":"Maple Lounge & Cafe","phone":"7158342618","address":"2507 S Hastings Way","lat":44.793726,"lng":-91.458181,"city_fetched":"Eau Claire,US","state":"WI","country":"United States","canonicalUrl":"https://foursquare.com/v/maple-lounge--cafe/4d59373523e0a093312c4249","categoryId":"4bf58dd8d48988d116941735","category":"Bar","checkinsCount":221,"usersCount":98,"tipCount":3,"visitsCount":281,"url":"http://www.themaplemanor.com","tier":"","message":"","currency":"","rating":5.7},{"name":"Redzone Sports Bar","phone":"7157263030","address":"2071 S Prairie View Rd","lat":44.873121661609396,"lng":-91.43481209484911,"city_fetched":"Eau Claire,US","state":"WI","country":"United States","canonicalUrl":"https://foursquare.com/v/redzone-sports-bar/4cfee0182685a35d4b93c090","categoryId":"4bf58dd8d48988d11d941735","category":"Sports Bar","checkinsCount":476,"usersCount":154,"tipCount":2,"visitsCount":513,"tier":"","message":"","currency":"","rating":5.5},{"name":"Deweys Roadhouse","phone":"7157206023","address":"1 E Canal St","lat":44.9281744089009,"lng":-91.39251172542572,"city_fetched":"Eau Claire,US","state":"WI","country":"United States","canonicalUrl":"https://foursquare.com/v/deweys-roadhouse/4cdf425edb125481042236ce","categoryId":"4bf58dd8d48988d116941735","category":"Bar","checkinsCount":773,"usersCount":102,"tipCount":4,"visitsCount":840,"url":"http://deweysroadhouse.com","tier":"","message":"","currency":"","rating":5.4},{"name":"Lucky's","address":"415 Water St","lat":44.80211854369187,"lng":-91.50838851928711,"city_fetched":"Eau Claire,US","state":"WI","country":"United States","canonicalUrl":"https://foursquare.com/v/luckys/4d8d875eca75b60ceff6eaa8","categoryId":"4bf58dd8d48988d116941735","category":"Bar","checkinsCount":399,"usersCount":158,"tipCount":2,"visitsCount":403,"tier":"","message":"","currency":"","rating":5.3},{"name":"Brothers","phone":"7158322202","address":"324 Water St","lat":44.80226772683214,"lng":-91.5068485863013,"city_fetched":"Eau Claire,US","state":"WI","country":"United States","canonicalUrl":"https://foursquare.com/v/brothers/4b5a7e1af964a5201dc828e3","categoryId":"4bf58dd8d48988d116941735","category":"Bar","checkinsCount":2907,"usersCount":836,"tipCount":11,"visitsCount":2931,"tier":"","message":"","currency":"","rating":5.3},{"name":"Five O'Clock Club","address":"2240 Fenwick Ave","lat":44.80403244495392,"lng":-91.46897938,"city_fetched":"Eau Claire,US","state":"WI","country":"United States","canonicalUrl":"https://foursquare.com/v/five-oclock-club/4bee1a61946c0f478c81a363","categoryId":"4bf58dd8d48988d120941735","category":"Karaoke Bar","checkinsCount":934,"usersCount":292,"tipCount":5,"visitsCount":1067,"tier":"","message":"","currency":"","rating":5.2},{"name":"The Pickle","phone":"7158300638","address":"341 Water St","lat":44.802168389072214,"lng":-91.50752447386881,"city_fetched":"Eau Claire,US","state":"WI","country":"United States","canonicalUrl":"https://foursquare.com/v/the-pickle/4b5a782ef964a5200cc728e3","categoryId":"4bf58dd8d48988d116941735","category":"Bar","checkinsCount":3962,"usersCount":808,"tipCount":30,"visitsCount":3997,"tier":1,"message":"Cheap","currency":"$","rating":4.8}]