[{"name":"Social Gastropub","phone":"6186925156","address":"2 157 Ctr","lat":38.784546,"lng":-89.979747,"city_fetched":"Edwards","state":"IL","country":"United States","canonicalUrl":"https://foursquare.com/v/social-gastropub/5422f866498ea207b6a2867a","category":"Gastropub","checkinsCount":162,"usersCount":217,"tipCount":9,"visitsCount":381,"tier":"","message":"","currency":"","rating":8.8},{"name":"Global Brew Tap House & Lounge","phone":"6183075858","twitter":"globalbrew","address":"112 S Buchanan St","lat":38.81189098781871,"lng":-89.95214939117432,"city_fetched":"Edwards","state":"IL","country":"United States","canonicalUrl":"https://foursquare.com/v/global-brew-tap-house--lounge/4d42e1f2cecfa090629c558e","category":"Pub","checkinsCount":5163,"usersCount":1267,"tipCount":20,"visitsCount":5463,"url":"http://globalbrew.com","tier":2,"message":"Moderate","currency":"$","rating":8.4},{"name":"Bin 51 Wine & Spirits","address":"200 S Buchanan St","lat":38.81102346218628,"lng":-89.95261239759012,"city_fetched":"Edwards","state":"IL","country":"United States","canonicalUrl":"https://foursquare.com/v/bin-51-wine--spirits/4eeccbc2775b3c580cb33a43","category":"Wine Bar","checkinsCount":191,"usersCount":76,"tipCount":27,"visitsCount":192,"tier":"","message":"","currency":"","rating":8.3},{"name":"Laurie's Place","address":"228 N Main St","lat":38.81374793456064,"lng":-89.95793705871037,"city_fetched":"Edwards","state":"IL","country":"United States","canonicalUrl":"https://foursquare.com/v/lauries-place/4ada8c9af964a5206c2321e3","category":"Rock Club","checkinsCount":3730,"usersCount":946,"tipCount":19,"visitsCount":3887,"tier":"","message":"","currency":"","rating":8.3},{"name":"Downtown Edwardsville","lat":38.811418028891545,"lng":-89.95569878529818,"city_fetched":"Edwards","state":"IL","country":"United States","canonicalUrl":"https://foursquare.com/v/downtown-edwardsville/4e586b607d8bf55c1737839c","category":"Other Nightlife","checkinsCount":2756,"usersCount":328,"tipCount":6,"visitsCount":2797,"tier":"","message":"","currency":"","rating":7.9},{"name":"Stagger Inn Again","phone":"6186564221","address":"104 E Vandalia St","lat":38.81138716561076,"lng":-89.95538879007948,"city_fetched":"Edwards","state":"IL","country":"United States","canonicalUrl":"https://foursquare.com/v/stagger-inn-again/4ae209d1f964a5200a8a21e3","category":"Pub","checkinsCount":3403,"usersCount":730,"tipCount":18,"visitsCount":3531,"url":"http://staggerinnagain.com","tier":1,"message":"Cheap","currency":"$","rating":7.3},{"name":"Unkle Munkey's Coin Club","phone":"6186925152","twitter":"wanggangasian","address":"1027 Century Dr","lat":38.78829311868544,"lng":-89.98181598752151,"neighborhood":"Edwardsville","city_fetched":"Edwards","state":"IL","country":"United States","canonicalUrl":"https://foursquare.com/wanggangasian","category":"American Restaurant","checkinsCount":129,"usersCount":80,"tipCount":13,"visitsCount":135,"url":"http://unklemunkeys.com","tier":"","message":"","currency":"","rating":7.2},{"name":"Robust Edwardsville","address":"126 Main Street","lat":38.812105,"lng":-89.956344,"city_fetched":"Edwards","state":"IL","country":"United States","canonicalUrl":"https://foursquare.com/v/robust-edwardsville/51c09323498ef925ee52ff9d","category":"Wine Bar","checkinsCount":160,"usersCount":79,"tipCount":3,"visitsCount":163,"tier":3,"message":"Expensive","currency":"$","rating":7.2},{"name":"Recess Brewing","phone":"6186925101","twitter":"recessbrewing","address":"307 N Main St","lat":38.814110729834525,"lng":-89.95904475055151,"city_fetched":"Edwards","state":"IL","country":"United States","canonicalUrl":"https://foursquare.com/v/recess-brewing/547233cb498e8a9c29a0380c","category":"Brewery","checkinsCount":159,"usersCount":134,"tipCount":5,"visitsCount":225,"tier":"","message":"","currency":"","rating":7.1},{"name":"Hotshots Edwardsville","phone":"6365446303","address":"2511 South State Route 157 Edwardsville, IL","lat":38.77102711129266,"lng":-89.99647318285925,"city_fetched":"Edwards","state":"IL","country":"United States","canonicalUrl":"https://foursquare.com/v/hotshots-edwardsville/549e93b1498e8153c1e5416d","category":"Sports Bar","checkinsCount":137,"usersCount":190,"tipCount":2,"visitsCount":369,"url":"http://www.hotshotsnet.com","tier":"","message":"","currency":"","rating":6.9},{"name":"Big Daddy's","phone":"6186569706","address":"132 N Main St","lat":38.81239056587219,"lng":-89.956386,"city_fetched":"Edwards","state":"IL","country":"United States","canonicalUrl":"https://foursquare.com/v/big-daddys/4b8a0211f964a5205c5b32e3","category":"Bar","checkinsCount":2189,"usersCount":794,"tipCount":15,"visitsCount":2302,"url":"http://www.bigdaddystl.com","tier":"","message":"","currency":"","rating":6.3},{"name":"American Legion","address":"32-60 Illinois 157","lat":38.805288,"lng":-89.96591448783875,"city_fetched":"Edwards","state":"IL","country":"United States","canonicalUrl":"https://foursquare.com/v/american-legion/4c662d8fc2ead13a4436b380","category":"Bar","checkinsCount":337,"usersCount":179,"tipCount":3,"visitsCount":402,"tier":"","message":"","currency":"","rating":5.9}]