[{"name":"Ode Brewing Co.","phone":"9155551234","address":"3233 N Mesa St Ste 301","lat":31.78240172671064,"lng":-106.50660252580393,"city_fetched":"El Paso,US","state":"TX","country":"United States","canonicalUrl":"https://foursquare.com/v/ode-brewing-co/56044db4498e0ef441980bb6","categoryId":"50327c8591d4c4b30a586d5d","category":"Brewery","checkinsCount":126,"usersCount":173,"tipCount":6,"visitsCount":256,"tier":"","message":"","currency":"","rating":9.1},{"name":"The Hoppy Monk","phone":"9153073263","twitter":"thehoppymonk","address":"4141 N Mesa St","lat":31.792574,"lng":-106.508739,"city_fetched":"El Paso,US","state":"TX","country":"United States","canonicalUrl":"https://foursquare.com/v/the-hoppy-monk/4ce31beb7e9b721e5bac34f1","categoryId":"4bf58dd8d48988d116941735","category":"Bar","checkinsCount":5200,"usersCount":2499,"tipCount":56,"visitsCount":6615,"url":"http://www.thehoppymonk.com","tier":2,"message":"Moderate","currency":"$","rating":9},{"name":"Aceitunas Beer Garden","phone":"9158452277","address":"5200 Doniphan Dr","lat":31.849191675486036,"lng":-106.58258020877838,"neighborhood":"Roberts","city_fetched":"El Paso,US","state":"TX","country":"United States","canonicalUrl":"https://foursquare.com/v/aceitunas-beer-garden/4b7f8b7ef964a520ce3330e3","categoryId":"4bf58dd8d48988d116941735","category":"Bar","checkinsCount":2335,"usersCount":820,"tipCount":9,"visitsCount":2701,"url":"http://www.aceitunaselpaso.com","tier":"","message":"","currency":"","rating":9},{"name":"Hope and Anchor","phone":"9155338010","twitter":"hope_and_anchor","address":"4012 N Mesa St","lat":31.788446286881403,"lng":-106.50663704454217,"neighborhood":"Mission Hills South","city_fetched":"El Paso,US","state":"TX","country":"United States","canonicalUrl":"https://foursquare.com/v/hope-and-anchor/4b5ce1dcf964a5201b4929e3","categoryId":"4bf58dd8d48988d116941735","category":"Bar","checkinsCount":5721,"usersCount":1979,"tipCount":45,"visitsCount":6793,"url":"http://hopeandanchorelpaso.com","tier":2,"message":"Moderate","currency":"$","rating":8.9},{"name":"Bowie Feathers","address":"209 S El Paso St","lat":31.757199017999504,"lng":-106.48888365201208,"neighborhood":"Downtown El Paso","city_fetched":"El Paso,US","state":"TX","country":"United States","canonicalUrl":"https://foursquare.com/v/bowie-feathers/4e703ab6d22d2dfc3191fa65","categoryId":"4bf58dd8d48988d121941735","category":"Lounge","checkinsCount":2080,"usersCount":461,"tipCount":10,"visitsCount":2102,"tier":"","message":"","currency":"","rating":8.8},{"name":"Later Later","lat":31.758601184309118,"lng":-106.4955855834647,"neighborhood":"Downtown El Paso","city_fetched":"El Paso,US","state":"TX","country":"United States","canonicalUrl":"https://foursquare.com/v/later-later/5691d463498ed05fb862c4a7","categoryId":"4bf58dd8d48988d116941735","category":"Bar","checkinsCount":125,"usersCount":209,"tipCount":2,"visitsCount":385,"tier":"","message":"","currency":"","rating":8.7},{"name":"Blackbird Cantina Deluxe","address":"533 W Franklin Ave","lat":31.758641264846013,"lng":-106.49482621228522,"neighborhood":"Downtown El Paso","city_fetched":"El Paso,US","state":"TX","country":"United States","canonicalUrl":"https://foursquare.com/v/blackbird-cantina-deluxe/544c126a498e4a2ee4fe5e9f","categoryId":"4bf58dd8d48988d117941735","category":"Beer Garden","checkinsCount":315,"usersCount":291,"tipCount":4,"visitsCount":623,"tier":"","message":"","currency":"","rating":8.7},{"name":"Block Table & Tap","phone":"9153510775","address":"4172 N Mesa St","lat":31.794074527410924,"lng":-106.50950787266886,"city_fetched":"El Paso,US","state":"TX","country":"United States","canonicalUrl":"https://foursquare.com/v/block-table--tap/51a95330498e290a1473d535","categoryId":"4bf58dd8d48988d11e941735","category":"Cocktail Bar","checkinsCount":504,"usersCount":380,"tipCount":10,"visitsCount":752,"tier":2,"message":"Moderate","currency":"$","rating":8.6},{"name":"Craft And Social","phone":"9152197141","twitter":"craftandsocial","address":"305 E Franklin Ave","lat":31.76172793609275,"lng":-106.48802075787668,"neighborhood":"Downtown El Paso","city_fetched":"El Paso,US","state":"TX","country":"United States","canonicalUrl":"https://foursquare.com/v/craft-and-social/52d0adcb498e7a01638c3370","categoryId":"4bf58dd8d48988d11b941735","category":"Pub","checkinsCount":394,"usersCount":208,"tipCount":5,"visitsCount":474,"url":"http://craftandsocial.com","tier":2,"message":"Moderate","currency":"$","rating":8.6},{"name":"Joe, Vinny & Bronson's Cafe","phone":"9158010475","address":"824 Piedras","lat":31.78253,"lng":-106.46137,"neighborhood":"Five Points East","city_fetched":"El Paso,US","state":"TX","country":"United States","canonicalUrl":"https://foursquare.com/v/joe-vinny--bronsons-cafe/4fd3efdde4b0d14240578662","categoryId":"4bf58dd8d48988d121941735","category":"Lounge","checkinsCount":1032,"usersCount":248,"tipCount":5,"visitsCount":1116,"tier":1,"message":"Cheap","currency":"$","rating":8.5},{"name":"La Casa Del Puro","phone":"9156265625","address":"216 W Franklin Ave","lat":31.759443874326205,"lng":-106.49122953414917,"neighborhood":"Downtown El Paso","city_fetched":"El Paso,US","state":"TX","country":"United States","canonicalUrl":"https://foursquare.com/v/la-casa-del-puro/4e18bfa162e12640d8791667","categoryId":"4bf58dd8d48988d121941735","category":"Lounge","checkinsCount":576,"usersCount":105,"tipCount":5,"visitsCount":606,"url":"http://cigarselpaso.com","tier":"","message":"","currency":"","rating":8.4},{"name":"Maverick's","phone":"9155846075","address":"126 Shadow Mountain Dr","lat":31.829456607878303,"lng":-106.52602020535159,"neighborhood":"Upper Mesa Hills","city_fetched":"El Paso,US","state":"TX","country":"United States","canonicalUrl":"https://foursquare.com/v/mavericks/4b5e7267f964a520158f29e3","categoryId":"4bf58dd8d48988d116941735","category":"Bar","checkinsCount":784,"usersCount":163,"tipCount":9,"visitsCount":901,"url":"http://mavericksbarandgrill.com","tier":2,"message":"Moderate","currency":"$","rating":8.4},{"name":"The Briar Patch","phone":"9155779555","address":"508 N Stanton St","lat":31.76204647213755,"lng":-106.48825086263368,"neighborhood":"Downtown El Paso","city_fetched":"El Paso,US","state":"TX","country":"United States","canonicalUrl":"https://foursquare.com/v/the-briar-patch/4bb832c2314e95216d4a489d","categoryId":"4bf58dd8d48988d1d8941735","category":"Gay Bar","checkinsCount":3253,"usersCount":688,"tipCount":18,"visitsCount":3444,"tier":2,"message":"Moderate","currency":"$","rating":8.4},{"name":"El Recreo","address":"Ave. Juárez","lat":31.739115914126106,"lng":-106.47968538270827,"city_fetched":"El Paso,US","state":"Chihuahua","country":"México","canonicalUrl":"https://foursquare.com/v/el-recreo/4d69e302342b8cfa8af5cf2c","categoryId":"4bf58dd8d48988d11b941735","category":"Pub","checkinsCount":126,"usersCount":73,"tipCount":3,"visitsCount":141,"tier":"","message":"","currency":"","rating":8.3},{"name":"The Greenery","phone":"9155846706","address":"Sunland Park Mall","lat":31.815438204557204,"lng":-106.54532432556152,"city_fetched":"El Paso,US","state":"TX","country":"United States","canonicalUrl":"https://foursquare.com/v/the-greenery/4b6b95f7f964a52056112ce3","categoryId":"4bf58dd8d48988d123941735","category":"Wine Bar","checkinsCount":1187,"usersCount":711,"tipCount":20,"visitsCount":1279,"url":"http://www.gotogreenery.com","tier":"","message":"","currency":"","rating":8.2},{"name":"Rubiks Arcade Bar","address":"4025 N Mesa St","lat":31.789225691971467,"lng":-106.507695621919,"city_fetched":"El Paso,US","state":"TX","country":"United States","canonicalUrl":"https://foursquare.com/v/rubiks-arcade-bar/55160741498ef850f1f9a4c2","categoryId":"4bf58dd8d48988d116941735","category":"Bar","checkinsCount":243,"usersCount":274,"tipCount":5,"visitsCount":489,"tier":"","message":"","currency":"","rating":8.2},{"name":"Lloyd's Pub","phone":"9155815793","address":"6110 N Mesa St","lat":31.83210393686993,"lng":-106.53125609158288,"city_fetched":"El Paso,US","state":"TX","country":"United States","canonicalUrl":"https://foursquare.com/v/lloyds-pub/4b9ab3cbf964a5207cce35e3","categoryId":"4bf58dd8d48988d116941735","category":"Bar","checkinsCount":722,"usersCount":446,"tipCount":5,"visitsCount":1138,"tier":"","message":"","currency":"","rating":8.1},{"name":"Club 101","phone":"9152567633","twitter":"club101","address":"201 N Stanton St","lat":31.7594,"lng":-106.487,"neighborhood":"Downtown El Paso","city_fetched":"El Paso,US","state":"TX","country":"United States","canonicalUrl":"https://foursquare.com/v/club-101/4bf4f0956a31d13ac452962e","categoryId":"4bf58dd8d48988d11f941735","category":"Nightclub","checkinsCount":1456,"usersCount":556,"tipCount":16,"visitsCount":1464,"url":"http://www.club101.com","tier":"","message":"","currency":"","rating":8.1},{"name":"Mulligan's Shot Bar","phone":"9156338306","twitter":"mulliganseast","address":"1815 Trawood Dr","lat":31.764005538028997,"lng":-106.34090926068718,"city_fetched":"El Paso,US","state":"TX","country":"United States","canonicalUrl":"https://foursquare.com/v/mulligans-shot-bar/4c2d63a57d85a5931fa652f3","categoryId":"4bf58dd8d48988d11d941735","category":"Sports Bar","checkinsCount":3220,"usersCount":610,"tipCount":8,"visitsCount":3684,"url":"http://www.mulligansshotbar.com","tier":2,"message":"Moderate","currency":"$","rating":8.1},{"name":"Brew Sports Pub and Grill","phone":"9158567477","twitter":"brewsportspub","address":"1441 N Zaragoza Rd","lat":31.736193770254438,"lng":-106.29377670203006,"city_fetched":"El Paso,US","state":"TX","country":"United States","canonicalUrl":"https://foursquare.com/v/brew-sports-pub-and-grill/5342478a498e2744c45dc627","categoryId":"4bf58dd8d48988d11b941735","category":"Pub","checkinsCount":186,"usersCount":142,"tipCount":2,"visitsCount":303,"url":"http://brewsportspub.com","tier":"","message":"","currency":"","rating":8.1},{"name":"Border City Ale House","phone":"9155992828","address":"1506 N Lee Trevino Dr Ste G","lat":31.75234484960718,"lng":-106.31765775005262,"neighborhood":"Vista Hills","city_fetched":"El Paso,US","state":"TX","country":"United States","canonicalUrl":"https://foursquare.com/v/border-city-ale-house/4b7f6d66f964a5200e2e30e3","categoryId":"4bf58dd8d48988d11d941735","category":"Sports Bar","checkinsCount":11263,"usersCount":1383,"tipCount":23,"visitsCount":11884,"url":"http://www.bordercityalehouse.com","tier":2,"message":"Moderate","currency":"$","rating":8},{"name":"Tortuga Sports Lounge","phone":"9153074296","twitter":"tortugaep","address":"126 Shadow Mountain Drive","lat":31.829357711613696,"lng":-106.52599626779556,"neighborhood":"Upper Mesa Hills","city_fetched":"El Paso,US","state":"TX","country":"United States","canonicalUrl":"https://foursquare.com/v/tortuga-sports-lounge/4c16cb42cd4bc9b6ac034feb","categoryId":"4bf58dd8d48988d11d941735","category":"Sports Bar","checkinsCount":2730,"usersCount":652,"tipCount":12,"visitsCount":3038,"url":"http://tortugasep.com","tier":"","message":"","currency":"","rating":7.9},{"name":"Mystic Grape Wine Bar and Suds","address":"2270 Joe Battle Blvd","lat":31.78378506190007,"lng":-106.2672033659268,"city_fetched":"El Paso,US","state":"TX","country":"United States","canonicalUrl":"https://foursquare.com/v/mystic-grape-wine-bar-and-suds/51ce246a498e603307d28437","categoryId":"4bf58dd8d48988d123941735","category":"Wine Bar","checkinsCount":85,"usersCount":67,"tipCount":7,"visitsCount":102,"tier":"","message":"","currency":"","rating":7.9},{"name":"Bowling Center","phone":"9155686272","address":"2949 Carter Road","lat":31.80660236998904,"lng":-106.41378490105741,"city_fetched":"El Paso,US","state":"TX","country":"United States","canonicalUrl":"https://foursquare.com/v/bowling-center/4b71a56bf964a5205e532de3","categoryId":"4bf58dd8d48988d120941735","category":"Karaoke Bar","checkinsCount":450,"usersCount":292,"tipCount":3,"visitsCount":592,"tier":"","message":"","currency":"","rating":7.9},{"name":"Funkmeyers Rec Room","phone":"9153077116","address":"1506 N Lee Trevino Dr Ste B1","lat":31.753063413120152,"lng":-106.31769223735009,"neighborhood":"Vista Hills","city_fetched":"El Paso,US","state":"TX","country":"United States","canonicalUrl":"https://foursquare.com/v/funkmeyers-rec-room/53ebdee1498edee2a77b141e","categoryId":"4bf58dd8d48988d116941735","category":"Bar","checkinsCount":180,"usersCount":146,"tipCount":5,"visitsCount":281,"url":"http://funkmeyersrecroom.com","tier":"","message":"","currency":"","rating":7.9},{"name":"Brass Asp","phone":"9157799844","address":"6201 Airport Rd","lat":31.78826603871083,"lng":-106.40952408313751,"city_fetched":"El Paso,US","state":"TX","country":"United States","canonicalUrl":"https://foursquare.com/v/brass-asp/4bee398435dc0f4750a33f5b","categoryId":"4bf58dd8d48988d116941735","category":"Bar","checkinsCount":328,"usersCount":148,"tipCount":2,"visitsCount":354,"tier":"","message":"","currency":"","rating":7.8},{"name":"Pint & Peanut","address":"518 E W. San Antonio","lat":31.75629274372778,"lng":-106.4938712493816,"neighborhood":"Downtown El Paso","city_fetched":"El Paso,US","state":"TX","country":"United States","canonicalUrl":"https://foursquare.com/v/pint--peanut/5299792e11d20a5e840a880b","categoryId":"4bf58dd8d48988d116941735","category":"Bar","checkinsCount":291,"usersCount":221,"tipCount":5,"visitsCount":383,"tier":"","message":"","currency":"","rating":7.8},{"name":"1914 Lounge","address":"115 S Durango St","lat":31.757019087703288,"lng":-106.4934800610075,"neighborhood":"Downtown El Paso","city_fetched":"El Paso,US","state":"TX","country":"United States","canonicalUrl":"https://foursquare.com/v/1914-lounge/4bcccae1937ca593d9c5ab92","categoryId":"4bf58dd8d48988d121941735","category":"Lounge","checkinsCount":1445,"usersCount":558,"tipCount":8,"visitsCount":1550,"tier":"","message":"","currency":"","rating":7.8},{"name":"Cincinnati Bar & Grill","phone":"9158561824","address":"1700 N Zaragoza Rd","lat":31.749599950520697,"lng":-106.27929426020079,"city_fetched":"El Paso,US","state":"TX","country":"United States","canonicalUrl":"https://foursquare.com/v/cincinnati-bar--grill/52f9af31498ec1f2afacb900","categoryId":"4bf58dd8d48988d116941735","category":"Bar","checkinsCount":552,"usersCount":238,"tipCount":5,"visitsCount":742,"url":"http://www.cincibar.com","tier":"","message":"","currency":"","rating":7.7},{"name":"kings x","lat":31.791225603457978,"lng":-106.50815012144123,"city_fetched":"El Paso,US","state":"TX","country":"United States","canonicalUrl":"https://foursquare.com/v/kings-x/4b947744f964a5208e7a34e3","categoryId":"4bf58dd8d48988d11d941735","category":"Sports Bar","checkinsCount":852,"usersCount":351,"tipCount":5,"visitsCount":893,"tier":"","message":"","currency":"","rating":7.7},{"name":"Jack's Beach House","address":"11240 Montwood Dr","lat":31.768839738396395,"lng":-106.30650141629673,"city_fetched":"El Paso,US","state":"TX","country":"United States","canonicalUrl":"https://foursquare.com/v/jacks-beach-house/52f58fda498e0dedc837661c","categoryId":"4bf58dd8d48988d116941735","category":"Bar","checkinsCount":118,"usersCount":119,"tipCount":1,"visitsCount":241,"tier":"","message":"","currency":"","rating":7.7},{"name":"Brew","phone":"9158420717","address":"8041 N Mesa St","lat":31.84060472386277,"lng":-106.57788417043669,"city_fetched":"El Paso,US","state":"TX","country":"United States","canonicalUrl":"https://foursquare.com/v/brew/4b6796f4f964a52084562be3","categoryId":"4bf58dd8d48988d116941735","category":"Bar","checkinsCount":2410,"usersCount":836,"tipCount":17,"visitsCount":2899,"tier":2,"message":"Moderate","currency":"$","rating":7.7},{"name":"Rosa's Cantina","phone":"9158330402","address":"3454 Doniphan Dr","lat":31.805324183333333,"lng":-106.543289,"city_fetched":"El Paso,US","state":"TX","country":"United States","canonicalUrl":"https://foursquare.com/v/rosas-cantina/4bd87b9935aad13a5afe90f3","categoryId":"4bf58dd8d48988d116941735","category":"Bar","checkinsCount":410,"usersCount":344,"tipCount":8,"visitsCount":573,"tier":"","message":"","currency":"","rating":7.7},{"name":"Coconuts Bar & Grill","phone":"9155663044","address":"816 N Piedras St","lat":31.7823495627472,"lng":-106.46128803491592,"neighborhood":"Five Points East","city_fetched":"El Paso,US","state":"TX","country":"United States","canonicalUrl":"https://foursquare.com/v/coconuts-bar--grill/4b8accbff964a520d98132e3","categoryId":"4bf58dd8d48988d116941735","category":"Bar","checkinsCount":2194,"usersCount":706,"tipCount":7,"visitsCount":2470,"tier":"","message":"","currency":"","rating":7.7},{"name":"Adrian's Cocktail Lounge","phone":"9153139999","twitter":"adrianseptx","address":"3400 Gateway Blvd E","lat":31.777412797041936,"lng":-106.45377822739599,"city_fetched":"El Paso,US","state":"TX","country":"United States","canonicalUrl":"https://foursquare.com/v/adrians-cocktail-lounge/507a4c13e4b025807a120ebc","categoryId":"4bf58dd8d48988d116941735","category":"Bar","checkinsCount":288,"usersCount":65,"tipCount":2,"visitsCount":319,"tier":"","message":"","currency":"","rating":7.7},{"name":"The Buzz","address":"10910 Montana Ave","lat":31.798781024421675,"lng":-106.32214114771494,"city_fetched":"El Paso,US","state":"TX","country":"United States","canonicalUrl":"https://foursquare.com/v/the-buzz/52bcf8c3498efb003a04979f","categoryId":"4bf58dd8d48988d116941735","category":"Bar","checkinsCount":81,"usersCount":105,"tipCount":7,"visitsCount":162,"tier":"","message":"","currency":"","rating":7.7},{"name":"Mulligan's Spirits & Food","phone":"9152199123","twitter":"mulliganspirits","address":"1605 George Dieter Dr #405","lat":31.753107579418337,"lng":-106.30202411099174,"neighborhood":"Vista Hills","city_fetched":"El Paso,US","state":"TX","country":"United States","canonicalUrl":"https://foursquare.com/mulliganspirits","categoryId":"4bf58dd8d48988d11d941735","category":"Sports Bar","checkinsCount":1179,"usersCount":306,"tipCount":4,"visitsCount":1719,"url":"http://www.mulligansshotbar.com","tier":"","message":"","currency":"","rating":7.7},{"name":"Cincinnati Bar & Grill","phone":"9155325592","address":"207 Cincinnati Ave","lat":31.77731805669207,"lng":-106.50292631246467,"neighborhood":"Kern Place","city_fetched":"El Paso,US","state":"TX","country":"United States","canonicalUrl":"https://foursquare.com/v/cincinnati-bar--grill/4b2ffc0cf964a520ddf324e3","categoryId":"4bf58dd8d48988d116941735","category":"Bar","checkinsCount":5660,"usersCount":1444,"tipCount":22,"visitsCount":5749,"url":"http://cincinnaticlub.biz","tier":2,"message":"Moderate","currency":"$","rating":7.7},{"name":"Hidrant Bar","address":"3112 Forney Ln","lat":31.784719473803335,"lng":-106.32402650339162,"city_fetched":"El Paso,US","state":"TX","country":"United States","canonicalUrl":"https://foursquare.com/v/hidrant-bar/4c3eb23951dee21e4805eb6e","categoryId":"4bf58dd8d48988d116941735","category":"Bar","checkinsCount":568,"usersCount":217,"tipCount":1,"visitsCount":622,"tier":"","message":"","currency":"","rating":7.6},{"name":"Five Point Bistro","address":"3017 Montana Ave","lat":31.783972894464632,"lng":-106.45904682986851,"neighborhood":"Pershing - Government Hill","city_fetched":"El Paso,US","state":"TX","country":"United States","canonicalUrl":"https://foursquare.com/v/five-point-bistro/4eeff5b3e5fa467841575e56","categoryId":"4bf58dd8d48988d11d941735","category":"Sports Bar","checkinsCount":418,"usersCount":287,"tipCount":8,"visitsCount":573,"tier":1,"message":"Cheap","currency":"$","rating":7.6},{"name":"Barmen Kitchen - Patio Bar","address":"4130 N Mesa St","lat":31.791751414059675,"lng":-106.50752302741974,"neighborhood":"Mission Hills South","city_fetched":"El Paso,US","state":"TX","country":"United States","canonicalUrl":"https://foursquare.com/v/barmen-kitchen--patio-bar/56299cba498e31c0f5b0e5a0","categoryId":"4bf58dd8d48988d116941735","category":"Bar","checkinsCount":94,"usersCount":78,"tipCount":0,"visitsCount":161,"tier":"","message":"","currency":"","rating":7.6},{"name":"Adrian's East","address":"1530 Lomaland Sweet K","lat":31.755468368530273,"lng":-106.3270492553711,"city_fetched":"El Paso,US","state":"TX","country":"United States","canonicalUrl":"https://foursquare.com/v/adrians-east/525effed498e03901c2849d2","categoryId":"4bf58dd8d48988d118941735","category":"Dive Bar","checkinsCount":226,"usersCount":138,"tipCount":4,"visitsCount":438,"tier":"","message":"","currency":"","rating":7.5},{"name":"Eleanor Rigby's  World Pub","phone":"9152496223","address":"1201 Bob Hope Dr","lat":31.71885590924126,"lng":-106.27041565734805,"city_fetched":"El Paso,US","state":"TX","country":"United States","canonicalUrl":"https://foursquare.com/v/eleanor-rigbys--world-pub/53cdf4bd498e5d69238c46e2","categoryId":"4bf58dd8d48988d11b941735","category":"Pub","checkinsCount":205,"usersCount":112,"tipCount":2,"visitsCount":403,"url":"http://rigbysworld.com","tier":"","message":"","currency":"","rating":7.4},{"name":"Monarch Bar","address":"914 N Mesa St","lat":31.764682825617747,"lng":-106.49190956205008,"neighborhood":"El Paso High","city_fetched":"El Paso,US","state":"TX","country":"United States","canonicalUrl":"https://foursquare.com/v/monarch-bar/51c11a3c498e8c2d1291464b","categoryId":"4bf58dd8d48988d116941735","category":"Bar","checkinsCount":332,"usersCount":191,"tipCount":1,"visitsCount":416,"tier":2,"message":"Moderate","currency":"$","rating":7.4},{"name":"The Black Orchid Lounge","phone":"9153075617","twitter":"blackorchidep","address":"6127 N Mesa St","lat":31.830820242372354,"lng":-106.53227451522224,"neighborhood":"Sunland Park North","city_fetched":"El Paso,US","state":"TX","country":"United States","canonicalUrl":"https://foursquare.com/v/the-black-orchid-lounge/52617ab811d28b662d7883dc","categoryId":"4bf58dd8d48988d11e941735","category":"Cocktail Bar","checkinsCount":121,"usersCount":58,"tipCount":2,"visitsCount":143,"url":"http://www.theblackorchidlounge.com","tier":2,"message":"Moderate","currency":"$","rating":7.4},{"name":"301","address":"301 S Ochoa St","lat":31.75737190731141,"lng":-106.48155491707007,"neighborhood":"Downtown El Paso","city_fetched":"El Paso,US","state":"TX","country":"United States","canonicalUrl":"https://foursquare.com/v/301/52217ff711d2cb4e7e193593","categoryId":"4bf58dd8d48988d11f941735","category":"Nightclub","checkinsCount":403,"usersCount":290,"tipCount":6,"visitsCount":613,"tier":"","message":"","currency":"","rating":7.4},{"name":"Graham's Corner","phone":"9155812657","address":"5959 N Mesa St","lat":31.828290304197402,"lng":-106.52936885616674,"neighborhood":"Sunland Park North","city_fetched":"El Paso,US","state":"TX","country":"United States","canonicalUrl":"https://foursquare.com/v/grahams-corner/4b7f84ecf964a5209f3230e3","categoryId":"4bf58dd8d48988d116941735","category":"Bar","checkinsCount":1258,"usersCount":335,"tipCount":7,"visitsCount":1412,"url":"http://grahamscorner.com","tier":"","message":"","currency":"","rating":7.4},{"name":"Leprechaun Irish Pub","address":"Manuel Gomez Morin","lat":31.719003972110865,"lng":-106.4151017863399,"city_fetched":"El Paso,US","state":"Chihuahua","country":"México","canonicalUrl":"https://foursquare.com/v/leprechaun-irish-pub/4e2bb19762e144b5d3afe0cd","categoryId":"4bf58dd8d48988d116941735","category":"Bar","checkinsCount":634,"usersCount":349,"tipCount":8,"visitsCount":782,"tier":"","message":"","currency":"","rating":7.4},{"name":"Tanya's Gridiron","phone":"9155668188","twitter":"tanyas_gridiron","address":"4620 Dryer St","lat":31.8178225,"lng":-106.44428814,"city_fetched":"El Paso,US","state":"TX","country":"United States","canonicalUrl":"https://foursquare.com/v/tanyas-gridiron/4c1dbdc88b3aa59345259b5f","categoryId":"4bf58dd8d48988d116941735","category":"Bar","checkinsCount":367,"usersCount":160,"tipCount":4,"visitsCount":453,"tier":"","message":"","currency":"","rating":7.4},{"name":"Shamrock's Irish Pub","address":"Pleasonton Rd","lat":31.817357718309854,"lng":-106.42739695240641,"city_fetched":"El Paso,US","state":"TX","country":"United States","canonicalUrl":"https://foursquare.com/v/shamrocks-irish-pub/4d7c5276136bf04d5ec15d8d","categoryId":"4bf58dd8d48988d11b941735","category":"Pub","checkinsCount":979,"usersCount":419,"tipCount":9,"visitsCount":1019,"tier":2,"message":"Moderate","currency":"$","rating":7.4},{"name":"Mystic Grape","lat":31.783817379042112,"lng":-106.26722635173006,"city_fetched":"El Paso,US","state":"TX","country":"United States","canonicalUrl":"https://foursquare.com/v/mystic-grape/507f463be4b0efb147ea1393","categoryId":"4bf58dd8d48988d123941735","category":"Wine Bar","checkinsCount":127,"usersCount":77,"tipCount":4,"visitsCount":128,"tier":"","message":"","currency":"","rating":7.4},{"name":"The Room @ The Tavern","phone":"9155436000","address":"2700 N Mesa St","lat":31.777185807920024,"lng":-106.50316218651706,"neighborhood":"Kern Place","city_fetched":"El Paso,US","state":"TX","country":"United States","canonicalUrl":"https://foursquare.com/v/the-room--the-tavern/4e725b4c52b1aabf96184d14","categoryId":"4bf58dd8d48988d11e941735","category":"Cocktail Bar","checkinsCount":1703,"usersCount":378,"tipCount":4,"visitsCount":1712,"tier":"","message":"","currency":"","rating":7.4},{"name":"XHALE HOOKAH BAR","phone":"9154121233","twitter":"xhalehookahbar","address":"1160 Airway Blvd Ste C4","lat":31.783103707730355,"lng":-106.3933943746348,"city_fetched":"El Paso,US","state":"TX","country":"United States","canonicalUrl":"https://foursquare.com/v/xhale-hookah-bar/50257a87e4b0cab2043a78d5","categoryId":"4bf58dd8d48988d121941735","category":"Lounge","checkinsCount":63,"usersCount":46,"tipCount":2,"visitsCount":63,"tier":"","message":"","currency":"","rating":7.3},{"name":"Craw Oyster Bar","phone":"5054079599","address":"1160 Airway Blvd Ste B1","lat":31.782877592099847,"lng":-106.39352473,"city_fetched":"El Paso,US","state":"TX","country":"United States","canonicalUrl":"https://foursquare.com/v/craw-oyster-bar/4c8aa2544fb7199cb11c2ea3","categoryId":"4bf58dd8d48988d116941735","category":"Bar","checkinsCount":1041,"usersCount":352,"tipCount":8,"visitsCount":1148,"url":"http://crawoysterbar.com","tier":"","message":"","currency":"","rating":7.3},{"name":"Rabadoo's Sports Bar and Cafe","address":"1071 Country Club Rd","lat":31.847783628670744,"lng":-106.61169558763504,"city_fetched":"El Paso,US","state":"TX","country":"United States","canonicalUrl":"https://foursquare.com/v/rabadoos-sports-bar-and-cafe/4c16bb76583c9c74440740a4","categoryId":"4bf58dd8d48988d116941735","category":"Bar","checkinsCount":434,"usersCount":99,"tipCount":2,"visitsCount":513,"tier":"","message":"","currency":"","rating":7.3},{"name":"The Tap","phone":"9155321848","address":"408 San Antonio","lat":31.758516164064268,"lng":-106.48541486,"neighborhood":"Downtown El Paso","city_fetched":"El Paso,US","state":"TX","country":"United States","canonicalUrl":"https://foursquare.com/v/the-tap/4bfedd01daf9c9b6ad60f9ef","categoryId":"4bf58dd8d48988d118941735","category":"Dive Bar","checkinsCount":1226,"usersCount":638,"tipCount":12,"visitsCount":1347,"tier":2,"message":"Moderate","currency":"$","rating":7.3},{"name":"Bourbon & Brews Bar & Grille","phone":"9153134610","address":"2931 George Dieter Dr","lat":31.781732449745753,"lng":-106.30262184565306,"city_fetched":"El Paso,US","state":"TX","country":"United States","canonicalUrl":"https://foursquare.com/v/bourbon--brews-bar--grille/4f431292e4b05b69c74e72cf","categoryId":"4bf58dd8d48988d116941735","category":"Bar","checkinsCount":1216,"usersCount":394,"tipCount":6,"visitsCount":1649,"tier":"","message":"","currency":"","rating":7.2},{"name":"Whiskey Dick's","phone":"9159219900","address":"1580 George Dieter Dr","lat":31.749518215674748,"lng":-106.30015969276428,"city_fetched":"El Paso,US","state":"TX","country":"United States","canonicalUrl":"https://foursquare.com/v/whiskey-dicks/4b860c19f964a5208e7e31e3","categoryId":"4bf58dd8d48988d122941735","category":"Whisky Bar","checkinsCount":2295,"usersCount":1076,"tipCount":10,"visitsCount":2760,"url":"http://whiskeydickselpaso.com","tier":1,"message":"Cheap","currency":"$","rating":7.2},{"name":"Craft House Pub &  Grub","address":"5020 N Desert Blvd","lat":31.840892619397433,"lng":-106.56827345351238,"neighborhood":"Remcon","city_fetched":"El Paso,US","state":"TX","country":"United States","canonicalUrl":"https://foursquare.com/v/craft-house-pub---grub/53af1d0e498e13cc8b0e6416","categoryId":"4bf58dd8d48988d116941735","category":"Bar","checkinsCount":89,"usersCount":54,"tipCount":4,"visitsCount":93,"tier":"","message":"","currency":"","rating":7.2},{"name":"Corner Tavern & Grill","phone":"9155436000","twitter":"cornertavern915","address":"2700 N Mesa St","lat":31.7771943,"lng":-106.503094,"neighborhood":"Kern Place","city_fetched":"El Paso,US","state":"TX","country":"United States","canonicalUrl":"https://foursquare.com/cornertavern915","categoryId":"4bf58dd8d48988d11d941735","category":"Sports Bar","checkinsCount":948,"usersCount":281,"tipCount":0,"visitsCount":1007,"url":"http://www.cornertavernandgrill.com","tier":1,"message":"Cheap","currency":"$","rating":7.2},{"name":"Fanatics Sports Bar & Grill","phone":"9155941100","address":"11048 Montwood Dr","lat":31.76874431249352,"lng":-106.31673234308658,"city_fetched":"El Paso,US","state":"TX","country":"United States","canonicalUrl":"https://foursquare.com/v/fanatics-sports-bar--grill/4ddf03b652b16128c60feaf6","categoryId":"4bf58dd8d48988d116941735","category":"Bar","checkinsCount":1229,"usersCount":412,"tipCount":7,"visitsCount":1370,"url":"http://fanaticssportspub.com","tier":2,"message":"Moderate","currency":"$","rating":7.1},{"name":"The Palomino","address":"2601 N Mesa St","lat":31.776119,"lng":-106.502845,"city_fetched":"El Paso,US","state":"TX","country":"United States","canonicalUrl":"https://foursquare.com/v/the-palomino/4c760af0db52b1f7268a7adc","categoryId":"4bf58dd8d48988d11e941735","category":"Cocktail Bar","checkinsCount":2889,"usersCount":570,"tipCount":10,"visitsCount":2948,"url":"http://palominotavern.com","tier":2,"message":"Moderate","currency":"$","rating":7.1},{"name":"Special Edition","lat":31.79018497467041,"lng":-106.33333325386047,"neighborhood":"Album","city_fetched":"El Paso,US","state":"TX","country":"United States","canonicalUrl":"https://foursquare.com/v/special-edition/4c42887fce54e21ecdeb0c1a","categoryId":"4bf58dd8d48988d120941735","category":"Karaoke Bar","checkinsCount":615,"usersCount":169,"tipCount":9,"visitsCount":678,"tier":"","message":"","currency":"","rating":7.1},{"name":"Mesa Street Grill","phone":"9155321881","twitter":"mesastreetgrill","address":"3800 N Mesa St Ste D1","lat":31.786874771118164,"lng":-106.50582122802734,"neighborhood":"Mission Hills South","city_fetched":"El Paso,US","state":"TX","country":"United States","canonicalUrl":"https://foursquare.com/v/mesa-street-grill/4bca7bb7cc8cd13a81eabdcf","categoryId":"4bf58dd8d48988d116941735","category":"Bar","checkinsCount":1234,"usersCount":741,"tipCount":22,"visitsCount":1385,"url":"http://mesastreetgrill.com","tier":"","message":"","currency":"","rating":7.1},{"name":"Aviators","phone":"9157599966","address":"9477 Dyer St Ste H-J","lat":31.880321,"lng":-106.422025,"city_fetched":"El Paso,US","state":"TX","country":"United States","canonicalUrl":"https://foursquare.com/v/aviators/4bc9214b0687ef3be183d9cc","categoryId":"4bf58dd8d48988d121941735","category":"Lounge","checkinsCount":846,"usersCount":273,"tipCount":7,"visitsCount":903,"tier":"","message":"","currency":"","rating":7.1},{"name":"Erin's","address":"6306 N Mesa St","lat":31.832581885453287,"lng":-106.53366694414404,"city_fetched":"El Paso,US","state":"TX","country":"United States","canonicalUrl":"https://foursquare.com/v/erins/4b69180af964a520f2982be3","categoryId":"4bf58dd8d48988d120941735","category":"Karaoke Bar","checkinsCount":1944,"usersCount":578,"tipCount":12,"visitsCount":2195,"tier":1,"message":"Cheap","currency":"$","rating":7.1},{"name":"Smokey's Pit Stop & Saloon","phone":"9155936332","address":"1346 N Lee Trevino Dr","lat":31.74281685089013,"lng":-106.32157784361186,"city_fetched":"El Paso,US","state":"TX","country":"United States","canonicalUrl":"https://foursquare.com/v/smokeys-pit-stop--saloon/4bf1f196d39ad13ae5dfaa0e","categoryId":"4bf58dd8d48988d116941735","category":"Bar","checkinsCount":823,"usersCount":339,"tipCount":1,"visitsCount":902,"url":"http://smokeysbbqelp.com","tier":"","message":"","currency":"","rating":7},{"name":"Pockets Billiards & Fun","lat":31.87950994988006,"lng":-106.42119177062037,"city_fetched":"El Paso,US","state":"Texas","country":"United States","canonicalUrl":"https://foursquare.com/v/pockets-billiards--fun/4f590976e4b003e668e161ca","categoryId":"4bf58dd8d48988d11d941735","category":"Sports Bar","checkinsCount":342,"usersCount":157,"tipCount":3,"visitsCount":354,"tier":"","message":"","currency":"","rating":7},{"name":"8 1/2","phone":"9153511896","address":"504 N Stanton St","lat":31.761801305279363,"lng":-106.48830263623864,"neighborhood":"Downtown El Paso","city_fetched":"El Paso,US","state":"TX","country":"United States","canonicalUrl":"https://foursquare.com/v/8-12/4cb1519b75ebb60c1783ccad","categoryId":"4bf58dd8d48988d1d8941735","category":"Gay Bar","checkinsCount":1655,"usersCount":221,"tipCount":10,"visitsCount":1679,"tier":"","message":"","currency":"","rating":7},{"name":"Coco Bar","phone":"9155957170","address":"1515 suite-S Lee Trevino","lat":31.753646360622064,"lng":-106.31941086174217,"city_fetched":"El Paso,US","state":"TX","country":"United States","canonicalUrl":"https://foursquare.com/v/coco-bar/4e9cb8b4b8f77a8b46e331d1","categoryId":"4bf58dd8d48988d11e941735","category":"Cocktail Bar","checkinsCount":818,"usersCount":484,"tipCount":20,"visitsCount":896,"url":"http://cocolovesyou.com","tier":"","message":"","currency":"","rating":7},{"name":"Adrian's Bar","lat":31.77734019597767,"lng":-106.45377822739599,"city_fetched":"El Paso,US","state":"TX","country":"United States","canonicalUrl":"https://foursquare.com/v/adrians-bar/4e35f7a845dd1c42bf250d11","categoryId":"4bf58dd8d48988d118941735","category":"Dive Bar","checkinsCount":793,"usersCount":246,"tipCount":13,"visitsCount":977,"tier":"","message":"","currency":"","rating":6.9},{"name":"Brick & Mortar","phone":"9153510445","address":"115 S Durango St #C","lat":31.75708658151827,"lng":-106.49358361080058,"neighborhood":"Downtown El Paso","city_fetched":"El Paso,US","state":"TX","country":"United States","canonicalUrl":"https://foursquare.com/v/brick--mortar/4baef777f964a5206de43be3","categoryId":"4bf58dd8d48988d116941735","category":"Bar","checkinsCount":1299,"usersCount":493,"tipCount":8,"visitsCount":1300,"url":"http://www.brick-n-mortar.com","tier":"","message":"","currency":"","rating":6.9},{"name":"Ojos Locos","lat":31.782778895586638,"lng":-106.3942856274956,"city_fetched":"El Paso,US","state":"TX","country":"United States","canonicalUrl":"https://foursquare.com/v/ojos-locos/54276522498e4ff3ece7a616","categoryId":"4bf58dd8d48988d11d941735","category":"Sports Bar","checkinsCount":336,"usersCount":401,"tipCount":3,"visitsCount":653,"tier":"","message":"","currency":"","rating":6.9},{"name":"The Plum","phone":"9153519221","address":"500 San Francisco Ave","lat":31.75729845788741,"lng":-106.49357785803296,"neighborhood":"Downtown El Paso","city_fetched":"El Paso,US","state":"TX","country":"United States","canonicalUrl":"https://foursquare.com/v/the-plum/4bd3ec75462cb713d98ddf07","categoryId":"4bf58dd8d48988d121941735","category":"Lounge","checkinsCount":2621,"usersCount":630,"tipCount":10,"visitsCount":2664,"tier":"","message":"","currency":"","rating":6.9},{"name":"House Of Rock Westside","phone":"9157604111","address":"931 N Resler Dr","lat":31.860521575331926,"lng":-106.5591753221699,"city_fetched":"El Paso,US","state":"TX","country":"United States","canonicalUrl":"https://foursquare.com/v/house-of-rock-westside/4cacf5692f08236a78359061","categoryId":"4bf58dd8d48988d116941735","category":"Bar","checkinsCount":664,"usersCount":199,"tipCount":3,"visitsCount":677,"tier":"","message":"","currency":"","rating":6.9},{"name":"Little Bit Of Texas","phone":"9155852275","address":"5500 Doniphan Dr, El Paso, TX 79932","lat":31.858718744690922,"lng":-106.58575722241993,"city_fetched":"El Paso,US","state":"TX","country":"United States","canonicalUrl":"https://foursquare.com/v/little-bit-of-texas/4ecc5aa130f845849f8d5fc8","categoryId":"4bf58dd8d48988d116941735","category":"Bar","checkinsCount":1761,"usersCount":800,"tipCount":14,"visitsCount":2192,"url":"http://littlebitoftexas.us","tier":1,"message":"Cheap","currency":"$","rating":6.9},{"name":"Maverick's","phone":"9155912208","address":"11395 James Watt Dr","lat":31.74388894558546,"lng":-106.31602495908737,"city_fetched":"El Paso,US","state":"TX","country":"United States","canonicalUrl":"https://foursquare.com/v/mavericks/4b88b060f964a520cf0832e3","categoryId":"4bf58dd8d48988d11d941735","category":"Sports Bar","checkinsCount":4754,"usersCount":981,"tipCount":16,"visitsCount":5017,"tier":2,"message":"Moderate","currency":"$","rating":6.9},{"name":"Marriott Concierge Lounge","phone":"9157793300","address":"1600 Airway Blvd","lat":31.791038558139654,"lng":-106.39454437904631,"city_fetched":"El Paso,US","state":"TX","country":"United States","canonicalUrl":"https://foursquare.com/v/marriott-concierge-lounge/4cfc369eee9cb60cdd5694ad","categoryId":"4bf58dd8d48988d1d5941735","category":"Hotel Bar","checkinsCount":410,"usersCount":174,"tipCount":6,"visitsCount":464,"url":"http://marriott.com/elptx","tier":"","message":"","currency":"","rating":6.8},{"name":"Liquor Dicks","address":"James Watt","lat":31.744327403217085,"lng":-106.32000864754065,"city_fetched":"El Paso,US","state":"TX","country":"United States","canonicalUrl":"https://foursquare.com/v/liquor-dicks/4f1a2533e4b0e6bada488a14","categoryId":"4bf58dd8d48988d116941735","category":"Bar","checkinsCount":1680,"usersCount":548,"tipCount":10,"visitsCount":1860,"tier":"","message":"","currency":"","rating":6.8},{"name":"The Tequila Garage","lat":31.78933262,"lng":-106.50800406932831,"city_fetched":"El Paso,US","state":"TX","country":"United States","canonicalUrl":"https://foursquare.com/v/the-tequila-garage/4b9c7996f964a520336b36e3","categoryId":"4bf58dd8d48988d116941735","category":"Bar","checkinsCount":678,"usersCount":272,"tipCount":7,"visitsCount":679,"tier":"","message":"","currency":"","rating":6.8},{"name":"German Pub","phone":"9155958888","twitter":"germanpubelpaso","address":"9530 Zistown Suite 2K","lat":31.766070968242296,"lng":-106.36360574541771,"city_fetched":"El Paso,US","state":"TX","country":"United States","canonicalUrl":"https://foursquare.com/v/german-pub/54a072f5498ed981aaf9f754","categoryId":"4bf58dd8d48988d11b941735","category":"Pub","checkinsCount":53,"usersCount":41,"tipCount":3,"visitsCount":62,"url":"http://germanpubeptx.wix.com/germanpubeptx#!grid/c1pwt","tier":"","message":"","currency":"","rating":6.8},{"name":"Puff Social Hookah Lounge","phone":"9154407833","address":"3800 N Mesa St Ste D3","lat":31.786599941361544,"lng":-106.5058028432798,"neighborhood":"Mission Hills South","city_fetched":"El Paso,US","state":"TX","country":"United States","canonicalUrl":"https://foursquare.com/v/puff-social-hookah-lounge/4fbee1b8e4b0cd441272dbc0","categoryId":"4bf58dd8d48988d119941735","category":"Hookah Bar","checkinsCount":228,"usersCount":126,"tipCount":1,"visitsCount":228,"tier":"","message":"","currency":"","rating":6.7},{"name":"ALIVE","phone":"9252225483","twitter":"clubalive915","address":"610 N Mesa St","lat":31.762391924858093,"lng":-106.48979761,"neighborhood":"Downtown El Paso","city_fetched":"El Paso,US","state":"TX","country":"United States","canonicalUrl":"https://foursquare.com/v/alive/4d818c8eaff72d43ef7f50bf","categoryId":"4bf58dd8d48988d1d8941735","category":"Gay Bar","checkinsCount":1849,"usersCount":454,"tipCount":9,"visitsCount":1905,"tier":"","message":"","currency":"","rating":6.7},{"name":"Liquor Dicks","phone":"9155331890","address":"2712 N Mesa St","lat":31.777502102243588,"lng":-106.50322705507278,"neighborhood":"Kern Place","city_fetched":"El Paso,US","state":"TX","country":"United States","canonicalUrl":"https://foursquare.com/v/liquor-dicks/4b67baf5f964a520335c2be3","categoryId":"4bf58dd8d48988d116941735","category":"Bar","checkinsCount":1536,"usersCount":586,"tipCount":10,"visitsCount":1539,"tier":"","message":"","currency":"","rating":6.7},{"name":"Tequilas","address":"810 Pendale Rd","lat":31.722259424102102,"lng":-106.32032478497057,"city_fetched":"El Paso,US","state":"TX","country":"United States","canonicalUrl":"https://foursquare.com/v/tequilas/4d981c15c19fb60c86bfa765","categoryId":"4bf58dd8d48988d11f941735","category":"Nightclub","checkinsCount":100,"usersCount":80,"tipCount":3,"visitsCount":123,"tier":"","message":"","currency":"","rating":6.7},{"name":"Loft Bar","phone":"9155320596","address":"2626 N Mesa St","lat":31.777007922293805,"lng":-106.50282851110558,"neighborhood":"Kern Place","city_fetched":"El Paso,US","state":"TX","country":"United States","canonicalUrl":"https://foursquare.com/v/loft-bar/4bca977cb6c49c7447ef9091","categoryId":"4bf58dd8d48988d116941735","category":"Bar","checkinsCount":911,"usersCount":471,"tipCount":5,"visitsCount":916,"url":"http://www.myspace.com/loftbar915","tier":2,"message":"Moderate","currency":"$","rating":6.7},{"name":"EPIC","address":"510 N Stanton St","lat":31.76210794684592,"lng":-106.48841768873974,"neighborhood":"Downtown El Paso","city_fetched":"El Paso,US","state":"TX","country":"United States","canonicalUrl":"https://foursquare.com/v/epic/511733a8e4b05512eefd893e","categoryId":"4bf58dd8d48988d1d8941735","category":"Gay Bar","checkinsCount":861,"usersCount":248,"tipCount":5,"visitsCount":930,"tier":"","message":"","currency":"","rating":6.6},{"name":"Smokey's Pit Stop & Saloon","phone":"9158499578","address":"1700 N Zaragoza Rd","lat":31.751491552126584,"lng":-106.27726565179262,"city_fetched":"El Paso,US","state":"TX","country":"United States","canonicalUrl":"https://foursquare.com/v/smokeys-pit-stop--saloon/4c53b4c930f92d7f7dbb3ab9","categoryId":"4bf58dd8d48988d116941735","category":"Bar","checkinsCount":1439,"usersCount":614,"tipCount":5,"visitsCount":1848,"url":"http://smokeysbbqelp.com","tier":2,"message":"Moderate","currency":"$","rating":6.6},{"name":"Pockets Billiards & Fun","phone":"9158572807","address":"1441 N Zaragoza Rd","lat":31.735740865967145,"lng":-106.29482844352724,"city_fetched":"El Paso,US","state":"TX","country":"United States","canonicalUrl":"https://foursquare.com/v/pockets-billiards--fun/4bada8dcf964a520a1613be3","categoryId":"4bf58dd8d48988d11d941735","category":"Sports Bar","checkinsCount":994,"usersCount":525,"tipCount":9,"visitsCount":1057,"url":"http://pocketstucson.com","tier":"","message":"","currency":"","rating":6.6},{"name":"Boomtown Tavern","phone":"9152617330","twitter":"boomtowntavern","address":"2430 Wyoming Ave","lat":31.778215784768076,"lng":-106.46543741226196,"neighborhood":"Five Points West","city_fetched":"El Paso,US","state":"TX","country":"United States","canonicalUrl":"https://foursquare.com/boomtowntavern","categoryId":"4bf58dd8d48988d116941735","category":"Bar","checkinsCount":72,"usersCount":74,"tipCount":1,"visitsCount":164,"tier":1,"message":"Cheap","currency":"$","rating":6.6},{"name":"Light Bar","phone":"9158579050","address":"1700 N Zaragoza Rd","lat":31.75245898904611,"lng":-106.27673120594388,"city_fetched":"El Paso,US","state":"TX","country":"United States","canonicalUrl":"https://foursquare.com/v/light-bar/4bce879fb6c49c740c689791","categoryId":"4bf58dd8d48988d116941735","category":"Bar","checkinsCount":712,"usersCount":225,"tipCount":6,"visitsCount":718,"tier":"","message":"","currency":"","rating":6.5},{"name":"Jaguars Gold Club","address":"11377 Gateway Blvd W","lat":31.737960365110073,"lng":-106.32200319554565,"city_fetched":"El Paso,US","state":"TX","country":"United States","canonicalUrl":"https://foursquare.com/v/jaguars-gold-club/4c072905cf8c76b01eb63b65","categoryId":"4bf58dd8d48988d1d6941735","category":"Strip Club","checkinsCount":1129,"usersCount":455,"tipCount":6,"visitsCount":1298,"tier":"","message":"","currency":"","rating":6.5},{"name":"Wing Daddy's Sauce House","phone":"9158219464","address":"11100 Sean Haggerty Dr Ste 201","lat":31.93296779284876,"lng":-106.42374513161181,"city_fetched":"El Paso,US","state":"TX","country":"United States","canonicalUrl":"https://foursquare.com/v/wing-daddys-sauce-house/4f124120e4b09e81d99d1e06","categoryId":"4bf58dd8d48988d116941735","category":"Bar","checkinsCount":526,"usersCount":317,"tipCount":9,"visitsCount":826,"url":"http://wingdaddys.com","tier":2,"message":"Moderate","currency":"$","rating":6.5},{"name":"Pop's Cantina","address":"6315 N Mesa St","lat":31.8320606,"lng":-106.534776,"neighborhood":"Sunland Park North","city_fetched":"El Paso,US","state":"TX","country":"United States","canonicalUrl":"https://foursquare.com/v/pops-cantina/4d43c46f2e326ea89156dda6","categoryId":"4bf58dd8d48988d116941735","category":"Bar","checkinsCount":983,"usersCount":402,"tipCount":4,"visitsCount":1022,"tier":"","message":"","currency":"","rating":6.5},{"name":"Legendary Tipsy Tiger","lat":31.750485103609616,"lng":-106.30014470675222,"city_fetched":"El Paso,US","state":"TX","country":"United States","canonicalUrl":"https://foursquare.com/v/legendary-tipsy-tiger/5520bb0a498ec576666c1998","categoryId":"4bf58dd8d48988d116941735","category":"Bar","checkinsCount":237,"usersCount":372,"tipCount":0,"visitsCount":772,"tier":"","message":"","currency":"","rating":6.5},{"name":"Mulligan's North Bar and Grill","address":"10710 Gateway Blvd N","lat":31.92211158016061,"lng":-106.43824927682788,"city_fetched":"El Paso,US","state":"TX","country":"United States","canonicalUrl":"https://foursquare.com/v/mulligans-north-bar-and-grill/4bc13f102a89ef3b6924f288","categoryId":"4bf58dd8d48988d116941735","category":"Bar","checkinsCount":1038,"usersCount":272,"tipCount":8,"visitsCount":1038,"tier":"","message":"","currency":"","rating":6.4},{"name":"Mini Bar","lat":31.776971,"lng":-106.502868,"neighborhood":"Kern Place","city_fetched":"El Paso,US","state":"TX","country":"United States","canonicalUrl":"https://foursquare.com/v/mini-bar/4bc0041a4cdfc9b66d679221","categoryId":"4bf58dd8d48988d116941735","category":"Bar","checkinsCount":943,"usersCount":349,"tipCount":3,"visitsCount":949,"tier":"","message":"","currency":"","rating":6.4},{"name":"The Social House","address":"4130 N Mesa St","lat":31.791761402412337,"lng":-106.50750001483047,"neighborhood":"Mission Hills South","city_fetched":"El Paso,US","state":"TX","country":"United States","canonicalUrl":"https://foursquare.com/v/the-social-house/5340a38a498e931121f964b4","categoryId":"4bf58dd8d48988d116941735","category":"Bar","checkinsCount":100,"usersCount":72,"tipCount":3,"visitsCount":114,"tier":"","message":"","currency":"","rating":6.4},{"name":"Click's Billards","phone":"9157792153","address":"1201 Airway Blvd","lat":31.78140051123163,"lng":-106.39383137555708,"city_fetched":"El Paso,US","state":"TX","country":"United States","canonicalUrl":"https://foursquare.com/v/clicks-billards/4c258dd7a852c928b735e56c","categoryId":"4bf58dd8d48988d11d941735","category":"Sports Bar","checkinsCount":922,"usersCount":424,"tipCount":14,"visitsCount":952,"url":"http://www.clicks.com","tier":"","message":"","currency":"","rating":6.4},{"name":"Riviera Restaurant And Cantina","address":"5218 Doniphan Dr","lat":31.84972,"lng":-106.58237207,"neighborhood":"Roberts","city_fetched":"El Paso,US","state":"TX","country":"United States","canonicalUrl":"https://foursquare.com/v/riviera-restaurant-and-cantina/4c562ca073fd2d7ff71a11cf","categoryId":"4bf58dd8d48988d116941735","category":"Bar","checkinsCount":774,"usersCount":310,"tipCount":3,"visitsCount":888,"url":"http://rivelpaso.com","tier":"","message":"","currency":"","rating":6.4},{"name":"Bikini Joe’s","phone":"9157751135","twitter":"bikini_joes","address":"1610 Sioux Dr","lat":31.79015379522832,"lng":-106.40309486245827,"city_fetched":"El Paso,US","state":"TX","country":"United States","canonicalUrl":"https://foursquare.com/v/bikini-joes/4df0fb0ad22d4336871a028d","categoryId":"4bf58dd8d48988d116941735","category":"Bar","checkinsCount":5411,"usersCount":1189,"tipCount":34,"visitsCount":5415,"url":"http://www.eatatbikinijoes.com","tier":"","message":"","currency":"","rating":6.3},{"name":"RockstaR Fusion Sushi Lounge","address":"1700 N Zaragoza Rd","lat":31.74963599553297,"lng":-106.27907588211296,"city_fetched":"El Paso,US","state":"TX","country":"United States","canonicalUrl":"https://foursquare.com/v/rockstar-fusion-sushi-lounge/4e94e1deb634aae40ac06675","categoryId":"4bf58dd8d48988d119941735","category":"Hookah Bar","checkinsCount":616,"usersCount":254,"tipCount":7,"visitsCount":616,"tier":"","message":"","currency":"","rating":6.3},{"name":"Spice Bar","address":"2720 N Mesa St Ste B","lat":31.77761000969239,"lng":-106.50338080172767,"neighborhood":"Kern Place","city_fetched":"El Paso,US","state":"TX","country":"United States","canonicalUrl":"https://foursquare.com/v/spice-bar/4dc4b32718387d1bd52b149b","categoryId":"4bf58dd8d48988d11e941735","category":"Cocktail Bar","checkinsCount":1360,"usersCount":502,"tipCount":3,"visitsCount":1360,"tier":"","message":"","currency":"","rating":6.2},{"name":"Mas T'kila Bar","address":"1160 Airway Blvd","lat":31.78295672,"lng":-106.39306756666667,"city_fetched":"El Paso,US","state":"TX","country":"United States","canonicalUrl":"https://foursquare.com/v/mas-tkila-bar/4d3e237644f5a093cd59dbbb","categoryId":"4bf58dd8d48988d11d941735","category":"Sports Bar","checkinsCount":262,"usersCount":99,"tipCount":5,"visitsCount":262,"tier":"","message":"","currency":"","rating":6.2},{"name":"The Whatever","phone":"9155330215","address":"701 E Paisano Dr","lat":31.756983408858144,"lng":-106.48170448053722,"neighborhood":"Downtown El Paso","city_fetched":"El Paso,US","state":"TX","country":"United States","canonicalUrl":"https://foursquare.com/v/the-whatever/4e475be1483b03d090edb5a5","categoryId":"4bf58dd8d48988d1d8941735","category":"Gay Bar","checkinsCount":280,"usersCount":106,"tipCount":0,"visitsCount":280,"tier":"","message":"","currency":"","rating":6.1},{"name":"Teddy's","address":"6669 Gateway Blvd W","lat":31.779647693479248,"lng":-106.39288365840912,"city_fetched":"El Paso,US","state":"TX","country":"United States","canonicalUrl":"https://foursquare.com/v/teddys/4b664e16f964a520361d2be3","categoryId":"4bf58dd8d48988d1d5941735","category":"Hotel Bar","checkinsCount":381,"usersCount":205,"tipCount":4,"visitsCount":381,"tier":"","message":"","currency":"","rating":6.1},{"name":"Soho","address":"500 N Oregon St","lat":31.760547192015622,"lng":-106.48967176507868,"neighborhood":"Downtown El Paso","city_fetched":"El Paso,US","state":"TX","country":"United States","canonicalUrl":"https://foursquare.com/v/soho/4b88ba55f964a520e40a32e3","categoryId":"4bf58dd8d48988d11e941735","category":"Cocktail Bar","checkinsCount":1038,"usersCount":407,"tipCount":7,"visitsCount":1100,"tier":"","message":"","currency":"","rating":6},{"name":"Canela La","address":"1441 N Zaragoza Rd Ste A1","lat":31.73712265,"lng":-106.29403606666666,"city_fetched":"El Paso,US","state":"TX","country":"United States","canonicalUrl":"https://foursquare.com/v/canela-la/4d937bf8b3273704bebb9a25","categoryId":"4bf58dd8d48988d121941735","category":"Lounge","checkinsCount":218,"usersCount":125,"tipCount":4,"visitsCount":218,"tier":"","message":"","currency":"","rating":6},{"name":"Tork Bar","phone":"9155999680","address":"3012 N Lee Trevino Dr","lat":31.78269384590332,"lng":-106.3225507736206,"neighborhood":"Glen Cove","city_fetched":"El Paso,US","state":"TX","country":"United States","canonicalUrl":"https://foursquare.com/v/tork-bar/4b7f68a3f964a520112d30e3","categoryId":"4bf58dd8d48988d116941735","category":"Bar","checkinsCount":2433,"usersCount":627,"tipCount":7,"visitsCount":2469,"tier":"","message":"","currency":"","rating":6},{"name":"Leos Restaurant","address":"315 E Mills Ave","lat":31.760539441014277,"lng":-106.48639277390554,"neighborhood":"Downtown El Paso","city_fetched":"El Paso,US","state":"TX","country":"United States","canonicalUrl":"https://foursquare.com/v/leos-restaurant/4df0532e45ddbf3897d1b5b9","categoryId":"4bf58dd8d48988d116941735","category":"Bar","checkinsCount":120,"usersCount":83,"tipCount":3,"visitsCount":121,"tier":"","message":"","currency":"","rating":5.9},{"name":"Maverick's","phone":"9157797368","address":"6999 Montana Ave","lat":31.79098361483992,"lng":-106.39081299304962,"city_fetched":"El Paso,US","state":"TX","country":"United States","canonicalUrl":"https://foursquare.com/v/mavericks/4bcfb80c77b29c748bbb8982","categoryId":"4bf58dd8d48988d116941735","category":"Bar","checkinsCount":1254,"usersCount":344,"tipCount":5,"visitsCount":1340,"tier":"","message":"","currency":"","rating":5.9},{"name":"Black Pearl","address":"504 W San Antonio Ave","lat":31.75633302341663,"lng":-106.49312338988744,"neighborhood":"Downtown El Paso","city_fetched":"El Paso,US","state":"TX","country":"United States","canonicalUrl":"https://foursquare.com/v/black-pearl/4bf787db5317a593a749fe7e","categoryId":"4bf58dd8d48988d11f941735","category":"Nightclub","checkinsCount":668,"usersCount":384,"tipCount":5,"visitsCount":671,"tier":"","message":"","currency":"","rating":5.9},{"name":"Dreams Cabaret","phone":"9158583888","address":"13299 Gateway Blvd W","lat":31.6935332679755,"lng":-106.27410497109771,"city_fetched":"El Paso,US","state":"TX","country":"United States","canonicalUrl":"https://foursquare.com/v/dreams-cabaret/4c5e40ad9b28d13a9a235c70","categoryId":"4bf58dd8d48988d1d6941735","category":"Strip Club","checkinsCount":645,"usersCount":402,"tipCount":6,"visitsCount":713,"tier":"","message":"","currency":"","rating":5.8},{"name":"Marco Polo","address":"2708 N Mesa St","lat":31.777390520015288,"lng":-106.50313931913985,"neighborhood":"Kern Place","city_fetched":"El Paso,US","state":"TX","country":"United States","canonicalUrl":"https://foursquare.com/v/marco-polo/4bd294fba8b3a593b145685f","categoryId":"4bf58dd8d48988d116941735","category":"Bar","checkinsCount":2172,"usersCount":532,"tipCount":9,"visitsCount":2191,"tier":"","message":"","currency":"","rating":5.7},{"name":"Three Pints Pub","address":"10710 Gateway Blvd N","lat":31.92197746446062,"lng":-106.43814575436886,"city_fetched":"El Paso,US","state":"TX","country":"United States","canonicalUrl":"https://foursquare.com/v/three-pints-pub/51946193498eeaa619648674","categoryId":"4bf58dd8d48988d116941735","category":"Bar","checkinsCount":174,"usersCount":77,"tipCount":6,"visitsCount":185,"tier":"","message":"","currency":"","rating":5.7},{"name":"The Dome Bar","phone":"9155343000","address":"101 S El Paso St","lat":31.757898827345652,"lng":-106.48912526300366,"neighborhood":"Downtown El Paso","city_fetched":"El Paso,US","state":"TX","country":"United States","canonicalUrl":"https://foursquare.com/v/the-dome-bar/4b47f252f964a520ca4426e3","categoryId":"4bf58dd8d48988d116941735","category":"Bar","checkinsCount":503,"usersCount":339,"tipCount":8,"visitsCount":505,"tier":"","message":"","currency":"","rating":5.6},{"name":"Brewsky's Sports Bar Grill","address":"11240 Montwood Dr","lat":31.768794272871286,"lng":-106.3066165593176,"city_fetched":"El Paso,US","state":"TX","country":"United States","canonicalUrl":"https://foursquare.com/v/brewskys-sports-bar-grill/4cb260fccbab236a4564b073","categoryId":"4bf58dd8d48988d116941735","category":"Bar","checkinsCount":508,"usersCount":227,"tipCount":9,"visitsCount":510,"tier":"","message":"","currency":"","rating":5.6},{"name":"Hemingway's","phone":"9155327333","address":"212 Cincinnati Ave","lat":31.77714043802264,"lng":-106.5025178482654,"neighborhood":"Kern Place","city_fetched":"El Paso,US","state":"TX","country":"United States","canonicalUrl":"https://foursquare.com/v/hemingways/4b761e27f964a520dd3d2ee3","categoryId":"4bf58dd8d48988d117941735","category":"Beer Garden","checkinsCount":1177,"usersCount":408,"tipCount":9,"visitsCount":1181,"tier":1,"message":"Cheap","currency":"$","rating":5.5},{"name":"Cowboy[touch] sports saloon and grill","address":"1699 N Zaragoza Rd","lat":31.749835082177796,"lng":-106.27932874097307,"city_fetched":"El Paso,US","state":"TX","country":"United States","canonicalUrl":"https://foursquare.com/v/cowboytouch-sports-saloon-and-grill/4e00efbfd4c0836163da1b45","categoryId":"4bf58dd8d48988d11d941735","category":"Sports Bar","checkinsCount":1095,"usersCount":320,"tipCount":7,"visitsCount":1119,"tier":"","message":"","currency":"","rating":5.4},{"name":"The Toolbox","phone":"9153511896","address":"506 N Stanton St","lat":31.761928528916428,"lng":-106.4882853783689,"neighborhood":"Downtown El Paso","city_fetched":"El Paso,US","state":"TX","country":"United States","canonicalUrl":"https://foursquare.com/v/the-toolbox/4b932335f964a5202d3734e3","categoryId":"4bf58dd8d48988d1d8941735","category":"Gay Bar","checkinsCount":1286,"usersCount":321,"tipCount":5,"visitsCount":1302,"tier":"","message":"","currency":"","rating":5.4},{"name":"Hiney's","phone":"9155900115","twitter":"hineys","address":"8220 Gateway Blvd E","lat":31.743229742062724,"lng":-106.33165955543518,"city_fetched":"El Paso,US","state":"TX","country":"United States","canonicalUrl":"https://foursquare.com/v/hineys/4c1dc187b4e62d7f0e56dd93","categoryId":"4bf58dd8d48988d11d941735","category":"Sports Bar","checkinsCount":500,"usersCount":259,"tipCount":5,"visitsCount":566,"url":"http://www.hineys.net","tier":"","message":"","currency":"","rating":5.3},{"name":"Chiquitas Bar","phone":"9153510095","address":"310 E Missouri Ave","lat":31.762369878270977,"lng":-106.48843494662033,"neighborhood":"Downtown El Paso","city_fetched":"El Paso,US","state":"TX","country":"United States","canonicalUrl":"https://foursquare.com/v/chiquitas-bar/4bd686ef7b1876b070b78c86","categoryId":"4bf58dd8d48988d118941735","category":"Dive Bar","checkinsCount":1369,"usersCount":333,"tipCount":6,"visitsCount":1387,"tier":"","message":"","currency":"","rating":5.3},{"name":"The 12th Fairway","twitter":"hmshost","address":"El Paso International Airport (ELP)","lat":31.80009548734095,"lng":-106.39458462931665,"city_fetched":"El Paso,US","state":"TX","country":"United States","canonicalUrl":"https://foursquare.com/v/the-12th-fairway/4c48bcbb20ab1b8d3aa6d815","categoryId":"4bf58dd8d48988d11d941735","category":"Sports Bar","checkinsCount":683,"usersCount":504,"tipCount":9,"visitsCount":683,"tier":"","message":"","currency":"","rating":5},{"name":"Home Team Sports","lat":31.800210239679487,"lng":-106.3965741524501,"city_fetched":"El Paso,US","state":"TX","country":"United States","canonicalUrl":"https://foursquare.com/v/home-team-sports/4fee1548e4b02af6a1d40817","categoryId":"4bf58dd8d48988d11d941735","category":"Sports Bar","checkinsCount":104,"usersCount":83,"tipCount":5,"visitsCount":104,"tier":"","message":"","currency":"","rating":4.8}]