[{"name":"Coasters Downtown Draught House","phone":"2523359463","twitter":"hopsturtle","address":"216B N Poindexter St","lat":36.30086824669767,"lng":-76.21930092573166,"neighborhood":"Waterfront","city_fetched":"Elizabeth City,US","state":"NC","country":"United States","canonicalUrl":"https://foursquare.com/v/coasters-downtown-draught-house/4b94210ff964a5200c6a34e3","categoryId":"4bf58dd8d48988d11b941735","category":"Pub","checkinsCount":2254,"usersCount":216,"tipCount":8,"visitsCount":2333,"tier":"","message":"","currency":"","rating":8},{"name":"Headlights","phone":"2523311310","address":"440 N Hughes Blvd","lat":36.30847232424393,"lng":-76.22853625240744,"city_fetched":"Elizabeth City,US","state":"NC","country":"United States","canonicalUrl":"https://foursquare.com/v/headlights/4c2ec4793896e21e32f3e290","categoryId":"4bf58dd8d48988d1d6941735","category":"Strip Club","checkinsCount":130,"usersCount":71,"tipCount":2,"visitsCount":150,"tier":"","message":"","currency":"","rating":6.9},{"name":"Logan Raye's Key West Grille","phone":"2523350369","address":"606 E Colonial Ave","lat":36.30041646178463,"lng":-76.21904343366623,"neighborhood":"Waterfront","city_fetched":"Elizabeth City,US","state":"NC","country":"United States","canonicalUrl":"https://foursquare.com/v/logan-rayes-key-west-grille/4b6a2acff964a52041cb2be3","categoryId":"4bf58dd8d48988d116941735","category":"Bar","checkinsCount":396,"usersCount":136,"tipCount":6,"visitsCount":403,"tier":"","message":"","currency":"","rating":6.8}]