[{"name":"Heartland Golf Club & Sports Pub","phone":"2707378300","address":"850 Pine Valley Dr","lat":37.758135882739325,"lng":-85.87752929116299,"city_fetched":"Elizabethtown","state":"KY","country":"United States","canonicalUrl":"https://foursquare.com/v/heartland-golf-club--sports-pub/4b915953f964a52033b533e3","category":"Golf Course","checkinsCount":327,"usersCount":172,"tipCount":4,"visitsCount":569,"tier":"","message":"","currency":"","rating":8},{"name":"Tumbleweed Tex Mex Grill","phone":"2707359320","twitter":"twtexmex","address":"1707 N Dixie Ave","lat":37.733791,"lng":-85.886281,"city_fetched":"Elizabethtown","state":"KY","country":"United States","canonicalUrl":"https://foursquare.com/v/tumbleweed-tex-mex-grill/4b50962df964a5205a2827e3","category":"Mexican Restaurant","checkinsCount":704,"usersCount":294,"tipCount":15,"visitsCount":710,"url":"http://tumbleweedrestaurants.com","tier":2,"message":"Moderate","currency":"$","rating":7.7},{"name":"Rafferty's","address":"2000 N Dixie Ave","lat":37.738375064716074,"lng":-85.88993219719013,"city_fetched":"Elizabethtown","state":"KY","country":"United States","canonicalUrl":"https://foursquare.com/v/raffertys/4b904620f964a520958033e3","category":"American Restaurant","checkinsCount":1019,"usersCount":582,"tipCount":12,"visitsCount":1335,"url":"http://www.raffertys.com","tier":2,"message":"Moderate","currency":"$","rating":6.7},{"name":"Ruby Tuesday","phone":"2707691513","twitter":"rubytuesday","address":"201 Commerce Dr","lat":37.71023886503196,"lng":-85.83253383636475,"city_fetched":"Elizabethtown","state":"KY","country":"United States","canonicalUrl":"https://foursquare.com/v/ruby-tuesday/4b622c6ff964a5202c3a2ae3","category":"American Restaurant","checkinsCount":891,"usersCount":791,"tipCount":13,"visitsCount":1083,"url":"http://www.facebook.com/rubytuesday","tier":2,"message":"Moderate","currency":"$","rating":6.3}]