[{"name":"Iechyd Da Brewing Company","phone":"5742930506","address":"317 N Main St","lat":41.69013165574744,"lng":-85.97514921532566,"neighborhood":"Downtown Elkhart","city_fetched":"Elkhart","state":"IN","country":"United States","canonicalUrl":"https://foursquare.com/v/iechyd-da-brewing-company/4f4ebf66e4b02447940f3a1e","category":"Brewery","checkinsCount":2585,"usersCount":947,"tipCount":35,"visitsCount":3658,"url":"http://iechyddabrewingcompany.com","tier":2,"message":"Moderate","currency":"$","rating":9.1},{"name":"New Paradigm Brewing Company","phone":"5742958882","twitter":"newparadigmbrew","address":"600 S Main St","lat":41.68226459667397,"lng":-85.97082585268345,"neighborhood":"Downtown Elkhart","city_fetched":"Elkhart","state":"IN","country":"United States","canonicalUrl":"https://foursquare.com/v/new-paradigm-brewing-company/524cdbb311d2cd285299bda8","category":"Brewery","checkinsCount":268,"usersCount":151,"tipCount":6,"visitsCount":332,"url":"http://newparadigmbrewing.com","tier":3,"message":"Expensive","currency":"$","rating":8.6},{"name":"Cappy's","address":"1000 N Michigan St","lat":41.69567048333333,"lng":-85.98543343333331,"city_fetched":"Elkhart","state":"IN","country":"United States","canonicalUrl":"https://foursquare.com/v/cappys/4b86e163f964a52096a331e3","category":"Bar","checkinsCount":323,"usersCount":124,"tipCount":6,"visitsCount":379,"tier":"","message":"","currency":"","rating":7.6},{"name":"Lucchese's Italian Restaurant","phone":"5745224137","address":"655 County Road 17 Ste 9","lat":41.68424993471465,"lng":-85.8894976706967,"city_fetched":"Elkhart","state":"IN","country":"United States","canonicalUrl":"https://foursquare.com/v/luccheses-italian-restaurant/4b7b03f8f964a5204f4c2fe3","category":"Italian Restaurant","checkinsCount":832,"usersCount":470,"tipCount":12,"visitsCount":1183,"url":"http://www.lucchesesitalianrestaurant.com","tier":"","message":"","currency":"","rating":7.4},{"name":"Between the Buns","phone":"5742069900","twitter":"betweenthebuns","address":"2401 Cassopolis St.","lat":41.71237434063903,"lng":-85.97274631261826,"city_fetched":"Elkhart","state":"IN","country":"United States","canonicalUrl":"https://foursquare.com/v/between-the-buns/4b4a2afff964a520257d26e3","category":"Burger Joint","checkinsCount":1870,"usersCount":765,"tipCount":14,"visitsCount":2364,"url":"http://www.betweenthebuns.com","tier":2,"message":"Moderate","currency":"$","rating":7.3},{"name":"Simeri's Tavern","phone":"5742933941","address":"1737 W Beardsley Ave","lat":41.692253,"lng":-86.00262413333333,"city_fetched":"Elkhart","state":"IN","country":"United States","canonicalUrl":"https://foursquare.com/v/simeris-tavern/4c01d88c716bc9b6779dbc55","category":"Sports Bar","checkinsCount":1065,"usersCount":161,"tipCount":9,"visitsCount":1117,"tier":"","message":"","currency":"","rating":7.2},{"name":"Chalet Party Shoppe","phone":"5742969704","address":"667 County Road 17","lat":41.68294737482663,"lng":-85.88909310829911,"city_fetched":"Elkhart","state":"IN","country":"United States","canonicalUrl":"https://foursquare.com/v/chalet-party-shoppe/4c07cb55c69aa59356c99ba2","category":"Liquor Store","checkinsCount":399,"usersCount":230,"tipCount":5,"visitsCount":557,"tier":"","message":"","currency":"","rating":7.2},{"name":"523 Tap & Grill","phone":"5745231523","address":"523 S Main St","lat":41.68224770788226,"lng":-85.97116495296252,"neighborhood":"Downtown Elkhart","city_fetched":"Elkhart","state":"IN","country":"United States","canonicalUrl":"https://foursquare.com/v/523-tap--grill/4b60e7edf964a520c4002ae3","category":"Pub","checkinsCount":645,"usersCount":276,"tipCount":4,"visitsCount":685,"url":"http://523tapandgrill.com","tier":"","message":"","currency":"","rating":7.1},{"name":"Five Star Dive Bar","address":"561 E Jackson Blvd","lat":41.68951454500961,"lng":-85.96473455429077,"city_fetched":"Elkhart","state":"IN","country":"United States","canonicalUrl":"https://foursquare.com/v/five-star-dive-bar/4d7967b61bf0370493c2cfd5","category":"Bar","checkinsCount":487,"usersCount":296,"tipCount":6,"visitsCount":703,"url":"http://fivestardivebar.info","tier":"","message":"","currency":"","rating":7},{"name":"Bowly's Crystal Bar","phone":"5742942440","address":"109 Freight St","lat":41.680435,"lng":-85.96986830234528,"city_fetched":"Elkhart","state":"IN","country":"United States","canonicalUrl":"https://foursquare.com/v/bowlys-crystal-bar/4ba44e07f964a520969438e3","category":"Bar","checkinsCount":1249,"usersCount":89,"tipCount":8,"visitsCount":1258,"tier":"","message":"","currency":"","rating":6.3},{"name":"Country Club Lanes","phone":"5742643885","address":"1910 Cassopolis St","lat":41.71030238292756,"lng":-85.9706712621153,"city_fetched":"Elkhart","state":"IN","country":"United States","canonicalUrl":"https://foursquare.com/v/country-club-lanes/4cb4e1949c7ba35d966d8606","category":"Bowling Alley","checkinsCount":436,"usersCount":130,"tipCount":1,"visitsCount":498,"tier":"","message":"","currency":"","rating":5.7}]