[{"name":"Rudy's Redeye Grill","phone":"9524690711","address":"20800 Kenrick Ave","lat":44.648569,"lng":-93.292046,"city_fetched":"Elko,US","state":"MN","country":"United States","canonicalUrl":"https://foursquare.com/v/rudys-redeye-grill/4bbfc49eb492d13a5749a360","categoryId":"4bf58dd8d48988d116941735","category":"Bar","checkinsCount":1280,"usersCount":841,"tipCount":12,"visitsCount":1631,"url":"http://www.rrglakeville.com","tier":"","message":"","currency":"","rating":7.9},{"name":"Lakeville Brewing Co. LLC","address":"8790 Upper 208th Street West","lat":44.647753231851134,"lng":-93.24393063783646,"city_fetched":"Elko,US","state":"MN","country":"United States","canonicalUrl":"https://foursquare.com/v/lakeville-brewing-co-llc/563298c5498e1894a6bb1373","categoryId":"50327c8591d4c4b30a586d5d","category":"Brewery","checkinsCount":107,"usersCount":121,"tipCount":2,"visitsCount":212,"tier":"","message":"","currency":"","rating":7.2},{"name":"The Red Fox Tavern","address":"22815 Pillsbury Ave","lat":44.619076666666665,"lng":-93.29242498333333,"city_fetched":"Elko,US","state":"MN","country":"United States","canonicalUrl":"https://foursquare.com/v/the-red-fox-tavern/4afa103df964a5206d1622e3","categoryId":"4bf58dd8d48988d116941735","category":"Bar","checkinsCount":732,"usersCount":245,"tipCount":7,"visitsCount":886,"tier":"","message":"","currency":"","rating":7.1},{"name":"Babe's Sports Bar","phone":"9524695200","address":"20685 Holyoke Ave","lat":44.64997871917883,"lng":-93.24334932137235,"city_fetched":"Elko,US","state":"MN","country":"United States","canonicalUrl":"https://foursquare.com/v/babes-sports-bar/4aa04d91f964a5200d3f20e3","categoryId":"4bf58dd8d48988d11d941735","category":"Sports Bar","checkinsCount":3726,"usersCount":1365,"tipCount":24,"visitsCount":4621,"url":"http://babesmusicbar.com","tier":2,"message":"Moderate","currency":"$","rating":6}]