[{"name":"Birdland Brewing Co","address":"1015 Kendall St","lat":42.156596,"lng":-76.833486,"city_fetched":"Elmira,US","state":"NY","country":"United States","canonicalUrl":"https://foursquare.com/v/birdland-brewing-co/50afaabde4b0f10421f1c6de","categoryId":"50327c8591d4c4b30a586d5d","category":"Brewery","checkinsCount":174,"usersCount":130,"tipCount":4,"visitsCount":209,"url":"http://birdlandbrewingco.com","tier":"","message":"","currency":"","rating":8.6},{"name":"Patrick's","phone":"6077325159","address":"303 College Ave","lat":42.08962,"lng":-76.81056,"city_fetched":"Elmira,US","state":"NY","country":"United States","canonicalUrl":"https://foursquare.com/v/patricks/4b9b03adf964a520d2eb35e3","categoryId":"4bf58dd8d48988d11b941735","category":"Pub","checkinsCount":894,"usersCount":216,"tipCount":10,"visitsCount":964,"tier":"","message":"","currency":"","rating":8.2},{"name":"Horigan's Tavern","address":"365 Davis St","lat":42.0895763581915,"lng":-76.8151761564096,"city_fetched":"Elmira,US","state":"NY","country":"United States","canonicalUrl":"https://foursquare.com/v/horigans-tavern/4b74bff1f964a5200af02de3","categoryId":"4bf58dd8d48988d11b941735","category":"Pub","checkinsCount":1333,"usersCount":414,"tipCount":18,"visitsCount":1523,"tier":2,"message":"Moderate","currency":"$","rating":8.1},{"name":"Splitrock Brew Pub at First Arena","phone":"6077347825","address":"155 N Main St","lat":42.08946497024133,"lng":-76.80499076843262,"city_fetched":"Elmira,US","state":"NY","country":"United States","canonicalUrl":"https://foursquare.com/v/splitrock-brew-pub-at-first-arena/52817ab111d29978126a7d74","categoryId":"4bf58dd8d48988d116941735","category":"Bar","checkinsCount":158,"usersCount":73,"tipCount":13,"visitsCount":160,"tier":"","message":"","currency":"","rating":8},{"name":"Roundin' Third Sports Bar","phone":"6077330199","address":"255 W Water St","lat":42.087253525194214,"lng":-76.8087700009346,"city_fetched":"Elmira,US","state":"NY","country":"United States","canonicalUrl":"https://foursquare.com/v/roundin-third-sports-bar/4b6cac2bf964a520194b2ce3","categoryId":"4bf58dd8d48988d11d941735","category":"Sports Bar","checkinsCount":887,"usersCount":394,"tipCount":16,"visitsCount":1001,"url":"http://roundinthirdny.com/ordereze/default.aspx","tier":"","message":"","currency":"","rating":7.4},{"name":"The Green Derby","phone":"6077331918","address":"113 W 2nd St","lat":42.0911519,"lng":-76.80787,"city_fetched":"Elmira,US","state":"NY","country":"United States","canonicalUrl":"https://foursquare.com/v/the-green-derby/4bbfdc1b74a9a5931d4ccff6","categoryId":"4bf58dd8d48988d11d941735","category":"Sports Bar","checkinsCount":571,"usersCount":262,"tipCount":5,"visitsCount":623,"tier":"","message":"","currency":"","rating":7.2},{"name":"The Hot End","phone":"6077324264","address":"101 Prescott Ave","lat":42.121077863224144,"lng":-76.81915281193598,"city_fetched":"Elmira,US","state":"NY","country":"United States","canonicalUrl":"https://foursquare.com/v/the-hot-end/4bb3cb6d35f0c9b688e6bc83","categoryId":"4bf58dd8d48988d116941735","category":"Bar","checkinsCount":259,"usersCount":76,"tipCount":5,"visitsCount":270,"tier":1,"message":"Cheap","currency":"$","rating":7.2},{"name":"The Beef Eater's Lounge","phone":"6077390100","address":"203 W Franklin St","lat":42.1674,"lng":-76.82208,"city_fetched":"Elmira,US","state":"NY","country":"United States","canonicalUrl":"https://foursquare.com/v/the-beef-eaters-lounge/4b36b89df964a5204d3b25e3","categoryId":"4bf58dd8d48988d118941735","category":"Dive Bar","checkinsCount":594,"usersCount":209,"tipCount":3,"visitsCount":602,"url":"http://myspace.com/beefslounge","tier":"","message":"","currency":"","rating":7.1},{"name":"King's Bar","address":"Washington Ave","lat":42.099214836928894,"lng":-76.81260196456455,"city_fetched":"Elmira,US","state":"NY","country":"United States","canonicalUrl":"https://foursquare.com/v/kings-bar/4ef011cf4690b51573f81112","categoryId":"4bf58dd8d48988d116941735","category":"Bar","checkinsCount":220,"usersCount":63,"tipCount":3,"visitsCount":226,"tier":"","message":"","currency":"","rating":6.9},{"name":"The Starlite Room","phone":"6077333333","address":"3018 Lake Rd","lat":42.132426,"lng":-76.81155145168304,"city_fetched":"Elmira,US","state":"NY","country":"United States","canonicalUrl":"https://foursquare.com/v/the-starlite-room/4bad55b3f964a5204c473be3","categoryId":"4bf58dd8d48988d121941735","category":"Lounge","checkinsCount":454,"usersCount":113,"tipCount":3,"visitsCount":516,"url":"http://www.starliteroom.com","tier":"","message":"","currency":"","rating":6.9},{"name":"Rosar Grill","phone":"6077392390","address":"114 John St","lat":42.16707,"lng":-76.82114028571428,"city_fetched":"Elmira,US","state":"NY","country":"United States","canonicalUrl":"https://foursquare.com/v/rosar-grill/4bc13ab974a9a59360a1d1f6","categoryId":"4bf58dd8d48988d118941735","category":"Dive Bar","checkinsCount":1266,"usersCount":150,"tipCount":2,"visitsCount":1270,"tier":"","message":"","currency":"","rating":6.7},{"name":"Upstate Brewing Co.","phone":"6077422750","twitter":"upstatebrewing","address":"3028 Lake Rd","lat":42.13353452916947,"lng":-76.81193728493183,"city_fetched":"Elmira,US","state":"NY","country":"United States","canonicalUrl":"https://foursquare.com/v/upstate-brewing-co/500ae7f2e4b0938453197963","categoryId":"50327c8591d4c4b30a586d5d","category":"Brewery","checkinsCount":131,"usersCount":127,"tipCount":2,"visitsCount":328,"tier":"","message":"","currency":"","rating":6.6},{"name":"Sand Dollar","phone":"6077324286","address":"1321 College Ave","lat":42.11050917,"lng":-76.82056144,"city_fetched":"Elmira,US","state":"NY","country":"United States","canonicalUrl":"https://foursquare.com/v/sand-dollar/4bce5bc229d4b7139c8aa8dc","categoryId":"4bf58dd8d48988d118941735","category":"Dive Bar","checkinsCount":733,"usersCount":199,"tipCount":5,"visitsCount":796,"tier":"","message":"","currency":"","rating":6.3},{"name":"Rounding Third Regale","phone":"6077328888","address":"2447 Corning Rd","lat":42.147209,"lng":-76.832747,"city_fetched":"Elmira,US","state":"NY","country":"United States","canonicalUrl":"https://foursquare.com/v/rounding-third-regale/4f8cd0a2e4b00c10ebb6a24b","categoryId":"4bf58dd8d48988d11d941735","category":"Sports Bar","checkinsCount":258,"usersCount":150,"tipCount":2,"visitsCount":313,"tier":"","message":"","currency":"","rating":6.2},{"name":"The Branch Office","lat":42.09779252867582,"lng":-76.8190348148346,"city_fetched":"Elmira,US","state":"NY","country":"United States","canonicalUrl":"https://foursquare.com/v/the-branch-office/4baec4e9f964a5207ed63be3","categoryId":"4bf58dd8d48988d116941735","category":"Bar","checkinsCount":784,"usersCount":156,"tipCount":3,"visitsCount":830,"tier":"","message":"","currency":"","rating":6.2},{"name":"Brady's Pub","phone":"6077423826","twitter":"bradys_pub","address":"248 W Water St","lat":42.087435161187926,"lng":-76.80880755186081,"city_fetched":"Elmira,US","state":"NY","country":"United States","canonicalUrl":"https://foursquare.com/v/bradys-pub/4ba43446f964a520c48b38e3","categoryId":"4bf58dd8d48988d11b941735","category":"Pub","checkinsCount":1045,"usersCount":189,"tipCount":6,"visitsCount":1062,"tier":"","message":"","currency":"","rating":6.2},{"name":"Legends Bar & Grille","phone":"6077330074","address":"229 Oakwood Ave","lat":42.12837060113516,"lng":-76.827392578125,"city_fetched":"Elmira,US","state":"NY","country":"United States","canonicalUrl":"https://foursquare.com/v/legends-bar--grille/4c50b3553940be9adebaa407","categoryId":"4bf58dd8d48988d116941735","category":"Bar","checkinsCount":563,"usersCount":247,"tipCount":5,"visitsCount":588,"tier":"","message":"","currency":"","rating":6},{"name":"Braun's Pour house","phone":"6078737580","address":"70 Old Ithaca Rd","lat":42.171824341327785,"lng":-76.8178347843948,"city_fetched":"Elmira,US","state":"NY","country":"United States","canonicalUrl":"https://foursquare.com/v/brauns-pour-house/4e55675cfa76a1a431566d6c","categoryId":"4bf58dd8d48988d116941735","category":"Bar","checkinsCount":440,"usersCount":192,"tipCount":12,"visitsCount":482,"tier":"","message":"","currency":"","rating":5.7}]