[{"name":"Callahans Pub & Grille","phone":"5802427299","address":"220 N Independence St","lat":36.39868,"lng":-97.88034,"city_fetched":"Enid,US","state":"OK","country":"United States","canonicalUrl":"https://foursquare.com/v/callahans-pub--grille/4bb38392eb3e95211b3ccb0a","categoryId":"4bf58dd8d48988d11b941735","category":"Pub","checkinsCount":1067,"usersCount":399,"tipCount":26,"visitsCount":1406,"url":"http://www.enidcallahan.com","tier":2,"message":"Moderate","currency":"$","rating":8},{"name":"Flamingo Lounge","phone":"5802349006","address":"470-598 S Van Buren St","lat":36.39158736979875,"lng":-97.89044170396112,"city_fetched":"Enid,US","state":"OK","country":"United States","canonicalUrl":"https://foursquare.com/v/flamingo-lounge/4ccefad27c2ff04ddfdaa77e","categoryId":"4bf58dd8d48988d118941735","category":"Dive Bar","checkinsCount":187,"usersCount":86,"tipCount":6,"visitsCount":188,"url":"http://www.flamingorocks.com","tier":"","message":"","currency":"","rating":7.7},{"name":"CW Scooters","phone":"5802335447","twitter":"cwscooters","address":"3630 North Highway 81","lat":36.43149848555686,"lng":-97.88929879714789,"city_fetched":"Enid,US","state":"OK","country":"United States","canonicalUrl":"https://foursquare.com/cwscooters","categoryId":"4bf58dd8d48988d11f941735","category":"Nightclub","checkinsCount":599,"usersCount":118,"tipCount":5,"visitsCount":634,"tier":"","message":"","currency":"","rating":6.6},{"name":"Gary's Chicaro Club","address":"3030 N Grand St","lat":36.4269836359905,"lng":-97.87911976032498,"city_fetched":"Enid,US","state":"OK","country":"United States","canonicalUrl":"https://foursquare.com/v/garys-chicaro-club/4d69a8cf4c463704a3cca5b3","categoryId":"4bf58dd8d48988d116941735","category":"Bar","checkinsCount":90,"usersCount":27,"tipCount":11,"visitsCount":93,"tier":"","message":"","currency":"","rating":5.6}]