[{"name":"Mother Rucker's","phone":"3345030396","address":"Bldg. 319, Ruf Avenue","lat":31.325432471399782,"lng":-85.72059420938471,"city_fetched":"Enterprise,US","state":"AL","country":"United States","canonicalUrl":"https://foursquare.com/v/mother-ruckers/4e88af84f5b9f03ee87de06f","categoryId":"4bf58dd8d48988d116941735","category":"Bar","checkinsCount":393,"usersCount":155,"tipCount":2,"visitsCount":496,"url":"http://rucker.armymwr.com/us/rucker/programs/mother-ruckers-sports-bar","tier":1,"message":"Cheap","currency":"$","rating":7.3},{"name":"Bananas Bar and Grill","phone":"3344170106","address":"621 Boll Weevil Cir Ste 11","lat":31.321049638047906,"lng":-85.83282347863036,"city_fetched":"Enterprise,US","state":"AL","country":"United States","canonicalUrl":"https://foursquare.com/v/bananas-bar-and-grill/51fdbe8a498ebd46be29257e","categoryId":"4bf58dd8d48988d120941735","category":"Karaoke Bar","checkinsCount":61,"usersCount":34,"tipCount":2,"visitsCount":74,"tier":"","message":"","currency":"","rating":7.2},{"name":"Risky Business Saloon","phone":"3343476111","address":"734 Glover Ave","lat":31.32113,"lng":-85.834524,"city_fetched":"Enterprise,US","state":"AL","country":"United States","canonicalUrl":"https://foursquare.com/v/risky-business-saloon/4c198ac4834e2d7fe9a82a80","categoryId":"4bf58dd8d48988d116941735","category":"Bar","checkinsCount":523,"usersCount":104,"tipCount":2,"visitsCount":557,"tier":"","message":"","currency":"","rating":7},{"name":"The Landing Zone","phone":"3345988025","address":"Building 113 on Novosel Street","lat":31.33109540888037,"lng":-85.71550369262695,"city_fetched":"Enterprise,US","state":"AL","country":"United States","canonicalUrl":"https://foursquare.com/v/the-landing-zone/4b97e27ff964a5209f1c35e3","categoryId":"4bf58dd8d48988d116941735","category":"Bar","checkinsCount":944,"usersCount":320,"tipCount":17,"visitsCount":1240,"url":"http://rucker.armymwr.com/us/rucker/programs/landing-zone","tier":"","message":"","currency":"","rating":6.7}]