[{"name":"U Pick 6 Public House","phone":"8145208495","address":"4575 W Ridge Rd","lat":42.072758,"lng":-80.179718,"neighborhood":"Asbury","city_fetched":"Erie,US","state":"PA","country":"United States","canonicalUrl":"https://foursquare.com/v/u-pick-6-public-house/52d19687498e5e390c5847eb","categoryId":"4bf58dd8d48988d11b941735","category":"Pub","checkinsCount":820,"usersCount":513,"tipCount":10,"visitsCount":1469,"url":"http://upick6.com","tier":3,"message":"Expensive","currency":"$","rating":8.9},{"name":"Lavery Brewing Company","phone":"8144540405","address":"128 W 12th St Ste 101","lat":42.122837942489895,"lng":-80.08402323789137,"neighborhood":"West Erie","city_fetched":"Erie,US","state":"PA","country":"United States","canonicalUrl":"https://foursquare.com/v/lavery-brewing-company/4e31a29dd1643f195b96cf18","categoryId":"50327c8591d4c4b30a586d5d","category":"Brewery","checkinsCount":946,"usersCount":423,"tipCount":6,"visitsCount":1189,"url":"http://laverybrewing.com","tier":2,"message":"Moderate","currency":"$","rating":8.8},{"name":"Cloud 9 Wine Bar","phone":"8148709007","twitter":"cloud9winebar","address":"25 E 10th St","lat":42.12580013002883,"lng":-80.08144826586255,"neighborhood":"East Erie","city_fetched":"Erie,US","state":"PA","country":"United States","canonicalUrl":"https://foursquare.com/v/cloud-9-wine-bar/5390feff498e21833a5be836","categoryId":"4bf58dd8d48988d123941735","category":"Wine Bar","checkinsCount":238,"usersCount":120,"tipCount":12,"visitsCount":249,"url":"http://www.cloud9erie.com","tier":"","message":"","currency":"","rating":8.7},{"name":"Plymouth Tavern","phone":"8144536454","twitter":"plymouthtavern","address":"1109 State St","lat":42.124250771504784,"lng":-80.08155192088259,"neighborhood":"East Erie","city_fetched":"Erie,US","state":"PA","country":"United States","canonicalUrl":"https://foursquare.com/v/plymouth-tavern/4aecbba0f964a520bbca21e3","categoryId":"4bf58dd8d48988d116941735","category":"Bar","checkinsCount":10839,"usersCount":2363,"tipCount":51,"visitsCount":11405,"url":"http://plymouthtavern.com","tier":2,"message":"Moderate","currency":"$","rating":8.5},{"name":"U Pick 6 Tap House","phone":"8145205419","twitter":"upick6taphouse","address":"333 State St","lat":42.131596591676285,"lng":-80.08651630492339,"neighborhood":"Downtown Erie","city_fetched":"Erie,US","state":"PA","country":"United States","canonicalUrl":"https://foursquare.com/v/u-pick-6-tap-house/4e70b2c545ddd3b861efb62a","categoryId":"4bf58dd8d48988d116941735","category":"Bar","checkinsCount":4850,"usersCount":1550,"tipCount":43,"visitsCount":5344,"url":"http://www.upick6.com","tier":2,"message":"Moderate","currency":"$","rating":8.5},{"name":"Molly Brannigans Irish Pub","phone":"8144537800","twitter":"mbrannigans","address":"506 State St","lat":42.130240799999996,"lng":-80.08591,"neighborhood":"Downtown Erie","city_fetched":"Erie,US","state":"PA","country":"United States","canonicalUrl":"https://foursquare.com/v/molly-brannigans-irish-pub/4b3abb3bf964a520806d25e3","categoryId":"4bf58dd8d48988d11b941735","category":"Pub","checkinsCount":3011,"usersCount":1288,"tipCount":29,"visitsCount":3047,"url":"http://www.mollybrannigans.com","tier":"","message":"","currency":"","rating":8.4},{"name":"The Brewerie at Union Station","phone":"8144542200","twitter":"brewerie","address":"123 W 14th St","lat":42.12096867513257,"lng":-80.08208110509635,"neighborhood":"West Erie","city_fetched":"Erie,US","state":"PA","country":"United States","canonicalUrl":"https://foursquare.com/brewerie","categoryId":"50327c8591d4c4b30a586d5d","category":"Brewery","checkinsCount":5322,"usersCount":1837,"tipCount":35,"visitsCount":5950,"url":"http://www.brewerie.com","tier":2,"message":"Moderate","currency":"$","rating":8.3},{"name":"1000 beers","phone":"8143150195","twitter":"1000beerserie","address":"3852 Peach St","lat":42.095538650739705,"lng":-80.0829267019978,"city_fetched":"Erie,US","state":"PA","country":"United States","canonicalUrl":"https://foursquare.com/v/1000-beers/52b50916498e38bd3c4f463f","categoryId":"4bf58dd8d48988d116941735","category":"Bar","checkinsCount":175,"usersCount":59,"tipCount":3,"visitsCount":183,"tier":"","message":"","currency":"","rating":7.9},{"name":"Kings Rook Club","phone":"8144566439","twitter":"kingsrookclub","address":"1921 Peach St","lat":42.116653133755186,"lng":-80.07813669519858,"neighborhood":"West Erie","city_fetched":"Erie,US","state":"PA","country":"United States","canonicalUrl":"https://foursquare.com/v/kings-rook-club/4bff0447369476b0843e8d1f","categoryId":"4bf58dd8d48988d116941735","category":"Bar","checkinsCount":205,"usersCount":81,"tipCount":3,"visitsCount":296,"tier":"","message":"","currency":"","rating":7.9},{"name":"Rum Runners","phone":"8144554292","address":"133 E Dobbins Lndg","lat":42.13862086036593,"lng":-80.08850743359488,"city_fetched":"Erie,US","state":"PA","country":"United States","canonicalUrl":"https://foursquare.com/v/rum-runners/4bfe9c634cf820a16923eef4","categoryId":"4bf58dd8d48988d116941735","category":"Bar","checkinsCount":2843,"usersCount":856,"tipCount":13,"visitsCount":2901,"url":"http://rumrunnerscove.com/rumrunnerscove/","tier":"","message":"","currency":"","rating":7.8},{"name":"Scotty's Cigar & Martini Lounge","phone":"8144593800","address":"301 German St, Erie, PA 16507","lat":42.13474366218899,"lng":-80.08075541068757,"neighborhood":"East Erie","city_fetched":"Erie,US","state":"PA","country":"United States","canonicalUrl":"https://foursquare.com/v/scottys-cigar--martini-lounge/4bf75d255efe2d7fccfe6834","categoryId":"4bf58dd8d48988d121941735","category":"Lounge","checkinsCount":536,"usersCount":226,"tipCount":10,"visitsCount":559,"tier":"","message":"","currency":"","rating":7.7},{"name":"Erie Ale Works","phone":"8142180321","twitter":"eriealeworks","address":"416 W 12th St","lat":42.120393,"lng":-80.090577,"neighborhood":"West Erie","city_fetched":"Erie,US","state":"PA","country":"United States","canonicalUrl":"https://foursquare.com/v/erie-ale-works/5364ff36498e0631610d1eb4","categoryId":"50327c8591d4c4b30a586d5d","category":"Brewery","checkinsCount":131,"usersCount":68,"tipCount":2,"visitsCount":154,"url":"http://eriealeworks.com","tier":1,"message":"Cheap","currency":"$","rating":7.7},{"name":"Six Pack House Of Beer","phone":"8148667467","twitter":"6packhob","address":"4516 Peach St","lat":42.087189941689935,"lng":-80.0872800309466,"city_fetched":"Erie,US","state":"PA","country":"United States","canonicalUrl":"https://foursquare.com/v/six-pack-house-of-beer/4bf4654e98ac0f47f2f263a8","categoryId":"4bf58dd8d48988d11b941735","category":"Pub","checkinsCount":670,"usersCount":201,"tipCount":1,"visitsCount":686,"tier":"","message":"","currency":"","rating":7.6},{"name":"Oasis Pub","phone":"8148331212","address":"3122 W Lake Rd","lat":42.1035461,"lng":-80.156602,"city_fetched":"Erie,US","state":"PA","country":"United States","canonicalUrl":"https://foursquare.com/v/oasis-pub/4b4417fef964a52060f125e3","categoryId":"4bf58dd8d48988d116941735","category":"Bar","checkinsCount":3275,"usersCount":619,"tipCount":2,"visitsCount":3447,"url":"http://www.oasispuberie.com","tier":2,"message":"Moderate","currency":"$","rating":7.5},{"name":"The Cab Bar & Grille","phone":"8148380507","address":"5442 W Ridge Rd","lat":42.0649102397586,"lng":-80.19603617647665,"neighborhood":"Swanville","city_fetched":"Erie,US","state":"PA","country":"United States","canonicalUrl":"https://foursquare.com/v/the-cab-bar--grille/4b9db338f964a520e3ba36e3","categoryId":"4bf58dd8d48988d116941735","category":"Bar","checkinsCount":715,"usersCount":259,"tipCount":5,"visitsCount":786,"url":"http://www.thecaberie.com","tier":"","message":"","currency":"","rating":7.5},{"name":"Smokey Bones Bar & Fire Grill","phone":"8148683388","twitter":"smokeybonesbar","address":"2074 Interchange Rd","lat":42.065725984520434,"lng":-80.10210043072506,"city_fetched":"Erie,US","state":"PA","country":"United States","canonicalUrl":"https://foursquare.com/v/smokey-bones-bar--fire-grill/4b51354df964a5204d4727e3","categoryId":"4bf58dd8d48988d120941735","category":"Karaoke Bar","checkinsCount":3026,"usersCount":1271,"tipCount":19,"visitsCount":3215,"url":"http://www.smokeybones.com","tier":2,"message":"Moderate","currency":"$","rating":7.5},{"name":"Red Fox Inn","phone":"8148259808","address":"1224 E 38th St","lat":42.11258199660289,"lng":-80.0394344329834,"neighborhood":"Southeast Erie","city_fetched":"Erie,US","state":"PA","country":"United States","canonicalUrl":"https://foursquare.com/v/red-fox-inn/4b4bf99ff964a52072ac26e3","categoryId":"4bf58dd8d48988d116941735","category":"Bar","checkinsCount":1045,"usersCount":284,"tipCount":3,"visitsCount":1298,"tier":"","message":"","currency":"","rating":7.3},{"name":"The Sloppy Duck","phone":"8144526699","address":"726 W Bayfront Pkwy","lat":42.12918220733947,"lng":-80.1052987575531,"city_fetched":"Erie,US","state":"PA","country":"United States","canonicalUrl":"https://foursquare.com/v/the-sloppy-duck/4b36bc24f964a5208a3b25e3","categoryId":"4bf58dd8d48988d116941735","category":"Bar","checkinsCount":2207,"usersCount":1172,"tipCount":11,"visitsCount":2591,"url":"http://sloppyducksaloon.com","tier":"","message":"","currency":"","rating":7.3},{"name":"Erie Ale House","phone":"8144544500","address":"1033 State St","lat":42.12454785199573,"lng":-80.08189561821571,"neighborhood":"East Erie","city_fetched":"Erie,US","state":"PA","country":"United States","canonicalUrl":"https://foursquare.com/v/erie-ale-house/4f4cf590e4b087ae2285b383","categoryId":"4bf58dd8d48988d116941735","category":"Bar","checkinsCount":1155,"usersCount":436,"tipCount":4,"visitsCount":1271,"tier":1,"message":"Cheap","currency":"$","rating":7.2},{"name":"Jekyll & Hyde's","phone":"8144560072","address":"8 E 10th St","lat":42.12558660191112,"lng":-80.08242480032082,"neighborhood":"Downtown Erie","city_fetched":"Erie,US","state":"PA","country":"United States","canonicalUrl":"https://foursquare.com/v/jekyll--hydes/51426909e4b0c9f1bda7c50a","categoryId":"4bf58dd8d48988d116941735","category":"Bar","checkinsCount":492,"usersCount":275,"tipCount":13,"visitsCount":507,"tier":"","message":"","currency":"","rating":7.1},{"name":"Andy's Pub","phone":"8148649007","twitter":"andyspub","address":"3866 Peach St","lat":42.09526184648014,"lng":-80.08354861958907,"city_fetched":"Erie,US","state":"PA","country":"United States","canonicalUrl":"https://foursquare.com/v/andys-pub/4b43b57af964a5202ce725e3","categoryId":"4bf58dd8d48988d11b941735","category":"Pub","checkinsCount":1732,"usersCount":635,"tipCount":5,"visitsCount":1742,"url":"http://andyspub.com","tier":2,"message":"Moderate","currency":"$","rating":7.1},{"name":"Millcreek Brewing Company","phone":"8146162739","address":"4102 W Lake Rd","lat":42.09255100704231,"lng":-80.17751557498215,"city_fetched":"Erie,US","state":"PA","country":"United States","canonicalUrl":"https://foursquare.com/v/millcreek-brewing-company/562ea8bb498eaeadf7c35354","categoryId":"50327c8591d4c4b30a586d5d","category":"Brewery","checkinsCount":150,"usersCount":184,"tipCount":3,"visitsCount":322,"url":"http://www.millcreekbrew.com","tier":"","message":"","currency":"","rating":7.1},{"name":"Beer & Pop Discount Warehouse","phone":"8144542337","address":"901 Peninsula Dr","lat":42.1025514,"lng":-80.14702375,"city_fetched":"Erie,US","state":"PA","country":"United States","canonicalUrl":"https://foursquare.com/v/beer--pop-discount-warehouse/4d40a294aae1b1f733a688f5","categoryId":"4bf58dd8d48988d116941735","category":"Bar","checkinsCount":587,"usersCount":271,"tipCount":2,"visitsCount":625,"url":"http://www.beerandpop.com","tier":"","message":"","currency":"","rating":7},{"name":"U Pick 6 Harbor House","phone":"8146168106","address":"4454 Buffalo Rd","lat":42.147623166587636,"lng":-80.00141134159726,"neighborhood":"Harborcreek","city_fetched":"Erie,US","state":"PA","country":"United States","canonicalUrl":"https://foursquare.com/v/u-pick-6-harbor-house/5623c6a8498ed9f1f9c0212b","categoryId":"56aa371ce4b08b9a8d57356c","category":"Beer Bar","checkinsCount":61,"usersCount":86,"tipCount":1,"visitsCount":173,"url":"http://www.upick6.com","tier":"","message":"","currency":"","rating":7},{"name":"Coconut Joe's","phone":"8144554705","address":"28 N Park Row","lat":42.12975113173146,"lng":-80.08637992456445,"neighborhood":"Downtown Erie","city_fetched":"Erie,US","state":"PA","country":"United States","canonicalUrl":"https://foursquare.com/v/coconut-joes/4ba11fdcf964a520279a37e3","categoryId":"4bf58dd8d48988d116941735","category":"Bar","checkinsCount":2181,"usersCount":650,"tipCount":9,"visitsCount":2208,"tier":"","message":"","currency":"","rating":6.9},{"name":"The Last Shot","phone":"8148337106","address":"3064 W 12th St","lat":42.09815872507527,"lng":-80.15105724334717,"city_fetched":"Erie,US","state":"PA","country":"United States","canonicalUrl":"https://foursquare.com/v/the-last-shot/4c1303507f7f2d7fdd7bde68","categoryId":"4bf58dd8d48988d116941735","category":"Bar","checkinsCount":964,"usersCount":111,"tipCount":5,"visitsCount":983,"tier":"","message":"","currency":"","rating":6.9},{"name":"Bootleggers Bar & Grill","phone":"8148994040","address":"4935 E Lake Rd","lat":42.16812707602393,"lng":-80.00169038772583,"city_fetched":"Erie,US","state":"PA","country":"United States","canonicalUrl":"https://foursquare.com/v/bootleggers-bar--grill/4b459799f964a520450e26e3","categoryId":"4bf58dd8d48988d116941735","category":"Bar","checkinsCount":865,"usersCount":339,"tipCount":10,"visitsCount":1023,"tier":"","message":"","currency":"","rating":6.8},{"name":"The Zone Dance Club","phone":"8144520125","address":"133 W 18th St","lat":42.1171523460154,"lng":-80.0803680640307,"neighborhood":"West Erie","city_fetched":"Erie,US","state":"PA","country":"United States","canonicalUrl":"https://foursquare.com/v/the-zone-dance-club/4b53c058f964a52042aa27e3","categoryId":"4bf58dd8d48988d1d8941735","category":"Gay Bar","checkinsCount":2253,"usersCount":405,"tipCount":23,"visitsCount":2627,"url":"http://www.thezonedanceclub.com","tier":"","message":"","currency":"","rating":6.8},{"name":"Sandbar Draft House","phone":"8144648880","address":"2835 W 8th St","lat":42.10362275,"lng":-80.147716,"city_fetched":"Erie,US","state":"PA","country":"United States","canonicalUrl":"https://foursquare.com/v/sandbar-draft-house/4b46ba8ff964a520792726e3","categoryId":"4bf58dd8d48988d116941735","category":"Bar","checkinsCount":2950,"usersCount":1073,"tipCount":17,"visitsCount":3160,"url":"http://sandbarerie.com","tier":1,"message":"Cheap","currency":"$","rating":6.8},{"name":"Irish Cousin's","phone":"8148992060","address":"3924 Main St","lat":42.150543,"lng":-80.015329,"city_fetched":"Erie,US","state":"PA","country":"United States","canonicalUrl":"https://foursquare.com/v/irish-cousins/4c1c483deac020a13c6646c2","categoryId":"4bf58dd8d48988d116941735","category":"Bar","checkinsCount":334,"usersCount":156,"tipCount":3,"visitsCount":375,"tier":"","message":"","currency":"","rating":6.7},{"name":"Sunflower Club","phone":"8144544111","address":"340 Metz St","lat":42.1038699991067,"lng":-80.07725286078185,"city_fetched":"Erie,US","state":"PA","country":"United States","canonicalUrl":"https://foursquare.com/v/sunflower-club/4b60cd95f964a5207ffa29e3","categoryId":"4bf58dd8d48988d116941735","category":"Bar","checkinsCount":1751,"usersCount":281,"tipCount":2,"visitsCount":1869,"url":"http://www.thesunflowerclub.org","tier":"","message":"","currency":"","rating":6.7},{"name":"Doc Holliday's Country Bar and Grill","phone":"8148683627","address":"7425 Schultz Rd","lat":42.0722779505624,"lng":-80.04100786251394,"city_fetched":"Erie,US","state":"PA","country":"United States","canonicalUrl":"https://foursquare.com/v/doc-hollidays-country-bar-and-grill/4b92ff91f964a520a02d34e3","categoryId":"4bf58dd8d48988d116941735","category":"Bar","checkinsCount":1908,"usersCount":653,"tipCount":13,"visitsCount":2066,"url":"http://dochollidays.net","tier":1,"message":"Cheap","currency":"$","rating":6.7},{"name":"The One Way Inn","phone":"8148645212","address":"4344 Peach St","lat":42.088870839225315,"lng":-80.08635264846679,"city_fetched":"Erie,US","state":"PA","country":"United States","canonicalUrl":"https://foursquare.com/v/the-one-way-inn/4b6784caf964a5207f532be3","categoryId":"4bf58dd8d48988d11d941735","category":"Sports Bar","checkinsCount":2075,"usersCount":487,"tipCount":15,"visitsCount":2193,"url":"http://onewayinn.net","tier":2,"message":"Moderate","currency":"$","rating":6.7},{"name":"Rack & Roll","phone":"8148643535","address":"2100 W 38th St.","lat":42.08514558956781,"lng":-80.113454157472,"city_fetched":"Erie,US","state":"PA","country":"United States","canonicalUrl":"https://foursquare.com/v/rack--roll/4bb574201344b71386629c04","categoryId":"4bf58dd8d48988d120941735","category":"Karaoke Bar","checkinsCount":2191,"usersCount":664,"tipCount":15,"visitsCount":2383,"url":"http://racknrollinc.com","tier":1,"message":"Cheap","currency":"$","rating":6.7},{"name":"Sullivan's Pub & Eatery","phone":"8144523446","address":"301 French St","lat":42.13265590277455,"lng":-80.08569801953384,"neighborhood":"Downtown Erie","city_fetched":"Erie,US","state":"PA","country":"United States","canonicalUrl":"https://foursquare.com/v/sullivans-pub--eatery/4b9a8609f964a5209dbd35e3","categoryId":"4bf58dd8d48988d11b941735","category":"Pub","checkinsCount":3117,"usersCount":650,"tipCount":9,"visitsCount":3308,"tier":"","message":"","currency":"","rating":6.6},{"name":"Hookah Cafe","phone":"8144541055","address":"129 W 14th St","lat":42.12106722477004,"lng":-80.08262665243333,"neighborhood":"West Erie","city_fetched":"Erie,US","state":"PA","country":"United States","canonicalUrl":"https://foursquare.com/v/hookah-cafe/4b59e3b1f964a520969e28e3","categoryId":"4bf58dd8d48988d119941735","category":"Hookah Bar","checkinsCount":486,"usersCount":160,"tipCount":3,"visitsCount":516,"tier":"","message":"","currency":"","rating":6.5},{"name":"Fox & Hound","phone":"8148645589","twitter":"the_foxandhound","address":"250 Millcreek Plaza","lat":42.065522686071,"lng":-80.10023506614833,"city_fetched":"Erie,US","state":"PA","country":"United States","canonicalUrl":"https://foursquare.com/v/fox--hound/4b3adf4df964a520666f25e3","categoryId":"4bf58dd8d48988d11d941735","category":"Sports Bar","checkinsCount":3936,"usersCount":1484,"tipCount":22,"visitsCount":4157,"url":"http://t.co/6Wlr3nrgdg","tier":2,"message":"Moderate","currency":"$","rating":6.5},{"name":"Gatherings","phone":"8144550268","address":"2902 Reed St","lat":42.11490333080292,"lng":-80.05653451666667,"neighborhood":"Southeast Erie","city_fetched":"Erie,US","state":"PA","country":"United States","canonicalUrl":"https://foursquare.com/v/gatherings/4b60f9d8f964a5203e042ae3","categoryId":"4bf58dd8d48988d116941735","category":"Bar","checkinsCount":728,"usersCount":180,"tipCount":1,"visitsCount":917,"tier":"","message":"","currency":"","rating":6.5},{"name":"Erie Brewing Company","phone":"8144597741","twitter":"eriebrewingco","address":"1213 Veshecco Dr","lat":42.11134558906683,"lng":-80.11310634948153,"neighborhood":"West Erie","city_fetched":"Erie,US","state":"PA","country":"United States","canonicalUrl":"https://foursquare.com/v/erie-brewing-company/4ca0ef4a0e9bb1f7de9afc5f","categoryId":"50327c8591d4c4b30a586d5d","category":"Brewery","checkinsCount":169,"usersCount":137,"tipCount":1,"visitsCount":180,"url":"https://www.eriebrewingco.com","tier":"","message":"","currency":"","rating":6.4},{"name":"Sluggers Sports Bar","phone":"8144549464","address":"14 E 10th St","lat":42.125740640326434,"lng":-80.08198836170588,"neighborhood":"Downtown Erie","city_fetched":"Erie,US","state":"PA","country":"United States","canonicalUrl":"https://foursquare.com/v/sluggers-sports-bar/4b4d20a9f964a520f2cb26e3","categoryId":"4bf58dd8d48988d11d941735","category":"Sports Bar","checkinsCount":6249,"usersCount":1337,"tipCount":25,"visitsCount":6553,"url":"http://sluggerserie.com","tier":1,"message":"Cheap","currency":"$","rating":6.4},{"name":"Park Tavern","phone":"8148998661","address":"4205 E Lake Rd","lat":42.15759968285196,"lng":-80.01641024672965,"city_fetched":"Erie,US","state":"PA","country":"United States","canonicalUrl":"https://foursquare.com/v/park-tavern/4cfacae3d7206ea8ed253b69","categoryId":"4bf58dd8d48988d116941735","category":"Bar","checkinsCount":1664,"usersCount":280,"tipCount":4,"visitsCount":1702,"tier":"","message":"","currency":"","rating":6.3},{"name":"Cornerstone Bar & Grill","phone":"8148253700","address":"809 E 38th St","lat":42.10857055512821,"lng":-80.04870414733887,"city_fetched":"Erie,US","state":"PA","country":"United States","canonicalUrl":"https://foursquare.com/v/cornerstone-bar--grill/4c428473af052d7fd02f7f79","categoryId":"4bf58dd8d48988d11b941735","category":"Pub","checkinsCount":2659,"usersCount":734,"tipCount":15,"visitsCount":2747,"url":"http://cornerstonebar.com","tier":2,"message":"Moderate","currency":"$","rating":6.3},{"name":"Haggerty's","phone":"8144542777","address":"1930 W 26th St","lat":42.096355298082315,"lng":-80.11656926851417,"neighborhood":"West Erie","city_fetched":"Erie,US","state":"PA","country":"United States","canonicalUrl":"https://foursquare.com/v/haggertys/4c4bba0b9c8d2d7fba86586b","categoryId":"4bf58dd8d48988d116941735","category":"Bar","checkinsCount":2324,"usersCount":299,"tipCount":13,"visitsCount":2496,"tier":"","message":"","currency":"","rating":6.3},{"name":"Casablanca Hookah Lounge","lat":42.13001019705366,"lng":-80.0868981687807,"neighborhood":"Downtown Erie","city_fetched":"Erie,US","state":"PA","country":"United States","canonicalUrl":"https://foursquare.com/v/casablanca-hookah-lounge/4fa47d03e4b04193753d4d4c","categoryId":"4bf58dd8d48988d119941735","category":"Hookah Bar","checkinsCount":229,"usersCount":91,"tipCount":0,"visitsCount":236,"tier":"","message":"","currency":"","rating":6.2},{"name":"Coach's Sports Bar & Grill","phone":"8148680395","address":"3804 Elmwood Ave","lat":42.09214326566518,"lng":-80.09295321242396,"city_fetched":"Erie,US","state":"PA","country":"United States","canonicalUrl":"https://foursquare.com/v/coachs-sports-bar--grill/4bb5638a46d4a5935306c5c0","categoryId":"4bf58dd8d48988d11d941735","category":"Sports Bar","checkinsCount":1328,"usersCount":365,"tipCount":6,"visitsCount":1538,"tier":1,"message":"Cheap","currency":"$","rating":6.1},{"name":"Boardwalk Complex Downtown","phone":"8144554705","address":"28 N Park Row","lat":42.129423,"lng":-80.08636,"neighborhood":"Downtown Erie","city_fetched":"Erie,US","state":"PA","country":"United States","canonicalUrl":"https://foursquare.com/v/boardwalk-complex-downtown/4bef58422ff520a1997de8a2","categoryId":"4bf58dd8d48988d11e941735","category":"Cocktail Bar","checkinsCount":3919,"usersCount":726,"tipCount":7,"visitsCount":3927,"url":"http://boardwalkcomplex.com","tier":"","message":"","currency":"","rating":6.1},{"name":"Johnny's Sports Bar","phone":"8144535533","address":"1604 Pittsburgh Ave","lat":42.100755099083464,"lng":-80.12838031745387,"city_fetched":"Erie,US","state":"PA","country":"United States","canonicalUrl":"https://foursquare.com/v/johnnys-sports-bar/4bdb9abfc79cc92838c483e9","categoryId":"4bf58dd8d48988d116941735","category":"Bar","checkinsCount":394,"usersCount":127,"tipCount":2,"visitsCount":401,"tier":"","message":"","currency":"","rating":6.1},{"name":"Cascade Park Club","phone":"8144536290","twitter":"shelleyp70","address":"301 Raspberry St","lat":42.12380284373276,"lng":-80.1100032374173,"neighborhood":"West Erie","city_fetched":"Erie,US","state":"PA","country":"United States","canonicalUrl":"https://foursquare.com/v/cascade-park-club/4c03f13a3f03b7135b0f5241","categoryId":"4bf58dd8d48988d116941735","category":"Bar","checkinsCount":1562,"usersCount":106,"tipCount":5,"visitsCount":1609,"tier":"","message":"","currency":"","rating":6.1},{"name":"Ugly Tuna Tavern","address":"1010 Peninsula Dr","lat":42.10117853480908,"lng":-80.14683523575728,"city_fetched":"Erie,US","state":"PA","country":"United States","canonicalUrl":"https://foursquare.com/v/ugly-tuna-tavern/50bcfe64e4b069826d8c567e","categoryId":"4bf58dd8d48988d116941735","category":"Bar","checkinsCount":424,"usersCount":259,"tipCount":11,"visitsCount":516,"tier":1,"message":"Cheap","currency":"$","rating":6},{"name":"Arena Sports Bar","address":"726 French St.","lat":42.128188,"lng":-80.082812,"neighborhood":"Downtown Erie","city_fetched":"Erie,US","state":"PA","country":"United States","canonicalUrl":"https://foursquare.com/v/arena-sports-bar/5274351f498edf71a51c63c6","categoryId":"4bf58dd8d48988d116941735","category":"Bar","checkinsCount":163,"usersCount":92,"tipCount":9,"visitsCount":214,"tier":"","message":"","currency":"","rating":5.9},{"name":"The Cove","phone":"8144547160","address":"2 State St","lat":42.137244724451726,"lng":-80.09101128080256,"city_fetched":"Erie,US","state":"PA","country":"United States","canonicalUrl":"https://foursquare.com/v/the-cove/4bba3473935e952196de2790","categoryId":"4bf58dd8d48988d116941735","category":"Bar","checkinsCount":4029,"usersCount":808,"tipCount":14,"visitsCount":4054,"tier":"","message":"","currency":"","rating":5.8},{"name":"Bullfrog Bar","phone":"8148649007","twitter":"bullfrogbarerie","address":"3864 Peach St","lat":42.095170171192095,"lng":-80.08378865675807,"city_fetched":"Erie,US","state":"PA","country":"United States","canonicalUrl":"https://foursquare.com/v/bullfrog-bar/4ca65af2b7106dcb23305da5","categoryId":"4bf58dd8d48988d116941735","category":"Bar","checkinsCount":1958,"usersCount":578,"tipCount":15,"visitsCount":2016,"url":"http://www.bullfrogbarerie.com","tier":2,"message":"Moderate","currency":"$","rating":5.8},{"name":"Scully's","phone":"8144540067","address":"408 State St","lat":42.13112170644398,"lng":-80.08643447673391,"neighborhood":"Downtown Erie","city_fetched":"Erie,US","state":"PA","country":"United States","canonicalUrl":"https://foursquare.com/v/scullys/4aed19a4f964a5201ecd21e3","categoryId":"4bf58dd8d48988d116941735","category":"Bar","checkinsCount":925,"usersCount":323,"tipCount":3,"visitsCount":930,"tier":"","message":"","currency":"","rating":5.6},{"name":"Hunter's Inn Tavern","phone":"8144536780","address":"1204 W 26th St","lat":42.10262417793152,"lng":-80.099605,"neighborhood":"West Erie","city_fetched":"Erie,US","state":"PA","country":"United States","canonicalUrl":"https://foursquare.com/v/hunters-inn-tavern/4c7fc3c77fd4ef3b63ae9aa1","categoryId":"4bf58dd8d48988d118941735","category":"Dive Bar","checkinsCount":533,"usersCount":168,"tipCount":4,"visitsCount":549,"tier":"","message":"","currency":"","rating":5.6},{"name":"Docksider Tavern","phone":"8148790708","address":"1015 State St","lat":42.12509699460179,"lng":-80.08216293741687,"neighborhood":"East Erie","city_fetched":"Erie,US","state":"PA","country":"United States","canonicalUrl":"https://foursquare.com/v/docksider-tavern/4b9e8c91f964a5200bee36e3","categoryId":"4bf58dd8d48988d116941735","category":"Bar","checkinsCount":4740,"usersCount":828,"tipCount":12,"visitsCount":4826,"url":"http://www.docksider.net","tier":1,"message":"Cheap","currency":"$","rating":5.2}]