[{"name":"Hereford & Hops","phone":"9067891945","address":"624 Ludington St","lat":45.74607933163674,"lng":-87.05647318961576,"city_fetched":"Escanaba,US","state":"MI","country":"United States","canonicalUrl":"https://foursquare.com/v/hereford--hops/4c4efe34f53d0f474abd70a7","categoryId":"50327c8591d4c4b30a586d5d","category":"Brewery","checkinsCount":761,"usersCount":477,"tipCount":13,"visitsCount":898,"url":"http://herefordandhops.com","tier":"","message":"","currency":"","rating":7.4},{"name":"Ernie's Irish Pub","phone":"9067864602","address":"1322 Ludington St","lat":45.74588703333333,"lng":-87.066937,"city_fetched":"Escanaba,US","state":"MI","country":"United States","canonicalUrl":"https://foursquare.com/v/ernies-irish-pub/4c6603297abde21e479f6268","categoryId":"4bf58dd8d48988d116941735","category":"Bar","checkinsCount":341,"usersCount":156,"tipCount":3,"visitsCount":374,"tier":"","message":"","currency":"","rating":7.3},{"name":"Cat-Man-Do's","phone":"9067869757","address":"1223 Ludington St","lat":45.74564583791125,"lng":-87.06543403111223,"city_fetched":"Escanaba,US","state":"MI","country":"United States","canonicalUrl":"https://foursquare.com/v/catmandos/4e962aab6c2553e4af3a62bd","categoryId":"4bf58dd8d48988d116941735","category":"Bar","checkinsCount":207,"usersCount":75,"tipCount":1,"visitsCount":208,"tier":"","message":"","currency":"","rating":7.3}]