[{"name":"Ninkasi Brewing Tasting Room","phone":"5413442739","twitter":"ninkasibrewing","address":"272 Van Buren St","lat":44.05687355,"lng":-123.109654,"neighborhood":"Whiteaker","city_fetched":"Eugene,US","state":"OR","country":"United States","canonicalUrl":"https://foursquare.com/ninkasibrewing","categoryId":"50327c8591d4c4b30a586d5d","category":"Brewery","checkinsCount":3505,"usersCount":2371,"tipCount":28,"visitsCount":4078,"url":"http://www.ninkasibrewing.com","tier":1,"message":"Cheap","currency":"$","rating":9.5},{"name":"Oakshire Brewing Public House","phone":"5416884555","twitter":"oakshirepub","address":"207 Madison St","lat":44.05749207201752,"lng":-123.10302972793578,"neighborhood":"Whiteaker","city_fetched":"Eugene,US","state":"OR","country":"United States","canonicalUrl":"https://foursquare.com/v/oakshire-brewing-public-house/515dcb0439501edb869c3a79","categoryId":"50327c8591d4c4b30a586d5d","category":"Brewery","checkinsCount":1545,"usersCount":818,"tipCount":14,"visitsCount":1962,"url":"http://oakbrew.com","tier":1,"message":"Cheap","currency":"$","rating":9.2},{"name":"Beergarden","address":"777 W 6th Ave","lat":44.05357546231299,"lng":-123.10453189951562,"neighborhood":"Whiteaker","city_fetched":"Eugene,US","state":"OR","country":"United States","canonicalUrl":"https://foursquare.com/v/beergarden/55735df2498e4ce268246184","categoryId":"4bf58dd8d48988d117941735","category":"Beer Garden","checkinsCount":359,"usersCount":305,"tipCount":6,"visitsCount":704,"url":"http://beergardenme.com","tier":"","message":"","currency":"","rating":8.9},{"name":"Rye","phone":"5416538509","address":"444 E 3rd Ave","lat":44.05627777164199,"lng":-123.08592182478343,"neighborhood":"Downtown Eugene","city_fetched":"Eugene,US","state":"OR","country":"United States","canonicalUrl":"https://foursquare.com/v/rye/4f4bc1f0e4b093da151d7522","categoryId":"4bf58dd8d48988d11e941735","category":"Cocktail Bar","checkinsCount":389,"usersCount":325,"tipCount":6,"visitsCount":489,"url":"http://www.ryeon3rd.com","tier":2,"message":"Moderate","currency":"$","rating":8.6},{"name":"Falling Sky Brewing","phone":"5415057096","twitter":"fallingskybrew","address":"1334 Oak Alley","lat":44.0452238787428,"lng":-123.092086315155,"neighborhood":"West University","city_fetched":"Eugene,US","state":"OR","country":"United States","canonicalUrl":"https://foursquare.com/v/falling-sky-brewing/4ea5ed75754afc1baa1125e6","categoryId":"50327c8591d4c4b30a586d5d","category":"Brewery","checkinsCount":2296,"usersCount":1300,"tipCount":26,"visitsCount":2611,"url":"http://fallingskybrewing.com","tier":2,"message":"Moderate","currency":"$","rating":8.6},{"name":"Fathom's Bar","phone":"5413444471","address":"790 E 14th Ave","lat":44.044230976971484,"lng":-123.08083713054657,"neighborhood":"West University","city_fetched":"Eugene,US","state":"OR","country":"United States","canonicalUrl":"https://foursquare.com/v/fathoms-bar/4b932217f964a520f33634e3","categoryId":"4bf58dd8d48988d116941735","category":"Bar","checkinsCount":2307,"usersCount":403,"tipCount":14,"visitsCount":2345,"tier":"","message":"","currency":"","rating":8.5},{"name":"Sam Bond's Brewing Co.","phone":"5412468162","twitter":"sambondsbrewing","address":"540 E 8th Ave","lat":44.050864787296426,"lng":-123.08474779129027,"neighborhood":"Downtown Eugene","city_fetched":"Eugene,US","state":"OR","country":"United States","canonicalUrl":"https://foursquare.com/v/sam-bonds-brewing-co/512fb15bd63e265e91fd30f0","categoryId":"50327c8591d4c4b30a586d5d","category":"Brewery","checkinsCount":131,"usersCount":109,"tipCount":5,"visitsCount":173,"url":"http://sambondsbrewing.com","tier":"","message":"","currency":"","rating":8.5},{"name":"Hop Valley Brewing Co.","phone":"5414852337","twitter":"hopvalley","address":"990 W 1st Ave","lat":44.058505954176326,"lng":-123.10738563537596,"neighborhood":"Whiteaker","city_fetched":"Eugene,US","state":"OR","country":"United States","canonicalUrl":"https://foursquare.com/v/hop-valley-brewing-co/509430aa7ab4da9e7e862332","categoryId":"50327c8591d4c4b30a586d5d","category":"Brewery","checkinsCount":1399,"usersCount":1050,"tipCount":18,"visitsCount":2180,"url":"http://www.hopvalleybrewing.com","tier":2,"message":"Moderate","currency":"$","rating":8.5},{"name":"Agrarian Ales","phone":"5415104897","twitter":"agrarianales","address":"31115 W Crossroads Ln","lat":44.189693362450285,"lng":-123.12787007435676,"city_fetched":"Eugene,US","state":"OR","country":"United States","canonicalUrl":"https://foursquare.com/v/agrarian-ales/4f32150e19836c91c7b3f977","categoryId":"50327c8591d4c4b30a586d5d","category":"Brewery","checkinsCount":185,"usersCount":197,"tipCount":5,"visitsCount":275,"url":"http://agales.com","tier":"","message":"","currency":"","rating":8.4},{"name":"McMenamins North Bank","phone":"5413435622","twitter":"captainneon","address":"22 Club Rd","lat":44.05959381582587,"lng":-123.08501356894493,"city_fetched":"Eugene,US","state":"OR","country":"United States","canonicalUrl":"https://foursquare.com/v/mcmenamins-north-bank/4ab6f37af964a520927920e3","categoryId":"50327c8591d4c4b30a586d5d","category":"Brewery","checkinsCount":2643,"usersCount":1671,"tipCount":36,"visitsCount":3236,"url":"http://www.mcmenamins.com/NorthBank","tier":2,"message":"Moderate","currency":"$","rating":8.2},{"name":"Agate Alley Bistro","phone":"5414858887","address":"1461 E 19th Ave","lat":44.039138,"lng":-123.07055103333333,"neighborhood":"South Eugene","city_fetched":"Eugene,US","state":"OR","country":"United States","canonicalUrl":"https://foursquare.com/v/agate-alley-bistro/4ac6b240f964a520dbb520e3","categoryId":"4bf58dd8d48988d121941735","category":"Lounge","checkinsCount":2181,"usersCount":984,"tipCount":16,"visitsCount":2222,"url":"http://www.agatealley.com","tier":2,"message":"Moderate","currency":"$","rating":8},{"name":"Steelhead Brewing Company","phone":"5416862739","address":"199 E 5th Ave","lat":44.05446188726419,"lng":-123.08984398841858,"neighborhood":"Downtown Eugene","city_fetched":"Eugene,US","state":"OR","country":"United States","canonicalUrl":"https://foursquare.com/v/steelhead-brewing-company/4ac797e0f964a5204db820e3","categoryId":"50327c8591d4c4b30a586d5d","category":"Brewery","checkinsCount":2602,"usersCount":1656,"tipCount":26,"visitsCount":2702,"url":"http://steelheadbrewery.com/eugene.htm","tier":2,"message":"Moderate","currency":"$","rating":8},{"name":"High Street Brewery & Cafe","phone":"5413454905","twitter":"captainneon","address":"1243 High St","lat":44.046139,"lng":-123.087935,"neighborhood":"West University","city_fetched":"Eugene,US","state":"OR","country":"United States","canonicalUrl":"https://foursquare.com/v/high-street-brewery--cafe/4ab6f238f964a5208f7920e3","categoryId":"50327c8591d4c4b30a586d5d","category":"Brewery","checkinsCount":1469,"usersCount":895,"tipCount":10,"visitsCount":1635,"url":"http://www.mcmenamins.com/HighStreet","tier":1,"message":"Cheap","currency":"$","rating":8},{"name":"Territorial Vineyards & Wine Company","phone":"5416849463","address":"907 W 3rd Ave","lat":44.056636,"lng":-123.106626,"neighborhood":"Whiteaker","city_fetched":"Eugene,US","state":"OR","country":"United States","canonicalUrl":"https://foursquare.com/v/territorial-vineyards--wine-company/4bab0c3df964a5200c933ae3","categoryId":"4bf58dd8d48988d123941735","category":"Wine Bar","checkinsCount":159,"usersCount":124,"tipCount":2,"visitsCount":175,"url":"http://www.territorialvineyards.com","tier":"","message":"","currency":"","rating":7.9},{"name":"The Old Pad","phone":"5416865022","address":"3355 E Amazon Dr","lat":44.02068257331848,"lng":-123.080617,"neighborhood":"Southeast Eugene","city_fetched":"Eugene,US","state":"OR","country":"United States","canonicalUrl":"https://foursquare.com/v/the-old-pad/4b62956bf964a5200b4c2ae3","categoryId":"4bf58dd8d48988d11d941735","category":"Sports Bar","checkinsCount":853,"usersCount":309,"tipCount":9,"visitsCount":912,"url":"http://theoldpad.com","tier":"","message":"","currency":"","rating":7.8},{"name":"Wildcraft","address":"390 Lincoln St","lat":44.05565322982006,"lng":-123.09737455887097,"neighborhood":"Downtown Eugene","city_fetched":"Eugene,US","state":"OR","country":"United States","canonicalUrl":"https://foursquare.com/v/wildcraft/5466fe3d498e524c164fd42e","categoryId":"4bf58dd8d48988d11b941735","category":"Pub","checkinsCount":153,"usersCount":144,"tipCount":2,"visitsCount":231,"tier":"","message":"","currency":"","rating":7.8},{"name":"b² Wine Bar","phone":"5415058909","address":"2794 Shadow View Dr","lat":44.09315363907752,"lng":-123.06052357450831,"city_fetched":"Eugene,US","state":"OR","country":"United States","canonicalUrl":"https://foursquare.com/v/b%C2%B2-wine-bar/4b5e4565f964a520048729e3","categoryId":"4bf58dd8d48988d123941735","category":"Wine Bar","checkinsCount":943,"usersCount":330,"tipCount":8,"visitsCount":1014,"url":"http://www.b2winebar.com","tier":"","message":"","currency":"","rating":7.8},{"name":"Turtles Bar & Grill/The Loft","phone":"5414659038","address":"2690 Willamette St","lat":44.02923107838297,"lng":-123.09093413209946,"neighborhood":"College Hill","city_fetched":"Eugene,US","state":"OR","country":"United States","canonicalUrl":"https://foursquare.com/v/turtles-bar--grillthe-loft/4abc4d4bf964a520028720e3","categoryId":"4bf58dd8d48988d116941735","category":"Bar","checkinsCount":1973,"usersCount":908,"tipCount":34,"visitsCount":2321,"tier":2,"message":"Moderate","currency":"$","rating":7.7},{"name":"Highlands Brew Pub","phone":"5414854304","address":"390 E 40th Ave","lat":44.01053379078363,"lng":-123.08760166168213,"neighborhood":"Southeast Eugene","city_fetched":"Eugene,US","state":"OR","country":"United States","canonicalUrl":"https://foursquare.com/v/highlands-brew-pub/4abaed2ef964a520648320e3","categoryId":"4bf58dd8d48988d116941735","category":"Bar","checkinsCount":921,"usersCount":311,"tipCount":7,"visitsCount":1031,"tier":2,"message":"Moderate","currency":"$","rating":7.7},{"name":"The Filling Station","address":"2747 River Rd","lat":44.10398946230114,"lng":-123.13126226797245,"neighborhood":"Santa Clara","city_fetched":"Eugene,US","state":"OR","country":"United States","canonicalUrl":"https://foursquare.com/v/the-filling-station/52c8a14311d26272e718cc0b","categoryId":"4bf58dd8d48988d117941735","category":"Beer Garden","checkinsCount":107,"usersCount":34,"tipCount":1,"visitsCount":118,"tier":"","message":"","currency":"","rating":7.7},{"name":"Billy Mac's Bar & Grill","phone":"5416875722","address":"605 W 19th Ave","lat":44.039188,"lng":-123.101838,"neighborhood":"College Hill","city_fetched":"Eugene,US","state":"OR","country":"United States","canonicalUrl":"https://foursquare.com/v/billy-macs-bar--grill/4b8952bef964a520952b32e3","categoryId":"4bf58dd8d48988d116941735","category":"Bar","checkinsCount":146,"usersCount":68,"tipCount":4,"visitsCount":158,"url":"http://www.billymacsgrill.com","tier":"","message":"","currency":"","rating":7.7},{"name":"Le Bar","phone":"5413423612","address":"296 E 5th Ave","lat":44.05379877272104,"lng":-123.08888375759125,"neighborhood":"Downtown Eugene","city_fetched":"Eugene,US","state":"OR","country":"United States","canonicalUrl":"https://foursquare.com/v/le-bar/4ebd63d6754a8144ababd9e0","categoryId":"4bf58dd8d48988d121941735","category":"Lounge","checkinsCount":314,"usersCount":145,"tipCount":4,"visitsCount":319,"url":"http://www.innat5th.com/our-inn/march-a-le-bar.htm","tier":"","message":"","currency":"","rating":7.6},{"name":"Sixth Street Grill","phone":"5414852961","twitter":"streetstgrill","address":"55 W 6th Ave","lat":44.05344,"lng":-123.09368351,"neighborhood":"Downtown Eugene","city_fetched":"Eugene,US","state":"OR","country":"United States","canonicalUrl":"https://foursquare.com/v/sixth-street-grill/4b09bad4f964a5208b1c23e3","categoryId":"4bf58dd8d48988d11d941735","category":"Sports Bar","checkinsCount":1684,"usersCount":961,"tipCount":16,"visitsCount":1788,"url":"http://www.sixthstreetgrill.com","tier":2,"message":"Moderate","currency":"$","rating":7.6},{"name":"Quacker's Last Stop","phone":"5414855925","address":"2105 W 7th Ave","lat":44.05254191896889,"lng":-123.12475025653839,"neighborhood":"West Eugene","city_fetched":"Eugene,US","state":"OR","country":"United States","canonicalUrl":"https://foursquare.com/v/quackers-last-stop/4ac672bdf964a52060b420e3","categoryId":"4bf58dd8d48988d11d941735","category":"Sports Bar","checkinsCount":650,"usersCount":179,"tipCount":1,"visitsCount":777,"tier":"","message":"","currency":"","rating":7.6},{"name":"Rennie's Landing","phone":"5416870600","address":"1214 Kincaid St","lat":44.046419,"lng":-123.078632,"neighborhood":"University","city_fetched":"Eugene,US","state":"OR","country":"United States","canonicalUrl":"https://foursquare.com/v/rennies-landing/4ab69b40f964a5201d7820e3","categoryId":"4bf58dd8d48988d116941735","category":"Bar","checkinsCount":5735,"usersCount":1629,"tipCount":26,"visitsCount":6053,"url":"http://www.rennieslanding.com","tier":"","message":"","currency":"","rating":7.6},{"name":"Side | Bar","phone":"5413431200","twitter":"sidebaralways","address":"1680 Coburg Rd","lat":44.08118,"lng":-123.06811,"city_fetched":"Eugene,US","state":"OR","country":"United States","canonicalUrl":"https://foursquare.com/sidebaralways","categoryId":"4bf58dd8d48988d11d941735","category":"Sports Bar","checkinsCount":1471,"usersCount":441,"tipCount":10,"visitsCount":1592,"url":"http://www.coburgsidebar.com","tier":"","message":"","currency":"","rating":7.4},{"name":"Sam's Place","phone":"5414844455","address":"825 Wilson St","lat":44.05031302118247,"lng":-123.13123097382908,"neighborhood":"West Eugene","city_fetched":"Eugene,US","state":"OR","country":"United States","canonicalUrl":"https://foursquare.com/v/sams-place/4bd0e2d0462cb7132559d907","categoryId":"4bf58dd8d48988d11d941735","category":"Sports Bar","checkinsCount":497,"usersCount":248,"tipCount":5,"visitsCount":697,"url":"http://www.samsplacetavern.com","tier":"","message":"","currency":"","rating":7.4},{"name":"Growler USA - America's Microbrew Pub","phone":"5417620488","twitter":"growler_usa","address":"1365 Villard Street","lat":44.04469706571846,"lng":-123.06450281191808,"neighborhood":"University","city_fetched":"Eugene,US","state":"OR","country":"United States","canonicalUrl":"https://foursquare.com/v/growler-usa--americas-microbrew-pub/521434488bbdee307cafb712","categoryId":"4bf58dd8d48988d11b941735","category":"Pub","checkinsCount":135,"usersCount":83,"tipCount":3,"visitsCount":140,"url":"http://growlerusa.com/craft-beer-pubs/or-eugene-university/#1L9JW","tier":1,"message":"Cheap","currency":"$","rating":7.4},{"name":"The Growler Guys","phone":"5416538425","twitter":"thegrowlerguys","address":"472 W 7th Ave","lat":44.05190321778413,"lng":-123.10003092920334,"city_fetched":"Eugene,US","state":"OR","country":"United States","canonicalUrl":"https://foursquare.com/v/the-growler-guys/524f9d9011d2820650562f48","categoryId":"4bf58dd8d48988d117941735","category":"Beer Garden","checkinsCount":246,"usersCount":119,"tipCount":5,"visitsCount":312,"url":"http://www.thegrowlerguys.com","tier":"","message":"","currency":"","rating":7.4},{"name":"Goodfellas","phone":"5417269815","address":"117 S 14th St","lat":44.045728,"lng":-123.00493883,"city_fetched":"Eugene,US","state":"OR","country":"United States","canonicalUrl":"https://foursquare.com/v/goodfellas/4c78796d20bb199c9dbc0829","categoryId":"4bf58dd8d48988d118941735","category":"Dive Bar","checkinsCount":144,"usersCount":58,"tipCount":2,"visitsCount":144,"tier":"","message":"","currency":"","rating":7.4},{"name":"Luckey's Club Cigar Store & Bar","phone":"5416874643","address":"933 Olive St","lat":44.04956779825333,"lng":-123.09393725868759,"neighborhood":"Downtown Eugene","city_fetched":"Eugene,US","state":"OR","country":"United States","canonicalUrl":"https://foursquare.com/v/luckeys-club-cigar-store--bar/4aebe3c8f964a5200dc521e3","categoryId":"4bf58dd8d48988d118941735","category":"Dive Bar","checkinsCount":808,"usersCount":369,"tipCount":8,"visitsCount":820,"url":"http://luckeysclub.com","tier":"","message":"","currency":"","rating":7.4},{"name":"Max's Tavern","phone":"5413498986","address":"550 E 13th Ave","lat":44.04532413197723,"lng":-123.08434009552002,"neighborhood":"West University","city_fetched":"Eugene,US","state":"OR","country":"United States","canonicalUrl":"https://foursquare.com/v/maxs-tavern/4ac6738ff964a52063b420e3","categoryId":"4bf58dd8d48988d11b941735","category":"Pub","checkinsCount":3371,"usersCount":1067,"tipCount":21,"visitsCount":3644,"tier":"","message":"","currency":"","rating":7.4},{"name":"Jackalope Lounge","phone":"5414851519","address":"453 Willamette St","lat":44.05484741556187,"lng":-123.09257984161377,"neighborhood":"Downtown Eugene","city_fetched":"Eugene,US","state":"OR","country":"United States","canonicalUrl":"https://foursquare.com/v/jackalope-lounge/4aee4721f964a52053d321e3","categoryId":"4bf58dd8d48988d116941735","category":"Bar","checkinsCount":1856,"usersCount":611,"tipCount":22,"visitsCount":1948,"url":"http://jackalopelounge.com","tier":1,"message":"Cheap","currency":"$","rating":7.4},{"name":"The Starlight Lounge","phone":"5413433204","twitter":"starlightlounge","address":"830 Olive St","lat":44.05062767174528,"lng":-123.09443593025208,"neighborhood":"Downtown Eugene","city_fetched":"Eugene,US","state":"OR","country":"United States","canonicalUrl":"https://foursquare.com/v/the-starlight-lounge/4b09b9b0f964a520711c23e3","categoryId":"4bf58dd8d48988d116941735","category":"Bar","checkinsCount":1713,"usersCount":718,"tipCount":19,"visitsCount":1797,"tier":"","message":"","currency":"","rating":7.3},{"name":"Wild Duck Café","phone":"5414853825","twitter":"wildduckcafe","address":"1419 Villard St","lat":44.04413457785495,"lng":-123.06445688009262,"neighborhood":"University","city_fetched":"Eugene,US","state":"OR","country":"United States","canonicalUrl":"https://foursquare.com/v/wild-duck-caf%C3%A9/4ec9a597722e143798f1ed3b","categoryId":"4bf58dd8d48988d11b941735","category":"Pub","checkinsCount":1832,"usersCount":980,"tipCount":16,"visitsCount":2316,"url":"http://www.wildduckcafe.net","tier":2,"message":"Moderate","currency":"$","rating":7.3},{"name":"Falling Sky Delicatessen Pour House","phone":"5416539167","twitter":"fallingskybrew","address":"790 Blair Blvd","lat":44.05108369802579,"lng":-123.10547637684627,"city_fetched":"Eugene,US","state":"OR","country":"United States","canonicalUrl":"https://foursquare.com/v/falling-sky-delicatessen-pour-house/512fbc8bd63e265e9211b3c2","categoryId":"50327c8591d4c4b30a586d5d","category":"Brewery","checkinsCount":813,"usersCount":485,"tipCount":14,"visitsCount":1000,"url":"http://fallingskybrewing.com","tier":2,"message":"Moderate","currency":"$","rating":7.3},{"name":"The Vintage","phone":"5413499181","address":"837 Lincoln St","lat":44.05051,"lng":-123.097081,"neighborhood":"Downtown Eugene","city_fetched":"Eugene,US","state":"OR","country":"United States","canonicalUrl":"https://foursquare.com/v/the-vintage/4b492b13f964a520976826e3","categoryId":"4bf58dd8d48988d121941735","category":"Lounge","checkinsCount":1107,"usersCount":637,"tipCount":23,"visitsCount":1248,"url":"http://www.thevintageeugene.com","tier":2,"message":"Moderate","currency":"$","rating":7.2},{"name":"Oregon Wine LAB","phone":"4582017413","address":"488 Lincoln St","lat":44.054646673939104,"lng":-123.0974172015708,"neighborhood":"Downtown Eugene","city_fetched":"Eugene,US","state":"OR","country":"United States","canonicalUrl":"https://foursquare.com/v/oregon-wine-lab/5283d27c11d25c1f6d9fe581","categoryId":"4bf58dd8d48988d123941735","category":"Wine Bar","checkinsCount":188,"usersCount":134,"tipCount":1,"visitsCount":319,"url":"http://www.oregonwinelab.com","tier":"","message":"","currency":"","rating":7.2},{"name":"The Horsehead","phone":"5416833154","address":"99 W Broadway","lat":44.05030009,"lng":-123.09409591,"neighborhood":"Downtown Eugene","city_fetched":"Eugene,US","state":"OR","country":"United States","canonicalUrl":"https://foursquare.com/v/the-horsehead/4b075790f964a52050fc22e3","categoryId":"4bf58dd8d48988d116941735","category":"Bar","checkinsCount":2801,"usersCount":836,"tipCount":30,"visitsCount":2868,"url":"http://horseheadbareugene.com","tier":1,"message":"Cheap","currency":"$","rating":7.2},{"name":"GoodTimes Cafe & Bar","phone":"5414847181","address":"375 E 7th Ave","lat":44.05266047303119,"lng":-123.0872006714344,"neighborhood":"Downtown Eugene","city_fetched":"Eugene,US","state":"OR","country":"United States","canonicalUrl":"https://foursquare.com/v/goodtimes-cafe--bar/4ab69ae8f964a520197820e3","categoryId":"4bf58dd8d48988d11d941735","category":"Sports Bar","checkinsCount":2128,"usersCount":623,"tipCount":5,"visitsCount":2346,"url":"http://www.nightouteugene.com/bars/61409/good-times","tier":"","message":"","currency":"","rating":7.2},{"name":"The Elk Horn Brewery","phone":"5415430393","twitter":"theelkhornbrew","address":"686 E Broadway","lat":44.049613204475975,"lng":-123.0826011311567,"neighborhood":"West University","city_fetched":"Eugene,US","state":"OR","country":"United States","canonicalUrl":"https://foursquare.com/v/the-elk-horn-brewery/53441169498eabb1b149f339","categoryId":"50327c8591d4c4b30a586d5d","category":"Brewery","checkinsCount":382,"usersCount":439,"tipCount":6,"visitsCount":636,"tier":"","message":"","currency":"","rating":7.1},{"name":"Viking Braggot Company","phone":"5416538371","address":"520 Commercial St Ste F","lat":44.05419655897472,"lng":-123.16772791423,"neighborhood":"West Eugene","city_fetched":"Eugene,US","state":"OR","country":"United States","canonicalUrl":"https://foursquare.com/v/viking-braggot-company/51bb9513498ef9c2433d72cb","categoryId":"50327c8591d4c4b30a586d5d","category":"Brewery","checkinsCount":172,"usersCount":107,"tipCount":1,"visitsCount":209,"url":"http://www.drinkviking.com","tier":"","message":"","currency":"","rating":7},{"name":"Wetlands Brew Pub & Sports Bar","phone":"5413453606","address":"922 Garfield St","lat":44.04963100494207,"lng":-123.12322944402695,"neighborhood":"West Eugene","city_fetched":"Eugene,US","state":"OR","country":"United States","canonicalUrl":"https://foursquare.com/v/wetlands-brew-pub--sports-bar/4b0b5e79f964a520e53023e3","categoryId":"4bf58dd8d48988d11d941735","category":"Sports Bar","checkinsCount":1028,"usersCount":392,"tipCount":11,"visitsCount":1278,"url":"http://www.nightouteugene.com/bars/62252/wetlands-brew-pub--sports-bar","tier":"","message":"","currency":"","rating":7},{"name":"East 19th Street Cafe","phone":"5413424025","twitter":"captainneon","address":"1485 E 19th Ave","lat":44.03926763824585,"lng":-123.07008597846888,"neighborhood":"South Eugene","city_fetched":"Eugene,US","state":"OR","country":"United States","canonicalUrl":"https://foursquare.com/v/east-19th-street-cafe/4ab6f2b2f964a520907920e3","categoryId":"50327c8591d4c4b30a586d5d","category":"Brewery","checkinsCount":2069,"usersCount":1074,"tipCount":19,"visitsCount":2298,"url":"http://www.mcmenamins.com/East19","tier":2,"message":"Moderate","currency":"$","rating":7},{"name":"Webfoot Bar & Grill","phone":"5415058422","twitter":"thewebfootbar","address":"839 E 13th Ave","lat":44.04581025625956,"lng":-123.07953948939651,"neighborhood":"University","city_fetched":"Eugene,US","state":"OR","country":"United States","canonicalUrl":"https://foursquare.com/v/webfoot-bar--grill/4ec829a69adf9c7bf3e21902","categoryId":"4bf58dd8d48988d11d941735","category":"Sports Bar","checkinsCount":2693,"usersCount":558,"tipCount":17,"visitsCount":2715,"url":"http://www.thewebfootbarandgrill.com","tier":1,"message":"Cheap","currency":"$","rating":6.9},{"name":"Sonny's Tavern","phone":"5417411953","address":"533 Q St","lat":44.061673133333336,"lng":-123.018584,"city_fetched":"Eugene,US","state":"OR","country":"United States","canonicalUrl":"https://foursquare.com/v/sonnys-tavern/4b80a42ef964a520f08230e3","categoryId":"4bf58dd8d48988d118941735","category":"Dive Bar","checkinsCount":216,"usersCount":81,"tipCount":4,"visitsCount":221,"tier":"","message":"","currency":"","rating":6.8},{"name":"The Barn Light - West","phone":"4582058914","twitter":"thebarnlight","address":"924 Willamette St","lat":44.04962714933191,"lng":-123.09283733367919,"neighborhood":"Downtown Eugene","city_fetched":"Eugene,US","state":"OR","country":"United States","canonicalUrl":"https://foursquare.com/v/the-barn-light--west/508454f98aca3f16d682c3fa","categoryId":"4bf58dd8d48988d116941735","category":"Bar","checkinsCount":1223,"usersCount":480,"tipCount":13,"visitsCount":1240,"url":"http://thebarnlightbar.com","tier":"","message":"","currency":"","rating":6.7},{"name":"Jameson's","phone":"5414859913","address":"115 W Broadway","lat":44.04999728676094,"lng":-123.09438228607178,"neighborhood":"Downtown Eugene","city_fetched":"Eugene,US","state":"OR","country":"United States","canonicalUrl":"https://foursquare.com/v/jamesons/4b09b860f964a520571c23e3","categoryId":"4bf58dd8d48988d116941735","category":"Bar","checkinsCount":4739,"usersCount":927,"tipCount":26,"visitsCount":4892,"tier":"","message":"","currency":"","rating":6.7},{"name":"The Keg","phone":"5413455563","address":"4711 W 11th Ave","lat":44.0486198,"lng":-123.17910988,"neighborhood":"West Eugene","city_fetched":"Eugene,US","state":"OR","country":"United States","canonicalUrl":"https://foursquare.com/v/the-keg/4be51871910020a1a3a5d214","categoryId":"4bf58dd8d48988d116941735","category":"Bar","checkinsCount":864,"usersCount":207,"tipCount":9,"visitsCount":965,"url":"http://www.kegtavern.com","tier":"","message":"","currency":"","rating":6.6},{"name":"The O Bar & Grill","phone":"5413490707","address":"3500 Commons Dr","lat":44.060110664884085,"lng":-123.05598352955595,"city_fetched":"Eugene,US","state":"OR","country":"United States","canonicalUrl":"https://foursquare.com/v/the-o-bar--grill/4b01b03df964a520914422e3","categoryId":"4bf58dd8d48988d11d941735","category":"Sports Bar","checkinsCount":1003,"usersCount":322,"tipCount":9,"visitsCount":1038,"tier":"","message":"","currency":"","rating":6.5},{"name":"The Duck","phone":"5413029206","address":"1765 W 6th St","lat":44.05352860165564,"lng":-123.11990100071185,"neighborhood":"West Eugene","city_fetched":"Eugene,US","state":"OR","country":"United States","canonicalUrl":"https://foursquare.com/v/the-duck/4b806f19f964a520f07130e3","categoryId":"4bf58dd8d48988d11d941735","category":"Sports Bar","checkinsCount":538,"usersCount":151,"tipCount":7,"visitsCount":570,"tier":"","message":"","currency":"","rating":6.5},{"name":"Sidelines","address":"77 W Broadway","lat":44.050111,"lng":-123.093722,"neighborhood":"Downtown Eugene","city_fetched":"Eugene,US","state":"OR","country":"United States","canonicalUrl":"https://foursquare.com/v/sidelines/526c92e8498e46e82b6ff210","categoryId":"4bf58dd8d48988d11d941735","category":"Sports Bar","checkinsCount":266,"usersCount":105,"tipCount":3,"visitsCount":291,"tier":"","message":"","currency":"","rating":6.4},{"name":"Cowfish","phone":"5416836319","address":"62 W Broadway","lat":44.049846918709385,"lng":-123.09366881847382,"neighborhood":"Downtown Eugene","city_fetched":"Eugene,US","state":"OR","country":"United States","canonicalUrl":"https://foursquare.com/v/cowfish/4bc96339fb84c9b6a8171b3e","categoryId":"4bf58dd8d48988d11f941735","category":"Nightclub","checkinsCount":1894,"usersCount":605,"tipCount":24,"visitsCount":1916,"tier":"","message":"","currency":"","rating":6.3},{"name":"Conways Bar","phone":"5417416897","address":"5662 Main St","lat":44.046801924705505,"lng":-122.92946398258209,"neighborhood":"Thurston","city_fetched":"Eugene,US","state":"OR","country":"United States","canonicalUrl":"https://foursquare.com/v/conways-bar/4bc063b374a9a5932bf7cff6","categoryId":"4bf58dd8d48988d118941735","category":"Dive Bar","checkinsCount":252,"usersCount":58,"tipCount":2,"visitsCount":284,"tier":"","message":"","currency":"","rating":6.1},{"name":"First National Taphouse","phone":"5412386048","address":"51 W Broadway","lat":44.04996644206354,"lng":-123.09345424175261,"neighborhood":"Downtown Eugene","city_fetched":"Eugene,US","state":"OR","country":"United States","canonicalUrl":"https://foursquare.com/v/first-national-taphouse/512fba73d63e265e920e3371","categoryId":"4bf58dd8d48988d11b941735","category":"Pub","checkinsCount":596,"usersCount":360,"tipCount":9,"visitsCount":621,"url":"http://firstnationaltaphouse.com","tier":"","message":"","currency":"","rating":6},{"name":"Doc's Pad","phone":"5413430224","address":"710 Willamette St","lat":44.05188456612225,"lng":-123.09284001588821,"neighborhood":"Downtown Eugene","city_fetched":"Eugene,US","state":"OR","country":"United States","canonicalUrl":"https://foursquare.com/v/docs-pad/4b8214f7f964a52000ca30e3","categoryId":"4bf58dd8d48988d11d941735","category":"Sports Bar","checkinsCount":865,"usersCount":404,"tipCount":7,"visitsCount":930,"tier":"","message":"","currency":"","rating":6},{"name":"The Flying Squirrel Tavern","address":"49 W 29th Ave","lat":44.026404113366205,"lng":-123.09180736541748,"neighborhood":"College Hill","city_fetched":"Eugene,US","state":"OR","country":"United States","canonicalUrl":"https://foursquare.com/v/the-flying-squirrel-tavern/4fa83faabb3da924fcd4b778","categoryId":"4bf58dd8d48988d116941735","category":"Bar","checkinsCount":371,"usersCount":144,"tipCount":10,"visitsCount":471,"tier":"","message":"","currency":"","rating":6},{"name":"Taylor's Bar & Grille","phone":"5413446174","address":"894 E 13th Ave","lat":44.04530870841375,"lng":-123.07886838912964,"neighborhood":"University","city_fetched":"Eugene,US","state":"OR","country":"United States","canonicalUrl":"https://foursquare.com/v/taylors-bar--grille/4ab69be1f964a520207820e3","categoryId":"4bf58dd8d48988d11d941735","category":"Sports Bar","checkinsCount":6214,"usersCount":1422,"tipCount":24,"visitsCount":6278,"tier":"","message":"","currency":"","rating":5.8}]