[{"name":"The Local","phone":"7074976320","address":"517 F St","lat":40.80161694824268,"lng":-124.16572380972055,"city_fetched":"Eureka","state":"CA","country":"United States","canonicalUrl":"https://foursquare.com/v/the-local/4f63d5e4e4b09b9cd92f5d29","category":"Bar","checkinsCount":1352,"usersCount":221,"tipCount":16,"visitsCount":1525,"url":"http://thelocalbeerbar.com","tier":2,"message":"Moderate","currency":"$","rating":8.9},{"name":"The Speakeasy","lat":40.803975774834804,"lng":-124.16715598522703,"city_fetched":"Eureka","state":"CA","country":"United States","canonicalUrl":"https://foursquare.com/v/the-speakeasy/4eaf78f829c289c2f10d7e15","category":"Cocktail Bar","checkinsCount":400,"usersCount":181,"tipCount":8,"visitsCount":452,"tier":"","message":"","currency":"","rating":8.5},{"name":"Lost Coast Brewery","phone":"7074454480","twitter":"lostcoastbrewer","address":"617 4th St","lat":40.803099393849415,"lng":-124.16469742550629,"city_fetched":"Eureka","state":"CA","country":"United States","canonicalUrl":"https://foursquare.com/v/lost-coast-brewery/4ad14516f964a520ccdd20e3","category":"Brewery","checkinsCount":4042,"usersCount":2601,"tipCount":61,"visitsCount":4596,"url":"http://www.lostcoast.com","tier":"","message":"","currency":"","rating":8.4},{"name":"AA Bar & Grill","address":"929 4th St","lat":40.80345695,"lng":-124.16120409965515,"city_fetched":"Eureka","state":"CA","country":"United States","canonicalUrl":"https://foursquare.com/v/aa-bar--grill/4ba1c6c6f964a520d5cb37e3","category":"Bar","checkinsCount":314,"usersCount":154,"tipCount":6,"visitsCount":331,"tier":"","message":"","currency":"","rating":7.9},{"name":"Ernie's","address":"608 A St","lat":40.80011091283596,"lng":-124.1711927056863,"city_fetched":"Eureka","state":"CA","country":"United States","canonicalUrl":"https://foursquare.com/v/ernies/4c39723a0a71c9b62e9e42c9","category":"Dive Bar","checkinsCount":227,"usersCount":66,"tipCount":0,"visitsCount":270,"tier":"","message":"","currency":"","rating":7.7},{"name":"The Shanty","phone":"7074442053","address":"213 3rd St","lat":40.80342188028183,"lng":-124.16927936928465,"city_fetched":"Eureka","state":"CA","country":"United States","canonicalUrl":"https://foursquare.com/v/the-shanty/4b529fe0f964a5203d8427e3","category":"Bar","checkinsCount":2465,"usersCount":297,"tipCount":8,"visitsCount":2665,"tier":1,"message":"Cheap","currency":"$","rating":7.7},{"name":"Humboldt Cider Co.","phone":"7605802053","twitter":"humboldtciderco","address":"3750 Harris St","lat":40.780331,"lng":-124.126048,"city_fetched":"Eureka","state":"CA","country":"United States","canonicalUrl":"https://foursquare.com/v/humboldt-cider-co/5456a604498ed62b44a2f8b3","category":"Brewery","checkinsCount":171,"usersCount":60,"tipCount":1,"visitsCount":244,"url":"http://humboldtcidercompany.com","tier":"","message":"","currency":"","rating":7.4},{"name":"Two Doors Down","address":"F St","lat":40.79248429748441,"lng":-124.16397154326847,"city_fetched":"Eureka","state":"CA","country":"United States","canonicalUrl":"https://foursquare.com/v/two-doors-down/4f18e623e4b0bb77e5e75265","category":"Wine Bar","checkinsCount":121,"usersCount":65,"tipCount":2,"visitsCount":123,"tier":"","message":"","currency":"","rating":7.4},{"name":"The Siren's Song Tavern","phone":"7074428778","address":"325 2nd St","lat":40.804262450490505,"lng":-124.16814938114774,"city_fetched":"Eureka","state":"CA","country":"United States","canonicalUrl":"https://foursquare.com/v/the-sirens-song-tavern/509c8361e4b0d459db0fae83","category":"Bar","checkinsCount":188,"usersCount":85,"tipCount":4,"visitsCount":189,"tier":"","message":"","currency":"","rating":6.6},{"name":"Pearl Lounge","phone":"7074442017","address":"507 2nd St","lat":40.80451030379211,"lng":-124.16621408556865,"city_fetched":"Eureka","state":"CA","country":"United States","canonicalUrl":"https://foursquare.com/v/pearl-lounge/4b764890f964a52094462ee3","category":"Lounge","checkinsCount":390,"usersCount":125,"tipCount":6,"visitsCount":391,"tier":"","message":"","currency":"","rating":6},{"name":"The Palm Lounge","address":"518 7th St","lat":40.80003473823224,"lng":-124.16539420857477,"city_fetched":"Eureka","state":"CA","country":"United States","canonicalUrl":"https://foursquare.com/v/the-palm-lounge/4e59b80caeb7d78d9f7bf1e3","category":"Lounge","checkinsCount":256,"usersCount":78,"tipCount":3,"visitsCount":288,"tier":2,"message":"Moderate","currency":"$","rating":6},{"name":"Steve And Dave's","phone":"7074438887","address":"200 1st St","lat":40.80465940552722,"lng":-124.16981667280197,"city_fetched":"Eureka","state":"CA","country":"United States","canonicalUrl":"https://foursquare.com/v/steve-and-daves/4bfe180e4cf820a1cc73edf4","category":"Bar","checkinsCount":645,"usersCount":186,"tipCount":6,"visitsCount":682,"tier":"","message":"","currency":"","rating":6},{"name":"Sal's Myrtlewood Lounge","phone":"7074431881","address":"1696 Myrtle Ave","lat":40.793502,"lng":-124.1362139,"city_fetched":"Eureka","state":"CA","country":"United States","canonicalUrl":"https://foursquare.com/v/sals-myrtlewood-lounge/4bd3978977b29c7411489182","category":"Bar","checkinsCount":287,"usersCount":64,"tipCount":3,"visitsCount":363,"tier":"","message":"","currency":"","rating":5.7},{"name":"Eureka!","lat":40.79167440816425,"lng":-124.17815907494833,"city_fetched":"Eureka","state":"CA","country":"United States","canonicalUrl":"https://foursquare.com/v/eureka/5003721de4b0382ba0973c49","category":"Hotel Bar","checkinsCount":458,"usersCount":318,"tipCount":1,"visitsCount":514,"tier":"","message":"","currency":"","rating":5.7}]