[{"name":"Schaefer's Wines, Foods & Spirits","phone":"8008339463","twitter":"schaeferswine","address":"9965 Gross Point Rd","lat":42.0619932151741,"lng":-87.73087541511532,"city_fetched":"Evanston","state":"IL","country":"United States","canonicalUrl":"https://foursquare.com/schaeferswine","category":"Gourmet Shop","checkinsCount":739,"usersCount":566,"tipCount":7,"visitsCount":1285,"url":"http://schaefers.com","tier":"","message":"","currency":"","rating":9.3},{"name":"Ward Eight Bar","address":"631 Howard St","lat":42.019549765062095,"lng":-87.67979003007072,"city_fetched":"Evanston","state":"IL","country":"United States","canonicalUrl":"https://foursquare.com/v/ward-eight-bar/4fc6376fe4b090c5c72bd228","category":"Cocktail Bar","checkinsCount":998,"usersCount":530,"tipCount":18,"visitsCount":1110,"url":"http://wardeight.com","tier":2,"message":"Moderate","currency":"$","rating":9},{"name":"Celtic Knot Public House","phone":"8478641679","twitter":"thecelticknot","address":"626 Church St","lat":42.04804785032468,"lng":-87.68011259127584,"city_fetched":"Evanston","state":"IL","country":"United States","canonicalUrl":"https://foursquare.com/thecelticknot","category":"Pub","checkinsCount":3767,"usersCount":1951,"tipCount":30,"visitsCount":3908,"url":"http://www.celticknotpub.com","tier":2,"message":"Moderate","currency":"$","rating":8.8},{"name":"Peckish Pig","phone":"8474916778","twitter":"peckishpig","address":"623 Howard St","lat":42.01958744727552,"lng":-87.67950598174389,"neighborhood":"Rogers Park","city_fetched":"Evanston","state":"IL","country":"United States","canonicalUrl":"https://foursquare.com/v/peckish-pig/531fad8f498e3462991f1d54","category":"Brewery","checkinsCount":1489,"usersCount":1071,"tipCount":42,"visitsCount":1943,"url":"http://thepeckishpig.com","tier":2,"message":"Moderate","currency":"$","rating":8.7},{"name":"Temperance Beer Company","phone":"8478641000","twitter":"temperancebeer","address":"2000 Dempster St","lat":42.039978,"lng":-87.701944,"city_fetched":"Evanston","state":"IL","country":"United States","canonicalUrl":"https://foursquare.com/v/temperance-beer-company/513900cae4b0a107ba1c87b2","category":"Brewery","checkinsCount":1305,"usersCount":919,"tipCount":10,"visitsCount":1861,"url":"http://temperancebeer.com","tier":1,"message":"Cheap","currency":"$","rating":8.7},{"name":"The Cellar at The Stained Glass","phone":"8478648678","twitter":"thecellarsg","address":"820 Clark St","lat":42.049854632855656,"lng":-87.68286630433377,"city_fetched":"Evanston","state":"IL","country":"United States","canonicalUrl":"https://foursquare.com/v/the-cellar-at-the-stained-glass/4b06ec34f964a52027f322e3","category":"American Restaurant","checkinsCount":1772,"usersCount":944,"tipCount":24,"visitsCount":1827,"url":"http://thecellarevanston-hub.com","tier":2,"message":"Moderate","currency":"$","rating":8.7},{"name":"Few Spirits","phone":"8479208628","twitter":"fewspirits","address":"918 Chicago Ave","lat":42.03486621379852,"lng":-87.680006,"city_fetched":"Evanston","state":"IL","country":"United States","canonicalUrl":"https://foursquare.com/v/few-spirits/4d5982c523e0a093fc924549","category":"Distillery","checkinsCount":479,"usersCount":399,"tipCount":9,"visitsCount":520,"url":"http://fewspirits.com","tier":"","message":"","currency":"","rating":8.4},{"name":"Bangers & Lace","phone":"8479050854","address":"810 Grove St","lat":42.04550631235487,"lng":-87.68234638525557,"city_fetched":"Evanston","state":"IL","country":"United States","canonicalUrl":"https://foursquare.com/v/bangers--lace/549dfc5b498effe1dff2a4dd","category":"Bar","checkinsCount":762,"usersCount":490,"tipCount":12,"visitsCount":935,"url":"http://bangersandlacebar.com","tier":"","message":"","currency":"","rating":8.3},{"name":"Sketchbook Brewing Co.","phone":"8478599051","twitter":"sketchbookbrew","address":"821 Chicago Ave","lat":42.03292054203249,"lng":-87.67903357744217,"city_fetched":"Evanston","state":"IL","country":"United States","canonicalUrl":"https://foursquare.com/v/sketchbook-brewing-co/53098a73498e6152ee8e5226","category":"Brewery","checkinsCount":540,"usersCount":258,"tipCount":15,"visitsCount":732,"url":"http://www.sketchbookbrewing.com","tier":1,"message":"Cheap","currency":"$","rating":8.3},{"name":"Smylie Brothers Brewing Co.","phone":"2249997320","twitter":"smyliebros","address":"1615 Oak Ave","lat":42.047675587930186,"lng":-87.68647187599296,"city_fetched":"Evanston","state":"IL","country":"United States","canonicalUrl":"https://foursquare.com/v/smylie-brothers-brewing-co/53988825498e4e052edf0dfb","category":"Brewery","checkinsCount":1394,"usersCount":1305,"tipCount":29,"visitsCount":2162,"url":"http://www.smyliebros.com","tier":2,"message":"Moderate","currency":"$","rating":8.3},{"name":"The Stained Glass","phone":"8478648600","twitter":"stainedglasswbb","address":"1735 Benson Ave","lat":42.049704,"lng":-87.683024,"city_fetched":"Evanston","state":"IL","country":"United States","canonicalUrl":"https://foursquare.com/v/the-stained-glass/4b70ef54f964a520e8342de3","category":"Wine Bar","checkinsCount":1035,"usersCount":709,"tipCount":21,"visitsCount":1043,"url":"http://thestainedglass-hub.com","tier":3,"message":"Expensive","currency":"$","rating":8.2},{"name":"Prairie Moon","phone":"8478648328","address":"1502 Sherman Ave","lat":42.04488817622702,"lng":-87.682144192899,"city_fetched":"Evanston","state":"IL","country":"United States","canonicalUrl":"https://foursquare.com/v/prairie-moon/44c7bf21f964a520ea351fe3","category":"Bar","checkinsCount":6276,"usersCount":2837,"tipCount":51,"visitsCount":6655,"url":"http://prairiemoonrestaurant.com","tier":2,"message":"Moderate","currency":"$","rating":8.1},{"name":"World of Beer","phone":"8473283688","address":"1601 Sherman Ave","lat":42.04714154,"lng":-87.68160582,"city_fetched":"Evanston","state":"IL","country":"United States","canonicalUrl":"https://foursquare.com/v/world-of-beer/50f208c9e4b0263d69cc06d4","category":"Bar","checkinsCount":4791,"usersCount":2372,"tipCount":32,"visitsCount":5321,"url":"http://worldofbeer.com/Locations/Evanston","tier":2,"message":"Moderate","currency":"$","rating":8.1},{"name":"Gullivers Pizza and Pub Chicago","phone":"7733382166","twitter":"gulliverschgo","address":"2727 W Howard St","lat":42.01927635391321,"lng":-87.69827824338289,"neighborhood":"West Ridge","city_fetched":"Evanston","state":"IL","country":"United States","canonicalUrl":"https://foursquare.com/v/gullivers-pizza-and-pub-chicago/4bb686981344b7133aab9d04","category":"Pizza Place","checkinsCount":2161,"usersCount":1130,"tipCount":35,"visitsCount":2577,"url":"http://www.gulliverspizza.com","tier":2,"message":"Moderate","currency":"$","rating":8.1},{"name":"The Alcove","address":"512 Main St","lat":42.03391442549762,"lng":-87.67841791582403,"city_fetched":"Evanston","state":"IL","country":"United States","canonicalUrl":"https://foursquare.com/v/the-alcove/5011dbd0e4b05d9dc74e5643","category":"Cocktail Bar","checkinsCount":249,"usersCount":122,"tipCount":15,"visitsCount":250,"tier":"","message":"","currency":"","rating":7.8},{"name":"Bat 17","phone":"8477337117","twitter":"bat17evanston","address":"1709 Benson Ave","lat":42.048777058682354,"lng":-87.68326586773736,"city_fetched":"Evanston","state":"IL","country":"United States","canonicalUrl":"https://foursquare.com/v/bat-17/4aeb288ff964a5201fbf21e3","category":"Bar","checkinsCount":6572,"usersCount":2767,"tipCount":65,"visitsCount":6897,"url":"http://www.bat17evanston.com","tier":2,"message":"Moderate","currency":"$","rating":7.8},{"name":"Pete Miller's Evanston","phone":"8473280399","twitter":"petemillerse","address":"1557 Sherman Ave","lat":42.0457850466703,"lng":-87.68195162791483,"city_fetched":"Evanston","state":"IL","country":"United States","canonicalUrl":"https://foursquare.com/petemillerse","category":"American Restaurant","checkinsCount":2801,"usersCount":1524,"tipCount":22,"visitsCount":2840,"url":"http://www.petemillers.com","tier":4,"message":"Very Expensive","currency":"$","rating":7.8},{"name":"Whiskey Thief","phone":"8478592342","twitter":"whiskeythiefchi","address":"616 Davis St","lat":42.04658684099821,"lng":-87.68057476454138,"city_fetched":"Evanston","state":"IL","country":"United States","canonicalUrl":"https://foursquare.com/v/whiskey-thief/5765ff16498e9239ebd3d9ad","category":"Gastropub","checkinsCount":43,"usersCount":41,"tipCount":1,"visitsCount":44,"url":"http://www.whiskeythieftavern.com","tier":"","message":"","currency":"","rating":7.7},{"name":"Bluestone","phone":"8474240420","twitter":"bluestoner","address":"1932 Central St","lat":42.0641412041086,"lng":-87.70033836364746,"city_fetched":"Evanston","state":"IL","country":"United States","canonicalUrl":"https://foursquare.com/v/bluestone/4a60c863f964a5202fc11fe3","category":"American Restaurant","checkinsCount":2680,"usersCount":1093,"tipCount":31,"visitsCount":3028,"url":"http://bluestone-evanston.com","tier":2,"message":"Moderate","currency":"$","rating":7.6},{"name":"Starbucks","phone":"8474920490","twitter":"starbucks","address":"1734 Sherman Ave","lat":42.049658,"lng":-87.682029,"city_fetched":"Evanston","state":"IL","country":"United States","canonicalUrl":"https://foursquare.com/v/starbucks/4b1e97b1f964a520351c24e3","category":"Coffee Shop","checkinsCount":13113,"usersCount":3267,"tipCount":53,"visitsCount":15255,"url":"http://www.starbucks.com","tier":1,"message":"Cheap","currency":"$","rating":7.6},{"name":"Bistro Bordeaux","phone":"8474241483","twitter":"bistrobordeaux","address":"618 Church Ave","lat":42.047823,"lng":-87.67997,"city_fetched":"Evanston","state":"IL","country":"United States","canonicalUrl":"https://foursquare.com/v/bistro-bordeaux/4b3aa6fef964a520f36b25e3","category":"French Restaurant","checkinsCount":844,"usersCount":506,"tipCount":16,"visitsCount":851,"url":"http://lebistrobordeaux.com","tier":3,"message":"Expensive","currency":"$","rating":7.3},{"name":"Indigo Lounge","phone":"8478668700","twitter":"hiltonhotels","address":"1710 Orrington Ave","lat":42.04887535525545,"lng":-87.68052180742606,"city_fetched":"Evanston","state":"IL","country":"United States","canonicalUrl":"https://foursquare.com/v/indigo-lounge/50ca02c3245f2d4aa8c2c062","category":"Restaurant","checkinsCount":134,"usersCount":91,"tipCount":3,"visitsCount":134,"url":"http://www.hilton.com","tier":"","message":"","currency":"","rating":7}]