[{"name":"Cigar! Cigar!","phone":"8124011202","twitter":"cigarcigarllc","address":"500 N Congress Ave Ste B","lat":37.98124675411147,"lng":-87.50023484230042,"city_fetched":"Evansville","state":"IN","country":"United States","canonicalUrl":"https://foursquare.com/cigarcigarllc","category":"Smoke Shop","checkinsCount":1073,"usersCount":146,"tipCount":12,"visitsCount":1247,"url":"http://www.cigarcigar.us","tier":"","message":"","currency":"","rating":9.1},{"name":"Deerhead Pizza Tavern","phone":"8124252515","address":"222 E Columbia St","lat":37.98485720381818,"lng":-87.5602036579067,"city_fetched":"Evansville","state":"IN","country":"United States","canonicalUrl":"https://foursquare.com/v/deerhead-pizza-tavern/4bcb5aadfb84c9b698ab1e3e","category":"Pizza Place","checkinsCount":998,"usersCount":530,"tipCount":25,"visitsCount":1211,"url":"http://www.deerheadpizza.com","tier":"","message":"","currency":"","rating":8.8},{"name":"Cavanaugh's","phone":"8124334333","twitter":"casinoaztar","address":"507 NW Riverside Dr","lat":37.97227782342723,"lng":-87.57842185285637,"neighborhood":"Downtown Evansville","city_fetched":"Evansville","state":"IN","country":"United States","canonicalUrl":"https://foursquare.com/v/cavanaughs/4b64cd66f964a52040d12ae3","category":"Bar","checkinsCount":272,"usersCount":180,"tipCount":8,"visitsCount":277,"url":"http://www.casinoaztar.com","tier":"","message":"","currency":"","rating":8.6},{"name":"Carsons Brewery","lat":38.01518223162957,"lng":-87.5206875939827,"city_fetched":"Evansville","state":"IN","country":"United States","canonicalUrl":"https://foursquare.com/v/carsons-brewery/524c7c9a11d2329dd207679b","category":"Brewery","checkinsCount":282,"usersCount":248,"tipCount":6,"visitsCount":549,"tier":"","message":"","currency":"","rating":8.4},{"name":"Lamasco Bar","phone":"8124370171","address":"1331 W Franklin St","lat":37.98060193555147,"lng":-87.58374005556107,"neighborhood":"Evansville West Side","city_fetched":"Evansville","state":"IN","country":"United States","canonicalUrl":"https://foursquare.com/v/lamasco-bar/4b8da277f964a520930533e3","category":"Bar","checkinsCount":2707,"usersCount":729,"tipCount":30,"visitsCount":3495,"url":"http://www.lamascobarandgrill.com","tier":1,"message":"Cheap","currency":"$","rating":8.4},{"name":"Bokeh Lounge","phone":"8129090388","address":"1007 Parrett St","lat":37.96257499359404,"lng":-87.56617905732982,"neighborhood":"Evansville South Side","city_fetched":"Evansville","state":"IN","country":"United States","canonicalUrl":"https://foursquare.com/v/bokeh-lounge/4f583e86e4b014b62a5e6020","category":"Lounge","checkinsCount":866,"usersCount":239,"tipCount":6,"visitsCount":1037,"url":"http://bokehloungebar.com","tier":"","message":"","currency":"","rating":8.4},{"name":"Tin Man Brewing Company","phone":"8126183227","twitter":"tinmanbrewing","address":"1430 W Franklin St","lat":37.98019397536746,"lng":-87.58546106680893,"neighborhood":"Evansville West Side","city_fetched":"Evansville","state":"IN","country":"United States","canonicalUrl":"https://foursquare.com/tinmanbrewing","category":"Brewery","checkinsCount":2154,"usersCount":943,"tipCount":31,"visitsCount":2597,"url":"http://www.tinmanbrewing.com","tier":2,"message":"Moderate","currency":"$","rating":8.3},{"name":"Kipplee's Stadium Inn","phone":"8124791542","address":"2350 E Division St","lat":37.97739825552051,"lng":-87.52109823709355,"city_fetched":"Evansville","state":"IN","country":"United States","canonicalUrl":"https://foursquare.com/v/kipplees-stadium-inn/4b22ede7f964a5208d5024e3","category":"Bar","checkinsCount":1505,"usersCount":577,"tipCount":16,"visitsCount":1817,"url":"http://www.kipplees.com","tier":"","message":"","currency":"","rating":8.1},{"name":"Bar Louie","phone":"8124767069","twitter":"barlouie","address":"7700 Eagle Crest Blvd","lat":37.9759812,"lng":-87.4588211,"neighborhood":"Evansville East Side","city_fetched":"Evansville","state":"IN","country":"United States","canonicalUrl":"https://foursquare.com/v/bar-louie/4b39546ef964a520c05a25e3","category":"Restaurant","checkinsCount":3507,"usersCount":1657,"tipCount":29,"visitsCount":4234,"url":"http://t.co/6m5uO0JOqN","tier":2,"message":"Moderate","currency":"$","rating":8.1},{"name":"Germania Maennerchor","phone":"8124221915","address":"916 N Fulton Ave","lat":37.98602891537124,"lng":-87.58127337127804,"neighborhood":"Evansville West Side","city_fetched":"Evansville","state":"IN","country":"United States","canonicalUrl":"https://foursquare.com/v/germania-maennerchor/4be5c0fdcf200f47a1ac133c","category":"Beer Garden","checkinsCount":279,"usersCount":163,"tipCount":3,"visitsCount":299,"tier":"","message":"","currency":"","rating":8},{"name":"Toast","phone":"8129092320","twitter":"toastevv","address":"1550 Mesker Park Dr","lat":37.99547175660892,"lng":-87.6065481141767,"neighborhood":"Evansville West Side","city_fetched":"Evansville","state":"IN","country":"United States","canonicalUrl":"https://foursquare.com/v/toast/550380ff498e1efc0a87f1fd","category":"Breakfast Spot","checkinsCount":69,"usersCount":84,"tipCount":2,"visitsCount":173,"tier":"","message":"","currency":"","rating":7.9},{"name":"Ricks Sports Bar","phone":"8124774088","address":"1531 S Green River Rd","lat":37.9556203,"lng":-87.49353468418121,"neighborhood":"Evansville South Side","city_fetched":"Evansville","state":"IN","country":"United States","canonicalUrl":"https://foursquare.com/v/ricks-sports-bar/4bcaa6693740b713504e6165","category":"Bar","checkinsCount":148,"usersCount":88,"tipCount":1,"visitsCount":193,"tier":"","message":"","currency":"","rating":7.9},{"name":"Hagedorn's","phone":"8124230794","address":"2037 W Franklin St","lat":37.98083452579738,"lng":-87.59541736904248,"neighborhood":"Evansville West Side","city_fetched":"Evansville","state":"IN","country":"United States","canonicalUrl":"https://foursquare.com/v/hagedorns/4e7416dd52b1c8e518d905c0","category":"Pub","checkinsCount":162,"usersCount":50,"tipCount":6,"visitsCount":178,"tier":"","message":"","currency":"","rating":7.9},{"name":"Ri Ra Irish Pub","phone":"8124260000","twitter":"riraevansville","address":"701B NW Riverside Dr","lat":37.97396737492566,"lng":-87.58055627346039,"neighborhood":"Downtown Evansville","city_fetched":"Evansville","state":"IN","country":"United States","canonicalUrl":"https://foursquare.com/v/ri-ra-irish-pub/4b4abca1f964a520bb8d26e3","category":"Restaurant","checkinsCount":3598,"usersCount":1465,"tipCount":32,"visitsCount":3808,"url":"http://rira.com/evansville/","tier":2,"message":"Moderate","currency":"$","rating":7.8},{"name":"Mojo's Boneyard Sports Bar & Grille","phone":"8124758593","address":"4920 Bellemeade Ave","lat":37.9679311227578,"lng":-87.49129054119184,"neighborhood":"Evansville East Side","city_fetched":"Evansville","state":"IN","country":"United States","canonicalUrl":"https://foursquare.com/v/mojos-boneyard-sports-bar--grille/4ebf2a4ce5fae16464391f1e","category":"Sports Bar","checkinsCount":307,"usersCount":125,"tipCount":8,"visitsCount":322,"tier":"","message":"","currency":"","rating":7.8},{"name":"Sportsman's Grille & Billiards","phone":"8124220801","address":"2315 W Franklin St","lat":37.980677764121026,"lng":-87.59972434301834,"neighborhood":"Evansville West Side","city_fetched":"Evansville","state":"IN","country":"United States","canonicalUrl":"https://foursquare.com/v/sportsmans-grille--billiards/4b8a0c7ef964a5207f5d32e3","category":"Bar","checkinsCount":1456,"usersCount":648,"tipCount":11,"visitsCount":1806,"tier":"","message":"","currency":"","rating":7.7},{"name":"Roca Bar","phone":"8124227782","address":"1618 S Kentucky Ave","lat":37.95462,"lng":-87.547643,"neighborhood":"Evansville South Side","city_fetched":"Evansville","state":"IN","country":"United States","canonicalUrl":"https://foursquare.com/v/roca-bar/4b6855d2f964a5204c722be3","category":"Pizza Place","checkinsCount":275,"usersCount":154,"tipCount":11,"visitsCount":323,"url":"http://www.rocabarpizza.com","tier":"","message":"","currency":"","rating":7.7},{"name":"Someplace Else","phone":"8124243202","address":"930 Main St","lat":37.975522,"lng":-87.565219,"neighborhood":"Downtown Evansville","city_fetched":"Evansville","state":"IN","country":"United States","canonicalUrl":"https://foursquare.com/v/someplace-else/4ba1be85f964a52088ca37e3","category":"Gay Bar","checkinsCount":1563,"usersCount":324,"tipCount":8,"visitsCount":1652,"url":"http://www.someplaceelsebar.com","tier":"","message":"","currency":"","rating":7.7},{"name":"Doc's","phone":"8124011201","address":"1305 Stringtown Rd","lat":37.989687,"lng":-87.558108,"city_fetched":"Evansville","state":"IN","country":"United States","canonicalUrl":"https://foursquare.com/v/docs/4bdcb59cccf52d7f8efc786d","category":"Bar","checkinsCount":330,"usersCount":143,"tipCount":9,"visitsCount":442,"tier":"","message":"","currency":"","rating":7.6},{"name":"Rick's 718","address":"718 N 3rd Ave","lat":37.984798440032684,"lng":-87.57802963256836,"city_fetched":"Evansville","state":"IN","country":"United States","canonicalUrl":"https://foursquare.com/v/ricks-718/4bfca5734cf820a1bb6cebf4","category":"Bar","checkinsCount":482,"usersCount":121,"tipCount":11,"visitsCount":576,"tier":"","message":"","currency":"","rating":7.6},{"name":"Horstketter's Tavern","phone":"8124230692","address":"5809 Stringtown Rd","lat":38.03321762763636,"lng":-87.56200890898829,"city_fetched":"Evansville","state":"IN","country":"United States","canonicalUrl":"https://foursquare.com/v/horstketters-tavern/4bbd4c46078095219184da91","category":"Bar","checkinsCount":205,"usersCount":93,"tipCount":2,"visitsCount":234,"tier":"","message":"","currency":"","rating":7.5},{"name":"Time Out Lounge","phone":"8124379920","address":"1121 Washington Sq","lat":37.96008529163711,"lng":-87.49135136604309,"neighborhood":"Evansville East Side","city_fetched":"Evansville","state":"IN","country":"United States","canonicalUrl":"https://foursquare.com/v/time-out-lounge/4c708264fa49a1cd8080a6e3","category":"Bar","checkinsCount":2826,"usersCount":687,"tipCount":16,"visitsCount":3477,"tier":2,"message":"Moderate","currency":"$","rating":7.5},{"name":"TGI Fridays","phone":"8124918443","twitter":"tgifridays","address":"800 N Green River Rd Ste 101","lat":37.98481346653275,"lng":-87.49447616689405,"city_fetched":"Evansville","state":"IN","country":"United States","canonicalUrl":"https://foursquare.com/v/tgi-fridays/4bf600844d5f20a103ad98fe","category":"American Restaurant","checkinsCount":3342,"usersCount":1136,"tipCount":24,"visitsCount":3715,"url":"http://tgifridays.com","tier":2,"message":"Moderate","currency":"$","rating":7.4},{"name":"Dave's Sportsden","phone":"8124798887","address":"701 N Weinbach Ave","lat":37.98329301771874,"lng":-87.52916542410469,"city_fetched":"Evansville","state":"IN","country":"United States","canonicalUrl":"https://foursquare.com/v/daves-sportsden/4b6856b7f964a52087722be3","category":"Bar","checkinsCount":857,"usersCount":214,"tipCount":11,"visitsCount":1058,"url":"http://davessportsden.biz","tier":"","message":"","currency":"","rating":7.4},{"name":"Leroy's Tavern","phone":"8124648300","address":"2659 Mount Vernon Ave","lat":37.98170724504165,"lng":-87.60509664094137,"neighborhood":"Helfrich","city_fetched":"Evansville","state":"IN","country":"United States","canonicalUrl":"https://foursquare.com/v/leroys-tavern/4baec838f964a52094d73be3","category":"Bar","checkinsCount":351,"usersCount":214,"tipCount":7,"visitsCount":536,"tier":"","message":"","currency":"","rating":7.3},{"name":"Fred's Bar & Grill","phone":"8124238040","address":"421 Read St","lat":37.98197613221083,"lng":-87.56832003593445,"city_fetched":"Evansville","state":"IN","country":"United States","canonicalUrl":"https://foursquare.com/v/freds-bar--grill/4bd9ccb25f34b71398dd3579","category":"Bar","checkinsCount":357,"usersCount":104,"tipCount":10,"visitsCount":376,"tier":"","message":"","currency":"","rating":7.2},{"name":"The Peephole Bar And Grill","phone":"8124235171","address":"201 Main St","lat":37.970365,"lng":-87.573156,"neighborhood":"Downtown Evansville","city_fetched":"Evansville","state":"IN","country":"United States","canonicalUrl":"https://foursquare.com/v/the-peephole-bar-and-grill/4b6516b6f964a52099e32ae3","category":"Pub","checkinsCount":2191,"usersCount":505,"tipCount":19,"visitsCount":2365,"tier":1,"message":"Cheap","currency":"$","rating":7},{"name":"Boogie Nights Nightclub at Tropicana Evansville","phone":"8124010460","twitter":"boogienightsev","address":"701A NW Riverside Dr","lat":37.97433319574322,"lng":-87.58056412691278,"neighborhood":"Downtown Evansville","city_fetched":"Evansville","state":"IN","country":"United States","canonicalUrl":"https://foursquare.com/v/boogie-nights-nightclub-at-tropicana-evansville/5226151311d27fea2c6d5ae2","category":"Nightclub","checkinsCount":215,"usersCount":129,"tipCount":4,"visitsCount":228,"tier":1,"message":"Cheap","currency":"$","rating":6.9}]