[{"name":"HooDoo Brewing Co.","phone":"9074592337","twitter":"hoodoobrew","address":"1951 Fox Ave","lat":64.84822967588231,"lng":-147.75908027570128,"city_fetched":"Fairbanks,US","state":"AK","country":"United States","canonicalUrl":"https://foursquare.com/v/hoodoo-brewing-co/4e90b09e8231d8feae1e6abc","categoryId":"50327c8591d4c4b30a586d5d","category":"Brewery","checkinsCount":1706,"usersCount":306,"tipCount":34,"visitsCount":1955,"url":"http://hoodoobrew.com","tier":1,"message":"Cheap","currency":"$","rating":8.2},{"name":"Lavelle's Taphouse","phone":"9078882220","twitter":"lavellestaps","address":"414 2nd Ave","lat":64.84368409826551,"lng":-147.7166522507411,"neighborhood":"Downtown Fairbanks","city_fetched":"Fairbanks,US","state":"AK","country":"United States","canonicalUrl":"https://foursquare.com/v/lavelles-taphouse/56661962498ec74007c7c83a","categoryId":"4bf58dd8d48988d117941735","category":"Beer Garden","checkinsCount":100,"usersCount":67,"tipCount":0,"visitsCount":205,"url":"http://www.lavellestaphouse.com","tier":"","message":"","currency":"","rating":8.1},{"name":"Kodiak Jack's","phone":"9073743373","address":"537 Gaffney Rd","lat":64.83686,"lng":-147.717658,"neighborhood":"Downtown Fairbanks","city_fetched":"Fairbanks,US","state":"AK","country":"United States","canonicalUrl":"https://foursquare.com/v/kodiak-jacks/4b7fb21df964a520813930e3","categoryId":"4bf58dd8d48988d116941735","category":"Bar","checkinsCount":669,"usersCount":165,"tipCount":2,"visitsCount":717,"url":"http://kodiakjacks.alaskansavvy.com","tier":"","message":"","currency":"","rating":7.7},{"name":"Silver Gulch Brewing & Bottling Co.","phone":"9074522739","address":"2195 Old Steese Hwy N","lat":64.95801128059446,"lng":-147.62133423042772,"city_fetched":"Fairbanks,US","state":"AK","country":"United States","canonicalUrl":"https://foursquare.com/v/silver-gulch-brewing--bottling-co/4bcb8f39937ca5937fdfa992","categoryId":"50327c8591d4c4b30a586d5d","category":"Brewery","checkinsCount":1387,"usersCount":885,"tipCount":30,"visitsCount":1580,"tier":2,"message":"Moderate","currency":"$","rating":7.6},{"name":"The Pub","address":"505 Yukon Dr","lat":64.85751748183988,"lng":-147.82257914543152,"neighborhood":"University of Alaska at Fairbanks","city_fetched":"Fairbanks,US","state":"AK","country":"United States","canonicalUrl":"https://foursquare.com/v/the-pub/4b6d2e30f964a5204d6a2ce3","categoryId":"4bf58dd8d48988d116941735","category":"Bar","checkinsCount":458,"usersCount":89,"tipCount":7,"visitsCount":464,"tier":"","message":"","currency":"","rating":7.5},{"name":"The Big I Pub & Lounge","phone":"9074566437","address":"122 N Turner St","lat":64.84528283268439,"lng":-147.72336065951222,"city_fetched":"Fairbanks,US","state":"AK","country":"United States","canonicalUrl":"https://foursquare.com/v/the-big-i-pub--lounge/4c046bb2310fc9b6ca55c761","categoryId":"4bf58dd8d48988d118941735","category":"Dive Bar","checkinsCount":906,"usersCount":265,"tipCount":12,"visitsCount":1067,"url":"http://bigi.alaskansavvy.com","tier":1,"message":"Cheap","currency":"$","rating":7.5},{"name":"Oasis Restaurant and Lounge","phone":"9074588020","address":"734 University Ave","lat":64.84777788333334,"lng":-147.81338343333334,"city_fetched":"Fairbanks,US","state":"AK","country":"United States","canonicalUrl":"https://foursquare.com/v/oasis-restaurant-and-lounge/4c0448c9f423a5938470d116","categoryId":"4bf58dd8d48988d118941735","category":"Dive Bar","checkinsCount":736,"usersCount":273,"tipCount":8,"visitsCount":958,"tier":"","message":"","currency":"","rating":6.9},{"name":"The Boatel","phone":"9074796537","address":"3420 Airport Way","lat":64.838051,"lng":-147.7997750043869,"city_fetched":"Fairbanks,US","state":"AK","country":"United States","canonicalUrl":"https://foursquare.com/v/the-boatel/4bcb9678b6c49c7488919291","categoryId":"4bf58dd8d48988d118941735","category":"Dive Bar","checkinsCount":490,"usersCount":158,"tipCount":3,"visitsCount":581,"tier":1,"message":"Cheap","currency":"$","rating":6.6},{"name":"Midnight Mine","phone":"9074565348","address":"308 Wendell Ave","lat":64.84517538885166,"lng":-147.71407718141825,"neighborhood":"Downtown Fairbanks","city_fetched":"Fairbanks,US","state":"AK","country":"United States","canonicalUrl":"https://foursquare.com/v/midnight-mine/4b57b0c0f964a520213c28e3","categoryId":"4bf58dd8d48988d118941735","category":"Dive Bar","checkinsCount":176,"usersCount":97,"tipCount":4,"visitsCount":184,"tier":"","message":"","currency":"","rating":6.3},{"name":"The Blue Loon","phone":"9074575666","address":"2999 George Parks Hwy.","lat":64.846293,"lng":-147.946032,"city_fetched":"Fairbanks,US","state":"AK","country":"United States","canonicalUrl":"https://foursquare.com/v/the-blue-loon/4b81144cf964a520db9530e3","categoryId":"4bf58dd8d48988d11f941735","category":"Nightclub","checkinsCount":222,"usersCount":131,"tipCount":9,"visitsCount":263,"url":"http://www.theblueloon.com","tier":"","message":"","currency":"","rating":6.3},{"name":"The Marlin","phone":"9074794646","address":"3412 College Rd","lat":64.85688,"lng":-147.805259,"city_fetched":"Fairbanks,US","state":"AK","country":"United States","canonicalUrl":"https://foursquare.com/v/the-marlin/4b6d5abef964a5207b722ce3","categoryId":"4bf58dd8d48988d116941735","category":"Bar","checkinsCount":702,"usersCount":115,"tipCount":6,"visitsCount":717,"tier":"","message":"","currency":"","rating":5.7}]