[{"name":"Heretic Brewing Company","phone":"9255266364","address":"1052 Horizon Dr","lat":38.2735481262207,"lng":-122.01544189453125,"city_fetched":"Fairfield,US","state":"CA","country":"United States","canonicalUrl":"https://foursquare.com/v/heretic-brewing-company/521e737511d26870e6f70833","categoryId":"50327c8591d4c4b30a586d5d","category":"Brewery","checkinsCount":653,"usersCount":575,"tipCount":11,"visitsCount":1034,"url":"http://hereticbrewing.com","tier":"","message":"","currency":"","rating":9},{"name":"1313 Main - Restaurant and Wine Bar","phone":"7072581313","twitter":"1313main","address":"1313 Main St","lat":38.301506524885816,"lng":-122.28756592963781,"neighborhood":"Central Napa","city_fetched":"Fairfield,US","state":"CA","country":"United States","canonicalUrl":"https://foursquare.com/1313main","categoryId":"4bf58dd8d48988d123941735","category":"Wine Bar","checkinsCount":1890,"usersCount":1136,"tipCount":36,"visitsCount":2075,"url":"http://1313main.com","tier":3,"message":"Expensive","currency":"$","rating":8.8},{"name":"Creek Monkey Tap House","phone":"9252288787","twitter":"crkmnky","address":"611 Escobar St","lat":38.01772406095503,"lng":-122.1378324514422,"city_fetched":"Fairfield,US","state":"CA","country":"United States","canonicalUrl":"https://foursquare.com/v/creek-monkey-tap-house/4da14aece7b8a090f4011821","categoryId":"50327c8591d4c4b30a586d5d","category":"Brewery","checkinsCount":1743,"usersCount":715,"tipCount":22,"visitsCount":2037,"url":"http://www.creekmonkey.com","tier":2,"message":"Moderate","currency":"$","rating":8.7},{"name":"Oxbow Wine Merchant & Wine Bar","phone":"7072575200","twitter":"oxbowwine","address":"610 1st St","lat":38.301782,"lng":-122.28180170059204,"neighborhood":"Central Napa","city_fetched":"Fairfield,US","state":"CA","country":"United States","canonicalUrl":"https://foursquare.com/v/oxbow-wine-merchant--wine-bar/4b59130bf964a520507b28e3","categoryId":"4bf58dd8d48988d123941735","category":"Wine Bar","checkinsCount":934,"usersCount":547,"tipCount":9,"visitsCount":945,"tier":"","message":"","currency":"","rating":8.6},{"name":"Anheuser-Busch Brewery","phone":"7074297595","twitter":"homeofbud","address":"3101 Busch Dr","lat":38.23766066503848,"lng":-122.09216013060635,"city_fetched":"Fairfield,US","state":"CA","country":"United States","canonicalUrl":"https://foursquare.com/v/anheuserbusch-brewery/4ba663aef964a5202d4d39e3","categoryId":"50327c8591d4c4b30a586d5d","category":"Brewery","checkinsCount":2810,"usersCount":1733,"tipCount":13,"visitsCount":3100,"url":"http://www.budweisertours.com","tier":1,"message":"Cheap","currency":"$","rating":8.6},{"name":"Carpe Diem Wine Bar","phone":"7072240800","twitter":"carpediemnapa","address":"1001 2nd St","lat":38.29839552051261,"lng":-122.28526230769023,"neighborhood":"Central Napa","city_fetched":"Fairfield,US","state":"CA","country":"United States","canonicalUrl":"https://foursquare.com/v/carpe-diem-wine-bar/4c16ce8096040f47077873a5","categoryId":"4bf58dd8d48988d123941735","category":"Wine Bar","checkinsCount":3443,"usersCount":1901,"tipCount":68,"visitsCount":3458,"url":"http://www.carpediemwinebar.com","tier":2,"message":"Moderate","currency":"$","rating":8.4},{"name":"Cadet Wine & Beer Bar","phone":"7072244400","twitter":"cadetwinebar","address":"930 Franklin St","lat":38.297469325496024,"lng":-122.28796462836999,"neighborhood":"Central Napa","city_fetched":"Fairfield,US","state":"CA","country":"United States","canonicalUrl":"https://foursquare.com/v/cadet-wine--beer-bar/53154470498eead764aca1d9","categoryId":"4bf58dd8d48988d123941735","category":"Wine Bar","checkinsCount":328,"usersCount":259,"tipCount":8,"visitsCount":386,"url":"http://www.cadetbeerandwinebar.com","tier":"","message":"","currency":"","rating":8.4},{"name":"The Rellik Tavern","phone":"7077461137","twitter":"relliktavern","address":"726 1st St","lat":38.050212,"lng":-122.158041,"city_fetched":"Fairfield,US","state":"CA","country":"United States","canonicalUrl":"https://foursquare.com/relliktavern","categoryId":"4bf58dd8d48988d121941735","category":"Lounge","checkinsCount":1962,"usersCount":714,"tipCount":20,"visitsCount":2154,"url":"http://www.therelliktavern.com","tier":2,"message":"Moderate","currency":"$","rating":8},{"name":"Rookies Sports Bar and Grill","phone":"7077467665","twitter":"rookiesbenicia","address":"321 First St. Benicia","lat":38.04706135699741,"lng":-122.16062098332101,"city_fetched":"Fairfield,US","state":"CA","country":"United States","canonicalUrl":"https://foursquare.com/rookiesbenicia","categoryId":"4bf58dd8d48988d11d941735","category":"Sports Bar","checkinsCount":900,"usersCount":433,"tipCount":8,"visitsCount":1010,"url":"http://rookiesbenicia.com","tier":2,"message":"Moderate","currency":"$","rating":7.9},{"name":"Mikey's Rock Band Lounge","phone":"5107582002","twitter":"mikeysrblounge","address":"367 McAllister Dr","lat":38.08058202266693,"lng":-122.14776482,"city_fetched":"Fairfield,US","state":"CA","country":"United States","canonicalUrl":"https://foursquare.com/v/mikeys-rock-band-lounge/4bb93c0598c7ef3b34f33102","categoryId":"4bf58dd8d48988d121941735","category":"Lounge","checkinsCount":778,"usersCount":57,"tipCount":3,"visitsCount":883,"tier":1,"message":"Cheap","currency":"$","rating":7.8},{"name":"The Brass Tap","phone":"7077240634","twitter":"brasstap","address":"783 Orange Dr","lat":38.38565547494045,"lng":-121.93563112357376,"city_fetched":"Fairfield,US","state":"CA","country":"United States","canonicalUrl":"https://foursquare.com/v/the-brass-tap/56303ce0498e6cb3be5d2cc2","categoryId":"4bf58dd8d48988d11b941735","category":"Pub","checkinsCount":132,"usersCount":207,"tipCount":5,"visitsCount":352,"tier":"","message":"","currency":"","rating":7.6},{"name":"Black Diamond Brewery","phone":"9253560120","address":"2470 Bates Ave","lat":38.01394449788296,"lng":-122.03102277977065,"city_fetched":"Fairfield,US","state":"CA","country":"United States","canonicalUrl":"https://foursquare.com/v/black-diamond-brewery/4b6a2831f964a520baca2be3","categoryId":"50327c8591d4c4b30a586d5d","category":"Brewery","checkinsCount":353,"usersCount":192,"tipCount":5,"visitsCount":405,"url":"http://www.bdbrewing.com","tier":"","message":"","currency":"","rating":7.6},{"name":"Siena Restaurant at The Meritage Resort","phone":"7072511950","twitter":"meritageresort","address":"875 Bordeaux Way","lat":38.24591795646372,"lng":-122.27326162405075,"city_fetched":"Fairfield,US","state":"CA","country":"United States","canonicalUrl":"https://foursquare.com/v/siena-restaurant-at-the-meritage-resort/4b778bf8f964a520f3a02ee3","categoryId":"4bf58dd8d48988d1d5941735","category":"Hotel Bar","checkinsCount":859,"usersCount":619,"tipCount":12,"visitsCount":865,"url":"http://meritagecollection.com/meritageresort/","tier":"","message":"","currency":"","rating":7.5},{"name":"Merchant and Main Grill and Bar","phone":"7074460368","address":"349 Merchant St","lat":38.35578205693601,"lng":-121.98869042819899,"city_fetched":"Fairfield,US","state":"CA","country":"United States","canonicalUrl":"https://foursquare.com/v/merchant-and-main-grill-and-bar/4b818c5bf964a52031ae30e3","categoryId":"4bf58dd8d48988d116941735","category":"Bar","checkinsCount":1008,"usersCount":385,"tipCount":12,"visitsCount":1051,"url":"http://merchantandmaingrill.com","tier":"","message":"","currency":"","rating":7.5},{"name":"Chris' Club","address":"656 Benicia Rd","lat":38.094642162323,"lng":-122.22835063934326,"neighborhood":"East Vallejo","city_fetched":"Fairfield,US","state":"CA","country":"United States","canonicalUrl":"https://foursquare.com/v/chris-club/4bde95cfffdec9282e06e9a1","categoryId":"4bf58dd8d48988d116941735","category":"Bar","checkinsCount":264,"usersCount":127,"tipCount":5,"visitsCount":265,"url":"http://chrisclub.com","tier":"","message":"","currency":"","rating":7.5},{"name":"Bottom Of The Fifth Sports Bar and Grill","phone":"7077459949","twitter":"bottomfive","address":"498A Military East","lat":38.05093395943848,"lng":-122.14718686753046,"city_fetched":"Fairfield,US","state":"CA","country":"United States","canonicalUrl":"https://foursquare.com/bottomfive","categoryId":"4bf58dd8d48988d11d941735","category":"Sports Bar","checkinsCount":325,"usersCount":180,"tipCount":3,"visitsCount":391,"url":"http://www.bottom5th.com","tier":"","message":"","currency":"","rating":7.5},{"name":"Twenty Rows Tasting Room","lat":38.30454308963699,"lng":-122.28691250348265,"neighborhood":"Central Napa","city_fetched":"Fairfield,US","state":"CA","country":"United States","canonicalUrl":"https://foursquare.com/v/twenty-rows-tasting-room/4c4271c1520fa593e251cbac","categoryId":"4bf58dd8d48988d123941735","category":"Wine Bar","checkinsCount":303,"usersCount":289,"tipCount":5,"visitsCount":340,"tier":"","message":"","currency":"","rating":7.4},{"name":"Gentleman Jim's","lat":38.10820506666666,"lng":-122.229113,"neighborhood":"East Vallejo","city_fetched":"Fairfield,US","state":"CA","country":"United States","canonicalUrl":"https://foursquare.com/v/gentleman-jims/4c50e069d797e21e5e1e1b7b","categoryId":"4bf58dd8d48988d118941735","category":"Dive Bar","checkinsCount":249,"usersCount":144,"tipCount":2,"visitsCount":300,"tier":"","message":"","currency":"","rating":7.4},{"name":"Mare Island Brewing Co.","address":"295 Mare Island Way","lat":38.100441009434334,"lng":-122.263032008458,"neighborhood":"West Vallejo","city_fetched":"Fairfield,US","state":"CA","country":"United States","canonicalUrl":"https://foursquare.com/v/mare-island-brewing-co/53dd7f96498ead52230c16bb","categoryId":"50327c8591d4c4b30a586d5d","category":"Brewery","checkinsCount":342,"usersCount":217,"tipCount":11,"visitsCount":370,"url":"http://mareislandbrewingco.com","tier":"","message":"","currency":"","rating":7.4},{"name":"Mercantile Social","phone":"7076871234","address":"1450 1st St","lat":38.297488816561255,"lng":-122.28927700113579,"neighborhood":"Central Napa","city_fetched":"Fairfield,US","state":"CA","country":"United States","canonicalUrl":"https://foursquare.com/v/mercantile-social/505be4f1e4b0d44483890136","categoryId":"4bf58dd8d48988d1d5941735","category":"Hotel Bar","checkinsCount":198,"usersCount":142,"tipCount":4,"visitsCount":198,"url":"http://andaznapa.com","tier":"","message":"","currency":"","rating":7.4},{"name":"Cullen's Tannery Pub","phone":"7076375300","twitter":"tannerypub","address":"131 1st St Ste B","lat":38.04609077098867,"lng":-122.16145259036571,"city_fetched":"Fairfield,US","state":"CA","country":"United States","canonicalUrl":"https://foursquare.com/v/cullens-tannery-pub/4dc1dfff45ddd5b5b6a08b45","categoryId":"4bf58dd8d48988d11b941735","category":"Pub","checkinsCount":152,"usersCount":88,"tipCount":2,"visitsCount":161,"url":"http://www.tannerypub.com","tier":"","message":"","currency":"","rating":7.3},{"name":"Napa Smith Brewery","phone":"7072547167","twitter":"napa_smith","address":"1 Executive Way","lat":38.224740442941375,"lng":-122.25707766524894,"city_fetched":"Fairfield,US","state":"CA","country":"United States","canonicalUrl":"https://foursquare.com/v/napa-smith-brewery/4bd619b17b1876b0cdfe8b86","categoryId":"50327c8591d4c4b30a586d5d","category":"Brewery","checkinsCount":1702,"usersCount":1384,"tipCount":21,"visitsCount":2072,"url":"http://www.napasmithbrewery.com","tier":1,"message":"Cheap","currency":"$","rating":7.3},{"name":"Thompson's Corner","address":"2147 Cordelia Rd","lat":38.21109820347456,"lng":-122.13341280367848,"city_fetched":"Fairfield,US","state":"CA","country":"United States","canonicalUrl":"https://foursquare.com/v/thompsons-corner/4ad17dd9f964a5208ede20e3","categoryId":"4bf58dd8d48988d118941735","category":"Dive Bar","checkinsCount":360,"usersCount":231,"tipCount":4,"visitsCount":488,"tier":"","message":"","currency":"","rating":7.1},{"name":"BANK Cafe and Bar","phone":"7072575151","address":"1314 McKinstry St","lat":38.30398879058982,"lng":-122.28366192556713,"neighborhood":"Central Napa","city_fetched":"Fairfield,US","state":"CA","country":"United States","canonicalUrl":"https://foursquare.com/v/bank-cafe-and-bar/4be79b27947820a10403b4db","categoryId":"4bf58dd8d48988d1d5941735","category":"Hotel Bar","checkinsCount":883,"usersCount":527,"tipCount":13,"visitsCount":902,"url":"http://bankcafenapa.com","tier":2,"message":"Moderate","currency":"$","rating":6.8},{"name":"Right Eye Brewing","twitter":"righteyebrewing","address":"221 Benton Ct","lat":38.24155436389211,"lng":-122.04206812695698,"city_fetched":"Fairfield,US","state":"CA","country":"United States","canonicalUrl":"https://foursquare.com/v/right-eye-brewing/52926dfc11d20c6560ec4ce9","categoryId":"50327c8591d4c4b30a586d5d","category":"Brewery","checkinsCount":41,"usersCount":31,"tipCount":4,"visitsCount":42,"url":"http://righteyebrewing.com","tier":"","message":"","currency":"","rating":6.8},{"name":"Crush Ultra Lounge","phone":"7072513066","twitter":"meritageresort","address":"875 Bordeaux Way","lat":38.24640431553509,"lng":-122.27444171905518,"city_fetched":"Fairfield,US","state":"CA","country":"United States","canonicalUrl":"https://foursquare.com/v/crush-ultra-lounge/4fb6f080e4b07c52a6487bb4","categoryId":"4bf58dd8d48988d116941735","category":"Bar","checkinsCount":641,"usersCount":466,"tipCount":5,"visitsCount":655,"url":"http://goo.gl/IxpkfE","tier":"","message":"","currency":"","rating":6.7},{"name":"Stones Sports Bar","phone":"7072551633","address":"1679 W Imola Ave","lat":38.281047422688154,"lng":-122.2928707153538,"neighborhood":"Central Napa","city_fetched":"Fairfield,US","state":"CA","country":"United States","canonicalUrl":"https://foursquare.com/v/stones-sports-bar/4e4f5752d164978659c955c7","categoryId":"4bf58dd8d48988d116941735","category":"Bar","checkinsCount":814,"usersCount":151,"tipCount":3,"visitsCount":848,"tier":"","message":"","currency":"","rating":6.7},{"name":"Hide-A-Way","phone":"7074481900","address":"1080 Orange Dr","lat":38.386987473495715,"lng":-121.9329810964477,"city_fetched":"Fairfield,US","state":"CA","country":"United States","canonicalUrl":"https://foursquare.com/v/hideaway/4bf8cf875ec320a10d6f89d3","categoryId":"4bf58dd8d48988d116941735","category":"Bar","checkinsCount":412,"usersCount":259,"tipCount":6,"visitsCount":518,"url":"http://www.hideawaylounge-grill.com","tier":"","message":"","currency":"","rating":6.5},{"name":"Henry's","address":"823 Main St","lat":38.298149436106755,"lng":-122.28478607192831,"neighborhood":"Central Napa","city_fetched":"Fairfield,US","state":"CA","country":"United States","canonicalUrl":"https://foursquare.com/v/henrys/4c550b21479fc9283a702494","categoryId":"4bf58dd8d48988d118941735","category":"Dive Bar","checkinsCount":1079,"usersCount":524,"tipCount":11,"visitsCount":1081,"tier":"","message":"","currency":"","rating":6.2},{"name":"TJ's Tavern","phone":"7074461224","address":"554 Main St","lat":38.35650696929936,"lng":-121.98670506477356,"city_fetched":"Fairfield,US","state":"CA","country":"United States","canonicalUrl":"https://foursquare.com/v/tjs-tavern/4bf6296f4d5f20a196e898fe","categoryId":"4bf58dd8d48988d116941735","category":"Bar","checkinsCount":318,"usersCount":158,"tipCount":3,"visitsCount":320,"tier":"","message":"","currency":"","rating":6.1},{"name":"Empire","address":"1400 1st St","lat":38.29771720262508,"lng":-122.28901674284562,"neighborhood":"Central Napa","city_fetched":"Fairfield,US","state":"CA","country":"United States","canonicalUrl":"https://foursquare.com/v/empire/5197161e498eaee011bde3cc","categoryId":"4bf58dd8d48988d121941735","category":"Lounge","checkinsCount":250,"usersCount":172,"tipCount":3,"visitsCount":252,"tier":"","message":"","currency":"","rating":6.1},{"name":"Green Door","phone":"7072559663","address":"2955 Solano Ave","lat":38.31337693333333,"lng":-122.307144,"city_fetched":"Fairfield,US","state":"CA","country":"United States","canonicalUrl":"https://foursquare.com/v/green-door/4be7a925d837c9b63e7aa406","categoryId":"4bf58dd8d48988d118941735","category":"Dive Bar","checkinsCount":979,"usersCount":220,"tipCount":2,"visitsCount":1023,"tier":"","message":"","currency":"","rating":5.9},{"name":"Miss Darla's","phone":"7074464131","address":"110 Peabody Rd","lat":38.35246982804864,"lng":-121.97921128692713,"city_fetched":"Fairfield,US","state":"CA","country":"United States","canonicalUrl":"https://foursquare.com/v/miss-darlas/4c60e3c213791b8d12c750af","categoryId":"4bf58dd8d48988d120941735","category":"Karaoke Bar","checkinsCount":211,"usersCount":107,"tipCount":5,"visitsCount":211,"tier":"","message":"","currency":"","rating":5.8},{"name":"Str8 Shooters","phone":"7074537878","address":"1072 E Monte Vista Ave","lat":38.359368,"lng":-121.978241,"city_fetched":"Fairfield,US","state":"CA","country":"United States","canonicalUrl":"https://foursquare.com/v/str8-shooters/4bf395c3354e9c74229f2602","categoryId":"4bf58dd8d48988d116941735","category":"Bar","checkinsCount":317,"usersCount":98,"tipCount":5,"visitsCount":390,"url":"http://str8shootersbar.com","tier":"","message":"","currency":"","rating":5.6}]