[{"name":"The Fargo Brewing Company","phone":"7014782337","twitter":"fargobrewing","address":"610 N University Dr","lat":46.883007369252454,"lng":-96.79950185115581,"neighborhood":"Downtown Fargo","city_fetched":"Fargo,US","state":"ND","country":"United States","canonicalUrl":"https://foursquare.com/v/the-fargo-brewing-company/5217d8f411d2ae1cc392d3aa","categoryId":"50327c8591d4c4b30a586d5d","category":"Brewery","checkinsCount":877,"usersCount":420,"tipCount":11,"visitsCount":1123,"url":"http://fargobrewing.com","tier":1,"message":"Cheap","currency":"$","rating":9.1},{"name":"HoDo Lounge","phone":"7014786969","twitter":"hotel_donaldson","address":"101 Broadway N","lat":46.87709089874481,"lng":-96.78759813308716,"neighborhood":"Downtown Fargo","city_fetched":"Fargo,US","state":"ND","country":"United States","canonicalUrl":"https://foursquare.com/v/hodo-lounge/4b649cc2f964a5201ac22ae3","categoryId":"4bf58dd8d48988d121941735","category":"Lounge","checkinsCount":6455,"usersCount":1893,"tipCount":49,"visitsCount":6640,"url":"http://www.hoteldonaldson.com","tier":2,"message":"Moderate","currency":"$","rating":8.5},{"name":"Sidestreet Grille & Pub","address":"404 4th Ave N","lat":46.87991986219603,"lng":-96.78487837314606,"neighborhood":"Downtown Fargo","city_fetched":"Fargo,US","state":"ND","country":"United States","canonicalUrl":"https://foursquare.com/v/sidestreet-grille--pub/56396f19cd10e68cc05d567b","categoryId":"4bf58dd8d48988d11b941735","category":"Pub","checkinsCount":361,"usersCount":229,"tipCount":4,"visitsCount":672,"tier":"","message":"","currency":"","rating":8.3},{"name":"Granite City Food & Brewery","phone":"7012933000","address":"1636 42nd St S","lat":46.85593953485392,"lng":-96.85013115406036,"neighborhood":"West Acres","city_fetched":"Fargo,US","state":"ND","country":"United States","canonicalUrl":"https://foursquare.com/v/granite-city-food--brewery/4b8d938cf964a520060233e3","categoryId":"50327c8591d4c4b30a586d5d","category":"Brewery","checkinsCount":7170,"usersCount":3385,"tipCount":59,"visitsCount":8640,"url":"http://www.gcfb.com","tier":2,"message":"Moderate","currency":"$","rating":8.2},{"name":"Drekker Brewing Company","phone":"7015406808","twitter":"drekkerbrewing","address":"630 1st Ave N Ste 6","lat":46.87681221119013,"lng":-96.78922891616821,"neighborhood":"Downtown Fargo","city_fetched":"Fargo,US","state":"ND","country":"United States","canonicalUrl":"https://foursquare.com/drekkerbrewing","categoryId":"50327c8591d4c4b30a586d5d","category":"Brewery","checkinsCount":474,"usersCount":256,"tipCount":8,"visitsCount":569,"url":"http://www.drekkerbrewing.com","tier":2,"message":"Moderate","currency":"$","rating":8.2},{"name":"Tailgators","phone":"7012932091","address":"1322 Main Ave","lat":46.87455792382961,"lng":-96.79886705401918,"neighborhood":"Jefferson","city_fetched":"Fargo,US","state":"ND","country":"United States","canonicalUrl":"https://foursquare.com/v/tailgators/4b86419bf964a520118431e3","categoryId":"4bf58dd8d48988d11d941735","category":"Sports Bar","checkinsCount":3142,"usersCount":627,"tipCount":17,"visitsCount":3522,"url":"http://www.tailgatorsfargond.com","tier":"","message":"","currency":"","rating":8.1},{"name":"Chub's Pub and Package Place","phone":"7012358425","twitter":"chubspub","address":"421 University Dr N","lat":46.881242,"lng":-96.79782399999999,"neighborhood":"Downtown Fargo","city_fetched":"Fargo,US","state":"ND","country":"United States","canonicalUrl":"https://foursquare.com/v/chubs-pub-and-package-place/4b77a906f964a520eea52ee3","categoryId":"4bf58dd8d48988d116941735","category":"Bar","checkinsCount":1662,"usersCount":566,"tipCount":9,"visitsCount":1797,"url":"http://www.chubspub.com","tier":"","message":"","currency":"","rating":8.1},{"name":"Franks Lounge","address":"2640 52nd Ave S","lat":46.802864129163424,"lng":-96.82141449907603,"city_fetched":"Fargo,US","state":"ND","country":"United States","canonicalUrl":"https://foursquare.com/v/franks-lounge/552ace6b498e4a1cb5d608a2","categoryId":"4bf58dd8d48988d116941735","category":"Bar","checkinsCount":454,"usersCount":205,"tipCount":0,"visitsCount":801,"tier":"","message":"","currency":"","rating":8},{"name":"The Winery","phone":"7012379463","address":"1404 33rd St S","lat":46.85879848,"lng":-96.8318908,"city_fetched":"Fargo,US","state":"ND","country":"United States","canonicalUrl":"https://foursquare.com/v/the-winery/4b89d007f964a520284e32e3","categoryId":"4bf58dd8d48988d123941735","category":"Wine Bar","checkinsCount":559,"usersCount":141,"tipCount":5,"visitsCount":559,"url":"http://www.thewineryfargo.com","tier":"","message":"","currency":"","rating":7.9},{"name":"Dempsey's Public House","phone":"7012355913","address":"226 Broadway N","lat":46.87882899635586,"lng":-96.78775370121001,"neighborhood":"Downtown Fargo","city_fetched":"Fargo,US","state":"ND","country":"United States","canonicalUrl":"https://foursquare.com/v/dempseys-public-house/4b121356f964a520d48823e3","categoryId":"4bf58dd8d48988d116941735","category":"Bar","checkinsCount":9942,"usersCount":1909,"tipCount":37,"visitsCount":10348,"url":"http://www.dempseyspublichouse.com","tier":1,"message":"Cheap","currency":"$","rating":7.9},{"name":"Duffy's","phone":"7012350445","address":"16 12th St S","lat":46.87431312587057,"lng":-96.79712802171707,"neighborhood":"Downtown Fargo","city_fetched":"Fargo,US","state":"ND","country":"United States","canonicalUrl":"https://foursquare.com/v/duffys/4b837b35f964a520840731e3","categoryId":"4bf58dd8d48988d116941735","category":"Bar","checkinsCount":2300,"usersCount":512,"tipCount":19,"visitsCount":2619,"tier":1,"message":"Cheap","currency":"$","rating":7.9},{"name":"Three Lyons Pub","phone":"7012775966","address":"675 13th Ave E","lat":46.861724254025134,"lng":-96.88828825950623,"city_fetched":"Fargo,US","state":"ND","country":"United States","canonicalUrl":"https://foursquare.com/v/three-lyons-pub/4b52730df964a520db7d27e3","categoryId":"4bf58dd8d48988d11b941735","category":"Pub","checkinsCount":1989,"usersCount":844,"tipCount":16,"visitsCount":2488,"url":"http://threelyonspub.com","tier":2,"message":"Moderate","currency":"$","rating":7.8},{"name":"Town Hall","phone":"7012823568","address":"103 Main Ave E","lat":46.87665086510219,"lng":-96.90014362335205,"city_fetched":"Fargo,US","state":"ND","country":"United States","canonicalUrl":"https://foursquare.com/v/town-hall/4b93339ef964a520e73a34e3","categoryId":"4bf58dd8d48988d116941735","category":"Bar","checkinsCount":1347,"usersCount":338,"tipCount":3,"visitsCount":1614,"tier":1,"message":"Cheap","currency":"$","rating":7.5},{"name":"Pickled Parrot","phone":"7013565227","twitter":"pickledparrotnd","address":"505 3rd Ave N","lat":46.879112948211464,"lng":-96.78678749770334,"neighborhood":"Downtown Fargo","city_fetched":"Fargo,US","state":"ND","country":"United States","canonicalUrl":"https://foursquare.com/v/pickled-parrot/4db61b52be4d289345446720","categoryId":"4bf58dd8d48988d116941735","category":"Bar","checkinsCount":2965,"usersCount":1079,"tipCount":12,"visitsCount":3248,"url":"http://www.thepickledparrotbar.com","tier":2,"message":"Moderate","currency":"$","rating":7.4},{"name":"Level 2 Bar at The Radisson","address":"201 5th St N","lat":46.878137,"lng":-96.786093,"neighborhood":"Downtown Fargo","city_fetched":"Fargo,US","state":"ND","country":"United States","canonicalUrl":"https://foursquare.com/v/level-2-bar-at-the-radisson/51a02a29498e6b546cf354f3","categoryId":"4bf58dd8d48988d121941735","category":"Lounge","checkinsCount":140,"usersCount":72,"tipCount":6,"visitsCount":143,"tier":"","message":"","currency":"","rating":7.4},{"name":"The Bison Turf","phone":"7012359118","address":"1211 University Dr N","lat":46.890885995849715,"lng":-96.79761336054061,"neighborhood":"Roosevelt","city_fetched":"Fargo,US","state":"ND","country":"United States","canonicalUrl":"https://foursquare.com/v/the-bison-turf/4b1db74ef964a5204b1424e3","categoryId":"4bf58dd8d48988d118941735","category":"Dive Bar","checkinsCount":6677,"usersCount":1270,"tipCount":26,"visitsCount":7027,"url":"http://thebisonturfnd.com","tier":2,"message":"Moderate","currency":"$","rating":7.3},{"name":"Dave's Southside Tap","phone":"2184771010","address":"803 Belsly Blvd","lat":46.839099526405334,"lng":-96.766973,"city_fetched":"Fargo,US","state":"MN","country":"United States","canonicalUrl":"https://foursquare.com/v/daves-southside-tap/4bbba465e45295213af654a4","categoryId":"4bf58dd8d48988d11b941735","category":"Pub","checkinsCount":1296,"usersCount":583,"tipCount":9,"visitsCount":1438,"url":"http://www.southsidetap.com","tier":1,"message":"Cheap","currency":"$","rating":7.3},{"name":"Bismarck Tavern","phone":"7012356607","address":"522 Broadway N","lat":46.88179805040764,"lng":-96.7879579248207,"neighborhood":"Downtown Fargo","city_fetched":"Fargo,US","state":"ND","country":"United States","canonicalUrl":"https://foursquare.com/v/bismarck-tavern/4b837ea6f964a520e50731e3","categoryId":"4bf58dd8d48988d118941735","category":"Dive Bar","checkinsCount":3406,"usersCount":742,"tipCount":15,"visitsCount":3727,"tier":"","message":"","currency":"","rating":7.2},{"name":"Nestor Tavern & Offsale","phone":"7012322485","address":"1001 Np Ave N","lat":46.87625483173862,"lng":-96.79481863975525,"neighborhood":"Downtown Fargo","city_fetched":"Fargo,US","state":"ND","country":"United States","canonicalUrl":"https://foursquare.com/v/nestor-tavern--offsale/4bb2d85eeb3e95213b94ca0a","categoryId":"4bf58dd8d48988d116941735","category":"Bar","checkinsCount":585,"usersCount":235,"tipCount":1,"visitsCount":606,"tier":"","message":"","currency":"","rating":7.2},{"name":"O'Leary's Pub & Grill","phone":"2182871957","twitter":"olearyspub","address":"808 30th Ave S","lat":46.84556229945872,"lng":-96.7664668832792,"city_fetched":"Fargo,US","state":"MN","country":"United States","canonicalUrl":"https://foursquare.com/v/olearys-pub--grill/4c263c9ec9bbef3b779fafac","categoryId":"4bf58dd8d48988d116941735","category":"Bar","checkinsCount":2224,"usersCount":842,"tipCount":14,"visitsCount":2385,"url":"http://www.olearysmoorhead.com","tier":"","message":"","currency":"","rating":7.1},{"name":"The Bowler Bar","phone":"7012930200","address":"2630 University Dr S","lat":46.8392158079215,"lng":-96.79824408388481,"city_fetched":"Fargo,US","state":"ND","country":"United States","canonicalUrl":"https://foursquare.com/v/the-bowler-bar/4be24d061dd22d7fbdee93bd","categoryId":"4bf58dd8d48988d116941735","category":"Bar","checkinsCount":2016,"usersCount":838,"tipCount":14,"visitsCount":2134,"url":"http://thebowler.net","tier":1,"message":"Cheap","currency":"$","rating":7},{"name":"Red Hen Taphouse","twitter":"redhentap","address":"1710 Center Ave W","lat":46.87524761894184,"lng":-96.72449000623027,"city_fetched":"Fargo,US","state":"MN","country":"United States","canonicalUrl":"https://foursquare.com/v/red-hen-taphouse/528abc21498e11a8998907f7","categoryId":"4bf58dd8d48988d116941735","category":"Bar","checkinsCount":373,"usersCount":175,"tipCount":1,"visitsCount":445,"url":"http://redhentaphouse.com","tier":"","message":"","currency":"","rating":7},{"name":"Sky Prairie at Hotel Donaldson","phone":"7014781000","address":"101 Broadway N","lat":46.87707623101483,"lng":-96.78738355636597,"neighborhood":"Downtown Fargo","city_fetched":"Fargo,US","state":"ND","country":"United States","canonicalUrl":"https://foursquare.com/v/sky-prairie-at-hotel-donaldson/4da3c0efb1c9370467d301a2","categoryId":"4bf58dd8d48988d11e941735","category":"Cocktail Bar","checkinsCount":427,"usersCount":215,"tipCount":6,"visitsCount":430,"tier":"","message":"","currency":"","rating":6.9},{"name":"Spirits At Holiday Inn","twitter":"fargohi","address":"3803 13th Ave S","lat":46.86259722663589,"lng":-96.84658527374268,"neighborhood":"Village West","city_fetched":"Fargo,US","state":"ND","country":"United States","canonicalUrl":"https://foursquare.com/v/spirits-at-holiday-inn/4c84383351ada1cd0d692d10","categoryId":"4bf58dd8d48988d1d5941735","category":"Hotel Bar","checkinsCount":684,"usersCount":379,"tipCount":6,"visitsCount":691,"tier":"","message":"","currency":"","rating":6.9},{"name":"Woody's Bar","phone":"7012419817","address":"1550 32nd Ave S","lat":46.83213923551039,"lng":-96.80434430805816,"neighborhood":"Southpointe","city_fetched":"Fargo,US","state":"ND","country":"United States","canonicalUrl":"https://foursquare.com/v/woodys-bar/4cd3609672a1a1cdff0a6551","categoryId":"4bf58dd8d48988d116941735","category":"Bar","checkinsCount":2761,"usersCount":787,"tipCount":16,"visitsCount":3182,"tier":2,"message":"Moderate","currency":"$","rating":6.9},{"name":"The Bomb Shelter","phone":"7012375410","twitter":"fgobombshelter","address":"325 10th St N","lat":46.88033287867454,"lng":-96.79354110681028,"neighborhood":"Downtown Fargo","city_fetched":"Fargo,US","state":"ND","country":"United States","canonicalUrl":"https://foursquare.com/v/the-bomb-shelter/4caaafae965c9c7418dccafa","categoryId":"4bf58dd8d48988d116941735","category":"Bar","checkinsCount":2197,"usersCount":689,"tipCount":13,"visitsCount":2341,"url":"http://www.thebombshelterfargo.com","tier":"","message":"","currency":"","rating":6.8},{"name":"Bordertown Bar & Grill","phone":"7012771968","address":"807 Main Ave E","lat":46.87618149190609,"lng":-96.88464045524597,"city_fetched":"Fargo,US","state":"ND","country":"United States","canonicalUrl":"https://foursquare.com/v/bordertown-bar--grill/4bc4dd8eabf49521b1afc593","categoryId":"4bf58dd8d48988d11b941735","category":"Pub","checkinsCount":1083,"usersCount":409,"tipCount":4,"visitsCount":1300,"tier":2,"message":"Moderate","currency":"$","rating":6.7},{"name":"Labby's Grill And Bar","phone":"7014785227","address":"1100 19th Ave N","lat":46.90434394699368,"lng":-96.7960524559021,"city_fetched":"Fargo,US","state":"ND","country":"United States","canonicalUrl":"https://foursquare.com/v/labbys-grill-and-bar/4c1a71ab55e4c9b654c24723","categoryId":"4bf58dd8d48988d116941735","category":"Bar","checkinsCount":2745,"usersCount":934,"tipCount":16,"visitsCount":2873,"url":"http://www.labbys.com","tier":"","message":"","currency":"","rating":6.6},{"name":"Shotgun Sally's","lat":46.85713,"lng":-96.851735,"neighborhood":"West Acres","city_fetched":"Fargo,US","state":"ND","country":"United States","canonicalUrl":"https://foursquare.com/v/shotgun-sallys/52c8cd41498ecccd08b9ad7f","categoryId":"4bf58dd8d48988d116941735","category":"Bar","checkinsCount":732,"usersCount":657,"tipCount":16,"visitsCount":1323,"tier":2,"message":"Moderate","currency":"$","rating":6.4},{"name":"Elks Lodge","phone":"7012935151","address":"3435 Broadway N","lat":46.92200300590814,"lng":-96.78598880767822,"city_fetched":"Fargo,US","state":"ND","country":"United States","canonicalUrl":"https://foursquare.com/v/elks-lodge/4bb44d99f187a593c60d14f8","categoryId":"4bf58dd8d48988d116941735","category":"Bar","checkinsCount":273,"usersCount":147,"tipCount":4,"visitsCount":330,"tier":"","message":"","currency":"","rating":6.4},{"name":"Hennessy's","lat":46.815486222939,"lng":-96.86346148825699,"city_fetched":"Fargo,US","state":"ND","country":"United States","canonicalUrl":"https://foursquare.com/v/hennessys/5320dcfe498e48d205822ebc","categoryId":"4bf58dd8d48988d11b941735","category":"Pub","checkinsCount":281,"usersCount":158,"tipCount":6,"visitsCount":300,"tier":"","message":"","currency":"","rating":6.3},{"name":"Rick's Bar","phone":"7012328356","address":"2721 Main Ave","lat":46.876150946891514,"lng":-96.82188681240828,"city_fetched":"Fargo,US","state":"ND","country":"United States","canonicalUrl":"https://foursquare.com/v/ricks-bar/4b8dfe56f964a5206d1533e3","categoryId":"4bf58dd8d48988d116941735","category":"Bar","checkinsCount":677,"usersCount":357,"tipCount":3,"visitsCount":826,"tier":1,"message":"Cheap","currency":"$","rating":6.3},{"name":"Rooter's","phone":"7012354082","address":"107 Broadway N","lat":46.87713710435828,"lng":-96.78762397738342,"neighborhood":"Downtown Fargo","city_fetched":"Fargo,US","state":"ND","country":"United States","canonicalUrl":"https://foursquare.com/v/rooters/4b837819f964a520390731e3","categoryId":"4bf58dd8d48988d120941735","category":"Karaoke Bar","checkinsCount":5124,"usersCount":1723,"tipCount":15,"visitsCount":5215,"url":"http://rotorooter.com","tier":1,"message":"Cheap","currency":"$","rating":6.2},{"name":"The Empire","phone":"7012354705","address":"424 Broadway N","lat":46.88089703914998,"lng":-96.78786635398865,"neighborhood":"Downtown Fargo","city_fetched":"Fargo,US","state":"ND","country":"United States","canonicalUrl":"https://foursquare.com/v/the-empire/4b837d9df964a520c20731e3","categoryId":"4bf58dd8d48988d116941735","category":"Bar","checkinsCount":3551,"usersCount":980,"tipCount":22,"visitsCount":3896,"tier":1,"message":"Cheap","currency":"$","rating":6.2},{"name":"JT Cigarro/Skky Bar","phone":"7012770711","address":"4554 7th Ave S","lat":46.868671321358946,"lng":-96.86255396862548,"neighborhood":"Village West","city_fetched":"Fargo,US","state":"ND","country":"United States","canonicalUrl":"https://foursquare.com/v/jt-cigarroskky-bar/4b52acb4f964a520af8527e3","categoryId":"4bf58dd8d48988d11f941735","category":"Nightclub","checkinsCount":1638,"usersCount":580,"tipCount":6,"visitsCount":1685,"tier":"","message":"","currency":"","rating":6.1},{"name":"O'kelly's Tastes & Toddies","phone":"7012771880","address":"3800 Main Ave","lat":46.87546275624288,"lng":-96.84273362159729,"neighborhood":"Village West","city_fetched":"Fargo,US","state":"ND","country":"United States","canonicalUrl":"https://foursquare.com/v/okellys-tastes--toddies/4b9d7ab7f964a5206caf36e3","categoryId":"4bf58dd8d48988d1d5941735","category":"Hotel Bar","checkinsCount":1475,"usersCount":648,"tipCount":10,"visitsCount":1763,"url":"http://www.okellys.net","tier":"","message":"","currency":"","rating":6.1},{"name":"Kilstone Brewing","address":"764 34th St N Unit R","lat":46.88422500512017,"lng":-96.83323434092732,"city_fetched":"Fargo,US","state":"ND","country":"United States","canonicalUrl":"https://foursquare.com/v/kilstone-brewing/554194a9498e03a0d27bd520","categoryId":"50327c8591d4c4b30a586d5d","category":"Brewery","checkinsCount":72,"usersCount":112,"tipCount":2,"visitsCount":175,"tier":"","message":"","currency":"","rating":6.1},{"name":"Peppers","phone":"7012322366","twitter":"peppers_sports_","address":"2510 University Dr S","lat":46.842004211397864,"lng":-96.79830011008137,"city_fetched":"Fargo,US","state":"ND","country":"United States","canonicalUrl":"https://foursquare.com/v/peppers/4cba319d0180721ea6d99861","categoryId":"4bf58dd8d48988d11d941735","category":"Sports Bar","checkinsCount":695,"usersCount":433,"tipCount":13,"visitsCount":823,"url":"http://www.peppersfargo.com","tier":"","message":"","currency":"","rating":6.1},{"name":"Old Broadway","phone":"7012376161","twitter":"oldbroadway","address":"22 Broadway N","lat":46.8758249937611,"lng":-96.78806721126817,"neighborhood":"Downtown Fargo","city_fetched":"Fargo,US","state":"ND","country":"United States","canonicalUrl":"https://foursquare.com/v/old-broadway/4b1209d8f964a5207b8823e3","categoryId":"4bf58dd8d48988d11f941735","category":"Nightclub","checkinsCount":7655,"usersCount":2111,"tipCount":42,"visitsCount":7859,"url":"http://theoldbroadway.com","tier":1,"message":"Cheap","currency":"$","rating":6},{"name":"The Northern","phone":"7012375410","twitter":"northernfargo","address":"325 10th St N","lat":46.880285,"lng":-96.7935848236084,"neighborhood":"Downtown Fargo","city_fetched":"Fargo,US","state":"ND","country":"United States","canonicalUrl":"https://foursquare.com/v/the-northern/4b8372daf964a520950631e3","categoryId":"4bf58dd8d48988d1d6941735","category":"Strip Club","checkinsCount":1958,"usersCount":623,"tipCount":14,"visitsCount":2037,"url":"http://www.clubnorthern.com","tier":"","message":"","currency":"","rating":6},{"name":"Fort Noks Bar of Gold","phone":"7014789191","address":"52 Broadway N","lat":46.87598129,"lng":-96.78795,"neighborhood":"Downtown Fargo","city_fetched":"Fargo,US","state":"ND","country":"United States","canonicalUrl":"https://foursquare.com/v/fort-noks-bar-of-gold/4b8382a2f964a520540831e3","categoryId":"4bf58dd8d48988d116941735","category":"Bar","checkinsCount":3531,"usersCount":1092,"tipCount":13,"visitsCount":3624,"tier":"","message":"","currency":"","rating":5.9},{"name":"Windbreak Saloon","phone":"7012825507","address":"3150 39th St S","lat":46.83323867830899,"lng":-96.845072742039,"city_fetched":"Fargo,US","state":"ND","country":"United States","canonicalUrl":"https://foursquare.com/v/windbreak-saloon/4bb0c551f964a520645b3ce3","categoryId":"4bf58dd8d48988d116941735","category":"Bar","checkinsCount":2512,"usersCount":1063,"tipCount":7,"visitsCount":2685,"url":"http://www.thewindbreak.com","tier":1,"message":"Cheap","currency":"$","rating":5.8},{"name":"Bulldog Tap","phone":"7013563827","address":"4265 45th St S","lat":46.81561867482631,"lng":-96.86341008346501,"city_fetched":"Fargo,US","state":"ND","country":"United States","canonicalUrl":"https://foursquare.com/v/bulldog-tap/4cddd33241ed224bd0f0d43c","categoryId":"4bf58dd8d48988d116941735","category":"Bar","checkinsCount":4065,"usersCount":1278,"tipCount":22,"visitsCount":4773,"url":"http://www.bulldogtap.com","tier":2,"message":"Moderate","currency":"$","rating":5.7},{"name":"The Box","phone":"7014927489","address":"1025 38th St S","lat":46.8651047,"lng":-96.8451476097107,"neighborhood":"Village West","city_fetched":"Fargo,US","state":"ND","country":"United States","canonicalUrl":"https://foursquare.com/v/the-box/4cc4b8c142d1b60caf671f13","categoryId":"4bf58dd8d48988d1d5941735","category":"Hotel Bar","checkinsCount":804,"usersCount":373,"tipCount":3,"visitsCount":831,"tier":"","message":"","currency":"","rating":5.7},{"name":"OB Sports Zone","phone":"7018939292","twitter":"oldbroadway","address":"612 Np Ave N","lat":46.87598002577479,"lng":-96.78851093283015,"neighborhood":"Downtown Fargo","city_fetched":"Fargo,US","state":"ND","country":"United States","canonicalUrl":"https://foursquare.com/v/ob-sports-zone/4bda92065f34b71366f93579","categoryId":"4bf58dd8d48988d11d941735","category":"Sports Bar","checkinsCount":2374,"usersCount":826,"tipCount":18,"visitsCount":2403,"url":"http://www.theoldbroadway.com","tier":2,"message":"Moderate","currency":"$","rating":5.5},{"name":"Sports Bar","phone":"7012932085","address":"619 Np Ave N","lat":46.87611593,"lng":-96.78881049156189,"neighborhood":"Downtown Fargo","city_fetched":"Fargo,US","state":"ND","country":"United States","canonicalUrl":"https://foursquare.com/v/sports-bar/4b8385b5f964a5209b0831e3","categoryId":"4bf58dd8d48988d11d941735","category":"Sports Bar","checkinsCount":3583,"usersCount":1126,"tipCount":12,"visitsCount":3607,"tier":"","message":"","currency":"","rating":5.4},{"name":"Borrowed Bucks Roadhouse","phone":"7012321535","address":"1201 Westrac Dr S","lat":46.8625177,"lng":-96.830587,"city_fetched":"Fargo,US","state":"ND","country":"United States","canonicalUrl":"https://foursquare.com/v/borrowed-bucks-roadhouse/4bf8b29f4a67c9281ceb25cf","categoryId":"4bf58dd8d48988d116941735","category":"Bar","checkinsCount":4128,"usersCount":1220,"tipCount":13,"visitsCount":4515,"url":"http://bucksfargo.com","tier":"","message":"","currency":"","rating":5.3},{"name":"VFW","phone":"7012358243","address":"202 Broadway N","lat":46.87804062572444,"lng":-96.78830623626709,"neighborhood":"Downtown Fargo","city_fetched":"Fargo,US","state":"ND","country":"United States","canonicalUrl":"https://foursquare.com/v/vfw/4b862b5bf964a520b68131e3","categoryId":"4bf58dd8d48988d116941735","category":"Bar","checkinsCount":1288,"usersCount":481,"tipCount":8,"visitsCount":1311,"tier":1,"message":"Cheap","currency":"$","rating":4.9}]