[{"name":"Signature Bar & Grill","phone":"5073311657","address":"201 Central Ave N","lat":44.2925293,"lng":-93.26828801666667,"city_fetched":"Faribault","state":"MN","country":"United States","canonicalUrl":"https://foursquare.com/v/signature-bar--grill/4c4bc9665609c9b608159791","category":"American Restaurant","checkinsCount":678,"usersCount":159,"tipCount":10,"visitsCount":745,"url":"http://www.sigbarandgrill.com","tier":"","message":"","currency":"","rating":7.3},{"name":"Grampa Al's","address":"28 3rd St NW","lat":44.293776935781935,"lng":-93.2697404195295,"city_fetched":"Faribault","state":"MN","country":"United States","canonicalUrl":"https://foursquare.com/v/grampa-als/4b639eb4f964a52085872ae3","category":"Rock Club","checkinsCount":317,"usersCount":136,"tipCount":1,"visitsCount":364,"url":"http://www.grampaals.com","tier":"","message":"","currency":"","rating":6.4},{"name":"Joe's Sports Cafe","phone":"5073335378","address":"1510 7th St NW","lat":44.298184,"lng":-93.29084143,"city_fetched":"Faribault","state":"MN","country":"United States","canonicalUrl":"https://foursquare.com/v/joes-sports-cafe/4b687808f964a520857a2be3","category":"Sports Bar","checkinsCount":399,"usersCount":297,"tipCount":7,"visitsCount":545,"tier":"","message":"","currency":"","rating":6.2},{"name":"F-Town Brewing Company","phone":"5073317677","twitter":"ftownbeer","address":"22 4th St NE","lat":44.294860096614165,"lng":-93.26755453474279,"city_fetched":"Faribault","state":"MN","country":"United States","canonicalUrl":"https://foursquare.com/v/ftown-brewing-company/559fd33d498ecf68f1e88de9","category":"Brewery","checkinsCount":108,"usersCount":99,"tipCount":1,"visitsCount":154,"tier":"","message":"","currency":"","rating":6}]