[{"name":"Farmington Brewing Company","phone":"2489579543","address":"33336 Grand River Ave","lat":42.464963460305725,"lng":-83.37613480326576,"neighborhood":"Downtown Farmington","city_fetched":"Farmington,US","state":"MI","country":"United States","canonicalUrl":"https://foursquare.com/v/farmington-brewing-company/54660d84498eef23bcc63f4b","categoryId":"50327c8591d4c4b30a586d5d","category":"Brewery","checkinsCount":344,"usersCount":191,"tipCount":8,"visitsCount":382,"url":"http://fbcbrewing.com","tier":"","message":"","currency":"","rating":8.6},{"name":"Twin Peaks Livonia","phone":"9729413150","twitter":"twinpeakslodge","address":"20120 Haggerty Rd","lat":42.434903235078856,"lng":-83.43340342263517,"city_fetched":"Farmington,US","state":"MI","country":"United States","canonicalUrl":"https://foursquare.com/v/twin-peaks-livonia/570335b0cd10aec41f26b9f6","categoryId":"4bf58dd8d48988d11d941735","category":"Sports Bar","checkinsCount":123,"usersCount":183,"tipCount":0,"visitsCount":315,"tier":"","message":"","currency":"","rating":8.2},{"name":"Coach's Corner Bar & Grill","phone":"2486151330","twitter":"coachscornerliv","address":"19170 Farmington Rd","lat":42.426972812246156,"lng":-83.3746325969696,"city_fetched":"Farmington,US","state":"MI","country":"United States","canonicalUrl":"https://foursquare.com/v/coachs-corner-bar--grill/4bd78f8288559521bfe987a7","categoryId":"4bf58dd8d48988d11d941735","category":"Sports Bar","checkinsCount":1927,"usersCount":730,"tipCount":15,"visitsCount":2283,"url":"http://coachscornerlivonia.com","tier":2,"message":"Moderate","currency":"$","rating":7.8},{"name":"Library Sports Pub & Grill","phone":"2483499100","address":"42100 Grand River Ave","lat":42.478676664464025,"lng":-83.4638002758649,"city_fetched":"Farmington,US","state":"MI","country":"United States","canonicalUrl":"https://foursquare.com/v/library-sports-pub--grill/45f94ffef964a5204a441fe3","categoryId":"4bf58dd8d48988d11d941735","category":"Sports Bar","checkinsCount":5267,"usersCount":2086,"tipCount":35,"visitsCount":5652,"url":"http://www.librarypub.com","tier":1,"message":"Cheap","currency":"$","rating":7.7},{"name":"Bottom of the 5th","phone":"2489874245","address":"30859 W 10 Mile Rd","lat":42.46998429734362,"lng":-83.3540521919336,"neighborhood":"Farmington","city_fetched":"Farmington,US","state":"MI","country":"United States","canonicalUrl":"https://foursquare.com/v/bottom-of-the-5th/4ec08c97b8f7963bce0f9202","categoryId":"4bf58dd8d48988d116941735","category":"Bar","checkinsCount":913,"usersCount":303,"tipCount":8,"visitsCount":1031,"tier":"","message":"","currency":"","rating":7.5},{"name":"Ascension Brewing Company","phone":"2483082093","twitter":"ascensionbrewco","address":"42000 Grand River Ave","lat":42.47823410668852,"lng":-83.46089306195965,"city_fetched":"Farmington,US","state":"MI","country":"United States","canonicalUrl":"https://foursquare.com/v/ascension-brewing-company/558ee431498e4f0899bf2c25","categoryId":"50327c8591d4c4b30a586d5d","category":"Brewery","checkinsCount":456,"usersCount":416,"tipCount":7,"visitsCount":795,"url":"http://ascension.beer","tier":"","message":"","currency":"","rating":7.4},{"name":"Craft Breww City","address":"27843 Orchard Lake Rd","lat":42.500179023427776,"lng":-83.35958921368682,"neighborhood":"Farmington","city_fetched":"Farmington,US","state":"MI","country":"United States","canonicalUrl":"https://foursquare.com/v/craft-breww-city/548614c3498eec64952e353f","categoryId":"4bf58dd8d48988d117941735","category":"Beer Garden","checkinsCount":578,"usersCount":461,"tipCount":11,"visitsCount":821,"tier":"","message":"","currency":"","rating":7.3},{"name":"John Cowley & Sons Irish Pub and Restaurant","phone":"2484745941","twitter":"johncowleys","address":"33338 Grand River Ave","lat":42.4649544265589,"lng":-83.37626338005066,"neighborhood":"Downtown Farmington","city_fetched":"Farmington,US","state":"MI","country":"United States","canonicalUrl":"https://foursquare.com/v/john-cowley--sons-irish-pub-and-restaurant/4c142a977f7f2d7ff37ce068","categoryId":"4bf58dd8d48988d11b941735","category":"Pub","checkinsCount":2537,"usersCount":1010,"tipCount":24,"visitsCount":2600,"url":"http://www.johncowleys.com","tier":2,"message":"Moderate","currency":"$","rating":7.3},{"name":"Grand Tavern","phone":"2484765700","twitter":"grandtavern","address":"35450 Grand River Ave","lat":42.47006651951453,"lng":-83.396890311672,"neighborhood":"Farmington","city_fetched":"Farmington,US","state":"MI","country":"United States","canonicalUrl":"https://foursquare.com/v/grand-tavern/4b8e9419f964a520dc2933e3","categoryId":"4bf58dd8d48988d11d941735","category":"Sports Bar","checkinsCount":3281,"usersCount":1002,"tipCount":27,"visitsCount":3711,"url":"http://www.grand-tavern.com","tier":2,"message":"Moderate","currency":"$","rating":7},{"name":"Duo Restaurant & Lounge","phone":"2489969929","twitter":"duo_lounge","address":"29555 Northwestern Hwy #304","lat":42.50491414865418,"lng":-83.31645011901855,"city_fetched":"Farmington,US","state":"MI","country":"United States","canonicalUrl":"https://foursquare.com/v/duo-restaurant--lounge/4e6aa3b73151899b9eae7e21","categoryId":"4bf58dd8d48988d121941735","category":"Lounge","checkinsCount":934,"usersCount":548,"tipCount":15,"visitsCount":1044,"tier":"","message":"","currency":"","rating":6.9},{"name":"Tin Cup","phone":"2484260967","address":"20500 Newburgh Rd","lat":42.437855304611084,"lng":-83.41303519808777,"city_fetched":"Farmington,US","state":"MI","country":"United States","canonicalUrl":"https://foursquare.com/v/tin-cup/51183704e4b063144939ee8b","categoryId":"4bf58dd8d48988d116941735","category":"Bar","checkinsCount":386,"usersCount":118,"tipCount":3,"visitsCount":463,"tier":"","message":"","currency":"","rating":6.7},{"name":"George Murphy's","phone":"2484731300","address":"36000 7 Mile Rd","lat":42.42717803509864,"lng":-83.39818893700948,"city_fetched":"Farmington,US","state":"MI","country":"United States","canonicalUrl":"https://foursquare.com/v/george-murphys/4ba122bef964a520499b37e3","categoryId":"4bf58dd8d48988d116941735","category":"Bar","checkinsCount":1363,"usersCount":483,"tipCount":8,"visitsCount":1594,"tier":1,"message":"Cheap","currency":"$","rating":6.5},{"name":"Doc's Sports Retreat","phone":"7345428162","address":"19265 Victor Pkwy","lat":42.42751999029498,"lng":-83.421502329975,"city_fetched":"Farmington,US","state":"MI","country":"United States","canonicalUrl":"https://foursquare.com/v/docs-sports-retreat/4b16ee98f964a520aabf23e3","categoryId":"4bf58dd8d48988d116941735","category":"Bar","checkinsCount":8584,"usersCount":2818,"tipCount":59,"visitsCount":9384,"url":"http://www.docssportsretreat.com","tier":2,"message":"Moderate","currency":"$","rating":6.4},{"name":"Page's Food & Spirits","phone":"2484770099","twitter":"pagestoday","address":"23621 Farmington Rd","lat":42.464263791649365,"lng":-83.37639565817645,"neighborhood":"Downtown Farmington","city_fetched":"Farmington,US","state":"MI","country":"United States","canonicalUrl":"https://foursquare.com/v/pages-food--spirits/4a9487e2f964a520e82120e3","categoryId":"4bf58dd8d48988d11b941735","category":"Pub","checkinsCount":1232,"usersCount":281,"tipCount":6,"visitsCount":1339,"url":"http://www.pagesfoodandspirits.com","tier":"","message":"","currency":"","rating":6.4},{"name":"Mulligan's Pub & Grub","phone":"2484710777","address":"27406 W 8 Mile Rd","lat":42.442318883333336,"lng":-83.31721526666666,"neighborhood":"Farmington","city_fetched":"Farmington,US","state":"MI","country":"United States","canonicalUrl":"https://foursquare.com/v/mulligans-pub--grub/41326e00f964a5209c0f1fe3","categoryId":"4bf58dd8d48988d116941735","category":"Bar","checkinsCount":708,"usersCount":144,"tipCount":7,"visitsCount":730,"tier":"","message":"","currency":"","rating":6.3},{"name":"Sands Lounge","phone":"2487770511","address":"28001 7 Mile Rd","lat":42.42709693,"lng":-83.32286839,"city_fetched":"Farmington,US","state":"MI","country":"United States","canonicalUrl":"https://foursquare.com/v/sands-lounge/41326e00f964a52037101fe3","categoryId":"4bf58dd8d48988d116941735","category":"Bar","checkinsCount":326,"usersCount":117,"tipCount":5,"visitsCount":354,"tier":"","message":"","currency":"","rating":6.2},{"name":"Winter Garden Tavern","phone":"2484747159","address":"33320 7 Mile Rd","lat":42.42636349042432,"lng":-83.3744653066625,"city_fetched":"Farmington,US","state":"MI","country":"United States","canonicalUrl":"https://foursquare.com/v/winter-garden-tavern/41326e00f964a520f3101fe3","categoryId":"4bf58dd8d48988d116941735","category":"Bar","checkinsCount":1131,"usersCount":653,"tipCount":18,"visitsCount":1256,"tier":"","message":"","currency":"","rating":6.1},{"name":"O'Toole's","phone":"2484266454","address":"32350 W 8 Mile Rd","lat":42.441181,"lng":-83.36538248333333,"neighborhood":"Farmington","city_fetched":"Farmington,US","state":"MI","country":"United States","canonicalUrl":"https://foursquare.com/v/otooles/4ba17128f964a52074b737e3","categoryId":"4bf58dd8d48988d116941735","category":"Bar","checkinsCount":760,"usersCount":227,"tipCount":7,"visitsCount":792,"tier":"","message":"","currency":"","rating":6.1},{"name":"Blue Moose Tavern","phone":"2484743533","twitter":"thebluemoosetav","address":"31650 W 8 Mile Rd","lat":42.441289867168486,"lng":-83.35893690327237,"neighborhood":"Farmington","city_fetched":"Farmington,US","state":"MI","country":"United States","canonicalUrl":"https://foursquare.com/v/blue-moose-tavern/50930c99e4b0abc855042136","categoryId":"4bf58dd8d48988d116941735","category":"Bar","checkinsCount":601,"usersCount":190,"tipCount":3,"visitsCount":725,"url":"http://www.bluemoosetavern.net","tier":"","message":"","currency":"","rating":5.9},{"name":"Scores Bar and Grill","phone":"2484770123","address":"24365 Halsted Rd","lat":42.470564546554264,"lng":-83.416335636244,"neighborhood":"Farmington","city_fetched":"Farmington,US","state":"MI","country":"United States","canonicalUrl":"https://foursquare.com/v/scores-bar-and-grill/4cb4be2c21a176b074b2f422","categoryId":"4bf58dd8d48988d116941735","category":"Bar","checkinsCount":1423,"usersCount":517,"tipCount":15,"visitsCount":1705,"url":"http://scoresbar.net","tier":"","message":"","currency":"","rating":5.8}]