[{"name":"Mac's Speed Shop","phone":"9103542590","address":"482 N McPherson Church Rd","lat":35.07426241185169,"lng":-78.95264625549316,"city_fetched":"Fayetteville","state":"NC","country":"United States","canonicalUrl":"https://foursquare.com/v/macs-speed-shop/503cf4bae4b00cfc7505ad5e","category":"BBQ Joint","checkinsCount":1861,"usersCount":835,"tipCount":29,"visitsCount":2382,"url":"http://www.macspeedshop.com","tier":2,"message":"Moderate","currency":"$","rating":8.8},{"name":"Bubba's 33","phone":"9102232601","twitter":"bubbas_33","address":"500 Westwood Shopping Ctr","lat":35.06744341134971,"lng":-78.95391793863924,"city_fetched":"Fayetteville","state":"NC","country":"United States","canonicalUrl":"https://foursquare.com/v/bubbas-33/5126aa27e4b003fd00b559f6","category":"Burger Joint","checkinsCount":1364,"usersCount":1221,"tipCount":55,"visitsCount":2765,"url":"http://www.bubbas33.com","tier":2,"message":"Moderate","currency":"$","rating":8.6},{"name":"Rudinos Sports & Spirits","phone":"9104235555","address":"3350 S. Peak Dr","lat":34.9797816095812,"lng":-78.97461891174316,"city_fetched":"Fayetteville","state":"NC","country":"United States","canonicalUrl":"https://foursquare.com/v/rudinos-sports--spirits/4ef2668fbe7be23b0e80e3c3","category":"Pizza Place","checkinsCount":677,"usersCount":313,"tipCount":14,"visitsCount":739,"url":"http://rudinos.com","tier":2,"message":"Moderate","currency":"$","rating":8.3},{"name":"The Wine Cafe","phone":"9103392917","address":"3350 Footbridge Lane #120","lat":34.9807209842769,"lng":-78.97298189827181,"city_fetched":"Fayetteville","state":"NC","country":"United States","canonicalUrl":"https://foursquare.com/v/the-wine-cafe/4d5737caa747b60c01eb322b","category":"Wine Bar","checkinsCount":301,"usersCount":158,"tipCount":4,"visitsCount":301,"url":"http://www.thewinecafeus.com","tier":"","message":"","currency":"","rating":8.1},{"name":"Mash House Chophouse & Brewery","phone":"9108679223","twitter":"mashhousenc","address":"4150 Sycamore Dairy Rd","lat":35.07054769830491,"lng":-78.95512681880241,"city_fetched":"Fayetteville","state":"NC","country":"United States","canonicalUrl":"https://foursquare.com/v/mash-house-chophouse--brewery/4b624305f964a520253f2ae3","category":"Brewery","checkinsCount":2413,"usersCount":1786,"tipCount":50,"visitsCount":2954,"url":"http://www.themashhouse.com","tier":2,"message":"Moderate","currency":"$","rating":7.9},{"name":"Carolina Ale House","phone":"9108601114","address":"161 Glensford Dr.","lat":35.067151390824804,"lng":-78.96010315573872,"city_fetched":"Fayetteville","state":"NC","country":"United States","canonicalUrl":"https://foursquare.com/v/carolina-ale-house/4ba17775f964a52072b937e3","category":"Brewery","checkinsCount":7047,"usersCount":2565,"tipCount":85,"visitsCount":8134,"url":"http://www.carolinaalehouse.com","tier":2,"message":"Moderate","currency":"$","rating":7.7},{"name":"The Rock Shop","phone":"9103217625","address":"128 S King St","lat":35.04743871611166,"lng":-78.86434816570386,"neighborhood":"Downtown Fayetteville","city_fetched":"Fayetteville","state":"NC","country":"United States","canonicalUrl":"https://foursquare.com/v/the-rock-shop/4bb7574c6edc76b0a508321c","category":"Music Venue","checkinsCount":598,"usersCount":386,"tipCount":6,"visitsCount":636,"url":"http://therockshoplive.weebly.com","tier":"","message":"","currency":"","rating":7.7},{"name":"The Wine Caf√©","phone":"9107732766","address":"108 Hay St","lat":35.05280469116416,"lng":-78.87870995476902,"neighborhood":"Downtown Fayetteville","city_fetched":"Fayetteville","state":"NC","country":"United States","canonicalUrl":"https://foursquare.com/v/the-wine-caf%C3%A9/4ebef6ed9adfe2b7b5cc0ea1","category":"Wine Bar","checkinsCount":335,"usersCount":164,"tipCount":5,"visitsCount":341,"url":"http://thewinecafeus.com","tier":"","message":"","currency":"","rating":7.7},{"name":"Jack's Tap","phone":"9104855600","address":"2920 Fort Bragg Rd","lat":35.07242705,"lng":-78.92562632,"city_fetched":"Fayetteville","state":"NC","country":"United States","canonicalUrl":"https://foursquare.com/v/jacks-tap/4d8d4392d4ec8cfac2ec5589","category":"Dive Bar","checkinsCount":442,"usersCount":138,"tipCount":3,"visitsCount":491,"tier":"","message":"","currency":"","rating":7.6},{"name":"North Exchange/Class Six","address":"Butner Rd","lat":35.15824244567966,"lng":-78.97430722896998,"city_fetched":"Fayetteville","state":"NC","country":"United States","canonicalUrl":"https://foursquare.com/v/north-exchangeclass-six/4bda1041c79cc928684c7de9","category":"Shopping Mall","checkinsCount":1120,"usersCount":546,"tipCount":8,"visitsCount":1593,"tier":"","message":"","currency":"","rating":7.5},{"name":"Blackstone Smokehouse & Pub","lat":35.045329,"lng":-78.924685,"city_fetched":"Fayetteville","state":"NC","country":"United States","canonicalUrl":"https://foursquare.com/v/blackstone-smokehouse--pub/54f4e09a498ee0f30b27973e","category":"BBQ Joint","checkinsCount":234,"usersCount":134,"tipCount":3,"visitsCount":395,"tier":"","message":"","currency":"","rating":7.4},{"name":"The Office Pub","phone":"9104869963","address":"2828 Raeford Rd","lat":35.04555809057032,"lng":-78.9267897605896,"city_fetched":"Fayetteville","state":"NC","country":"United States","canonicalUrl":"https://foursquare.com/v/the-office-pub/4bdb37b03904a5935f51499e","category":"Dive Bar","checkinsCount":569,"usersCount":132,"tipCount":4,"visitsCount":586,"tier":"","message":"","currency":"","rating":7.3},{"name":"Cheers Too!","phone":"9106770270","address":"2721 Raeford Rd","lat":35.04527962313648,"lng":-78.92483800679085,"city_fetched":"Fayetteville","state":"NC","country":"United States","canonicalUrl":"https://foursquare.com/v/cheers-too/4c369740dfb0e21e3070aba8","category":"Bar","checkinsCount":218,"usersCount":60,"tipCount":4,"visitsCount":225,"tier":"","message":"","currency":"","rating":7.3},{"name":"Kickback Jack's","phone":"9102237676","address":"5081 Morganton Rd","lat":35.069856644678026,"lng":-78.96363526582718,"city_fetched":"Fayetteville","state":"NC","country":"United States","canonicalUrl":"https://foursquare.com/v/kickback-jacks/4de41610d22d2a4ecded2b81","category":"American Restaurant","checkinsCount":3866,"usersCount":1693,"tipCount":42,"visitsCount":4455,"url":"http://kbjacks.com","tier":2,"message":"Moderate","currency":"$","rating":7.3},{"name":"Hooters","phone":"9108680700","twitter":"hooters","address":"501 N McPherson Church Rd","lat":35.0736716508717,"lng":-78.95344220728832,"city_fetched":"Fayetteville","state":"NC","country":"United States","canonicalUrl":"https://foursquare.com/v/hooters/4cb13ce6babebfb75b60a3ab","category":"Wings Joint","checkinsCount":3929,"usersCount":1249,"tipCount":34,"visitsCount":4109,"url":"https://hooters.com","tier":2,"message":"Moderate","currency":"$","rating":7.3},{"name":"Last Call Sports Bar","phone":"9108228400","address":"5395 Ramsey St","lat":35.13362434333996,"lng":-78.87766523070388,"city_fetched":"Fayetteville","state":"NC","country":"United States","canonicalUrl":"https://foursquare.com/v/last-call-sports-bar/4b8743adf964a52043b931e3","category":"Sports Bar","checkinsCount":2187,"usersCount":264,"tipCount":11,"visitsCount":2501,"tier":"","message":"","currency":"","rating":7.2},{"name":"Louie's Sports Pub","phone":"9103233373","address":"2417 Robeson St","lat":35.04468850438572,"lng":-78.91880214214325,"city_fetched":"Fayetteville","state":"NC","country":"United States","canonicalUrl":"https://foursquare.com/v/louies-sports-pub/4bca8b65937ca593c836a892","category":"Bar","checkinsCount":304,"usersCount":100,"tipCount":2,"visitsCount":307,"tier":"","message":"","currency":"","rating":7.2},{"name":"Big Apple Restaurant & Sports Pub","phone":"9108685559","address":"5900 Yadkin Rd","lat":35.094367427033504,"lng":-78.98568034172058,"city_fetched":"Fayetteville","state":"NC","country":"United States","canonicalUrl":"https://foursquare.com/v/big-apple-restaurant--sports-pub/4cf9cc1fee9cb60ceda086ad","category":"Bar","checkinsCount":968,"usersCount":475,"tipCount":12,"visitsCount":1244,"url":"http://bigapplefay.com","tier":"","message":"","currency":"","rating":7.2},{"name":"Thee Back Door","phone":"9108643974","address":"4446 Bragg Blvd","lat":35.07886438715012,"lng":-78.93808051315393,"city_fetched":"Fayetteville","state":"NC","country":"United States","canonicalUrl":"https://foursquare.com/v/thee-back-door/4e3dd8b9a809ba757c108420","category":"Bar","checkinsCount":755,"usersCount":174,"tipCount":3,"visitsCount":848,"tier":"","message":"","currency":"","rating":7.1},{"name":"Paddy's Irish Pub","phone":"9106770055","twitter":"paddypub","address":"2606 Raeford Rd","lat":35.04660581675485,"lng":-78.92016927513475,"city_fetched":"Fayetteville","state":"NC","country":"United States","canonicalUrl":"https://foursquare.com/v/paddys-irish-pub/4b3eba17f964a52077a125e3","category":"Pub","checkinsCount":895,"usersCount":447,"tipCount":9,"visitsCount":1039,"url":"http://www.paddygibneyspub.com","tier":"","message":"","currency":"","rating":7.1},{"name":"Izzy's Sports Bar","address":"150 Andrews Rd","lat":35.15850222264166,"lng":-78.87068906185856,"city_fetched":"Fayetteville","state":"NC","country":"United States","canonicalUrl":"https://foursquare.com/v/izzys-sports-bar/4d968c17c19fb60ce3738165","category":"Sports Bar","checkinsCount":226,"usersCount":74,"tipCount":4,"visitsCount":227,"tier":"","message":"","currency":"","rating":7},{"name":"Charlie Mike's","phone":"9108266453","address":"195 Starpoint Dr","lat":35.08766593,"lng":-79.00987623333333,"city_fetched":"Fayetteville","state":"NC","country":"United States","canonicalUrl":"https://foursquare.com/v/charlie-mikes/4ca0b04f2fb1a143fa7dfe40","category":"Bar","checkinsCount":267,"usersCount":98,"tipCount":10,"visitsCount":268,"tier":"","message":"","currency":"","rating":7},{"name":"The Cadillac Ranch","phone":"9104847662","address":"3101 Fort Bragg Rd","lat":35.0731426532107,"lng":-78.92821924395362,"city_fetched":"Fayetteville","state":"NC","country":"United States","canonicalUrl":"https://foursquare.com/v/the-cadillac-ranch/4b89dc46f964a520045232e3","category":"Bar","checkinsCount":1192,"usersCount":346,"tipCount":11,"visitsCount":1196,"url":"http://cadillacranchfayetteville.com","tier":"","message":"","currency":"","rating":7},{"name":"The Taphouse at Huske Sports Bar & Grill","phone":"9104265650","address":"411 Hay St","lat":35.053859683073036,"lng":-78.88293848558403,"neighborhood":"Downtown Fayetteville","city_fetched":"Fayetteville","state":"NC","country":"United States","canonicalUrl":"https://foursquare.com/v/the-taphouse-at-huske-sports-bar--grill/51daca84498e70184cc7d947","category":"Sports Bar","checkinsCount":1093,"usersCount":356,"tipCount":14,"visitsCount":1219,"url":"http://huskehardware.com","tier":2,"message":"Moderate","currency":"$","rating":7},{"name":"Huske Hardware House","phone":"9104379905","twitter":"huskehardware","address":"405 Hay St","lat":35.053898,"lng":-78.8826,"neighborhood":"Downtown Fayetteville","city_fetched":"Fayetteville","state":"NC","country":"United States","canonicalUrl":"https://foursquare.com/v/huske-hardware-house/4b6b476cf964a520bafd2be3","category":"Brewery","checkinsCount":3788,"usersCount":1861,"tipCount":42,"visitsCount":4168,"url":"http://www.huskehardware.com","tier":2,"message":"Moderate","currency":"$","rating":6.9},{"name":"World of Beer","phone":"9107589782","address":"1944 Skibo Rd","lat":35.06419959722408,"lng":-78.96891743748166,"city_fetched":"Fayetteville","state":"NC","country":"United States","canonicalUrl":"https://foursquare.com/v/world-of-beer/565a4b64498ec2d194f241f9","category":"Sports Bar","checkinsCount":194,"usersCount":127,"tipCount":7,"visitsCount":298,"url":"https://worldofbeer.com/Locations/Fayetteville","tier":"","message":"","currency":"","rating":6.9},{"name":"Das Bavarian Haus","phone":"9104914092","address":"3500 Murchinson Road","lat":35.098775,"lng":-78.916625,"city_fetched":"Fayetteville","state":"NC","country":"United States","canonicalUrl":"https://foursquare.com/v/das-bavarian-haus/529dfe75498e8141458b8046","category":"German Restaurant","checkinsCount":38,"usersCount":26,"tipCount":5,"visitsCount":63,"tier":"","message":"","currency":"","rating":6.9}]