[{"name":"Cheddar's","phone":"4194234499","address":"2100 Tiffin Ave","lat":41.05506118595815,"lng":-83.60194209654662,"city_fetched":"Findlay","state":"OH","country":"United States","canonicalUrl":"https://foursquare.com/v/cheddars/4b5bc6aaf964a520811529e3","category":"Comfort Food Restaurant","checkinsCount":2494,"usersCount":1289,"tipCount":18,"visitsCount":3114,"url":"http://cheddarsinc.com","tier":2,"message":"Moderate","currency":"$","rating":8.5},{"name":"Logan's Irish Pub","phone":"4194203602","address":"414 S Main St","lat":41.03730404075208,"lng":-83.65032203191647,"city_fetched":"Findlay","state":"OH","country":"United States","canonicalUrl":"https://foursquare.com/v/logans-irish-pub/4c48e88b82319521c28287f2","category":"Pub","checkinsCount":2027,"usersCount":801,"tipCount":19,"visitsCount":2189,"url":"http://www.logansirishpubfindlay.com","tier":2,"message":"Moderate","currency":"$","rating":8},{"name":"Findlay Wine Merchant","phone":"4194240391","address":"540 S Main St","lat":41.035845,"lng":-83.65069303333334,"city_fetched":"Findlay","state":"OH","country":"United States","canonicalUrl":"https://foursquare.com/v/findlay-wine-merchant/4b69b972f964a52020b02be3","category":"Wine Shop","checkinsCount":1378,"usersCount":300,"tipCount":9,"visitsCount":1484,"tier":"","message":"","currency":"","rating":8},{"name":"West End Tavern","phone":"4194241640","address":"506 W Main Cross St","lat":41.039790331328184,"lng":-83.65695511994831,"city_fetched":"Findlay","state":"OH","country":"United States","canonicalUrl":"https://foursquare.com/v/west-end-tavern/4bf3384594af2d7f544b3972","category":"Pub","checkinsCount":1015,"usersCount":284,"tipCount":7,"visitsCount":1132,"url":"http://westendtavernfindlay.com","tier":"","message":"","currency":"","rating":7.9},{"name":"Findlay Country Club","address":"1500 Country Club Dr","lat":41.04546124517371,"lng":-83.62332013524386,"city_fetched":"Findlay","state":"OH","country":"United States","canonicalUrl":"https://foursquare.com/v/findlay-country-club/4bd6fd4c29eb9c7468ec95e1","category":"Golf Course","checkinsCount":1457,"usersCount":279,"tipCount":2,"visitsCount":1779,"tier":"","message":"","currency":"","rating":7.9},{"name":"Alexandria's","phone":"4194245750","twitter":"alexandriasbrew","address":"132 E Crawford St","lat":41.03788506736578,"lng":-83.64872728487416,"city_fetched":"Findlay","state":"OH","country":"United States","canonicalUrl":"https://foursquare.com/v/alexandrias/4e978794f5b9f64910de8942","category":"Gastropub","checkinsCount":1699,"usersCount":650,"tipCount":16,"visitsCount":2052,"url":"http://alexandriasfindlay.com","tier":"","message":"","currency":"","rating":7.7},{"name":"The Old Stoney Ledge","phone":"4194249229","address":"752 Howard St","lat":41.05154345288177,"lng":-83.66439767686218,"city_fetched":"Findlay","state":"OH","country":"United States","canonicalUrl":"https://foursquare.com/v/the-old-stoney-ledge/4bda5ce2c79cc92882b17ee9","category":"Bar","checkinsCount":319,"usersCount":118,"tipCount":2,"visitsCount":347,"tier":"","message":"","currency":"","rating":7.7},{"name":"The Fern Cafe","phone":"4194232700","address":"452 E Sandusky St","lat":41.037045,"lng":-83.6416981,"city_fetched":"Findlay","state":"OH","country":"United States","canonicalUrl":"https://foursquare.com/v/the-fern-cafe/4c4b77f1c668e21e66c515fa","category":"Bar","checkinsCount":274,"usersCount":136,"tipCount":6,"visitsCount":315,"url":"http://(419) 423-2700","tier":"","message":"","currency":"","rating":7.7},{"name":"The Bourbon Affair","twitter":"thebrbnaffair","address":"121B E Crawford St","lat":41.037578,"lng":-83.648956,"city_fetched":"Findlay","state":"OH","country":"United States","canonicalUrl":"https://foursquare.com/v/the-bourbon-affair/562c3b2b498edbb86b37d3b2","category":"Speakeasy","checkinsCount":80,"usersCount":46,"tipCount":4,"visitsCount":117,"tier":"","message":"","currency":"","rating":7.6},{"name":"Fricker's","phone":"4194239464","address":"1410 W Main Cross St","lat":41.04290931995073,"lng":-83.67421758678807,"city_fetched":"Findlay","state":"OH","country":"United States","canonicalUrl":"https://foursquare.com/v/frickers/4b62104bf964a52054332ae3","category":"Wings Joint","checkinsCount":4592,"usersCount":977,"tipCount":15,"visitsCount":5388,"url":"http://frickers.com","tier":2,"message":"Moderate","currency":"$","rating":7.3},{"name":"Uncle Buck's & Boudreaux","phone":"4194240444","address":"316 N Main St","lat":41.04452343333333,"lng":-83.650418,"city_fetched":"Findlay","state":"OH","country":"United States","canonicalUrl":"https://foursquare.com/v/uncle-bucks--boudreaux/4becc6356b88c9b69e818762","category":"Bar","checkinsCount":755,"usersCount":229,"tipCount":6,"visitsCount":788,"tier":"","message":"","currency":"","rating":7.1},{"name":"Olers Bar & Grill","phone":"4194232846","address":"708 Lima Ave","lat":41.02733780290296,"lng":-83.66046097070632,"city_fetched":"Findlay","state":"OH","country":"United States","canonicalUrl":"https://foursquare.com/v/olers-bar--grill/4e737c141f6eaf402bc3060f","category":"Bar","checkinsCount":724,"usersCount":283,"tipCount":7,"visitsCount":773,"url":"http://olersbarandgrill.com","tier":"","message":"","currency":"","rating":7.1},{"name":"Nino's Bar","phone":"4194235729","address":"331 N Main St","lat":41.044538374716645,"lng":-83.64990646657127,"city_fetched":"Findlay","state":"OH","country":"United States","canonicalUrl":"https://foursquare.com/v/ninos-bar/4beb6d74b3352d7f208d56d2","category":"Bar","checkinsCount":963,"usersCount":308,"tipCount":10,"visitsCount":983,"url":"http://www.ninosfindlay.com","tier":"","message":"","currency":"","rating":6.8},{"name":"Ralphie's Sports Eatery","phone":"4194231403","twitter":"ralphiesnwo","address":"730 Trenton Ave","lat":41.059414802861724,"lng":-83.66412762051085,"city_fetched":"Findlay","state":"OH","country":"United States","canonicalUrl":"https://foursquare.com/v/ralphies-sports-eatery/4becab800ddaa5936bec1dc3","category":"American Restaurant","checkinsCount":623,"usersCount":273,"tipCount":13,"visitsCount":628,"url":"http://www.ralphies.com","tier":1,"message":"Cheap","currency":"$","rating":6.7}]