[{"name":"Mother Road Brewing Company","phone":"9287749139","twitter":"motherroadbeer","address":"7 South Mikes Pike","lat":35.19692232888026,"lng":-111.65244340896605,"city_fetched":"Flagstaff,US","state":"AZ","country":"United States","canonicalUrl":"https://foursquare.com/motherroadbeer","categoryId":"50327c8591d4c4b30a586d5d","category":"Brewery","checkinsCount":3039,"usersCount":1184,"tipCount":31,"visitsCount":3426,"url":"http://www.motherroadbeer.com","tier":1,"message":"Cheap","currency":"$","rating":9.4},{"name":"Hops On Birch","phone":"9287744011","address":"22 E Birch Ave Ste 2","lat":35.199286,"lng":-111.647546,"neighborhood":"Downtown Flagstaff","city_fetched":"Flagstaff,US","state":"AZ","country":"United States","canonicalUrl":"https://foursquare.com/v/hops-on-birch/4f6d2f3ee4b0e14a3ec579e3","categoryId":"4bf58dd8d48988d121941735","category":"Lounge","checkinsCount":2342,"usersCount":926,"tipCount":22,"visitsCount":2521,"url":"http://hopsonbirch.com","tier":"","message":"","currency":"","rating":9.1},{"name":"Lumberyard Brewing Co.","phone":"9287792739","address":"5 S San Francisco St","lat":35.19651902997052,"lng":-111.64875268936157,"city_fetched":"Flagstaff,US","state":"AZ","country":"United States","canonicalUrl":"https://foursquare.com/v/lumberyard-brewing-co/4bf1a266d39ad13a3d7aaa0e","categoryId":"50327c8591d4c4b30a586d5d","category":"Brewery","checkinsCount":8227,"usersCount":4588,"tipCount":92,"visitsCount":9567,"url":"http://lumberyardbrewingcompany.com","tier":2,"message":"Moderate","currency":"$","rating":8.9},{"name":"Beaver Street Brewery","phone":"9287790079","address":"11 S Beaver St","lat":35.19657364930249,"lng":-111.65111771689968,"city_fetched":"Flagstaff,US","state":"AZ","country":"United States","canonicalUrl":"https://foursquare.com/v/beaver-street-brewery/413ba880f964a520091b1fe3","categoryId":"50327c8591d4c4b30a586d5d","category":"Brewery","checkinsCount":7551,"usersCount":5091,"tipCount":123,"visitsCount":8121,"url":"http://www.beaverstreetbrewery.com","tier":2,"message":"Moderate","currency":"$","rating":8.9},{"name":"The State Bar","phone":"9282661282","address":"10 E Route 66","lat":35.1973564067651,"lng":-111.64867813825062,"neighborhood":"Downtown Flagstaff","city_fetched":"Flagstaff,US","state":"AZ","country":"United States","canonicalUrl":"https://foursquare.com/v/the-state-bar/5153aabce4b02b4fff11eea3","categoryId":"4bf58dd8d48988d116941735","category":"Bar","checkinsCount":483,"usersCount":212,"tipCount":7,"visitsCount":500,"tier":"","message":"","currency":"","rating":8.4},{"name":"Wine Loft","address":"17 N San Francisco St #2","lat":35.197951,"lng":-111.648051,"neighborhood":"Downtown Flagstaff","city_fetched":"Flagstaff,US","state":"AZ","country":"United States","canonicalUrl":"https://foursquare.com/v/wine-loft/4b6ce16bf964a520435b2ce3","categoryId":"4bf58dd8d48988d123941735","category":"Wine Bar","checkinsCount":996,"usersCount":518,"tipCount":11,"visitsCount":1001,"tier":"","message":"","currency":"","rating":8.4},{"name":"Flagstaff Brewing Company","phone":"9287731442","twitter":"flagstaffbeer","address":"16 E Route 66","lat":35.19755788341563,"lng":-111.64846853244158,"neighborhood":"Downtown Flagstaff","city_fetched":"Flagstaff,US","state":"AZ","country":"United States","canonicalUrl":"https://foursquare.com/v/flagstaff-brewing-company/4aedf7d1f964a520bed021e3","categoryId":"50327c8591d4c4b30a586d5d","category":"Brewery","checkinsCount":4323,"usersCount":2555,"tipCount":29,"visitsCount":4491,"url":"http://www.flagbrew.com","tier":2,"message":"Moderate","currency":"$","rating":8.1},{"name":"Porky's Pub","phone":"9287741011","address":"5022-5056 S Woody Mountain Rd","lat":35.19174934554497,"lng":-111.62452688692359,"city_fetched":"Flagstaff,US","state":"AZ","country":"United States","canonicalUrl":"https://foursquare.com/v/porkys-pub/4ccbc29a511b236a5ddaecc9","categoryId":"4bf58dd8d48988d11b941735","category":"Pub","checkinsCount":382,"usersCount":240,"tipCount":6,"visitsCount":382,"url":"http://porkys-pub.com","tier":"","message":"","currency":"","rating":8.1},{"name":"The Green Room","phone":"9282268669","twitter":"flaggreenroom","address":"15 N Agassiz St","lat":35.197448367927336,"lng":-111.6471004486084,"neighborhood":"Downtown Flagstaff","city_fetched":"Flagstaff,US","state":"AZ","country":"United States","canonicalUrl":"https://foursquare.com/flaggreenroom","categoryId":"4bf58dd8d48988d116941735","category":"Bar","checkinsCount":3570,"usersCount":1217,"tipCount":13,"visitsCount":3777,"url":"http://flagstaffgreenroom.com","tier":"","message":"","currency":"","rating":8.1},{"name":"Wanderlust Brewing Company","phone":"9283517952","twitter":"wanderlust_beer","address":"1519 N Main St Ste 102","lat":35.202422,"lng":-111.618197,"neighborhood":"Sunnyside","city_fetched":"Flagstaff,US","state":"AZ","country":"United States","canonicalUrl":"https://foursquare.com/v/wanderlust-brewing-company/4fb94216e4b0fdfd00e0ca27","categoryId":"50327c8591d4c4b30a586d5d","category":"Brewery","checkinsCount":419,"usersCount":253,"tipCount":6,"visitsCount":629,"url":"http://www.wanderlustbrewing.com","tier":"","message":"","currency":"","rating":7.9},{"name":"Monte Vista Cocktail Lounge","phone":"9287742403","address":"100 N San Francisco St","lat":35.198146091993216,"lng":-111.64742050338226,"neighborhood":"Downtown Flagstaff","city_fetched":"Flagstaff,US","state":"AZ","country":"United States","canonicalUrl":"https://foursquare.com/v/monte-vista-cocktail-lounge/4d30b440d902236a70fa55e4","categoryId":"4bf58dd8d48988d118941735","category":"Dive Bar","checkinsCount":2355,"usersCount":1029,"tipCount":10,"visitsCount":2404,"tier":1,"message":"Cheap","currency":"$","rating":7.8},{"name":"Dark Sky Brewing","address":"117 N Beaver St","lat":35.19956970214844,"lng":-111.64976501464844,"neighborhood":"Downtown Flagstaff","city_fetched":"Flagstaff,US","state":"AZ","country":"United States","canonicalUrl":"https://foursquare.com/v/dark-sky-brewing/554185ee498ecd33ca20c9f9","categoryId":"50327c8591d4c4b30a586d5d","category":"Brewery","checkinsCount":236,"usersCount":191,"tipCount":1,"visitsCount":323,"tier":"","message":"","currency":"","rating":7.6},{"name":"Vino Loco Wine Shop and Bar","lat":35.19917,"lng":-111.647332,"neighborhood":"Downtown Flagstaff","city_fetched":"Flagstaff,US","state":"Arizona","country":"United States","canonicalUrl":"https://foursquare.com/v/vino-loco-wine-shop-and-bar/4d1e9f9386e154815d73ab3a","categoryId":"4bf58dd8d48988d123941735","category":"Wine Bar","checkinsCount":631,"usersCount":254,"tipCount":6,"visitsCount":643,"tier":"","message":"","currency":"","rating":7.5},{"name":"Uptown Pubhouse","phone":"9287730551","address":"114 N Leroux St","lat":35.19891321659088,"lng":-111.648332,"neighborhood":"Downtown Flagstaff","city_fetched":"Flagstaff,US","state":"AZ","country":"United States","canonicalUrl":"https://foursquare.com/v/uptown-pubhouse/4ace1de4f964a52081ce20e3","categoryId":"4bf58dd8d48988d116941735","category":"Bar","checkinsCount":2645,"usersCount":589,"tipCount":13,"visitsCount":2656,"url":"http://uptownpubhouse.com","tier":"","message":"","currency":"","rating":7.5},{"name":"Tinderbox Annex","phone":"9282268400","address":"50 S San Francisco St","lat":35.19560307,"lng":-111.6487044095993,"city_fetched":"Flagstaff,US","state":"AZ","country":"United States","canonicalUrl":"https://foursquare.com/v/tinderbox-annex/4c672928e1da1b8d01519dc3","categoryId":"4bf58dd8d48988d11e941735","category":"Cocktail Bar","checkinsCount":468,"usersCount":222,"tipCount":36,"visitsCount":479,"url":"http://www.tinderboxkitchen.com","tier":"","message":"","currency":"","rating":7.5},{"name":"Museum Club","address":"3404 E Rte-66","lat":35.21409236,"lng":-111.59962,"city_fetched":"Flagstaff,US","state":"AZ","country":"United States","canonicalUrl":"https://foursquare.com/v/museum-club/4be4ddc42457a59336ebaa15","categoryId":"4bf58dd8d48988d116941735","category":"Bar","checkinsCount":1496,"usersCount":669,"tipCount":11,"visitsCount":1587,"tier":"","message":"","currency":"","rating":7.3},{"name":"Historic Brewing Company","phone":"9287070900","twitter":"historicbrewco","address":"4366 E Huntington Dr","lat":35.218462442556564,"lng":-111.58652418725609,"city_fetched":"Flagstaff,US","state":"AZ","country":"United States","canonicalUrl":"https://foursquare.com/v/historic-brewing-company/5275615f498e4b0c3a67f89f","categoryId":"50327c8591d4c4b30a586d5d","category":"Brewery","checkinsCount":226,"usersCount":160,"tipCount":4,"visitsCount":237,"tier":"","message":"","currency":"","rating":7.3},{"name":"Rendezvous","address":"Hotel Monte Vista","lat":35.19825,"lng":-111.647603,"neighborhood":"Downtown Flagstaff","city_fetched":"Flagstaff,US","state":"AZ","country":"United States","canonicalUrl":"https://foursquare.com/v/rendezvous/51a1a99c498ea7254c091b78","categoryId":"4bf58dd8d48988d11e941735","category":"Cocktail Bar","checkinsCount":94,"usersCount":72,"tipCount":4,"visitsCount":96,"tier":"","message":"","currency":"","rating":7.2},{"name":"The McMillan","address":"2 W Route 66","lat":35.19768958305392,"lng":-111.649213797536,"neighborhood":"Downtown Flagstaff","city_fetched":"Flagstaff,US","state":"AZ","country":"United States","canonicalUrl":"https://foursquare.com/v/the-mcmillan/5389494a498e5e2ed87c9d8d","categoryId":"4bf58dd8d48988d11e941735","category":"Cocktail Bar","checkinsCount":249,"usersCount":185,"tipCount":2,"visitsCount":271,"tier":"","message":"","currency":"","rating":7.2},{"name":"Pay 'n' Take","phone":"9282268595","address":"12 W Aspen Ave","lat":35.19871817663778,"lng":-111.6492545542205,"neighborhood":"Downtown Flagstaff","city_fetched":"Flagstaff,US","state":"AZ","country":"United States","canonicalUrl":"https://foursquare.com/v/pay-n-take/4c2eab42ed37a593001a6603","categoryId":"4bf58dd8d48988d116941735","category":"Bar","checkinsCount":583,"usersCount":276,"tipCount":4,"visitsCount":586,"tier":"","message":"","currency":"","rating":7.1},{"name":"Zane Grey","lat":35.19847851785998,"lng":-111.64896726608276,"neighborhood":"Downtown Flagstaff","city_fetched":"Flagstaff,US","state":"AZ","country":"United States","canonicalUrl":"https://foursquare.com/v/zane-grey/4beb921c6295c9b6f1ef8708","categoryId":"4bf58dd8d48988d116941735","category":"Bar","checkinsCount":1173,"usersCount":463,"tipCount":7,"visitsCount":1177,"tier":"","message":"","currency":"","rating":6.9},{"name":"Mia's Lounge","phone":"9287743315","address":"26 S San Fran St","lat":35.19586964991406,"lng":-111.64852093389392,"city_fetched":"Flagstaff,US","state":"AZ","country":"United States","canonicalUrl":"https://foursquare.com/v/mias-lounge/4bfc57f41be376b0eb86f8b4","categoryId":"4bf58dd8d48988d116941735","category":"Bar","checkinsCount":2049,"usersCount":645,"tipCount":9,"visitsCount":2055,"tier":"","message":"","currency":"","rating":6.9},{"name":"Maloney's","phone":"9282149519","address":"101 N Leroux St","lat":35.19864481789755,"lng":-111.64879458592189,"neighborhood":"Downtown Flagstaff","city_fetched":"Flagstaff,US","state":"AZ","country":"United States","canonicalUrl":"https://foursquare.com/v/maloneys/4b7895bff964a52080d82ee3","categoryId":"4bf58dd8d48988d116941735","category":"Bar","checkinsCount":3370,"usersCount":1389,"tipCount":17,"visitsCount":3418,"url":"http://www.azeats.com/maloneys/default.asp","tier":1,"message":"Cheap","currency":"$","rating":5.8},{"name":"Collins Irish Pub & Grill","phone":"9282147363","twitter":"collinsirishpub","address":"2 N Leroux St","lat":35.1976916,"lng":-111.6489073,"neighborhood":"Downtown Flagstaff","city_fetched":"Flagstaff,US","state":"AZ","country":"United States","canonicalUrl":"https://foursquare.com/v/collins-irish-pub--grill/4ba5a806f964a520ce1939e3","categoryId":"4bf58dd8d48988d11d941735","category":"Sports Bar","checkinsCount":5503,"usersCount":2137,"tipCount":36,"visitsCount":5588,"url":"http://www.collinsirishpub.com","tier":1,"message":"Cheap","currency":"$","rating":5.8}]