[{"name":"White Horse Tavern","phone":"8102343811","address":"621 W Court St","lat":43.0092868,"lng":-83.6941825,"city_fetched":"Flint,US","state":"MI","country":"United States","canonicalUrl":"https://foursquare.com/v/white-horse-tavern/4b09ec61f964a520ce1f23e3","categoryId":"4bf58dd8d48988d11b941735","category":"Pub","checkinsCount":1435,"usersCount":564,"tipCount":15,"visitsCount":1765,"url":"http://whitehorsetavernflint.com","tier":2,"message":"Moderate","currency":"$","rating":8.7},{"name":"The Torch Bar and Grill","phone":"8102320626","address":"522 Buckham Aly","lat":43.015186,"lng":-83.691013,"city_fetched":"Flint,US","state":"MI","country":"United States","canonicalUrl":"https://foursquare.com/v/the-torch-bar-and-grill/4b0c6a36f964a520c23c23e3","categoryId":"4bf58dd8d48988d116941735","category":"Bar","checkinsCount":2506,"usersCount":751,"tipCount":32,"visitsCount":2916,"url":"http://torchbar.com","tier":1,"message":"Cheap","currency":"$","rating":8.5},{"name":"Soggy Bottom Bar","address":"613 M L King Ave","lat":43.021371960639954,"lng":-83.69567861666667,"city_fetched":"Flint,US","state":"MI","country":"United States","canonicalUrl":"https://foursquare.com/v/soggy-bottom-bar/4b3c1d8af964a520f68125e3","categoryId":"4bf58dd8d48988d116941735","category":"Bar","checkinsCount":605,"usersCount":343,"tipCount":13,"visitsCount":1087,"tier":"","message":"","currency":"","rating":8.4},{"name":"Cork on Saginaw","phone":"8104229625","twitter":"corkonsaginaw","address":"635 S Saginaw St","lat":43.01456647265069,"lng":-83.6893884135441,"city_fetched":"Flint,US","state":"MI","country":"United States","canonicalUrl":"https://foursquare.com/v/cork-on-saginaw/4d603e9f5c39b1f735d4014a","categoryId":"4bf58dd8d48988d123941735","category":"Wine Bar","checkinsCount":1397,"usersCount":419,"tipCount":11,"visitsCount":1572,"url":"http://www.corkonsaginaw.com","tier":"","message":"","currency":"","rating":8.4},{"name":"Red Baron","phone":"8107441310","address":"2495 S Center Rd","lat":42.99079878759859,"lng":-83.63361413044967,"city_fetched":"Flint,US","state":"MI","country":"United States","canonicalUrl":"https://foursquare.com/v/red-baron/4b64ef37f964a520cfda2ae3","categoryId":"4bf58dd8d48988d116941735","category":"Bar","checkinsCount":1856,"usersCount":570,"tipCount":15,"visitsCount":2352,"url":"http://www.baronburger.com","tier":2,"message":"Moderate","currency":"$","rating":8.4},{"name":"Fenton Winery & Brewery Taproom","address":"1470 N. Long Lake Road","lat":42.85243184447026,"lng":-83.7033462594047,"city_fetched":"Flint,US","state":"MI","country":"United States","canonicalUrl":"https://foursquare.com/v/fenton-winery--brewery-taproom/53d2d81c498e2d6262fad39d","categoryId":"50327c8591d4c4b30a586d5d","category":"Brewery","checkinsCount":216,"usersCount":151,"tipCount":5,"visitsCount":353,"tier":2,"message":"Moderate","currency":"$","rating":8.3},{"name":"Redwood Steakhouse Brewery and Grill","phone":"8102338000","address":"5304 Gateway Ctr","lat":42.94757318935593,"lng":-83.72289444131552,"city_fetched":"Flint,US","state":"MI","country":"United States","canonicalUrl":"https://foursquare.com/v/redwood-steakhouse-brewery-and-grill/4b4b4295f964a520d19526e3","categoryId":"50327c8591d4c4b30a586d5d","category":"Brewery","checkinsCount":2557,"usersCount":1802,"tipCount":42,"visitsCount":3310,"url":"http://www.theredwoodlodge.com","tier":2,"message":"Moderate","currency":"$","rating":8.3},{"name":"Fenton Winery & Brewery","phone":"8103734194","twitter":"drinkfwb","address":"1370 N Long Lake Rd","lat":42.81954283904899,"lng":-83.70820403957278,"city_fetched":"Flint,US","state":"MI","country":"United States","canonicalUrl":"https://foursquare.com/v/fenton-winery--brewery/4bb7dfdccf2fc9b6c4f29e02","categoryId":"50327c8591d4c4b30a586d5d","category":"Brewery","checkinsCount":512,"usersCount":300,"tipCount":11,"visitsCount":535,"url":"http://fentonbrewery.com","tier":"","message":"","currency":"","rating":7.7},{"name":"MD's Sports Tavern","phone":"8106536408","address":"3040 N State Rd","lat":43.05034139516102,"lng":-83.51741396323115,"city_fetched":"Flint,US","state":"MI","country":"United States","canonicalUrl":"https://foursquare.com/v/mds-sports-tavern/52b73c22498eb22aa88e21db","categoryId":"4bf58dd8d48988d11d941735","category":"Sports Bar","checkinsCount":132,"usersCount":126,"tipCount":4,"visitsCount":219,"tier":"","message":"","currency":"","rating":7.6},{"name":"Scooters Bar & Grill","phone":"8106556884","twitter":"scootersflint","address":"6004 Torrey Rd","lat":42.94346321125156,"lng":-83.73260657021723,"city_fetched":"Flint,US","state":"MI","country":"United States","canonicalUrl":"https://foursquare.com/v/scooters-bar--grill/4cbccd59f50e224b1d2d01fc","categoryId":"4bf58dd8d48988d116941735","category":"Bar","checkinsCount":1469,"usersCount":496,"tipCount":5,"visitsCount":1868,"url":"http://www.scootersbarandgrill.com","tier":"","message":"","currency":"","rating":7.6},{"name":"Sharky's Sports Bar","phone":"8107426185","address":"4050 S. Center Rd.","lat":42.97353778848903,"lng":-83.63462448120117,"city_fetched":"Flint,US","state":"MI","country":"United States","canonicalUrl":"https://foursquare.com/v/sharkys-sports-bar/4b4bc3c8f964a520e4a626e3","categoryId":"4bf58dd8d48988d11d941735","category":"Sports Bar","checkinsCount":1603,"usersCount":723,"tipCount":15,"visitsCount":1965,"url":"http://www.sharkyssport.com","tier":2,"message":"Moderate","currency":"$","rating":7.6},{"name":"Remingtons Bar","phone":"8102392000","address":"4103 Fenton Rd","lat":42.986318576038585,"lng":-83.69275747697877,"city_fetched":"Flint,US","state":"MI","country":"United States","canonicalUrl":"https://foursquare.com/v/remingtons-bar/4ba2f239f964a5204b2438e3","categoryId":"4bf58dd8d48988d116941735","category":"Bar","checkinsCount":369,"usersCount":142,"tipCount":4,"visitsCount":436,"url":"http://remingtonsofflint.com","tier":"","message":"","currency":"","rating":7.4},{"name":"Legends Sports Cafe","phone":"8107149100","address":"3235 W Thompson Rd","lat":42.862392115163736,"lng":-83.73785734176636,"city_fetched":"Flint,US","state":"MI","country":"United States","canonicalUrl":"https://foursquare.com/v/legends-sports-cafe/4b8da19df964a520610533e3","categoryId":"4bf58dd8d48988d11d941735","category":"Sports Bar","checkinsCount":1160,"usersCount":437,"tipCount":7,"visitsCount":1389,"url":"http://www.legendsoffenton.com","tier":"","message":"","currency":"","rating":7.4},{"name":"The Point Bar and Grill","phone":"8103449841","twitter":"pointgb","address":"5545 S Saginaw Rd","lat":42.948464985927835,"lng":-83.65448272772358,"city_fetched":"Flint,US","state":"MI","country":"United States","canonicalUrl":"https://foursquare.com/v/the-point-bar-and-grill/515f6e17e4b005f77a5ce25d","categoryId":"4bf58dd8d48988d116941735","category":"Bar","checkinsCount":904,"usersCount":141,"tipCount":2,"visitsCount":1053,"tier":2,"message":"Moderate","currency":"$","rating":7.3},{"name":"Foutch's Pub","phone":"8102657330","address":"1477 S Linden Rd","lat":43.003344644186946,"lng":-83.77207239803232,"city_fetched":"Flint,US","state":"MI","country":"United States","canonicalUrl":"https://foursquare.com/v/foutchs-pub/4d67387458155481159ae155","categoryId":"4bf58dd8d48988d116941735","category":"Bar","checkinsCount":711,"usersCount":335,"tipCount":15,"visitsCount":972,"url":"http://foutchspub.com","tier":"","message":"","currency":"","rating":7.3},{"name":"The Loft","address":"515 Buckham Aly","lat":43.01538502669711,"lng":-83.69056163657264,"city_fetched":"Flint,US","state":"MI","country":"United States","canonicalUrl":"https://foursquare.com/v/the-loft/4afa576bf964a520b91722e3","categoryId":"4bf58dd8d48988d118941735","category":"Dive Bar","checkinsCount":1437,"usersCount":326,"tipCount":10,"visitsCount":1452,"tier":"","message":"","currency":"","rating":7.2},{"name":"Kicker's Sports Bar & Grill","phone":"8106952060","address":"5577 S Saginaw Rd","lat":42.947872620175794,"lng":-83.65369320373107,"city_fetched":"Flint,US","state":"MI","country":"United States","canonicalUrl":"https://foursquare.com/v/kickers-sports-bar--grill/4bba9cf3b35776b0372fcb01","categoryId":"4bf58dd8d48988d11d941735","category":"Sports Bar","checkinsCount":1124,"usersCount":376,"tipCount":9,"visitsCount":1406,"url":"http://www.kickerssportsbar.com","tier":"","message":"","currency":"","rating":7.1},{"name":"Tenacity Brewing","phone":"8103396676","twitter":"tenacitybrewing","address":"119 N Grand Traverse St","lat":43.015464263910914,"lng":-83.69715411638519,"city_fetched":"Flint,US","state":"MI","country":"United States","canonicalUrl":"https://foursquare.com/v/tenacity-brewing/54b844c4498e4279520fa78f","categoryId":"50327c8591d4c4b30a586d5d","category":"Brewery","checkinsCount":102,"usersCount":144,"tipCount":6,"visitsCount":217,"url":"http://www.tenacitybrewing.com","tier":"","message":"","currency":"","rating":7.1},{"name":"Jesters","phone":"8107360681","address":"G3112 N Center Rd","lat":43.0505446464724,"lng":-83.63540232181549,"city_fetched":"Flint,US","state":"MI","country":"United States","canonicalUrl":"https://foursquare.com/v/jesters/4bc12e64f8219c743b0eb310","categoryId":"4bf58dd8d48988d116941735","category":"Bar","checkinsCount":299,"usersCount":136,"tipCount":4,"visitsCount":318,"tier":"","message":"","currency":"","rating":7.1},{"name":"JW's","phone":"8102340020","address":"617 S Dort Hwy","lat":43.02046537399292,"lng":-83.6544203,"city_fetched":"Flint,US","state":"MI","country":"United States","canonicalUrl":"https://foursquare.com/v/jws/4b515990f964a520844b27e3","categoryId":"4bf58dd8d48988d120941735","category":"Karaoke Bar","checkinsCount":298,"usersCount":160,"tipCount":2,"visitsCount":302,"tier":"","message":"","currency":"","rating":7},{"name":"Cobblestone","phone":"8102320810","address":"7490 Fenton Rd","lat":42.91656025230976,"lng":-83.69181270406203,"city_fetched":"Flint,US","state":"MI","country":"United States","canonicalUrl":"https://foursquare.com/v/cobblestone/4b36a269f964a520983925e3","categoryId":"4bf58dd8d48988d11d941735","category":"Sports Bar","checkinsCount":804,"usersCount":352,"tipCount":7,"visitsCount":977,"tier":"","message":"","currency":"","rating":7},{"name":"Madden's Lounge","address":"809 N State Rd","lat":43.03877497500309,"lng":-83.51843944573973,"city_fetched":"Flint,US","state":"MI","country":"United States","canonicalUrl":"https://foursquare.com/v/maddens-lounge/4bf868014a67c928a36225cf","categoryId":"4bf58dd8d48988d11b941735","category":"Pub","checkinsCount":636,"usersCount":378,"tipCount":4,"visitsCount":825,"tier":"","message":"","currency":"","rating":6.9},{"name":"Timothy's Pub","phone":"8102390972","address":"2890 Robert T Longway Blvd","lat":43.025376,"lng":-83.652473,"city_fetched":"Flint,US","state":"MI","country":"United States","canonicalUrl":"https://foursquare.com/v/timothys-pub/4c44cf1c2d3ec9b619682fae","categoryId":"4bf58dd8d48988d116941735","category":"Bar","checkinsCount":214,"usersCount":120,"tipCount":4,"visitsCount":265,"url":"http://timothyspubflint.com","tier":"","message":"","currency":"","rating":6.8},{"name":"Firkin and Fox","phone":"8107439530","address":"1341 S Center Rd","lat":43.00941289249739,"lng":-83.63402980396874,"city_fetched":"Flint,US","state":"MI","country":"United States","canonicalUrl":"https://foursquare.com/v/firkin-and-fox/4b2ad913f964a520c0b024e3","categoryId":"4bf58dd8d48988d11b941735","category":"Pub","checkinsCount":1063,"usersCount":457,"tipCount":15,"visitsCount":1091,"url":"http://firkinpubs.com","tier":"","message":"","currency":"","rating":6.7},{"name":"Sherman's Lounge","phone":"8102337057","twitter":"shermanslounge","address":"4211 Fenton Rd","lat":42.98532843589783,"lng":-83.69279913,"city_fetched":"Flint,US","state":"MI","country":"United States","canonicalUrl":"https://foursquare.com/v/shermans-lounge/4bdb9b393904a5936b694b9e","categoryId":"4bf58dd8d48988d116941735","category":"Bar","checkinsCount":189,"usersCount":173,"tipCount":2,"visitsCount":356,"url":"https://www.shermanslounge.com","tier":"","message":"","currency":"","rating":6.7},{"name":"The Wooden Keg","phone":"8102391831","address":"1940 W Hemphill Rd","lat":42.98129797978542,"lng":-83.71193015678668,"city_fetched":"Flint,US","state":"MI","country":"United States","canonicalUrl":"https://foursquare.com/v/the-wooden-keg/4d82b43561676dcb63f64be4","categoryId":"4bf58dd8d48988d116941735","category":"Bar","checkinsCount":1103,"usersCount":202,"tipCount":7,"visitsCount":1171,"tier":"","message":"","currency":"","rating":6.6},{"name":"The Raincheck Lounge","phone":"8107673154","address":"310 S Averill Ave","lat":43.02181,"lng":-83.64456474781036,"city_fetched":"Flint,US","state":"MI","country":"United States","canonicalUrl":"https://foursquare.com/v/the-raincheck-lounge/4c0745cecf8c76b04cd83b65","categoryId":"4bf58dd8d48988d116941735","category":"Bar","checkinsCount":259,"usersCount":130,"tipCount":4,"visitsCount":265,"tier":"","message":"","currency":"","rating":6.6},{"name":"Sweetwater Bar and Grill","phone":"8103449252","address":"3015 E Grand Blanc Rd","lat":42.916175009099256,"lng":-83.65041732788086,"city_fetched":"Flint,US","state":"MI","country":"United States","canonicalUrl":"https://foursquare.com/v/sweetwater-bar-and-grill/4cede4117b943704995d2a53","categoryId":"4bf58dd8d48988d11d941735","category":"Sports Bar","checkinsCount":1613,"usersCount":770,"tipCount":23,"visitsCount":2175,"url":"http://www.sweetwatersportsbar.com","tier":2,"message":"Moderate","currency":"$","rating":6.5},{"name":"Jewell of Grand Blanc","lat":42.92874279212855,"lng":-83.60204086911972,"city_fetched":"Flint,US","state":"MI","country":"United States","canonicalUrl":"https://foursquare.com/v/jewell-of-grand-blanc/4c5e34887f661b8d27c84d1c","categoryId":"4bf58dd8d48988d1d4941735","category":"Speakeasy","checkinsCount":142,"usersCount":141,"tipCount":3,"visitsCount":243,"tier":"","message":"","currency":"","rating":6.3},{"name":"Churchill's Food and Spirits","phone":"8102383800","address":"340 S Saginaw St","lat":43.017166162439324,"lng":-83.69171926420424,"city_fetched":"Flint,US","state":"MI","country":"United States","canonicalUrl":"https://foursquare.com/v/churchills-food-and-spirits/4b0762c4f964a520f8fc22e3","categoryId":"4bf58dd8d48988d11b941735","category":"Pub","checkinsCount":1501,"usersCount":550,"tipCount":16,"visitsCount":1581,"url":"http://www.churchillsflint.com","tier":"","message":"","currency":"","rating":6},{"name":"Samuel Adams Pub","address":"at FNT Airport","lat":42.97261260052859,"lng":-83.73883668266971,"city_fetched":"Flint,US","state":"MI","country":"United States","canonicalUrl":"https://foursquare.com/v/samuel-adams-pub/4c6e5b8af338236aa42a0a1b","categoryId":"4bf58dd8d48988d11b941735","category":"Pub","checkinsCount":596,"usersCount":383,"tipCount":7,"visitsCount":611,"tier":"","message":"","currency":"","rating":5.9},{"name":"On-Fire Hookah","phone":"8108759508","twitter":"onfirehookah","address":"G3236 Corunna Rd","lat":43.00275906090935,"lng":-83.74234311553687,"city_fetched":"Flint,US","state":"MI","country":"United States","canonicalUrl":"https://foursquare.com/onfirehookah","categoryId":"4bf58dd8d48988d119941735","category":"Hookah Bar","checkinsCount":91,"usersCount":49,"tipCount":2,"visitsCount":96,"url":"http://www.onfirehookah.com","tier":"","message":"","currency":"","rating":5.5},{"name":"Allstar Sports Bar","twitter":"the_all_star_","address":"G4312 S Dort Hwy","lat":42.96609018327109,"lng":-83.65326207786964,"city_fetched":"Flint,US","state":"MI","country":"United States","canonicalUrl":"https://foursquare.com/v/allstar-sports-bar/4b776f34f964a5202a9a2ee3","categoryId":"4bf58dd8d48988d11d941735","category":"Sports Bar","checkinsCount":811,"usersCount":292,"tipCount":9,"visitsCount":838,"tier":"","message":"","currency":"","rating":5.1}]