[{"name":"Party Town","phone":"8593714466","twitter":"partytownky","address":"6823 Burlington Pike","lat":39.00949910404624,"lng":-84.62729162632175,"city_fetched":"Florence","state":"KY","country":"United States","canonicalUrl":"https://foursquare.com/v/party-town/4b48ee5ef964a520ec5d26e3","category":"Liquor Store","checkinsCount":2440,"usersCount":973,"tipCount":18,"visitsCount":3242,"tier":"","message":"","currency":"","rating":8.9},{"name":"Lucky Duck Pub","phone":"8592828570","twitter":"luckyduckpub","address":"6072 Limaburg Rd","lat":39.01749943421898,"lng":-84.68749044137299,"city_fetched":"Florence","state":"KY","country":"United States","canonicalUrl":"https://foursquare.com/luckyduckpub","category":"Pub","checkinsCount":3101,"usersCount":445,"tipCount":17,"visitsCount":3256,"url":"http://www.luckyduckpub.com","tier":"","message":"","currency":"","rating":7.9},{"name":"Finish Line","phone":"8593427887","address":"4351 Dixie Hwy","lat":39.00860749908404,"lng":-84.61131830736865,"city_fetched":"Florence","state":"KY","country":"United States","canonicalUrl":"https://foursquare.com/v/finish-line/4c181f474b8bd13a62634c83","category":"Bar","checkinsCount":672,"usersCount":77,"tipCount":3,"visitsCount":680,"url":"http://finishline.com","tier":"","message":"","currency":"","rating":7.8},{"name":"tilted kilt","twitter":"tiltedkiltpub","address":"4911 Houston Rd, Florence, KY 41042","lat":39.017839548535875,"lng":-84.63348041955024,"city_fetched":"Florence","state":"KY","country":"United States","canonicalUrl":"https://foursquare.com/v/tilted-kilt/54862c92498ef51e69e23704","category":"Pub","checkinsCount":235,"usersCount":303,"tipCount":6,"visitsCount":497,"url":"http://www.tiltedkilt.com","tier":"","message":"","currency":"","rating":7.5},{"name":"Dixie Station","address":"4351 Dixie Hwy","lat":39.008784976549904,"lng":-84.61128252217843,"city_fetched":"Florence","state":"KY","country":"United States","canonicalUrl":"https://foursquare.com/v/dixie-station/52d89b27498e16ce36c54033","category":"Karaoke Bar","checkinsCount":177,"usersCount":53,"tipCount":1,"visitsCount":282,"tier":"","message":"","currency":"","rating":7.4},{"name":"BJs Brewhouse","phone":"8592828865","address":"7852 Mall Rd","lat":38.9926987083684,"lng":-84.65021392276523,"city_fetched":"Florence","state":"KY","country":"United States","canonicalUrl":"https://foursquare.com/v/bjs-brewhouse/51fadaf9498e2f68d4c0758e","category":"Brewery","checkinsCount":1040,"usersCount":1082,"tipCount":25,"visitsCount":1899,"tier":2,"message":"Moderate","currency":"$","rating":7.4},{"name":"Turfway Grill & Bar","phone":"8599181002","address":"7134 Turfway Rd","lat":39.00804191095434,"lng":-84.62313132149977,"city_fetched":"Florence","state":"KY","country":"United States","canonicalUrl":"https://foursquare.com/v/turfway-grill--bar/4c6a0855c946e21e5fe4eb8e","category":"Bar","checkinsCount":688,"usersCount":228,"tipCount":6,"visitsCount":758,"tier":"","message":"","currency":"","rating":7.4},{"name":"Homewood Suites Cincinnati Airport","phone":"8592832111","address":"1090 Vandercar Dr","lat":39.01262526039438,"lng":-84.65411685680864,"city_fetched":"Florence","state":"KY","country":"United States","canonicalUrl":"https://foursquare.com/v/homewood-suites-cincinnati-airport/4bd8143935aad13a810690f3","category":"Hotel","checkinsCount":837,"usersCount":412,"tipCount":14,"visitsCount":1096,"url":"http://homewoodsuites3.hilton.com/en/hotels/kentucky/homewood-suites-by-hilton-cincinnati-airport-south-florence-CVGFOHW/index.html","tier":"","message":"","currency":"","rating":7.4},{"name":"Holler Hops & Grill","phone":"8592501210","address":"7500 Oakbrook Dr","lat":38.991387,"lng":-84.694024,"city_fetched":"Florence","state":"KY","country":"United States","canonicalUrl":"https://foursquare.com/v/holler-hops--grill/4f974aace4b06237029dd1e9","category":"Speakeasy","checkinsCount":701,"usersCount":207,"tipCount":5,"visitsCount":778,"tier":"","message":"","currency":"","rating":7.1},{"name":"Shakey's Pub and Grub","phone":"8596476458","address":"7718 US Highway 42","lat":38.991417,"lng":-84.637243,"city_fetched":"Florence","state":"KY","country":"United States","canonicalUrl":"https://foursquare.com/v/shakeys-pub-and-grub/4b439230f964a52073e325e3","category":"American Restaurant","checkinsCount":1080,"usersCount":362,"tipCount":17,"visitsCount":1112,"url":"http://www.shakeys.com","tier":2,"message":"Moderate","currency":"$","rating":6.9},{"name":"Buffalo Bobs Restaurant","phone":"8593715244","twitter":"bufbobs","address":"9910 Berberich Dr","lat":38.95806741937305,"lng":-84.62751649912624,"city_fetched":"Florence","state":"KY","country":"United States","canonicalUrl":"https://foursquare.com/v/buffalo-bobs-restaurant/4c16cb608aedd13ab0145237","category":"American Restaurant","checkinsCount":595,"usersCount":335,"tipCount":10,"visitsCount":731,"url":"http://www.buffalobobsky.com","tier":2,"message":"Moderate","currency":"$","rating":6.7},{"name":"Turfway Park","phone":"8593710200","twitter":"turfwaypark","address":"7500 Turfway Rd","lat":39.02166232838281,"lng":-84.63536094534199,"city_fetched":"Florence","state":"KY","country":"United States","canonicalUrl":"https://foursquare.com/v/turfway-park/4b5a3fb8f964a5205fb728e3","category":"Racetrack","checkinsCount":2256,"usersCount":1389,"tipCount":5,"visitsCount":2672,"url":"http://turfway.com","tier":"","message":"","currency":"","rating":6.6},{"name":"Peecox","address":"635 Donaldson Hwy","lat":39.027555,"lng":-84.61720058,"city_fetched":"Florence","state":"KY","country":"United States","canonicalUrl":"https://foursquare.com/v/peecox/4c5dede77f661b8deae14c1c","category":"Dive Bar","checkinsCount":390,"usersCount":183,"tipCount":5,"visitsCount":414,"tier":"","message":"","currency":"","rating":6.5},{"name":"Barleycorn's","phone":"8593714100","address":"8544 US Highway 42","lat":38.97398786545488,"lng":-84.66242248302457,"city_fetched":"Florence","state":"KY","country":"United States","canonicalUrl":"https://foursquare.com/v/barleycorns/4cfbe01ba9042c0f1110e20a","category":"American Restaurant","checkinsCount":1083,"usersCount":515,"tipCount":14,"visitsCount":1129,"tier":2,"message":"Moderate","currency":"$","rating":6.4},{"name":"Beef 'O' Brady's","phone":"8593849464","address":"1597 Cavalry Dr","lat":38.96619688333333,"lng":-84.67132949,"city_fetched":"Florence","state":"KY","country":"United States","canonicalUrl":"https://foursquare.com/v/beef-o-bradys/4b5a5b07f964a52093bf28e3","category":"American Restaurant","checkinsCount":697,"usersCount":272,"tipCount":10,"visitsCount":831,"url":"http://www.beefobradys.com","tier":"","message":"","currency":"","rating":6.1},{"name":"Stringtown Bar","lat":39.00172796589611,"lng":-84.62624391193881,"city_fetched":"Florence","state":"KY","country":"United States","canonicalUrl":"https://foursquare.com/v/stringtown-bar/4b782a60f964a52059b92ee3","category":"Bar","checkinsCount":147,"usersCount":97,"tipCount":7,"visitsCount":154,"tier":"","message":"","currency":"","rating":5.7},{"name":"Florence","lat":39.0151365010007,"lng":-84.63433381792451,"city_fetched":"Florence","state":"KY","country":"United States","canonicalUrl":"https://foursquare.com/v/florence/4fbc14e1e4b092db91c8291e","category":"Hookah Bar","checkinsCount":283,"usersCount":129,"tipCount":3,"visitsCount":283,"tier":"","message":"","currency":"","rating":5.7},{"name":"Woodies Tavern","address":"Mt. Zion Rd.","lat":38.95516712083747,"lng":-84.62653522955307,"city_fetched":"Florence","state":"KY","country":"United States","canonicalUrl":"https://foursquare.com/v/woodies-tavern/4b9311e7f964a520e63234e3","category":"Karaoke Bar","checkinsCount":1043,"usersCount":203,"tipCount":4,"visitsCount":1058,"tier":"","message":"","currency":"","rating":5.5},{"name":"Muggbees","address":"8405 US Highway 42","lat":38.97880139457478,"lng":-84.65436716685699,"city_fetched":"Florence","state":"KY","country":"United States","canonicalUrl":"https://foursquare.com/v/muggbees/4bc0066b461576b082b37932","category":"Bar","checkinsCount":362,"usersCount":176,"tipCount":9,"visitsCount":371,"tier":"","message":"","currency":"","rating":4.9}]