[{"name":"Trepanier's Backyard Grill & Bar","phone":"9209249400","address":"838 E Johnson St","lat":43.78329471633475,"lng":-88.41450333595276,"city_fetched":"Fond du Lac","state":"WI","country":"United States","canonicalUrl":"https://foursquare.com/v/trepaniers-backyard-grill--bar/4b801640f964a520e85030e3","category":"American Restaurant","checkinsCount":2658,"usersCount":1255,"tipCount":28,"visitsCount":3268,"url":"http://www.visitbackyard.com","tier":2,"message":"Moderate","currency":"$","rating":8.5},{"name":"O'Davey's Pub","phone":"9209215190","address":"36 4th St","lat":43.7734567258196,"lng":-88.44563841819763,"city_fetched":"Fond du Lac","state":"WI","country":"United States","canonicalUrl":"https://foursquare.com/v/odaveys-pub/4ce8ab6d0f196dcb1c5c47ae","category":"Bar","checkinsCount":1400,"usersCount":205,"tipCount":9,"visitsCount":1500,"tier":"","message":"","currency":"","rating":8.4},{"name":"Fox's Den","lat":43.78498838480472,"lng":-88.44724719301246,"city_fetched":"Fond du Lac","state":"WI","country":"United States","canonicalUrl":"https://foursquare.com/v/foxs-den/4dea9256d22da22d4ed7ee20","category":"Bar","checkinsCount":412,"usersCount":77,"tipCount":3,"visitsCount":601,"tier":"","message":"","currency":"","rating":8.2},{"name":"Irish's Pub","phone":"9209219737","address":"10 Western Ave","lat":43.773093998461775,"lng":-88.44754054576369,"city_fetched":"Fond du Lac","state":"WI","country":"United States","canonicalUrl":"https://foursquare.com/v/irishs-pub/4bf75d718d30d13aba00ff17","category":"Pub","checkinsCount":295,"usersCount":141,"tipCount":1,"visitsCount":330,"tier":2,"message":"Moderate","currency":"$","rating":8.2},{"name":"Salty's Seafood & Spirits","phone":"9209229940","address":"503 N Park Ave","lat":43.79231790618779,"lng":-88.43908309936523,"city_fetched":"Fond du Lac","state":"WI","country":"United States","canonicalUrl":"https://foursquare.com/v/saltys-seafood--spirits/4b638d10f964a520c5822ae3","category":"Seafood Restaurant","checkinsCount":467,"usersCount":307,"tipCount":16,"visitsCount":483,"url":"http://www.saltysseafoodandspirits.com","tier":3,"message":"Expensive","currency":"$","rating":7.9},{"name":"Frenchies","phone":"9209333022","address":"765 S Military Rd","lat":43.762445214812814,"lng":-88.46836819797325,"city_fetched":"Fond du Lac","state":"WI","country":"United States","canonicalUrl":"https://foursquare.com/v/frenchies/4db23b85fa8c6bb2d0acb46e","category":"Bar","checkinsCount":363,"usersCount":155,"tipCount":3,"visitsCount":410,"tier":"","message":"","currency":"","rating":7.8},{"name":"RamJets","phone":"9209230095","address":"35 N Lincoln Ave","lat":43.77981413890907,"lng":-88.45969399722172,"city_fetched":"Fond du Lac","state":"WI","country":"United States","canonicalUrl":"https://foursquare.com/v/ramjets/4d4779c1564e224bf30dd2cd","category":"Bar","checkinsCount":568,"usersCount":118,"tipCount":0,"visitsCount":720,"url":"http://www.ramjetsbar.com","tier":"","message":"","currency":"","rating":7.8},{"name":"Stretch Truck Stop BP","phone":"9209211500","address":"565 N Pioneer Rd","lat":43.80522313479063,"lng":-88.49516483368504,"city_fetched":"Fond du Lac","state":"WI","country":"United States","canonicalUrl":"https://foursquare.com/v/stretch-truck-stop-bp/50294b54f470f7543bccaa89","category":"Gas Station","checkinsCount":1962,"usersCount":1092,"tipCount":19,"visitsCount":2450,"url":"http://mybpstation.com","tier":"","message":"","currency":"","rating":7.7},{"name":"Somewhere","lat":43.77670032156348,"lng":-88.44942836472401,"city_fetched":"Fond du Lac","state":"WI","country":"United States","canonicalUrl":"https://foursquare.com/v/somewhere/4c16ee9c96040f47eaae73a5","category":"Bar","checkinsCount":553,"usersCount":145,"tipCount":1,"visitsCount":576,"tier":"","message":"","currency":"","rating":7.7},{"name":"Buffalo Wild Wings","phone":"9209071960","twitter":"bwwings","address":"121 N Pioneer Rd","lat":43.78187261154564,"lng":-88.48030772509192,"city_fetched":"Fond du Lac","state":"WI","country":"United States","canonicalUrl":"https://foursquare.com/v/buffalo-wild-wings/51d2ee9b5a2347d14627b721","category":"Wings Joint","checkinsCount":1255,"usersCount":804,"tipCount":9,"visitsCount":1920,"url":"http://www.buffalowildwings.com","tier":2,"message":"Moderate","currency":"$","rating":7.7},{"name":"Backstage Bar & Grill","phone":"9209336003","address":"101 N Main St","lat":43.78154680387159,"lng":-88.44665101834457,"city_fetched":"Fond du Lac","state":"WI","country":"United States","canonicalUrl":"https://foursquare.com/v/backstage-bar--grill/5276d67811d2b1d2e8419f8c","category":"Bar","checkinsCount":273,"usersCount":57,"tipCount":3,"visitsCount":298,"tier":"","message":"","currency":"","rating":7.6},{"name":"Coliseum Sports Bar and Grill","phone":"9209249599","address":"91 S Main St","lat":43.776245611928786,"lng":-88.44675958156586,"city_fetched":"Fond du Lac","state":"WI","country":"United States","canonicalUrl":"https://foursquare.com/v/coliseum-sports-bar-and-grill/4ba5880af964a520da0f39e3","category":"American Restaurant","checkinsCount":2377,"usersCount":940,"tipCount":13,"visitsCount":2749,"url":"http://thecoliseumsportsbar.com","tier":2,"message":"Moderate","currency":"$","rating":7.5},{"name":"The Green Dragon Brewpub","phone":"9209335224","twitter":"greendragonbp","address":"156 Western Ave","lat":43.77330193512068,"lng":-88.45296247935532,"city_fetched":"Fond du Lac","state":"WI","country":"United States","canonicalUrl":"https://foursquare.com/v/the-green-dragon-brewpub/53f27eb4498ea33429d5d210","category":"Pub","checkinsCount":191,"usersCount":197,"tipCount":3,"visitsCount":412,"url":"http://www.greendragonbrewpub.com/home.aspx","tier":"","message":"","currency":"","rating":7.4},{"name":"Press Box","phone":"9209219677","address":"251 Forest Ave","lat":43.77714596337973,"lng":-88.45598540680125,"city_fetched":"Fond du Lac","state":"WI","country":"United States","canonicalUrl":"https://foursquare.com/v/press-box/4c1470e777cea593fdbbd060","category":"Sports Bar","checkinsCount":1233,"usersCount":391,"tipCount":1,"visitsCount":1707,"url":"http://pressboxfdl.com","tier":"","message":"","currency":"","rating":7.4},{"name":"Fat Joe's Bar & Grill","phone":"9209333833","address":"15 W Division St","lat":43.77909857547476,"lng":-88.44773926745677,"city_fetched":"Fond du Lac","state":"WI","country":"United States","canonicalUrl":"https://foursquare.com/v/fat-joes-bar--grill/4f46d8b8e4b068e1cdb928e8","category":"Restaurant","checkinsCount":1081,"usersCount":567,"tipCount":25,"visitsCount":1312,"tier":"","message":"","currency":"","rating":7.3},{"name":"Slim & Chubby's","phone":"9203229375","address":"109 S Main St","lat":43.775818999163754,"lng":-88.44678350231922,"city_fetched":"Fond du Lac","state":"WI","country":"United States","canonicalUrl":"https://foursquare.com/v/slim--chubbys/4bbac1067421a593732ec440","category":"Bar","checkinsCount":1238,"usersCount":283,"tipCount":12,"visitsCount":1285,"tier":"","message":"","currency":"","rating":7},{"name":"Main Pub","phone":"9209247815","address":"241 S Main St","lat":43.77192224769075,"lng":-88.446901791237,"city_fetched":"Fond du Lac","state":"WI","country":"United States","canonicalUrl":"https://foursquare.com/v/main-pub/4ca3d1dcd7c33704f248a462","category":"Pub","checkinsCount":719,"usersCount":112,"tipCount":5,"visitsCount":750,"tier":"","message":"","currency":"","rating":6.9},{"name":"Elks Lodge #57","address":"33 Sheboygan St","lat":43.7779885996983,"lng":-88.44528436660767,"city_fetched":"Fond du Lac","state":"WI","country":"United States","canonicalUrl":"https://foursquare.com/v/elks-lodge-57/4bc8f47f937ca593f5dea492","category":"Lounge","checkinsCount":347,"usersCount":96,"tipCount":1,"visitsCount":415,"tier":"","message":"","currency":"","rating":6.8},{"name":"Jodi's Pitstop","phone":"9209069141","address":"261 N Main St","lat":43.78611175044505,"lng":-88.44708158976809,"city_fetched":"Fond du Lac","state":"WI","country":"United States","canonicalUrl":"https://foursquare.com/v/jodis-pitstop/4b4403eaf964a52039f025e3","category":"Bar","checkinsCount":965,"usersCount":117,"tipCount":7,"visitsCount":1024,"tier":"","message":"","currency":"","rating":6.7},{"name":"Beernuts","phone":"9209333030","address":"Main St.","lat":43.77347221999059,"lng":-88.44696879386902,"city_fetched":"Fond du Lac","state":"WI","country":"United States","canonicalUrl":"https://foursquare.com/v/beernuts/4e17d09cd1648b83482cce45","category":"Bar","checkinsCount":332,"usersCount":112,"tipCount":1,"visitsCount":346,"tier":"","message":"","currency":"","rating":6.3},{"name":"Third And One","address":"Main Street","lat":43.778935388496016,"lng":-88.44733236014665,"city_fetched":"Fond du Lac","state":"WI","country":"United States","canonicalUrl":"https://foursquare.com/v/third-and-one/505a7ebae4b0649c4fb803ee","category":"Bar","checkinsCount":274,"usersCount":131,"tipCount":3,"visitsCount":293,"tier":"","message":"","currency":"","rating":6.1}]