[{"name":"BakerStreet","phone":"2604843300","twitter":"bakerstreetftw","address":"4820 N Clinton St","lat":41.122165111349005,"lng":-85.12555697980943,"city_fetched":"Fort Wayne","state":"IN","country":"United States","canonicalUrl":"https://foursquare.com/v/bakerstreet/4b5a3e80f964a5201ab728e3","category":"Steakhouse","checkinsCount":1867,"usersCount":1025,"tipCount":38,"visitsCount":2323,"url":"http://www.bakerstreetfortwayne.com","tier":3,"message":"Expensive","currency":"$","rating":9.2},{"name":"JK O'Donnell's Irish Pub","phone":"2604205563","twitter":"jk_odonnells","address":"121 W Wayne St","lat":41.07816355759433,"lng":-85.14029697260294,"neighborhood":"Downtown Fort Wayne","city_fetched":"Fort Wayne","state":"IN","country":"United States","canonicalUrl":"https://foursquare.com/v/jk-odonnells-irish-pub/4b1304aaf964a520c29223e3","category":"Irish Pub","checkinsCount":6086,"usersCount":2137,"tipCount":51,"visitsCount":6759,"url":"http://www.jkodonnells.com","tier":2,"message":"Moderate","currency":"$","rating":9.1},{"name":"The Deck","phone":"2604263411","address":"305 E Superior St","lat":41.08345941994085,"lng":-85.13644695281982,"neighborhood":"Downtown Fort Wayne","city_fetched":"Fort Wayne","state":"IN","country":"United States","canonicalUrl":"https://foursquare.com/v/the-deck/4bfb1117d2b720a1238b326a","category":"Bar","checkinsCount":2725,"usersCount":991,"tipCount":25,"visitsCount":2998,"tier":1,"message":"Cheap","currency":"$","rating":9},{"name":"Calhoun St. Soups Salads and Spirits","phone":"2604567005","twitter":"calhounstreet","address":"1915 S Calhoun St","lat":41.06810010390879,"lng":-85.13799252423809,"city_fetched":"Fort Wayne","state":"IN","country":"United States","canonicalUrl":"https://foursquare.com/v/calhoun-st-soups-salads-and-spirits/4b5dd056f964a5202e6d29e3","category":"Bar","checkinsCount":3674,"usersCount":1138,"tipCount":36,"visitsCount":4405,"url":"http://calhouncs3.com","tier":1,"message":"Cheap","currency":"$","rating":9},{"name":"Dash In","phone":"2604233595","twitter":"thedashin","address":"814 S Calhoun St","lat":41.07890835,"lng":-85.139498,"neighborhood":"Downtown Fort Wayne","city_fetched":"Fort Wayne","state":"IN","country":"United States","canonicalUrl":"https://foursquare.com/v/dash-in/4b43b0f5f964a5208de625e3","category":"Bar","checkinsCount":5922,"usersCount":1257,"tipCount":62,"visitsCount":6022,"url":"http://thedash-in.com","tier":2,"message":"Moderate","currency":"$","rating":8.9},{"name":"Henry's","phone":"2604260531","address":"536 W Main St","lat":41.07935180513619,"lng":-85.14741230181373,"neighborhood":"Downtown Fort Wayne","city_fetched":"Fort Wayne","state":"IN","country":"United States","canonicalUrl":"https://foursquare.com/v/henrys/4b159b5ff964a5200ab123e3","category":"Pub","checkinsCount":5086,"usersCount":1143,"tipCount":42,"visitsCount":5696,"tier":2,"message":"Moderate","currency":"$","rating":8.5},{"name":"The Hoppy Gnome","phone":"2604220070","twitter":"thehoppygnome","address":"203 E Berry St","lat":41.07973442176831,"lng":-85.1379266814485,"neighborhood":"Downtown Fort Wayne","city_fetched":"Fort Wayne","state":"IN","country":"United States","canonicalUrl":"https://foursquare.com/v/the-hoppy-gnome/55a15ad1498eb8d1d6fe79c0","category":"Gastropub","checkinsCount":479,"usersCount":307,"tipCount":9,"visitsCount":610,"url":"http://hoppygnome.com","tier":"","message":"","currency":"","rating":8.5},{"name":"Summit City Brewerks","address":"1501 E Berry St","lat":41.081167,"lng":-85.117342,"city_fetched":"Fort Wayne","state":"IN","country":"United States","canonicalUrl":"https://foursquare.com/v/summit-city-brewerks/54010940498e9c5134f135d8","category":"Brewery","checkinsCount":496,"usersCount":243,"tipCount":7,"visitsCount":791,"url":"http://summitcitybrewerks.com","tier":"","message":"","currency":"","rating":8.4},{"name":"Old Crown Coffee Roasters","phone":"2604225282","twitter":"oldcrown","address":"3417 N Anthony Blvd","lat":41.10759840640024,"lng":-85.11656105518341,"city_fetched":"Fort Wayne","state":"IN","country":"United States","canonicalUrl":"https://foursquare.com/v/old-crown-coffee-roasters/4b44d7c6f964a520e0fd25e3","category":"Coffee Shop","checkinsCount":3760,"usersCount":708,"tipCount":40,"visitsCount":4298,"url":"http://www.oldcrown.com","tier":2,"message":"Moderate","currency":"$","rating":8.4},{"name":"Tower Bar & Grill","address":"2403 W State Street","lat":41.09545265144256,"lng":-85.17338941555288,"city_fetched":"Fort Wayne","state":"IN","country":"United States","canonicalUrl":"https://foursquare.com/v/tower-bar--grill/4b7b53f7f964a5208b5e2fe3","category":"Bar","checkinsCount":1478,"usersCount":461,"tipCount":17,"visitsCount":1902,"tier":1,"message":"Cheap","currency":"$","rating":8.4},{"name":"ACME Bar & Grill","phone":"2604802263","address":"1105 E State Blvd","lat":41.09679869143412,"lng":-85.12476668400112,"neighborhood":"Northside","city_fetched":"Fort Wayne","state":"IN","country":"United States","canonicalUrl":"https://foursquare.com/v/acme-bar--grill/4b6cc3e8f964a520c7522ce3","category":"Bar","checkinsCount":1690,"usersCount":761,"tipCount":39,"visitsCount":2123,"url":"http://acmebarcoffee.com","tier":2,"message":"Moderate","currency":"$","rating":8.3},{"name":"Granite City Food & Brewery","phone":"2604713030","twitter":"gcfb","address":"3809 Coldwater Rd","lat":41.11136690744505,"lng":-85.13565252479918,"city_fetched":"Fort Wayne","state":"IN","country":"United States","canonicalUrl":"https://foursquare.com/v/granite-city-food--brewery/4c559a306a4bb713e42e5327","category":"Gastropub","checkinsCount":4939,"usersCount":2370,"tipCount":56,"visitsCount":6025,"url":"http://www.gcfb.net","tier":2,"message":"Moderate","currency":"$","rating":8.3},{"name":"The Green Frog Inn","phone":"2604261088","address":"820 Spring St","lat":41.089020383803586,"lng":-85.15310897067096,"neighborhood":"Bloomingdale","city_fetched":"Fort Wayne","state":"IN","country":"United States","canonicalUrl":"https://foursquare.com/v/the-green-frog-inn/4b4945f1f964a520136c26e3","category":"Bar","checkinsCount":772,"usersCount":353,"tipCount":10,"visitsCount":856,"tier":"","message":"","currency":"","rating":8.2},{"name":"Rack & Helen's Bar and Grill","phone":"2607495396","twitter":"rackandhelens","address":"525 Broadway St","lat":41.07236807700964,"lng":-85.016882291112,"city_fetched":"Fort Wayne","state":"IN","country":"United States","canonicalUrl":"https://foursquare.com/v/rack--helens-bar-and-grill/4b5a3221f964a5206fb328e3","category":"Bar","checkinsCount":2993,"usersCount":1015,"tipCount":39,"visitsCount":3662,"url":"http://rackandhelens.com","tier":2,"message":"Moderate","currency":"$","rating":8.1},{"name":"Eddie Merlot's","phone":"2604592222","address":"1502 S Illinois Rd","lat":41.07233293402431,"lng":-85.19311465322971,"city_fetched":"Fort Wayne","state":"IN","country":"United States","canonicalUrl":"https://foursquare.com/v/eddie-merlots/4b4fb83ff964a520791227e3","category":"Steakhouse","checkinsCount":1139,"usersCount":558,"tipCount":13,"visitsCount":1158,"url":"http://www.eddiemerlots.com","tier":4,"message":"Very Expensive","currency":"$","rating":8.1},{"name":"Mad Anthony Brewing Company","phone":"2604262537","address":"2002 Broadway","lat":41.067648134246134,"lng":-85.15271908401736,"city_fetched":"Fort Wayne","state":"IN","country":"United States","canonicalUrl":"https://foursquare.com/v/mad-anthony-brewing-company/4b130366f964a520a89223e3","category":"Brewery","checkinsCount":4299,"usersCount":1843,"tipCount":50,"visitsCount":4972,"url":"http://www.madbrew.com","tier":2,"message":"Moderate","currency":"$","rating":8},{"name":"Laycoff's Tavern","phone":"2604821122","address":"3530 N Clinton St","lat":41.10957495,"lng":-85.13588,"city_fetched":"Fort Wayne","state":"IN","country":"United States","canonicalUrl":"https://foursquare.com/v/laycoffs-tavern/4b43aefff964a52043e625e3","category":"Bar","checkinsCount":221,"usersCount":113,"tipCount":9,"visitsCount":227,"tier":"","message":"","currency":"","rating":8},{"name":"The Brass Rail","phone":"2602675303","twitter":"brassrailfw","address":"1121 Broadway","lat":41.07415185,"lng":-85.147552,"neighborhood":"West Central","city_fetched":"Fort Wayne","state":"IN","country":"United States","canonicalUrl":"https://foursquare.com/v/the-brass-rail/4b48013ef964a5203c4626e3","category":"Dive Bar","checkinsCount":5418,"usersCount":821,"tipCount":53,"visitsCount":5715,"url":"http://www.brassrailfw.com","tier":"","message":"","currency":"","rating":8},{"name":"O'Sullivan's Italian Pub","phone":"2604225896","address":"1808 W Main St","lat":41.078664020196555,"lng":-85.16562945446417,"neighborhood":"Nebraska","city_fetched":"Fort Wayne","state":"IN","country":"United States","canonicalUrl":"https://foursquare.com/v/osullivans-italian-pub/4b45831ef964a5207b0d26e3","category":"Pub","checkinsCount":4076,"usersCount":835,"tipCount":16,"visitsCount":4422,"tier":1,"message":"Cheap","currency":"$","rating":8},{"name":"Pedal City Beer Garden","address":"1215 W Main St","lat":41.07861928782115,"lng":-85.15736210127,"neighborhood":"Nebraska","city_fetched":"Fort Wayne","state":"IN","country":"United States","canonicalUrl":"https://foursquare.com/v/pedal-city-beer-garden/541cf4df498ef6d4a64fc7b1","category":"Beer Garden","checkinsCount":174,"usersCount":124,"tipCount":2,"visitsCount":294,"tier":"","message":"","currency":"","rating":8},{"name":"Rudy's","phone":"2604510115","address":"409 W Brackenridge St","lat":41.07318826225709,"lng":-85.14417707920074,"neighborhood":"West Central","city_fetched":"Fort Wayne","state":"IN","country":"United States","canonicalUrl":"https://foursquare.com/v/rudys/51e73d1d2fc6588316659ae0","category":"Beer Garden","checkinsCount":181,"usersCount":100,"tipCount":6,"visitsCount":217,"url":"http://www.rudysshop.com","tier":"","message":"","currency":"","rating":8},{"name":"Black Dog Pub","phone":"2604325534","twitter":"blackdogpubin","address":"6230 Covington Rd","lat":41.05946255184749,"lng":-85.22174184558307,"city_fetched":"Fort Wayne","state":"IN","country":"United States","canonicalUrl":"https://foursquare.com/v/black-dog-pub/4c04059af423a593c606d116","category":"Bar","checkinsCount":1705,"usersCount":589,"tipCount":29,"visitsCount":2075,"url":"http://blackdogpub-hub.com","tier":2,"message":"Moderate","currency":"$","rating":7.9},{"name":"Chevvy's Pizza And Sports Bar","phone":"2604364748","address":"3740 W Jefferson Blvd","lat":41.0739170178891,"lng":-85.18954870745982,"city_fetched":"Fort Wayne","state":"IN","country":"United States","canonicalUrl":"https://foursquare.com/v/chevvys-pizza-and-sports-bar/4bd297c7caff9521cf37d3f0","category":"Bar","checkinsCount":2217,"usersCount":771,"tipCount":15,"visitsCount":2498,"url":"http://chevvys.com","tier":"","message":"","currency":"","rating":7.8},{"name":"Zianos","phone":"2607555643","address":"702 E DuPont Rd","lat":41.17723902686477,"lng":-85.13301357577932,"city_fetched":"Fort Wayne","state":"IN","country":"United States","canonicalUrl":"https://foursquare.com/v/zianos/4daf84a7fa8c123fa7f126f0","category":"Italian Restaurant","checkinsCount":829,"usersCount":421,"tipCount":15,"visitsCount":872,"url":"http://zianos.com","tier":2,"message":"Moderate","currency":"$","rating":7.8},{"name":"Trion Tavern","phone":"2604932265","twitter":"brewhaven","address":"503 Broadway St","lat":41.07308007611017,"lng":-85.01725790282624,"city_fetched":"Fort Wayne","state":"IN","country":"United States","canonicalUrl":"https://foursquare.com/v/trion-tavern/4bad8b04f964a520405a3be3","category":"Pub","checkinsCount":1326,"usersCount":544,"tipCount":15,"visitsCount":1598,"url":"http://www.triontavern.com","tier":2,"message":"Moderate","currency":"$","rating":7.8},{"name":"Trolley Steaks & Seafood","phone":"2604904322","address":"2898 E DuPont Rd","lat":41.17786856729428,"lng":-85.10603439348415,"city_fetched":"Fort Wayne","state":"IN","country":"United States","canonicalUrl":"https://foursquare.com/v/trolley-steaks--seafood/4b75904ff964a5206a142ee3","category":"Steakhouse","checkinsCount":1116,"usersCount":631,"tipCount":30,"visitsCount":1226,"url":"http://www.thetrolleybar.com","tier":2,"message":"Moderate","currency":"$","rating":7.7},{"name":"Office Tavern","twitter":"jarmeika","address":"3306 Brooklyn Ave","lat":41.05462572635986,"lng":-85.16533077797128,"city_fetched":"Fort Wayne","state":"IN","country":"United States","canonicalUrl":"https://foursquare.com/v/office-tavern/4c2e9767213c2d7ff5882f5d","category":"Bar","checkinsCount":281,"usersCount":117,"tipCount":5,"visitsCount":341,"tier":"","message":"","currency":"","rating":7.7},{"name":"Chops Wine Bar","phone":"2604369220","address":"6417 W Jefferson Blvd","lat":41.05498776735173,"lng":-85.22489236334165,"city_fetched":"Fort Wayne","state":"IN","country":"United States","canonicalUrl":"https://foursquare.com/v/chops-wine-bar/4ffceed5e4b0072241603adf","category":"Wine Bar","checkinsCount":322,"usersCount":169,"tipCount":9,"visitsCount":331,"url":"http://www.chopswine.com","tier":"","message":"","currency":"","rating":7.7},{"name":"Latchstring Bar & Grill","phone":"2604835526","address":"3221 N Clinton St","lat":41.10568246336124,"lng":-85.138777566858,"city_fetched":"Fort Wayne","state":"IN","country":"United States","canonicalUrl":"https://foursquare.com/v/latchstring-bar--grill/4bbe5b0d98f495217219d163","category":"Bar","checkinsCount":1653,"usersCount":283,"tipCount":10,"visitsCount":1729,"tier":"","message":"","currency":"","rating":7.7},{"name":"Deer Park Irish Pub","phone":"2604328966","twitter":"deerparkpub","address":"1530 Leesburg Rd","lat":41.088452638367876,"lng":-85.1714102986674,"city_fetched":"Fort Wayne","state":"IN","country":"United States","canonicalUrl":"https://foursquare.com/v/deer-park-irish-pub/4b4653fdf964a520bd1d26e3","category":"Pub","checkinsCount":1080,"usersCount":461,"tipCount":6,"visitsCount":1358,"url":"https://www.deerparkpub.com","tier":1,"message":"Cheap","currency":"$","rating":7.6},{"name":"Nick's Martini Bar","lat":41.09677622972584,"lng":-85.12281622631107,"neighborhood":"Northside","city_fetched":"Fort Wayne","state":"IN","country":"United States","canonicalUrl":"https://foursquare.com/v/nicks-martini-bar/54f10f1d498ec4bc813a87bc","category":"Lounge","checkinsCount":53,"usersCount":42,"tipCount":0,"visitsCount":97,"tier":"","message":"","currency":"","rating":7.5},{"name":"Cap N Cork","phone":"2604231496","address":"1031 Broadway","lat":41.075165790560156,"lng":-85.14756928453957,"neighborhood":"Downtown Fort Wayne","city_fetched":"Fort Wayne","state":"IN","country":"United States","canonicalUrl":"https://foursquare.com/v/cap-n-cork/4cb09cc61168a09395282c23","category":"Liquor Store","checkinsCount":612,"usersCount":204,"tipCount":1,"visitsCount":681,"url":"http://www.capncork.com","tier":"","message":"","currency":"","rating":7.5},{"name":"Club Soda","phone":"2604263442","address":"235 E Superior St","lat":41.083057767346766,"lng":-85.13772408775931,"neighborhood":"Downtown Fort Wayne","city_fetched":"Fort Wayne","state":"IN","country":"United States","canonicalUrl":"https://foursquare.com/v/club-soda/4b4f563bf964a520e30127e3","category":"Cocktail Bar","checkinsCount":2688,"usersCount":1451,"tipCount":23,"visitsCount":3009,"url":"http://www.clubsodafortwayne.com","tier":3,"message":"Expensive","currency":"$","rating":7.4},{"name":"Babylon","phone":"2604567005","address":"112 E Masterson Ave","lat":41.06815665,"lng":-85.137638,"city_fetched":"Fort Wayne","state":"IN","country":"United States","canonicalUrl":"https://foursquare.com/v/babylon/4ba5ac85f964a520241b39e3","category":"Gay Bar","checkinsCount":924,"usersCount":273,"tipCount":1,"visitsCount":969,"tier":"","message":"","currency":"","rating":7.4},{"name":"Curly's","lat":41.045611329002526,"lng":-85.16720380728712,"city_fetched":"Fort Wayne","state":"Indiana","country":"United States","canonicalUrl":"https://foursquare.com/v/curlys/4b8884f4f964a520e1fd31e3","category":"Bar","checkinsCount":833,"usersCount":261,"tipCount":3,"visitsCount":959,"tier":"","message":"","currency":"","rating":7.3},{"name":"Bar 145","address":"4910 N Clinton St","lat":41.122636768263646,"lng":-85.12568869468322,"city_fetched":"Fort Wayne","state":"IN","country":"United States","canonicalUrl":"https://foursquare.com/v/bar-145/552593a0498eb767a33f1258","category":"Gastropub","checkinsCount":154,"usersCount":187,"tipCount":3,"visitsCount":267,"tier":"","message":"","currency":"","rating":7.2},{"name":"Shady Nook","phone":"2604717372","address":"2834 Parnell Ave","lat":41.1021503274293,"lng":-85.13067336621907,"neighborhood":"Northside","city_fetched":"Fort Wayne","state":"IN","country":"United States","canonicalUrl":"https://foursquare.com/v/shady-nook/4b5484ddf964a5204dbe27e3","category":"Bar","checkinsCount":676,"usersCount":101,"tipCount":3,"visitsCount":747,"tier":"","message":"","currency":"","rating":7.2},{"name":"Phoenix","phone":"2603876571","address":"1122 Broadway","lat":41.07407515650299,"lng":-85.1481009969185,"neighborhood":"West Central","city_fetched":"Fort Wayne","state":"IN","country":"United States","canonicalUrl":"https://foursquare.com/v/phoenix/5276d52d11d283b5e4532d9b","category":"Bar","checkinsCount":497,"usersCount":222,"tipCount":14,"visitsCount":549,"url":"http://fwphoenix.com","tier":2,"message":"Moderate","currency":"$","rating":7.2},{"name":"The Rusty Spur","phone":"2607553465","address":"10350 Leo Rd","lat":41.1793664424674,"lng":-85.07464606829663,"city_fetched":"Fort Wayne","state":"IN","country":"United States","canonicalUrl":"https://foursquare.com/v/the-rusty-spur/4b4b5524f964a520c29726e3","category":"Bar","checkinsCount":1444,"usersCount":700,"tipCount":4,"visitsCount":1550,"tier":"","message":"","currency":"","rating":7.1},{"name":"Corner Pocket Pub","phone":"2604927665","address":"3215 Saint Joe Center Rd","lat":41.13465983219041,"lng":-85.10121982822943,"city_fetched":"Fort Wayne","state":"IN","country":"United States","canonicalUrl":"https://foursquare.com/v/corner-pocket-pub/4b43b9c8f964a520aee725e3","category":"Sports Bar","checkinsCount":3807,"usersCount":1192,"tipCount":26,"visitsCount":4507,"url":"http://www.cornerpocketfw.com","tier":2,"message":"Moderate","currency":"$","rating":7.1},{"name":"YOLO Event Center","phone":"2604832929","address":"4201 N Wells St","lat":41.11601752314658,"lng":-85.14967584839786,"city_fetched":"Fort Wayne","state":"IN","country":"United States","canonicalUrl":"https://foursquare.com/v/yolo-event-center/4bda0ee02a3a0f47508ca9b6","category":"Nightclub","checkinsCount":564,"usersCount":217,"tipCount":2,"visitsCount":592,"url":"http://www.yoloeventcenter.com","tier":"","message":"","currency":"","rating":7.1},{"name":"Tilted Kilt Pub & Eatery","phone":"2604593985","twitter":"tiltedkiltpub","address":"4541 Illinois Rd","lat":41.07402175563393,"lng":-85.20027003720286,"city_fetched":"Fort Wayne","state":"IN","country":"United States","canonicalUrl":"https://foursquare.com/v/tilted-kilt-pub--eatery/4d0540c12f96f04d710d2254","category":"Pub","checkinsCount":3748,"usersCount":1362,"tipCount":28,"visitsCount":4039,"url":"http://www.tiltedkilt.com","tier":2,"message":"Moderate","currency":"$","rating":7},{"name":"Flanagans","phone":"2604326666","address":"6525 Covington Rd","lat":41.0593711929236,"lng":-85.22587844341304,"city_fetched":"Fort Wayne","state":"IN","country":"United States","canonicalUrl":"https://foursquare.com/v/flanagans/4b5492cef964a520adc027e3","category":"Pub","checkinsCount":2007,"usersCount":1062,"tipCount":38,"visitsCount":2390,"url":"http://eatatflanagans.com","tier":2,"message":"Moderate","currency":"$","rating":6.9},{"name":"Peanuts Food & Spirits","phone":"2604862822","address":"5731 Saint Joe Rd","lat":41.13244772271738,"lng":-85.10230779647827,"city_fetched":"Fort Wayne","state":"IN","country":"United States","canonicalUrl":"https://foursquare.com/v/peanuts-food--spirits/4b43b06cf964a52078e625e3","category":"Bar","checkinsCount":1979,"usersCount":606,"tipCount":18,"visitsCount":2054,"tier":1,"message":"Cheap","currency":"$","rating":6.9},{"name":"Cocktails","phone":"2604868000","address":"6133 Plantation Ln","lat":41.11978182204951,"lng":-85.06243471779283,"city_fetched":"Fort Wayne","state":"IN","country":"United States","canonicalUrl":"https://foursquare.com/v/cocktails/4bd4ebd56798ef3bceb3628d","category":"Bar","checkinsCount":725,"usersCount":211,"tipCount":16,"visitsCount":759,"tier":"","message":"","currency":"","rating":6.9},{"name":"Smokey Bones Bar & Fire Grill","phone":"2604366233","twitter":"smokeybonesbar","address":"1203 Apple Glen Blvd","lat":41.07346325904116,"lng":-85.20056247711182,"city_fetched":"Fort Wayne","state":"IN","country":"United States","canonicalUrl":"https://foursquare.com/v/smokey-bones-bar--fire-grill/4b8d995cf964a5206e0333e3","category":"BBQ Joint","checkinsCount":2874,"usersCount":1532,"tipCount":27,"visitsCount":3194,"url":"http://www.smokeybones.com","tier":2,"message":"Moderate","currency":"$","rating":6.9},{"name":"Main St Bistro & Martini Lounge","phone":"2604208633","address":"200 Main Street Suite 120","lat":41.080713900475224,"lng":-85.13706565315613,"neighborhood":"Downtown Fort Wayne","city_fetched":"Fort Wayne","state":"IN","country":"United States","canonicalUrl":"https://foursquare.com/v/main-st-bistro--martini-lounge/51cc7e0c498edf7afa6e5ee7","category":"Lounge","checkinsCount":592,"usersCount":288,"tipCount":16,"visitsCount":683,"tier":3,"message":"Expensive","currency":"$","rating":6.9}]