[{"name":"Odell Brewing Company","phone":"9704989070","twitter":"odellbrewing","address":"800 E Lincoln Ave","lat":40.58911942489935,"lng":-105.06307915887741,"city_fetched":"Fort Collins","state":"CO","country":"United States","canonicalUrl":"https://foursquare.com/odellbrewing","category":"Brewery","checkinsCount":9727,"usersCount":6788,"tipCount":75,"visitsCount":11416,"url":"http://www.odellbrewing.com","tier":1,"message":"Cheap","currency":"$","rating":9.6},{"name":"New Belgium Brewing","phone":"9702210524","twitter":"newbelgium","address":"500 Linden St","lat":40.59296918102644,"lng":-105.06869316101074,"city_fetched":"Fort Collins","state":"CO","country":"United States","canonicalUrl":"https://foursquare.com/v/new-belgium-brewing/4abbe089f964a520518520e3","category":"Brewery","checkinsCount":11703,"usersCount":9213,"tipCount":109,"visitsCount":13525,"url":"http://www.newbelgium.com","tier":2,"message":"Moderate","currency":"$","rating":9.5},{"name":"Equinox Brewing","phone":"9704306489","twitter":"equinoxbeer","address":"133 Remington Street","lat":40.58632500989297,"lng":-105.0758171081543,"neighborhood":"Downtown Fort Collins","city_fetched":"Fort Collins","state":"CO","country":"United States","canonicalUrl":"https://foursquare.com/v/equinox-brewing/4bdb056a3c4fef3b6fb9f4bf","category":"Brewery","checkinsCount":4948,"usersCount":2791,"tipCount":40,"visitsCount":5651,"url":"http://www.equinoxbrewing.com","tier":2,"message":"Moderate","currency":"$","rating":9.2},{"name":"The Mayor of Old Town","phone":"9706822410","twitter":"mayorofoldtown","address":"632 S Mason St","lat":40.578889762381074,"lng":-105.07875680923462,"neighborhood":"University North","city_fetched":"Fort Collins","state":"CO","country":"United States","canonicalUrl":"https://foursquare.com/v/the-mayor-of-old-town/4d6e9ffe922f8cfac5ae4cfe","category":"Beer Garden","checkinsCount":6276,"usersCount":2427,"tipCount":72,"visitsCount":7008,"url":"http://www.themayorofoldtown.com","tier":2,"message":"Moderate","currency":"$","rating":9.1},{"name":"Black Bottle Brewery","phone":"9704932337","twitter":"blackbottlebrew","address":"1611 S College Ave Unit 1609","lat":40.56641643832702,"lng":-105.07856619905404,"city_fetched":"Fort Collins","state":"CO","country":"United States","canonicalUrl":"https://foursquare.com/blackbottlebrew","category":"Brewery","checkinsCount":2290,"usersCount":1467,"tipCount":31,"visitsCount":3040,"url":"http://blackbottlebrewery.com","tier":2,"message":"Moderate","currency":"$","rating":9.1},{"name":"Funkwerks","phone":"9704823865","twitter":"funkwerks","address":"1900 E Lincoln Ave","lat":40.58320841771162,"lng":-105.04257917404175,"city_fetched":"Fort Collins","state":"CO","country":"United States","canonicalUrl":"https://foursquare.com/v/funkwerks/4d37907cb9e5224bd2194c90","category":"Brewery","checkinsCount":2851,"usersCount":2202,"tipCount":30,"visitsCount":3306,"url":"http://funkwerks.com","tier":1,"message":"Cheap","currency":"$","rating":9.1},{"name":"Social","phone":"9704495606","twitter":"socialftcollins","address":"240 E Mountain Ave","lat":40.58713673196127,"lng":-105.07601441820495,"neighborhood":"Downtown Fort Collins","city_fetched":"Fort Collins","state":"CO","country":"United States","canonicalUrl":"https://foursquare.com/v/social/521f765711d2530aaddcd11a","category":"Cocktail Bar","checkinsCount":1138,"usersCount":670,"tipCount":23,"visitsCount":1272,"url":"http://socialfortcollins.com","tier":2,"message":"Moderate","currency":"$","rating":9},{"name":"Choice City Butcher & Deli","phone":"9704902489","address":"104 W Olive St","lat":40.58433285202857,"lng":-105.07754981517792,"neighborhood":"Downtown Fort Collins","city_fetched":"Fort Collins","state":"CO","country":"United States","canonicalUrl":"https://foursquare.com/v/choice-city-butcher--deli/4ab50373f964a520fa7120e3","category":"Deli / Bodega","checkinsCount":2655,"usersCount":1507,"tipCount":46,"visitsCount":2852,"url":"http://choicecitybutcher.com","tier":2,"message":"Moderate","currency":"$","rating":8.9},{"name":"Caf√© Vino","phone":"9702123399","twitter":"cafevino_","address":"1200 S College Ave","lat":40.5716289040347,"lng":-105.07663786411285,"city_fetched":"Fort Collins","state":"CO","country":"United States","canonicalUrl":"https://foursquare.com/v/caf%C3%A9-vino/4b775aa0f964a52084942ee3","category":"Wine Bar","checkinsCount":2646,"usersCount":1342,"tipCount":41,"visitsCount":3337,"url":"http://cafevino.com","tier":2,"message":"Moderate","currency":"$","rating":8.8},{"name":"The Whisk(e)y","phone":"9708187931","address":"214 S College Ave","lat":40.58486625333016,"lng":-105.07668803880453,"neighborhood":"Downtown Fort Collins","city_fetched":"Fort Collins","state":"CO","country":"United States","canonicalUrl":"https://foursquare.com/v/the-whiskey/53703080498ee917297920d1","category":"Whisky Bar","checkinsCount":346,"usersCount":204,"tipCount":6,"visitsCount":372,"url":"http://www.thewhiskeyfc.com","tier":"","message":"","currency":"","rating":8.7},{"name":"Fort Collins Brewery & Tavern","phone":"9704721499","twitter":"fortcollinsbrew","address":"1020 E Lincoln Ave","lat":40.58916311,"lng":-105.058977,"city_fetched":"Fort Collins","state":"CO","country":"United States","canonicalUrl":"https://foursquare.com/v/fort-collins-brewery--tavern/4d697b4b82cba0937363dbd8","category":"Brewery","checkinsCount":3569,"usersCount":2862,"tipCount":29,"visitsCount":4000,"url":"http://www.fortcollinsbrewery.com","tier":2,"message":"Moderate","currency":"$","rating":8.7},{"name":"CooperSmith's Pub & Brewing :: Pubside","phone":"9704980483","address":"5 Old Town Sq","lat":40.58724162701437,"lng":-105.07569909095764,"neighborhood":"Downtown Fort Collins","city_fetched":"Fort Collins","state":"CO","country":"United States","canonicalUrl":"https://foursquare.com/v/coopersmiths-pub--brewing--pubside/4ad01882f964a52091d720e3","category":"Brewery","checkinsCount":6192,"usersCount":3950,"tipCount":60,"visitsCount":6442,"url":"http://www.coopersmithspub.com","tier":2,"message":"Moderate","currency":"$","rating":8.7},{"name":"Scrumpy's","phone":"9706821944","address":"215 N College Ave","lat":40.589434011967874,"lng":-105.07720181909666,"neighborhood":"Downtown Fort Collins","city_fetched":"Fort Collins","state":"CO","country":"United States","canonicalUrl":"https://foursquare.com/v/scrumpys/5186c676498e836578fbf132","category":"Bar","checkinsCount":808,"usersCount":451,"tipCount":17,"visitsCount":952,"tier":2,"message":"Moderate","currency":"$","rating":8.7},{"name":"Horse & Dragon Brewing Company","phone":"9706318404","twitter":"horsedragonbrew","address":"124 Racquette Dr","lat":40.58942667126161,"lng":-105.04598975192482,"city_fetched":"Fort Collins","state":"CO","country":"United States","canonicalUrl":"https://foursquare.com/v/horse--dragon-brewing-company/53433c9a498e4bbfe12c1bbc","category":"Brewery","checkinsCount":620,"usersCount":593,"tipCount":8,"visitsCount":936,"url":"http://horseanddragonbrewing.com","tier":"","message":"","currency":"","rating":8.7},{"name":"Lucky Joe's","phone":"9704932213","twitter":"lucky_joes","address":"25 Old Town Sq","lat":40.58740214957248,"lng":-105.07627130708872,"neighborhood":"Downtown Fort Collins","city_fetched":"Fort Collins","state":"CO","country":"United States","canonicalUrl":"https://foursquare.com/lucky_joes","category":"Pub","checkinsCount":5160,"usersCount":1708,"tipCount":29,"visitsCount":5268,"url":"http://www.luckyjoes.com","tier":1,"message":"Cheap","currency":"$","rating":8.6},{"name":"William Oliver's Publick House","phone":"9706803726","twitter":"williamolivers","address":"2608 S Timberline Rd","lat":40.551974,"lng":-105.037181,"neighborhood":"Rigden Farm","city_fetched":"Fort Collins","state":"CO","country":"United States","canonicalUrl":"https://foursquare.com/williamolivers","category":"Whisky Bar","checkinsCount":586,"usersCount":367,"tipCount":8,"visitsCount":875,"url":"http://www.williamolivers.com","tier":"","message":"","currency":"","rating":8.5},{"name":"Zwei Brewing","phone":"9702232482","twitter":"zweibrewing","address":"4612 S Mason St #120","lat":40.52278948740207,"lng":-105.07816658868082,"city_fetched":"Fort Collins","state":"CO","country":"United States","canonicalUrl":"https://foursquare.com/v/zwei-brewing/53f3d914498e0747c5c78b3c","category":"Brewery","checkinsCount":381,"usersCount":316,"tipCount":8,"visitsCount":626,"url":"http://zweibrewing.com/default.aspx","tier":"","message":"","currency":"","rating":8.4},{"name":"Ace Gillett's Lounge","phone":"9704494797","twitter":"acegilletts","address":"239 S. College","lat":40.58441406615481,"lng":-105.07743016641221,"neighborhood":"Downtown Fort Collins","city_fetched":"Fort Collins","state":"CO","country":"United States","canonicalUrl":"https://foursquare.com/v/ace-gilletts-lounge/52fecb55498e01f87e86401e","category":"Speakeasy","checkinsCount":294,"usersCount":184,"tipCount":4,"visitsCount":299,"url":"http://www.acegilletts.com","tier":"","message":"","currency":"","rating":8.3},{"name":"The Crown Pub","phone":"9704845929","twitter":"crownpubftc","address":"134 S College Ave","lat":40.586172239151374,"lng":-105.07670760154724,"neighborhood":"Downtown Fort Collins","city_fetched":"Fort Collins","state":"CO","country":"United States","canonicalUrl":"https://foursquare.com/v/the-crown-pub/4b5baa3df964a520a20e29e3","category":"Pub","checkinsCount":3515,"usersCount":1699,"tipCount":39,"visitsCount":3661,"url":"http://www.crownpub.net","tier":2,"message":"Moderate","currency":"$","rating":8.2},{"name":"Rio Grande Mexican Restaurant","phone":"9702245428","twitter":"myriogrande","address":"143 W Mountain Ave","lat":40.5866957321084,"lng":-105.07820963859558,"neighborhood":"Downtown Fort Collins","city_fetched":"Fort Collins","state":"CO","country":"United States","canonicalUrl":"https://foursquare.com/v/rio-grande-mexican-restaurant/49df8e75f964a520dc601fe3","category":"Mexican Restaurant","checkinsCount":6977,"usersCount":2883,"tipCount":45,"visitsCount":7524,"url":"http://www.riograndemexican.com","tier":2,"message":"Moderate","currency":"$","rating":8.1},{"name":"Tap and Handle","phone":"9704841116","twitter":"tapandhandle","address":"307 S College Ave","lat":40.58373882193052,"lng":-105.07742445772544,"neighborhood":"Downtown Fort Collins","city_fetched":"Fort Collins","state":"CO","country":"United States","canonicalUrl":"https://foursquare.com/v/tap-and-handle/4f270107e4b0b653a61a75b5","category":"Beer Garden","checkinsCount":1788,"usersCount":821,"tipCount":16,"visitsCount":2019,"url":"http://tapandhandle.com","tier":2,"message":"Moderate","currency":"$","rating":8},{"name":"CooperSmith's Pub & Brewing :: Pool Side","phone":"9704980483","address":"7 Old Town Sq","lat":40.58724162701437,"lng":-105.07537722587585,"neighborhood":"Downtown Fort Collins","city_fetched":"Fort Collins","state":"CO","country":"United States","canonicalUrl":"https://foursquare.com/v/coopersmiths-pub--brewing--pool-side/4b8d4cdef964a520f0f232e3","category":"Pub","checkinsCount":3263,"usersCount":1790,"tipCount":34,"visitsCount":3399,"url":"http://www.coopersmithspub.com","tier":"","message":"","currency":"","rating":8},{"name":"Town Pump","phone":"9704934404","address":"124 N College Ave","lat":40.58761641795212,"lng":-105.07669687271118,"neighborhood":"Downtown Fort Collins","city_fetched":"Fort Collins","state":"CO","country":"United States","canonicalUrl":"https://foursquare.com/v/town-pump/4b481733f964a520034826e3","category":"Dive Bar","checkinsCount":1419,"usersCount":750,"tipCount":12,"visitsCount":1453,"tier":1,"message":"Cheap","currency":"$","rating":8},{"name":"Jessup Farm Barrel House","phone":"9705688345","address":"1921 Jessup Dr","lat":40.56222956947153,"lng":-105.03790230574407,"city_fetched":"Fort Collins","state":"CO","country":"United States","canonicalUrl":"https://foursquare.com/v/jessup-farm-barrel-house/56563108498ee7d701a368f4","category":"Brewery","checkinsCount":141,"usersCount":147,"tipCount":3,"visitsCount":206,"tier":"","message":"","currency":"","rating":8},{"name":"The Hideout Patio Bar & Grill","phone":"9704071903","address":"1903 E Lincoln Ave","lat":40.58222592681684,"lng":-105.04244538046393,"city_fetched":"Fort Collins","state":"CO","country":"United States","canonicalUrl":"https://foursquare.com/v/the-hideout-patio-bar--grill/4bf07e72b315c9b62c1793ff","category":"Beer Garden","checkinsCount":506,"usersCount":260,"tipCount":5,"visitsCount":570,"tier":"","message":"","currency":"","rating":7.9},{"name":"Welsh Rabbit Cheese Shop","lat":40.589266,"lng":-105.07624,"neighborhood":"Downtown Fort Collins","city_fetched":"Fort Collins","state":"CO","country":"United States","canonicalUrl":"https://foursquare.com/v/welsh-rabbit-cheese-shop/4f76445ee4b0557b210aaac8","category":"Wine Bar","checkinsCount":350,"usersCount":232,"tipCount":5,"visitsCount":350,"tier":"","message":"","currency":"","rating":7.9},{"name":"Snowbank Brewing","phone":"9709995658","twitter":"snowbankbrew","address":"225 9th St","lat":40.58984074156022,"lng":-105.05827293847165,"city_fetched":"Fort Collins","state":"CO","country":"United States","canonicalUrl":"https://foursquare.com/v/snowbank-brewing/53f3cbe9498e8693ecd95e2a","category":"Brewery","checkinsCount":360,"usersCount":330,"tipCount":5,"visitsCount":534,"tier":1,"message":"Cheap","currency":"$","rating":7.9},{"name":"B & B's Pickle Barrel","phone":"9704840235","address":"122 W Laurel St","lat":40.578248396925304,"lng":-105.07833214143106,"neighborhood":"University North","city_fetched":"Fort Collins","state":"CO","country":"United States","canonicalUrl":"https://foursquare.com/v/b--bs-pickle-barrel/4b9c6238f964a5208c6436e3","category":"American Restaurant","checkinsCount":1718,"usersCount":728,"tipCount":16,"visitsCount":1747,"url":"http://www.picklebarrelfc.com","tier":1,"message":"Cheap","currency":"$","rating":7.9},{"name":"Ramskeller Pub & Grub","phone":"9704913903","address":"Lory Student Center","lat":40.57465232014226,"lng":-105.08465766906738,"city_fetched":"Fort Collins","state":"CO","country":"United States","canonicalUrl":"https://foursquare.com/v/ramskeller-pub--grub/4baaa568f964a5206d7c3ae3","category":"Bar","checkinsCount":1844,"usersCount":435,"tipCount":11,"visitsCount":1847,"tier":"","message":"","currency":"","rating":7.8},{"name":"CopperMuse Distillery","phone":"9709996016","twitter":"thecoppermuse","address":"244 N College Ave","lat":40.589978,"lng":-105.076709,"neighborhood":"Downtown Fort Collins","city_fetched":"Fort Collins","state":"CO","country":"United States","canonicalUrl":"https://foursquare.com/v/coppermuse-distillery/533dfb70498e0190ac60ffc5","category":"Cocktail Bar","checkinsCount":192,"usersCount":150,"tipCount":2,"visitsCount":195,"url":"http://coppermuse.com","tier":"","message":"","currency":"","rating":7.8},{"name":"Narghile Nights","phone":"9704842530","address":"621 S College Ave","lat":40.57914287095894,"lng":-105.07747583591366,"neighborhood":"University North","city_fetched":"Fort Collins","state":"CO","country":"United States","canonicalUrl":"https://foursquare.com/v/narghile-nights/4b980e14f964a5203e2935e3","category":"Hookah Bar","checkinsCount":901,"usersCount":227,"tipCount":10,"visitsCount":917,"url":"http://narghilenights.com","tier":"","message":"","currency":"","rating":7.7},{"name":"Blind Pig Pub","phone":"9704939197","address":"214 Linden St","lat":40.58821666366232,"lng":-105.07514670763149,"neighborhood":"Downtown Fort Collins","city_fetched":"Fort Collins","state":"CO","country":"United States","canonicalUrl":"https://foursquare.com/v/blind-pig-pub/51380de1e4b0042a8fe06624","category":"Bar","checkinsCount":1848,"usersCount":959,"tipCount":36,"visitsCount":2092,"tier":2,"message":"Moderate","currency":"$","rating":7.7},{"name":"Gravity Ten Twenty","phone":"9706822260","twitter":"fcbtavern","address":"1020 E Lincoln Ave","lat":40.58900094615296,"lng":-105.0588722812533,"city_fetched":"Fort Collins","state":"CO","country":"United States","canonicalUrl":"https://foursquare.com/v/gravity-ten-twenty/4dc896af52b1b9daeb4dd85d","category":"New American Restaurant","checkinsCount":1470,"usersCount":904,"tipCount":28,"visitsCount":1556,"url":"http://www.gravity1020.com","tier":2,"message":"Moderate","currency":"$","rating":7.7},{"name":"Elliot's Martini Bar","phone":"9704729802","address":"234 Linden St.","lat":40.58837414104091,"lng":-105.0747013092041,"neighborhood":"Downtown Fort Collins","city_fetched":"Fort Collins","state":"CO","country":"United States","canonicalUrl":"https://foursquare.com/v/elliots-martini-bar/4527a651f964a520033b1fe3","category":"Lounge","checkinsCount":2451,"usersCount":944,"tipCount":16,"visitsCount":2549,"url":"http://elliotsmartini.com","tier":"","message":"","currency":"","rating":7.7},{"name":"Bondi Beach Bar","phone":"9702244100","twitter":"bondibeachbar","address":"11 Old Town Sq Ste 20","lat":40.58770599285968,"lng":-105.07559603806025,"neighborhood":"Downtown Fort Collins","city_fetched":"Fort Collins","state":"CO","country":"United States","canonicalUrl":"https://foursquare.com/v/bondi-beach-bar/4c00c4058c1076b099b12071","category":"Bar","checkinsCount":2193,"usersCount":928,"tipCount":9,"visitsCount":2208,"url":"http://www.bondibar.com","tier":"","message":"","currency":"","rating":7.6},{"name":"Moe's Original BBQ","phone":"9704827675","twitter":"moesobbq","address":"181 N College Ave","lat":40.588628783333334,"lng":-105.07728301,"neighborhood":"Downtown Fort Collins","city_fetched":"Fort Collins","state":"CO","country":"United States","canonicalUrl":"https://foursquare.com/v/moes-original-bbq/4bba6b14b35776b0e0e9ca01","category":"BBQ Joint","checkinsCount":1071,"usersCount":485,"tipCount":30,"visitsCount":1088,"url":"https://www.facebook.com/moesobbq","tier":"","message":"","currency":"","rating":7.6},{"name":"Trailhead","address":"148 W Mountain Ave","lat":40.5873658785906,"lng":-105.0783222913742,"neighborhood":"Downtown Fort Collins","city_fetched":"Fort Collins","state":"CO","country":"United States","canonicalUrl":"https://foursquare.com/v/trailhead/437d1980f964a520b22a1fe3","category":"Bar","checkinsCount":3461,"usersCount":1333,"tipCount":10,"visitsCount":3491,"url":"http://trailheadtavern.com","tier":1,"message":"Cheap","currency":"$","rating":7.6},{"name":"Pateros Creek Brewing","phone":"9704847222","twitter":"paterosbrew","address":"242 N College Ave","lat":40.58990107080867,"lng":-105.07641973196141,"neighborhood":"Downtown Fort Collins","city_fetched":"Fort Collins","state":"CO","country":"United States","canonicalUrl":"https://foursquare.com/v/pateros-creek-brewing/4d19161bbb64224b1e17cc65","category":"Brewery","checkinsCount":2160,"usersCount":1040,"tipCount":56,"visitsCount":2350,"url":"http://www.pateroscreekbrewing.com","tier":"","message":"","currency":"","rating":7.6},{"name":"Pour Brothers Community Tavern","address":"220 Linden","lat":40.58836918563352,"lng":-105.07486698612736,"neighborhood":"Downtown Fort Collins","city_fetched":"Fort Collins","state":"CO","country":"United States","canonicalUrl":"https://foursquare.com/v/pour-brothers-community-tavern/542f4583498ef8a71726cf5b","category":"Bar","checkinsCount":185,"usersCount":94,"tipCount":1,"visitsCount":222,"tier":"","message":"","currency":"","rating":7.5},{"name":"Surfside 7","address":"150 N College Ave","lat":40.58810675957564,"lng":-105.07679650339821,"neighborhood":"Downtown Fort Collins","city_fetched":"Fort Collins","state":"CO","country":"United States","canonicalUrl":"https://foursquare.com/v/surfside-7/4527e2c1f964a5200a3b1fe3","category":"Bar","checkinsCount":1600,"usersCount":557,"tipCount":8,"visitsCount":1607,"tier":1,"message":"Cheap","currency":"$","rating":7.4},{"name":"BJ's Restaurant and Brewhouse","phone":"9702823700","twitter":"bjsrestaurants","address":"2670 E Harmony Rd","lat":40.52383,"lng":-105.0274012,"city_fetched":"Fort Collins","state":"CO","country":"United States","canonicalUrl":"https://foursquare.com/v/bjs-restaurant-and-brewhouse/51a3d22d498eb54639dd316d","category":"American Restaurant","checkinsCount":1540,"usersCount":1081,"tipCount":32,"visitsCount":2196,"url":"http://t.co/bl46gcjDLN","tier":2,"message":"Moderate","currency":"$","rating":7.4},{"name":"The Forge Publick House","address":"232 Walnut St","lat":40.58890648,"lng":-105.0754932,"neighborhood":"Downtown Fort Collins","city_fetched":"Fort Collins","state":"CO","country":"United States","canonicalUrl":"https://foursquare.com/v/the-forge-publick-house/4e20a78d7d8b71715ba2f7d5","category":"Pub","checkinsCount":1399,"usersCount":579,"tipCount":13,"visitsCount":1490,"tier":"","message":"","currency":"","rating":7.3},{"name":"Tony's Rooftop","phone":"9704846969","address":"224 S College Ave","lat":40.58499021666667,"lng":-105.07643,"neighborhood":"Downtown Fort Collins","city_fetched":"Fort Collins","state":"CO","country":"United States","canonicalUrl":"https://foursquare.com/v/tonys-rooftop/4c00b6809cf52d7f564414e7","category":"Bar","checkinsCount":3937,"usersCount":834,"tipCount":12,"visitsCount":4006,"tier":1,"message":"Cheap","currency":"$","rating":7.2},{"name":"Algiers Hookah Lounge & Shop","phone":"9704956722","address":"120 W Laurel St","lat":40.57861270705059,"lng":-105.07815599441528,"neighborhood":"University North","city_fetched":"Fort Collins","state":"CO","country":"United States","canonicalUrl":"https://foursquare.com/v/algiers-hookah-lounge--shop/4b9edf5ff964a5209f0737e3","category":"Hookah Bar","checkinsCount":2440,"usersCount":315,"tipCount":12,"visitsCount":2442,"tier":"","message":"","currency":"","rating":7.2},{"name":"C.B. & Potts","phone":"9704841846","address":"1415 W Elizabeth St","lat":40.57426204442537,"lng":-105.10236761270983,"city_fetched":"Fort Collins","state":"CO","country":"United States","canonicalUrl":"https://foursquare.com/v/cb--potts/4c263d08905a0f4770e16260","category":"American Restaurant","checkinsCount":2942,"usersCount":1413,"tipCount":18,"visitsCount":3238,"url":"http://cbpotts.com","tier":2,"message":"Moderate","currency":"$","rating":7.2},{"name":"The Boot Grill","address":"130 W Laurel St","lat":40.578379839137625,"lng":-105.07873175220946,"neighborhood":"University North","city_fetched":"Fort Collins","state":"CO","country":"United States","canonicalUrl":"https://foursquare.com/v/the-boot-grill/531e3b88498ef7ded5d97fac","category":"American Restaurant","checkinsCount":234,"usersCount":153,"tipCount":3,"visitsCount":280,"url":"http://thebootgrill.com/fort-collins/","tier":"","message":"","currency":"","rating":7.2},{"name":"Ryan's Sports Grill","phone":"9702290017","address":"925 E Harmony Rd","lat":40.52190894799403,"lng":-105.06064749044067,"city_fetched":"Fort Collins","state":"CO","country":"United States","canonicalUrl":"https://foursquare.com/v/ryans-sports-grill/4f28d48de4b05879ea614e7b","category":"Sports Bar","checkinsCount":1496,"usersCount":668,"tipCount":10,"visitsCount":1848,"url":"http://ryanssportsgrill.com","tier":2,"message":"Moderate","currency":"$","rating":7.1},{"name":"West End Pub","phone":"9704078459","address":"1119 W Drake Rd","lat":40.55200950972588,"lng":-105.0967780515269,"city_fetched":"Fort Collins","state":"CO","country":"United States","canonicalUrl":"https://foursquare.com/v/west-end-pub/4e2a346462e144b5d39f5a60","category":"Bar","checkinsCount":1061,"usersCount":103,"tipCount":5,"visitsCount":1099,"tier":"","message":"","currency":"","rating":7.1},{"name":"Sundance Steak House & Saloon","phone":"9704841600","address":"2716 E Mulberry St","lat":40.581949517732895,"lng":-105.02671658992767,"city_fetched":"Fort Collins","state":"CO","country":"United States","canonicalUrl":"https://foursquare.com/v/sundance-steak-house--saloon/4c05d0b0517d0f474829f515","category":"Bar","checkinsCount":1276,"usersCount":611,"tipCount":2,"visitsCount":1447,"tier":"","message":"","currency":"","rating":7.1},{"name":"1933 Brewing Company","phone":"9703774107","twitter":"1933brewing","address":"4025 South Mason","lat":40.53153378352576,"lng":-105.07997626061305,"city_fetched":"Fort Collins","state":"CO","country":"United States","canonicalUrl":"https://foursquare.com/v/1933-brewing-company/531f6fb7498e54aeb363db90","category":"Brewery","checkinsCount":338,"usersCount":231,"tipCount":7,"visitsCount":463,"url":"http://1933brewing.com","tier":"","message":"","currency":"","rating":7.1},{"name":"Compass Cider House","phone":"9703721350","twitter":"compasscider","address":"216 N College Ave","lat":40.58948537605093,"lng":-105.07659670025524,"neighborhood":"Downtown Fort Collins","city_fetched":"Fort Collins","state":"CO","country":"United States","canonicalUrl":"https://foursquare.com/v/compass-cider-house/52588b5311d2ea8f239b5731","category":"Wine Bar","checkinsCount":298,"usersCount":214,"tipCount":1,"visitsCount":305,"url":"http://www.compasscider.com","tier":2,"message":"Moderate","currency":"$","rating":7.1},{"name":"Sliders Sports Bar and Grill","phone":"9704938408","address":"1006 Spring Creek Ln","lat":40.562789,"lng":-105.0966259,"city_fetched":"Fort Collins","state":"CO","country":"United States","canonicalUrl":"https://foursquare.com/v/sliders-sports-bar-and-grill/4c1968f5d4d9c92896fbf029","category":"Sports Bar","checkinsCount":617,"usersCount":279,"tipCount":3,"visitsCount":737,"tier":"","message":"","currency":"","rating":7.1},{"name":"Road 34","phone":"9702213434","address":"1213 W Elizabeth St","lat":40.5744500668857,"lng":-105.09821110776718,"city_fetched":"Fort Collins","state":"CO","country":"United States","canonicalUrl":"https://foursquare.com/v/road-34/49df8b1bf964a520d9601fe3","category":"Bar","checkinsCount":2424,"usersCount":1041,"tipCount":13,"visitsCount":2720,"url":"http://www.road34.com","tier":"","message":"","currency":"","rating":7},{"name":"Pappy's Corner Pub","phone":"9703771232","twitter":"pappys_corner","address":"1027 W Horsetooth Rd #111","lat":40.5368546,"lng":-105.09430045,"city_fetched":"Fort Collins","state":"CO","country":"United States","canonicalUrl":"https://foursquare.com/v/pappys-corner-pub/4b74d00bf964a52068f32de3","category":"Bar","checkinsCount":1413,"usersCount":442,"tipCount":15,"visitsCount":1692,"url":"https://www.pappyscornerpub.com","tier":"","message":"","currency":"","rating":7}]