[{"name":"Hoppers Pub","phone":"5737740135","address":"318 Old Rte. 66","lat":37.82854951444503,"lng":-92.2010377528679,"city_fetched":"Fort Leonard Wood,US","state":"MO","country":"United States","canonicalUrl":"https://foursquare.com/v/hoppers-pub/4c79a1e62d3ba143600a8fd0","categoryId":"4bf58dd8d48988d11b941735","category":"Pub","checkinsCount":855,"usersCount":316,"tipCount":10,"visitsCount":1055,"url":"http://hopperspub.com","tier":"","message":"","currency":"","rating":8.8},{"name":"Roadhouse Bar & Grill","phone":"5737655002","address":"25955 Highway P","lat":37.777264791698414,"lng":-92.31928080727546,"city_fetched":"Fort Leonard Wood,US","state":"MO","country":"United States","canonicalUrl":"https://foursquare.com/v/roadhouse-bar--grill/4c8585f9dc018cfa9c30e96c","categoryId":"4bf58dd8d48988d116941735","category":"Bar","checkinsCount":152,"usersCount":81,"tipCount":5,"visitsCount":169,"tier":"","message":"","currency":"","rating":6.7},{"name":"Chicken Bones Party Bar & Grill","phone":"5733365055","address":"14400 Highway Z","lat":37.83346299445934,"lng":-92.09858179092407,"city_fetched":"Fort Leonard Wood,US","state":"MO","country":"United States","canonicalUrl":"https://foursquare.com/v/chicken-bones-party-bar--grill/4c50f80ad797e21eadfa437b","categoryId":"4bf58dd8d48988d116941735","category":"Bar","checkinsCount":256,"usersCount":162,"tipCount":8,"visitsCount":257,"url":"http://www.chickenbonespartybar.com","tier":"","message":"","currency":"","rating":5.5}]