[{"name":"Community Pizza","phone":"5159558202","address":"2026 5th Ave S","lat":42.50126783253885,"lng":-94.16991158539894,"city_fetched":"Fort Dodge","state":"IA","country":"United States","canonicalUrl":"https://foursquare.com/v/community-pizza/4bafdaeaf964a52054263ce3","category":"Pizza Place","checkinsCount":364,"usersCount":227,"tipCount":7,"visitsCount":446,"tier":"","message":"","currency":"","rating":8.1},{"name":"Mineral City Mill & Grill","phone":"5159558514","twitter":"mincitygrill","address":"2621 5th Ave S","lat":42.500886472761835,"lng":-94.16099690161911,"city_fetched":"Fort Dodge","state":"IA","country":"United States","canonicalUrl":"https://foursquare.com/v/mineral-city-mill--grill/4b60a4e3f964a52010f229e3","category":"American Restaurant","checkinsCount":976,"usersCount":549,"tipCount":8,"visitsCount":1148,"url":"http://www.mineralcitymillandgrill.com","tier":2,"message":"Moderate","currency":"$","rating":7.4},{"name":"Amigos","phone":"5155760142","address":"280 N 1st St","lat":42.51072668820121,"lng":-94.20267341848762,"city_fetched":"Fort Dodge","state":"IA","country":"United States","canonicalUrl":"https://foursquare.com/v/amigos/4b57547cf964a520bd3128e3","category":"Sports Bar","checkinsCount":370,"usersCount":196,"tipCount":3,"visitsCount":505,"tier":"","message":"","currency":"","rating":7.1},{"name":"O'Goodies","phone":"5155765825","address":"16 N 7th St","lat":42.50546204986364,"lng":-94.18879591415555,"city_fetched":"Fort Dodge","state":"IA","country":"United States","canonicalUrl":"https://foursquare.com/v/ogoodies/4d214e465acaa35d4631cf35","category":"Bar","checkinsCount":202,"usersCount":79,"tipCount":2,"visitsCount":235,"tier":"","message":"","currency":"","rating":7}]