[{"name":"Arlie Muck's Tavern","phone":"4797835530","address":"803 Garrison Ave","lat":35.386075073763585,"lng":-94.42321024353654,"neighborhood":"Downtown Fort Smith","city_fetched":"Fort Smith,US","state":"AR","country":"United States","canonicalUrl":"https://foursquare.com/v/arlie-mucks-tavern/4b6d3110f964a520c06a2ce3","categoryId":"4bf58dd8d48988d11e941735","category":"Cocktail Bar","checkinsCount":170,"usersCount":80,"tipCount":2,"visitsCount":180,"tier":"","message":"","currency":"","rating":8.1},{"name":"Hooters","phone":"4794526132","address":"6401 Rogers Ave","lat":35.35870702952421,"lng":-94.36202043144863,"neighborhood":"Fort Smith Eastside","city_fetched":"Fort Smith,US","state":"AR","country":"United States","canonicalUrl":"https://foursquare.com/v/hooters/4b6a1403f964a5201ec62be3","categoryId":"4bf58dd8d48988d116941735","category":"Bar","checkinsCount":1699,"usersCount":608,"tipCount":11,"visitsCount":1948,"url":"http://www.hooters.com","tier":"","message":"","currency":"","rating":7.9},{"name":"Neumeier's Rib Room & Beer Garden","phone":"4794947427","address":"817 Garrison Ave","lat":35.385793,"lng":-94.422717,"neighborhood":"Downtown Fort Smith","city_fetched":"Fort Smith,US","state":"AR","country":"United States","canonicalUrl":"https://foursquare.com/v/neumeiers-rib-room--beer-garden/4bda22673904a593844f459e","categoryId":"4bf58dd8d48988d117941735","category":"Beer Garden","checkinsCount":404,"usersCount":229,"tipCount":6,"visitsCount":423,"url":"http://www.ribroom.com","tier":"","message":"","currency":"","rating":7.4},{"name":"Rooster's","phone":"4797832625","address":"801 Garrison Ave","lat":35.38615072767561,"lng":-94.42326550971408,"neighborhood":"Downtown Fort Smith","city_fetched":"Fort Smith,US","state":"AR","country":"United States","canonicalUrl":"https://foursquare.com/v/roosters/4b6d265bf964a520f0682ce3","categoryId":"4bf58dd8d48988d116941735","category":"Bar","checkinsCount":534,"usersCount":296,"tipCount":3,"visitsCount":632,"tier":1,"message":"Cheap","currency":"$","rating":7.2},{"name":"Kinkead's","phone":"4792263144","address":"1004 Garrison Ave","lat":35.38440304367627,"lng":-94.42135634754246,"neighborhood":"Downtown Fort Smith","city_fetched":"Fort Smith,US","state":"AR","country":"United States","canonicalUrl":"https://foursquare.com/v/kinkeads/4b9aebc8f964a5204be335e3","categoryId":"4bf58dd8d48988d1d8941735","category":"Gay Bar","checkinsCount":520,"usersCount":109,"tipCount":2,"visitsCount":523,"tier":"","message":"","currency":"","rating":7.1},{"name":"Electric Cowboy of Fort Smith","phone":"4796498033","address":"6107 S 31st St","lat":35.3245101728613,"lng":-94.40038516832789,"neighborhood":"Cavanaugh","city_fetched":"Fort Smith,US","state":"AR","country":"United States","canonicalUrl":"https://foursquare.com/v/electric-cowboy-of-fort-smith/4b6520d7f964a52072e52ae3","categoryId":"4bf58dd8d48988d11f941735","category":"Nightclub","checkinsCount":839,"usersCount":235,"tipCount":10,"visitsCount":927,"url":"http://electriccowboy.com","tier":2,"message":"Moderate","currency":"$","rating":7}]