[{"name":"Adventure Brewing South","phone":"5403717799","address":"3300 Dill Smith Dr","lat":38.27988714610106,"lng":-77.44793024521691,"city_fetched":"Fredericksburg,US","state":"VA","country":"United States","canonicalUrl":"https://foursquare.com/v/adventure-brewing-south/4c941cc772dd224b913a9791","categoryId":"50327c8591d4c4b30a586d5d","category":"Brewery","checkinsCount":663,"usersCount":606,"tipCount":17,"visitsCount":864,"url":"http://www.blueandgraybrewingco.com","tier":"","message":"","currency":"","rating":8.6},{"name":"Capital Ale House","phone":"5403712337","address":"917 Caroline St","lat":38.303358,"lng":-77.459122,"neighborhood":"Downtown Fredericksburg","city_fetched":"Fredericksburg,US","state":"VA","country":"United States","canonicalUrl":"https://foursquare.com/v/capital-ale-house/4a66366af964a52039c81fe3","categoryId":"50327c8591d4c4b30a586d5d","category":"Brewery","checkinsCount":6905,"usersCount":2972,"tipCount":61,"visitsCount":7446,"url":"http://capitalalehouse.com","tier":2,"message":"Moderate","currency":"$","rating":8.5},{"name":"Happy Endings Bar & Grill","phone":"5403104065","address":"1315 Princess Anne St","lat":38.30681126417184,"lng":-77.4628220316071,"city_fetched":"Fredericksburg,US","state":"VA","country":"United States","canonicalUrl":"https://foursquare.com/v/happy-endings-bar--grill/4bca2a4afb84c9b65d941c3e","categoryId":"4bf58dd8d48988d116941735","category":"Bar","checkinsCount":906,"usersCount":364,"tipCount":6,"visitsCount":1070,"tier":2,"message":"Moderate","currency":"$","rating":8.2},{"name":"Hooters","phone":"5408988044","twitter":"hooters","address":"10400 Spotsylvania Ave","lat":38.24315229104219,"lng":-77.49761801622105,"city_fetched":"Fredericksburg,US","state":"VA","country":"United States","canonicalUrl":"https://foursquare.com/v/hooters/4c350abc6f1fef3bc7feec3d","categoryId":"4bf58dd8d48988d11d941735","category":"Sports Bar","checkinsCount":1237,"usersCount":827,"tipCount":14,"visitsCount":1427,"url":"http://www.hooters.com","tier":2,"message":"Moderate","currency":"$","rating":8.1},{"name":"Adventure Brewing Company","phone":"5402428876","address":"33 Perchwood Dr Ste 101","lat":38.384314178920086,"lng":-77.44090387888548,"city_fetched":"Fredericksburg,US","state":"VA","country":"United States","canonicalUrl":"https://foursquare.com/v/adventure-brewing-company/5276c26b11d2b7efb2ac31fa","categoryId":"50327c8591d4c4b30a586d5d","category":"Brewery","checkinsCount":326,"usersCount":216,"tipCount":8,"visitsCount":565,"url":"http://www.adventurebrewing.com","tier":"","message":"","currency":"","rating":8.1},{"name":"Spencer Devon Brewing","phone":"5404798381","twitter":"sdbrewing","address":"106 George St","lat":38.302859982908174,"lng":-77.45874911265973,"neighborhood":"Downtown Fredericksburg","city_fetched":"Fredericksburg,US","state":"VA","country":"United States","canonicalUrl":"https://foursquare.com/v/spencer-devon-brewing/5511d9b3498ea0a616ed0e7d","categoryId":"50327c8591d4c4b30a586d5d","category":"Brewery","checkinsCount":306,"usersCount":317,"tipCount":4,"visitsCount":472,"url":"http://www.spencerdevonbrewing.com","tier":"","message":"","currency":"","rating":8},{"name":"Colonial Tavern: Home to the Irish Brigade","phone":"5403731313","address":"406 Lafayette Blvd","lat":38.2976555684079,"lng":-77.45886116188241,"city_fetched":"Fredericksburg,US","state":"VA","country":"United States","canonicalUrl":"https://foursquare.com/v/colonial-tavern-home-to-the-irish-brigade/4b50c8f8f964a5206a3227e3","categoryId":"4bf58dd8d48988d11b941735","category":"Pub","checkinsCount":1570,"usersCount":577,"tipCount":17,"visitsCount":1751,"url":"http://www.irishbrigadetavern.com","tier":1,"message":"Cheap","currency":"$","rating":7.5},{"name":"J Brian's Tap Room","phone":"5403730738","address":"200 Hanover St","lat":38.3015976509265,"lng":-77.45856423120313,"neighborhood":"Downtown Fredericksburg","city_fetched":"Fredericksburg,US","state":"VA","country":"United States","canonicalUrl":"https://foursquare.com/v/j-brians-tap-room/4b49d72af964a5206d7426e3","categoryId":"4bf58dd8d48988d11b941735","category":"Pub","checkinsCount":1421,"usersCount":661,"tipCount":16,"visitsCount":1511,"url":"http://jbrianstaproom.com","tier":"","message":"","currency":"","rating":7.5},{"name":"The Tavern at Lee's Hill","phone":"5407101187","address":"10649 Spotsylvania Ave","lat":38.24757551362598,"lng":-77.49429702758789,"city_fetched":"Fredericksburg,US","state":"VA","country":"United States","canonicalUrl":"https://foursquare.com/v/the-tavern-at-lees-hill/4b8073dff964a520b87330e3","categoryId":"4bf58dd8d48988d11b941735","category":"Pub","checkinsCount":300,"usersCount":143,"tipCount":4,"visitsCount":372,"url":"http://tavernleeshill.com","tier":"","message":"","currency":"","rating":7.5},{"name":"Jay's Downtown Sports Lounge","address":"409 William St","lat":38.302968,"lng":-77.462152,"neighborhood":"Downtown Fredericksburg","city_fetched":"Fredericksburg,US","state":"VA","country":"United States","canonicalUrl":"https://foursquare.com/v/jays-downtown-sports-lounge/54724e10498ea81a483e3af8","categoryId":"4bf58dd8d48988d11d941735","category":"Sports Bar","checkinsCount":116,"usersCount":54,"tipCount":2,"visitsCount":118,"tier":"","message":"","currency":"","rating":7.4},{"name":"Jay's Restaurant & Lounge","phone":"5404796000","address":"2030 Plank Rd","lat":38.29530567264518,"lng":-77.49487370775289,"city_fetched":"Fredericksburg,US","state":"VA","country":"United States","canonicalUrl":"https://foursquare.com/v/jays-restaurant--lounge/50047d5de4b0644142570f7c","categoryId":"4bf58dd8d48988d121941735","category":"Lounge","checkinsCount":286,"usersCount":97,"tipCount":7,"visitsCount":289,"url":"http://www.jaysrestaurantlounge.com","tier":"","message":"","currency":"","rating":6.6},{"name":"The Bourbon Room","phone":"5403740404","address":"218 William St","lat":38.30336,"lng":-77.46032416820526,"neighborhood":"Downtown Fredericksburg","city_fetched":"Fredericksburg,US","state":"VA","country":"United States","canonicalUrl":"https://foursquare.com/v/the-bourbon-room/4d3e4469af8ca143270d14f7","categoryId":"4bf58dd8d48988d116941735","category":"Bar","checkinsCount":709,"usersCount":223,"tipCount":4,"visitsCount":728,"url":"http://thebourbonroom.com/index2.html","tier":"","message":"","currency":"","rating":6.2}]