[{"name":"The Grape Taste","phone":"9794800424","address":"145 Oyster Creek Dr #10","lat":29.04502719843985,"lng":-95.45222282409668,"city_fetched":"Freeport,US","state":"TX","country":"United States","canonicalUrl":"https://foursquare.com/v/the-grape-taste/4b316177f964a520dc0525e3","categoryId":"4bf58dd8d48988d123941735","category":"Wine Bar","checkinsCount":341,"usersCount":156,"tipCount":7,"visitsCount":400,"url":"http://www.thegrapetaste.net","tier":"","message":"","currency":"","rating":7.8},{"name":"The Wayside Pub","phone":"9794800378","twitter":"waysidepub","address":"106 This Way St","lat":29.04105037576165,"lng":-95.44961571693419,"city_fetched":"Freeport,US","state":"TX","country":"United States","canonicalUrl":"https://foursquare.com/v/the-wayside-pub/516d903e90e7b06581e1cb90","categoryId":"4bf58dd8d48988d11b941735","category":"Pub","checkinsCount":543,"usersCount":248,"tipCount":18,"visitsCount":815,"tier":"","message":"","currency":"","rating":7.4},{"name":"Pier 30","phone":"9792334250","address":"2527 East Hwy 332","lat":28.961993172986542,"lng":-95.30193210692087,"city_fetched":"Freeport,US","state":"TX","country":"United States","canonicalUrl":"https://foursquare.com/v/pier-30/4c5c45fb7f661b8d7b11481c","categoryId":"4bf58dd8d48988d1d4941735","category":"Speakeasy","checkinsCount":1381,"usersCount":516,"tipCount":14,"visitsCount":1676,"tier":"","message":"","currency":"","rating":7},{"name":"El Jimador Mexican Restaurant","phone":"9792652220","address":"116 E Plantation Dr","lat":29.01536174455593,"lng":-95.40371342077003,"city_fetched":"Freeport,US","state":"TX","country":"United States","canonicalUrl":"https://foursquare.com/v/el-jimador-mexican-restaurant/4b78bffdf964a520bde02ee3","categoryId":"4bf58dd8d48988d120941735","category":"Karaoke Bar","checkinsCount":180,"usersCount":73,"tipCount":1,"visitsCount":185,"tier":"","message":"","currency":"","rating":6.6},{"name":"Sharkies on the Beach Bar & Grill","phone":"9792331122","address":"10 Surf Dr","lat":28.95093811488749,"lng":-95.28715654596327,"city_fetched":"Freeport,US","state":"TX","country":"United States","canonicalUrl":"https://foursquare.com/v/sharkies-on-the-beach-bar--grill/517bf70eb0eda0df0bda82af","categoryId":"4bf58dd8d48988d116941735","category":"Bar","checkinsCount":69,"usersCount":108,"tipCount":3,"visitsCount":126,"tier":"","message":"","currency":"","rating":6.5},{"name":"Rickochet Billiards","phone":"9792979995","address":"470 This Way St","lat":29.039615960732544,"lng":-95.45625283270056,"city_fetched":"Freeport,US","state":"TX","country":"United States","canonicalUrl":"https://foursquare.com/v/rickochet-billiards/4b875688f964a52015bc31e3","categoryId":"4bf58dd8d48988d116941735","category":"Bar","checkinsCount":789,"usersCount":215,"tipCount":3,"visitsCount":934,"url":"http://www.rickochetbilliards.com","tier":"","message":"","currency":"","rating":5.4}]