[{"name":"Drake's Barrel House","phone":"5105682739","twitter":"drakesdbh","address":"1933 Davis St","lat":37.714709,"lng":-122.179325,"city_fetched":"Fremont,US","state":"CA","country":"United States","canonicalUrl":"https://foursquare.com/v/drakes-barrel-house/4e0511ef8877394591d721fa","categoryId":"50327c8591d4c4b30a586d5d","category":"Brewery","checkinsCount":6534,"usersCount":2800,"tipCount":53,"visitsCount":7576,"url":"http://barrelhouse.drinkdrakes.com","tier":2,"message":"Moderate","currency":"$","rating":9.1},{"name":"First Street Alehouse","phone":"9253716588","address":"2086 1st St","lat":37.68138556131208,"lng":-121.76997721195221,"city_fetched":"Fremont,US","state":"CA","country":"United States","canonicalUrl":"https://foursquare.com/v/first-street-alehouse/4b18207df964a5205fcd23e3","categoryId":"4bf58dd8d48988d11b941735","category":"Pub","checkinsCount":10977,"usersCount":4019,"tipCount":96,"visitsCount":12163,"url":"http://www.firststreetalehouse.com","tier":2,"message":"Moderate","currency":"$","rating":9},{"name":"St. James Gate","phone":"6505925923","address":"1410 Old County Rd","lat":37.51668,"lng":-122.270251,"city_fetched":"Fremont,US","state":"CA","country":"United States","canonicalUrl":"https://foursquare.com/v/st-james-gate/4c131b047f7f2d7f63a5de68","categoryId":"4bf58dd8d48988d11b941735","category":"Pub","checkinsCount":1858,"usersCount":1085,"tipCount":7,"visitsCount":2633,"url":"http://thegatebelmont.com","tier":2,"message":"Moderate","currency":"$","rating":8.9},{"name":"Tap 25 Craft Beer","phone":"9252948970","address":"25 S Livermore Ave #107","lat":37.68308347807982,"lng":-121.7695567938962,"city_fetched":"Fremont,US","state":"CA","country":"United States","canonicalUrl":"https://foursquare.com/v/tap-25-craft-beer/4e7e6e6c2c5b16780841b940","categoryId":"4bf58dd8d48988d116941735","category":"Bar","checkinsCount":4249,"usersCount":944,"tipCount":20,"visitsCount":4930,"url":"http://www.taptwentyfive.com","tier":2,"message":"Moderate","currency":"$","rating":8.9},{"name":"McKay's Bar and Grill","lat":37.65813426415315,"lng":-121.87689891586777,"city_fetched":"Fremont,US","state":"CA","country":"United States","canonicalUrl":"https://foursquare.com/v/mckays-bar-and-grill/55bd7454498ed69c403a5545","categoryId":"4bf58dd8d48988d117941735","category":"Beer Garden","checkinsCount":339,"usersCount":242,"tipCount":4,"visitsCount":598,"tier":"","message":"","currency":"","rating":8.9},{"name":"Rabbit's Foot Meadery","phone":"4087470770","twitter":"rabbitsfootmead","address":"1246 Birchwood Dr","lat":37.404384886231206,"lng":-121.99231083256893,"city_fetched":"Fremont,US","state":"CA","country":"United States","canonicalUrl":"https://foursquare.com/v/rabbits-foot-meadery/49e7a0c0f964a520e9641fe3","categoryId":"50327c8591d4c4b30a586d5d","category":"Brewery","checkinsCount":2564,"usersCount":1048,"tipCount":24,"visitsCount":3043,"url":"http://rabbitsfootmeadery.com","tier":1,"message":"Cheap","currency":"$","rating":8.9},{"name":"Original Gravity Public House","phone":"4089152337","twitter":"origgravpub","address":"66 S 1st St","lat":37.33525848132232,"lng":-121.88964128494261,"neighborhood":"Downtown San Jose","city_fetched":"Fremont,US","state":"CA","country":"United States","canonicalUrl":"https://foursquare.com/v/original-gravity-public-house/4faaca997b0c7a6bdb4aaedf","categoryId":"4bf58dd8d48988d11b941735","category":"Pub","checkinsCount":7149,"usersCount":2880,"tipCount":68,"visitsCount":7469,"url":"http://originalgravitypub.com","tier":2,"message":"Moderate","currency":"$","rating":8.8},{"name":"Devil's Canyon Brewing Company","phone":"6505922739","twitter":"devilscanyon","address":"935 Washington St","lat":37.49826584400928,"lng":-122.24446997734793,"city_fetched":"Fremont,US","state":"CA","country":"United States","canonicalUrl":"https://foursquare.com/v/devils-canyon-brewing-company/49ce9419f964a5205e5a1fe3","categoryId":"50327c8591d4c4b30a586d5d","category":"Brewery","checkinsCount":2815,"usersCount":1575,"tipCount":33,"visitsCount":3424,"url":"http://www.devilscanyon.com","tier":1,"message":"Cheap","currency":"$","rating":8.8},{"name":"Grape & Grain","phone":"6503429463","address":"227 S San Mateo Dr","lat":37.56476247166777,"lng":-122.32447244275754,"neighborhood":"Downtown San Mateo","city_fetched":"Fremont,US","state":"CA","country":"United States","canonicalUrl":"https://foursquare.com/v/grape--grain/4e222a8ee4cdf685918d9a39","categoryId":"4bf58dd8d48988d116941735","category":"Bar","checkinsCount":3107,"usersCount":1813,"tipCount":30,"visitsCount":3730,"url":"http://grapeandgrainbar.com","tier":2,"message":"Moderate","currency":"$","rating":8.8},{"name":"Paper Plane","address":"72 S 1st St","lat":37.33501035799274,"lng":-121.88952155838318,"neighborhood":"Downtown San Jose","city_fetched":"Fremont,US","state":"CA","country":"United States","canonicalUrl":"https://foursquare.com/v/paper-plane/53336ce5498e6ec45340b722","categoryId":"4bf58dd8d48988d11e941735","category":"Cocktail Bar","checkinsCount":4174,"usersCount":2411,"tipCount":61,"visitsCount":4613,"url":"http://paperplanesj.com","tier":2,"message":"Moderate","currency":"$","rating":8.6},{"name":"Haberdasher","phone":"4087927356","address":"43 W San Salvador St","lat":37.32999274878918,"lng":-121.8862923889682,"neighborhood":"Downtown San Jose","city_fetched":"Fremont,US","state":"CA","country":"United States","canonicalUrl":"https://foursquare.com/v/haberdasher/558e3ddc498ede18a43826cc","categoryId":"4bf58dd8d48988d11e941735","category":"Cocktail Bar","checkinsCount":922,"usersCount":577,"tipCount":8,"visitsCount":1091,"url":"http://www.haberdashersj.com","tier":2,"message":"Moderate","currency":"$","rating":8.4},{"name":"Mission Creek Brewing Company","phone":"4082071126","address":"777 The Alameda","lat":37.33206375200271,"lng":-121.90435451620267,"neighborhood":"Central San Jose","city_fetched":"Fremont,US","state":"CA","country":"United States","canonicalUrl":"https://foursquare.com/v/mission-creek-brewing-company/5480c6ac498e1ed8548b3899","categoryId":"50327c8591d4c4b30a586d5d","category":"Brewery","checkinsCount":1307,"usersCount":587,"tipCount":11,"visitsCount":1420,"url":"http://www.missioncreekbrewingco.com","tier":"","message":"","currency":"","rating":8.4},{"name":"Altamont Beer Works","phone":"9254432337","address":"2402 Research Dr","lat":37.675896,"lng":-121.720005,"city_fetched":"Fremont,US","state":"CA","country":"United States","canonicalUrl":"https://foursquare.com/v/altamont-beer-works/509db6fde4b051548d95d526","categoryId":"50327c8591d4c4b30a586d5d","category":"Brewery","checkinsCount":1063,"usersCount":683,"tipCount":10,"visitsCount":1462,"url":"http://altamontbeerworks.com","tier":1,"message":"Cheap","currency":"$","rating":8.4},{"name":"Paul & Eddie's Monta Vista Inn","phone":"4082522226","address":"21619 Stevens Creek Blvd","lat":37.32319701226772,"lng":-122.0516250556948,"city_fetched":"Fremont,US","state":"CA","country":"United States","canonicalUrl":"https://foursquare.com/v/paul--eddies-monta-vista-inn/4a1a2742f964a520857a1fe3","categoryId":"4bf58dd8d48988d118941735","category":"Dive Bar","checkinsCount":2113,"usersCount":1192,"tipCount":19,"visitsCount":2753,"url":"http://www.paulandeddies.com","tier":1,"message":"Cheap","currency":"$","rating":8.4},{"name":"21st Amendment Brewery","phone":"5105952111","twitter":"21stamendment","address":"2010 Williams St","lat":37.71114063234415,"lng":-122.17747363091436,"city_fetched":"Fremont,US","state":"CA","country":"United States","canonicalUrl":"https://foursquare.com/v/21st-amendment-brewery/548ca403498e1cea45f8e5f6","categoryId":"50327c8591d4c4b30a586d5d","category":"Brewery","checkinsCount":545,"usersCount":575,"tipCount":3,"visitsCount":900,"url":"http://21st-amendment.com","tier":"","message":"","currency":"","rating":8.3},{"name":"Hermitage Brewing Company","phone":"4082910966","twitter":"hermitagebrews","address":"1627 S 7th St","lat":37.3133523154256,"lng":-121.86762138355748,"neighborhood":"South San Jose","city_fetched":"Fremont,US","state":"CA","country":"United States","canonicalUrl":"https://foursquare.com/v/hermitage-brewing-company/4eea4abd61aff2afce880350","categoryId":"50327c8591d4c4b30a586d5d","category":"Brewery","checkinsCount":608,"usersCount":526,"tipCount":3,"visitsCount":888,"url":"http://hermitagebrewing.com","tier":"","message":"","currency":"","rating":8.3},{"name":"Jack's Bar & Lounge","phone":"4082875225","twitter":"jacksbar","address":"167 E Taylor St","lat":37.35091950394407,"lng":-121.8967465525821,"neighborhood":"Downtown San Jose","city_fetched":"Fremont,US","state":"CA","country":"United States","canonicalUrl":"https://foursquare.com/jacksbar","categoryId":"4bf58dd8d48988d116941735","category":"Bar","checkinsCount":6934,"usersCount":1310,"tipCount":21,"visitsCount":7209,"url":"http://www.jacksbarsanjose.com","tier":1,"message":"Cheap","currency":"$","rating":8.3},{"name":"Cleophus Quealy Beer Company","phone":"5104634534","twitter":"cleophus_quealy","address":"448 Hester St","lat":37.7223244139426,"lng":-122.19083726406099,"city_fetched":"Fremont,US","state":"CA","country":"United States","canonicalUrl":"https://foursquare.com/v/cleophus-quealy-beer-company/5420bc09498e07904384d54e","categoryId":"50327c8591d4c4b30a586d5d","category":"Brewery","checkinsCount":397,"usersCount":356,"tipCount":10,"visitsCount":685,"url":"http://cleaph.us","tier":"","message":"","currency":"","rating":8.3},{"name":"ISO: Beers","phone":"4082982337","address":"75 E Santa Clara St #120","lat":37.33698162297119,"lng":-121.88923358917236,"neighborhood":"Downtown San Jose","city_fetched":"Fremont,US","state":"CA","country":"United States","canonicalUrl":"https://foursquare.com/v/iso-beers/528f8878498eb0db6d08293e","categoryId":"4bf58dd8d48988d117941735","category":"Beer Garden","checkinsCount":1446,"usersCount":772,"tipCount":19,"visitsCount":1638,"tier":2,"message":"Moderate","currency":"$","rating":8.3},{"name":"Market Beer Company","address":"San Pedro Square","lat":37.336439870586524,"lng":-121.89491256035194,"neighborhood":"Downtown San Jose","city_fetched":"Fremont,US","state":"CA","country":"United States","canonicalUrl":"https://foursquare.com/v/market-beer-company/514e09d7e4b05bcb24168d4e","categoryId":"4bf58dd8d48988d11b941735","category":"Pub","checkinsCount":2081,"usersCount":849,"tipCount":18,"visitsCount":2132,"url":"http://marketbeercompany.com","tier":1,"message":"Cheap","currency":"$","rating":8.2},{"name":"California Craft Beer","phone":"5106562337","twitter":"calcraftbeer","address":"43377 Mission Blvd","lat":37.53212951863705,"lng":-121.92000782069029,"city_fetched":"Fremont,US","state":"CA","country":"United States","canonicalUrl":"https://foursquare.com/v/california-craft-beer/4f64fa77e4b0c65cc4cd799d","categoryId":"4bf58dd8d48988d117941735","category":"Beer Garden","checkinsCount":1694,"usersCount":879,"tipCount":24,"visitsCount":2106,"tier":1,"message":"Cheap","currency":"$","rating":8.2},{"name":"O'Flaherty's Irish Pub","phone":"4089478007","address":"25 N. San Pedro St","lat":37.335514395947854,"lng":-121.89332127571106,"neighborhood":"Downtown San Jose","city_fetched":"Fremont,US","state":"CA","country":"United States","canonicalUrl":"https://foursquare.com/v/oflahertys-irish-pub/42c48780f964a520d2251fe3","categoryId":"4bf58dd8d48988d11b941735","category":"Pub","checkinsCount":8658,"usersCount":3423,"tipCount":48,"visitsCount":8950,"url":"http://oflahertyspub.com","tier":2,"message":"Moderate","currency":"$","rating":8.2},{"name":"Double Apples Hookah Lounge","phone":"4088593235","twitter":"dahlounge","address":"3072 Driftwood Dr","lat":37.298167236890485,"lng":-121.94895029067992,"city_fetched":"Fremont,US","state":"CA","country":"United States","canonicalUrl":"https://foursquare.com/v/double-apples-hookah-lounge/54683f27498ea689c6630112","categoryId":"4bf58dd8d48988d119941735","category":"Hookah Bar","checkinsCount":99,"usersCount":162,"tipCount":4,"visitsCount":350,"url":"http://doubleappleshookahlounge","tier":2,"message":"Moderate","currency":"$","rating":8.2},{"name":"Bierhaus","phone":"6502090383","twitter":"bierhausmv","address":"383 Castro St","lat":37.39136038,"lng":-122.080306,"neighborhood":"Downtown Mountain View","city_fetched":"Fremont,US","state":"CA","country":"United States","canonicalUrl":"https://foursquare.com/v/bierhaus/4e167a66aeb7e76b4f1ed6fe","categoryId":"4bf58dd8d48988d117941735","category":"Beer Garden","checkinsCount":8714,"usersCount":4614,"tipCount":97,"visitsCount":9765,"url":"http://bierha.us","tier":2,"message":"Moderate","currency":"$","rating":8.2},{"name":"Beer Baron","phone":"9255794865","twitter":"beerbaronlv","address":"2223 1st St","lat":37.68159783697521,"lng":-121.76841348409653,"city_fetched":"Fremont,US","state":"CA","country":"United States","canonicalUrl":"https://foursquare.com/v/beer-baron/514029c1e4b00daadcda1f11","categoryId":"4bf58dd8d48988d116941735","category":"Bar","checkinsCount":568,"usersCount":310,"tipCount":9,"visitsCount":576,"url":"http://www.beerbaronlivermore.com","tier":2,"message":"Moderate","currency":"$","rating":8.2},{"name":"The Vine at Bridges","phone":"9258207210","twitter":"vineatbridges","address":"480 Hartz Ave","lat":37.820837,"lng":-121.99827778595315,"city_fetched":"Fremont,US","state":"CA","country":"United States","canonicalUrl":"https://foursquare.com/v/the-vine-at-bridges/4b2f0a47f964a52045e924e3","categoryId":"4bf58dd8d48988d123941735","category":"Wine Bar","checkinsCount":1597,"usersCount":578,"tipCount":12,"visitsCount":1720,"url":"http://www.thevineatbridges.com","tier":"","message":"","currency":"","rating":8.1},{"name":"DasBrew","phone":"5102705345","twitter":"jpdasbrew","address":"44356 S Grimmer Blvd","lat":37.502936953986506,"lng":-121.95482385770772,"city_fetched":"Fremont,US","state":"CA","country":"United States","canonicalUrl":"https://foursquare.com/v/dasbrew/4ee3efbe0e61681b95ca43f6","categoryId":"50327c8591d4c4b30a586d5d","category":"Brewery","checkinsCount":626,"usersCount":261,"tipCount":6,"visitsCount":729,"url":"http://dasbrewinc.com","tier":"","message":"","currency":"","rating":8},{"name":"Tangerine Hookah Lounge","phone":"4086345450","twitter":"tangerinehookah","lat":37.33614033,"lng":-121.889549,"neighborhood":"Downtown San Jose","city_fetched":"Fremont,US","state":"CA","country":"United States","canonicalUrl":"https://foursquare.com/v/tangerine-hookah-lounge/4b77a7c3f964a520bfa52ee3","categoryId":"4bf58dd8d48988d119941735","category":"Hookah Bar","checkinsCount":1264,"usersCount":781,"tipCount":23,"visitsCount":1339,"tier":"","message":"","currency":"","rating":8},{"name":"Steins Beer Garden","phone":"6509639568","twitter":"steinsbeer","address":"895 Villa St","lat":37.39401972080942,"lng":-122.07998010182168,"neighborhood":"Downtown Mountain View","city_fetched":"Fremont,US","state":"CA","country":"United States","canonicalUrl":"https://foursquare.com/v/steins-beer-garden/51390182e4b0e19609597bb2","categoryId":"4bf58dd8d48988d117941735","category":"Beer Garden","checkinsCount":12405,"usersCount":8258,"tipCount":150,"visitsCount":16193,"url":"http://steinsbeergarden.com","tier":2,"message":"Moderate","currency":"$","rating":8},{"name":"Three Sheets Craft Beer Bar","phone":"9253615724","twitter":"threesheetsbeer","address":"7046 Village Pkwy","lat":37.708452349050916,"lng":-121.92614739869174,"city_fetched":"Fremont,US","state":"CA","country":"United States","canonicalUrl":"https://foursquare.com/v/three-sheets-craft-beer-bar/5466bfae498e3711211ff051","categoryId":"4bf58dd8d48988d11b941735","category":"Pub","checkinsCount":328,"usersCount":334,"tipCount":4,"visitsCount":599,"url":"http://threesheetscraftbeer.com","tier":"","message":"","currency":"","rating":8},{"name":"Ale Arsenal","phone":"6505942337","twitter":"alearsenal1","address":"971 Laurel St","lat":37.50181051962431,"lng":-122.25512981414794,"city_fetched":"Fremont,US","state":"CA","country":"United States","canonicalUrl":"https://foursquare.com/v/ale-arsenal/4febab5ce4b070dbb309cc0b","categoryId":"4bf58dd8d48988d11b941735","category":"Pub","checkinsCount":2197,"usersCount":789,"tipCount":17,"visitsCount":2405,"url":"http://www.alearsenal.com","tier":1,"message":"Cheap","currency":"$","rating":7.9},{"name":"The Rose & Crown Pub","phone":"6503277673","twitter":"roseandcrownpa","address":"547 Emerson St","lat":37.44437571796183,"lng":-122.16172979128585,"neighborhood":"University South","city_fetched":"Fremont,US","state":"CA","country":"United States","canonicalUrl":"https://foursquare.com/v/the-rose--crown-pub/429cfa80f964a520b2241fe3","categoryId":"4bf58dd8d48988d11b941735","category":"Pub","checkinsCount":10676,"usersCount":5167,"tipCount":59,"visitsCount":11169,"url":"http://roseandcrownpa.com","tier":2,"message":"Moderate","currency":"$","rating":7.9},{"name":"Evie's Place","phone":"9258281942","address":"7138 Village Pkwy","lat":37.70935356616974,"lng":-121.9268448,"city_fetched":"Fremont,US","state":"CA","country":"United States","canonicalUrl":"https://foursquare.com/v/evies-place/4bbf553c30c99c74dffa5411","categoryId":"4bf58dd8d48988d116941735","category":"Bar","checkinsCount":489,"usersCount":211,"tipCount":4,"visitsCount":507,"tier":"","message":"","currency":"","rating":7.9},{"name":"Freewheel Brewing Co.","phone":"6503652337","twitter":"freewheelbrew","address":"3736 Florence St","lat":37.47837313449824,"lng":-122.18708510894538,"city_fetched":"Fremont,US","state":"CA","country":"United States","canonicalUrl":"https://foursquare.com/v/freewheel-brewing-co/50873099e4b0671967417e40","categoryId":"50327c8591d4c4b30a586d5d","category":"Brewery","checkinsCount":1548,"usersCount":1007,"tipCount":25,"visitsCount":1967,"url":"http://www.freewheelbrewing.com","tier":2,"message":"Moderate","currency":"$","rating":7.9},{"name":"The Oasis","phone":"6503268896","address":"241 El Camino Real","lat":37.44841,"lng":-122.174821,"city_fetched":"Fremont,US","state":"CA","country":"United States","canonicalUrl":"https://foursquare.com/v/the-oasis/40dcbc80f964a52087011fe3","categoryId":"4bf58dd8d48988d117941735","category":"Beer Garden","checkinsCount":4886,"usersCount":2161,"tipCount":43,"visitsCount":5363,"url":"http://www.theoasisbeergarden.com","tier":2,"message":"Moderate","currency":"$","rating":7.9},{"name":"Golden State Brewery","lat":37.361354,"lng":-121.953653,"city_fetched":"Fremont,US","state":"CA","country":"United States","canonicalUrl":"https://foursquare.com/v/golden-state-brewery/56bf8dc9cd100614a79e73f1","categoryId":"50327c8591d4c4b30a586d5d","category":"Brewery","checkinsCount":172,"usersCount":151,"tipCount":3,"visitsCount":263,"tier":"","message":"","currency":"","rating":7.9},{"name":"Taverna Hookah Lounge","phone":"4087359971","address":"133 S Murphy Ave","lat":37.377163,"lng":-122.03049482,"neighborhood":"Heritage District","city_fetched":"Fremont,US","state":"CA","country":"United States","canonicalUrl":"https://foursquare.com/v/taverna-hookah-lounge/4e6ed9e1e4cdd99161f5b1a5","categoryId":"4bf58dd8d48988d119941735","category":"Hookah Bar","checkinsCount":624,"usersCount":390,"tipCount":8,"visitsCount":646,"tier":"","message":"","currency":"","rating":7.9},{"name":"Main & Elm","phone":"6503683430","address":"150 Elm St","lat":37.481214397183194,"lng":-122.22553903178853,"city_fetched":"Fremont,US","state":"CA","country":"United States","canonicalUrl":"https://foursquare.com/v/main--elm/557d00c9498e16ce167da793","categoryId":"50327c8591d4c4b30a586d5d","category":"Brewery","checkinsCount":226,"usersCount":205,"tipCount":4,"visitsCount":397,"tier":"","message":"","currency":"","rating":7.9},{"name":"Eight Bridges Brewing","phone":"9259619160","twitter":"8bridgesbrewing","address":"332 Earhart Way","lat":37.69889838352911,"lng":-121.81243658065796,"city_fetched":"Fremont,US","state":"CA","country":"United States","canonicalUrl":"https://foursquare.com/v/eight-bridges-brewing/52dd3d6211d2498401162d70","categoryId":"50327c8591d4c4b30a586d5d","category":"Brewery","checkinsCount":263,"usersCount":268,"tipCount":6,"visitsCount":404,"url":"http://8bridgesbrewing.com","tier":"","message":"","currency":"","rating":7.9},{"name":"Santa Clara Valley Brewing","phone":"4082885181","twitter":"scvbrewer","address":"101 E Alma Ave","lat":37.31715435534428,"lng":-121.87318021409726,"neighborhood":"Central San Jose","city_fetched":"Fremont,US","state":"CA","country":"United States","canonicalUrl":"https://foursquare.com/v/santa-clara-valley-brewing/54c16d9e498e44dbbd53b23d","categoryId":"50327c8591d4c4b30a586d5d","category":"Brewery","checkinsCount":178,"usersCount":214,"tipCount":3,"visitsCount":306,"url":"http://scvbrewing.com","tier":"","message":"","currency":"","rating":7.9},{"name":"Normandy House Lounge","phone":"4082441937","twitter":"normandybar","address":"30 Washington St","lat":37.33822703361511,"lng":-121.93853795528412,"neighborhood":"Cory","city_fetched":"Fremont,US","state":"CA","country":"United States","canonicalUrl":"https://foursquare.com/v/normandy-house-lounge/4a872d21f964a5200a0320e3","categoryId":"4bf58dd8d48988d118941735","category":"Dive Bar","checkinsCount":2649,"usersCount":790,"tipCount":15,"visitsCount":2994,"url":"http://www.normandyhouselounge.com","tier":1,"message":"Cheap","currency":"$","rating":7.8},{"name":"King of Clubs","phone":"6509686366","twitter":"kingofclubsca","address":"893 Leong Dr","lat":37.406417,"lng":-122.064734,"neighborhood":"Moffett-Whisman","city_fetched":"Fremont,US","state":"CA","country":"United States","canonicalUrl":"https://foursquare.com/v/king-of-clubs/412a8500f964a520920c1fe3","categoryId":"4bf58dd8d48988d1d8941735","category":"Gay Bar","checkinsCount":1869,"usersCount":398,"tipCount":8,"visitsCount":1974,"url":"http://www.koclubs.com","tier":"","message":"","currency":"","rating":7.8},{"name":"Riata Diner & Tavern","phone":"9252949170","address":"190 S J St","lat":37.681175234207295,"lng":-121.76832160761485,"city_fetched":"Fremont,US","state":"CA","country":"United States","canonicalUrl":"https://foursquare.com/v/riata-diner--tavern/4b402e97f964a5209eb625e3","categoryId":"4bf58dd8d48988d11b941735","category":"Pub","checkinsCount":800,"usersCount":348,"tipCount":12,"visitsCount":830,"url":"http://www.riatadinerandtavern.com","tier":"","message":"","currency":"","rating":7.8},{"name":"Rock Bottom Restaurant & Brewery","phone":"4083770707","twitter":"rockbottom","address":"1875 S. Bascom #700","lat":37.28894064683028,"lng":-121.93425178527833,"neighborhood":"Pruneyard","city_fetched":"Fremont,US","state":"CA","country":"United States","canonicalUrl":"https://foursquare.com/v/rock-bottom-restaurant--brewery/45143eacf964a520dd391fe3","categoryId":"50327c8591d4c4b30a586d5d","category":"Brewery","checkinsCount":14796,"usersCount":5768,"tipCount":94,"visitsCount":16134,"url":"http://www.rockbottom.com","tier":2,"message":"Moderate","currency":"$","rating":7.8},{"name":"Tied House Brewery & Cafe","phone":"6509652739","twitter":"tiedhouse","address":"954 Villa St","lat":37.394688282477915,"lng":-122.08077013492584,"neighborhood":"Old Mountain View","city_fetched":"Fremont,US","state":"CA","country":"United States","canonicalUrl":"https://foursquare.com/v/tied-house-brewery--cafe/46b8f26bf964a520c7491fe3","categoryId":"50327c8591d4c4b30a586d5d","category":"Brewery","checkinsCount":13988,"usersCount":7882,"tipCount":107,"visitsCount":16279,"url":"http://www.tiedhouse.com","tier":2,"message":"Moderate","currency":"$","rating":7.8},{"name":"Buffalo Bill's Brew Pub","phone":"5108869823","address":"1082 B St","lat":37.67394418015952,"lng":-122.08150030018449,"neighborhood":"Downtown Hayward","city_fetched":"Fremont,US","state":"CA","country":"United States","canonicalUrl":"https://foursquare.com/v/buffalo-bills-brew-pub/4a7cc510f964a52093ed1fe3","categoryId":"50327c8591d4c4b30a586d5d","category":"Brewery","checkinsCount":7117,"usersCount":2720,"tipCount":77,"visitsCount":7555,"url":"http://www.buffalobillsbrewery.com","tier":2,"message":"Moderate","currency":"$","rating":7.7},{"name":"Alpha Acid Brewing","address":"121 Industrial Road","lat":37.52123537709383,"lng":-122.26552442545493,"city_fetched":"Fremont,US","state":"CA","country":"United States","canonicalUrl":"https://foursquare.com/v/alpha-acid-brewing/566f9144498e6cd6f5b8d124","categoryId":"50327c8591d4c4b30a586d5d","category":"Brewery","checkinsCount":231,"usersCount":163,"tipCount":6,"visitsCount":339,"url":"http://alphaacidbrewing.com","tier":"","message":"","currency":"","rating":7.7},{"name":"7 Bamboo Lounge","phone":"4082799937","twitter":"7bamboolounge","address":"162 Jackson St","lat":37.348625,"lng":-121.89501554,"neighborhood":"Japantown","city_fetched":"Fremont,US","state":"CA","country":"United States","canonicalUrl":"https://foursquare.com/7bamboolounge","categoryId":"4bf58dd8d48988d120941735","category":"Karaoke Bar","checkinsCount":3029,"usersCount":1054,"tipCount":14,"visitsCount":3246,"url":"http://www.7bamboolounge.com","tier":2,"message":"Moderate","currency":"$","rating":7.7},{"name":"V & E Club","phone":"9254473293","address":"2071 1st St","lat":37.68108445380023,"lng":-121.77016881807938,"city_fetched":"Fremont,US","state":"CA","country":"United States","canonicalUrl":"https://foursquare.com/v/v--e-club/4bd3d70aa8b3a59362fa6a5f","categoryId":"4bf58dd8d48988d118941735","category":"Dive Bar","checkinsCount":877,"usersCount":371,"tipCount":3,"visitsCount":882,"tier":"","message":"","currency":"","rating":7.7},{"name":"Warriors Courtside Club","address":"Oracle Arena","lat":37.7502679821109,"lng":-122.2027587295927,"neighborhood":"Central East Oakland","city_fetched":"Fremont,US","state":"CA","country":"United States","canonicalUrl":"https://foursquare.com/v/warriors-courtside-club/4f1a5706e4b0d79041875336","categoryId":"4bf58dd8d48988d11d941735","category":"Sports Bar","checkinsCount":947,"usersCount":561,"tipCount":7,"visitsCount":950,"tier":"","message":"","currency":"","rating":7.7},{"name":"Mojo Lounge","phone":"5107391028","address":"3714 Peralta Blvd","lat":37.559035,"lng":-122.00444398,"neighborhood":"Centerville","city_fetched":"Fremont,US","state":"CA","country":"United States","canonicalUrl":"https://foursquare.com/v/mojo-lounge/4c6f58cdb5a5236ae82d4d52","categoryId":"4bf58dd8d48988d121941735","category":"Lounge","checkinsCount":1507,"usersCount":701,"tipCount":20,"visitsCount":1826,"url":"http://themojolounge.net","tier":"","message":"","currency":"","rating":7.7},{"name":"Rookies Sports Lodge","phone":"4084452121","twitter":"rookies_lodge","address":"1535 Meridian Ave","lat":37.29694656,"lng":-121.91395800000001,"city_fetched":"Fremont,US","state":"CA","country":"United States","canonicalUrl":"https://foursquare.com/v/rookies-sports-lodge/4b74f156f964a520dff82de3","categoryId":"4bf58dd8d48988d116941735","category":"Bar","checkinsCount":4775,"usersCount":1348,"tipCount":31,"visitsCount":5441,"url":"http://rookieslodge.com","tier":"","message":"","currency":"","rating":7.7},{"name":"The Swingin' Door","phone":"6505229800","twitter":"theswingindoor","address":"106 E 25th Ave","lat":37.54524324977566,"lng":-122.3047473806424,"city_fetched":"Fremont,US","state":"CA","country":"United States","canonicalUrl":"https://foursquare.com/theswingindoor","categoryId":"4bf58dd8d48988d11b941735","category":"Pub","checkinsCount":5482,"usersCount":2069,"tipCount":41,"visitsCount":6321,"url":"http://www.theswingindoor.com","tier":2,"message":"Moderate","currency":"$","rating":7.6},{"name":"Smoke This!","phone":"4082476653","address":"2271 The Alameda","lat":37.34478829983228,"lng":-121.93320332339673,"city_fetched":"Fremont,US","state":"CA","country":"United States","canonicalUrl":"https://foursquare.com/v/smoke-this/4a2beb62f964a520f0961fe3","categoryId":"4bf58dd8d48988d119941735","category":"Hookah Bar","checkinsCount":2050,"usersCount":584,"tipCount":14,"visitsCount":2157,"url":"http://www.smoke-this.com","tier":"","message":"","currency":"","rating":7.6},{"name":"Buckhorn Tavern","phone":"4082513300","address":"3273 Sierra Rd","lat":37.3997724,"lng":-121.8482174967718,"neighborhood":"Piedmont Hills","city_fetched":"Fremont,US","state":"CA","country":"United States","canonicalUrl":"https://foursquare.com/v/buckhorn-tavern/4bc42988f8219c741908b710","categoryId":"4bf58dd8d48988d118941735","category":"Dive Bar","checkinsCount":745,"usersCount":180,"tipCount":11,"visitsCount":938,"tier":"","message":"","currency":"","rating":7.6},{"name":"McGah's Pub & Pianos","phone":"9257438466","twitter":"mcgahspubpianos","address":"148 E Prospect Ave","lat":37.82215893996937,"lng":-121.99937916013066,"city_fetched":"Fremont,US","state":"CA","country":"United States","canonicalUrl":"https://foursquare.com/v/mcgahs-pub--pianos/4c6c2a2df2846dcb382662e9","categoryId":"4bf58dd8d48988d116941735","category":"Bar","checkinsCount":2237,"usersCount":1040,"tipCount":24,"visitsCount":2567,"url":"http://www.mcgahs.com","tier":2,"message":"Moderate","currency":"$","rating":7.6},{"name":"The Office Bar & Grill","phone":"6505989740","address":"1748 El Camino Real","lat":37.494181358028925,"lng":-122.2453452515995,"neighborhood":"White Oaks","city_fetched":"Fremont,US","state":"CA","country":"United States","canonicalUrl":"https://foursquare.com/v/the-office-bar--grill/4ca4ecc897c8a1cde15662a5","categoryId":"4bf58dd8d48988d11d941735","category":"Sports Bar","checkinsCount":5755,"usersCount":3378,"tipCount":49,"visitsCount":7536,"url":"http://www.theofficesancarlos.com","tier":2,"message":"Moderate","currency":"$","rating":7.6},{"name":"O.co Coliseum Tailgating Area","address":"7000 Coliseum Way","lat":37.7498287394153,"lng":-122.19969401858197,"neighborhood":"Central East Oakland","city_fetched":"Fremont,US","state":"CA","country":"United States","canonicalUrl":"https://foursquare.com/v/oco-coliseum-tailgating-area/4fc127e1e4b0b469deb49fe6","categoryId":"4bf58dd8d48988d117941735","category":"Beer Garden","checkinsCount":1261,"usersCount":750,"tipCount":7,"visitsCount":1411,"tier":1,"message":"Cheap","currency":"$","rating":7.5},{"name":"Main St. Brewery","phone":"9254628218","twitter":"mainst_brewery","address":"830 Main St","lat":37.664481,"lng":-121.87393613,"city_fetched":"Fremont,US","state":"CA","country":"United States","canonicalUrl":"https://foursquare.com/v/main-st-brewery/4b149ea4f964a5202aa523e3","categoryId":"50327c8591d4c4b30a586d5d","category":"Brewery","checkinsCount":1349,"usersCount":662,"tipCount":12,"visitsCount":1393,"url":"http://www.mainstbrewery.com","tier":"","message":"","currency":"","rating":7.5},{"name":"Route 92 Sports Bar","phone":"6503121587","address":"2128 S El Camino Real","lat":37.547207,"lng":-122.308766,"city_fetched":"Fremont,US","state":"CA","country":"United States","canonicalUrl":"https://foursquare.com/v/route-92-sports-bar/4a96113df964a520f02520e3","categoryId":"4bf58dd8d48988d116941735","category":"Bar","checkinsCount":1024,"usersCount":422,"tipCount":8,"visitsCount":1246,"tier":"","message":"","currency":"","rating":7.5},{"name":"Trial's Pub","phone":"4089470497","address":"265 N 1st St","lat":37.339963,"lng":-121.893523,"neighborhood":"Downtown San Jose","city_fetched":"Fremont,US","state":"CA","country":"United States","canonicalUrl":"https://foursquare.com/v/trials-pub/4489da69f964a52043341fe3","categoryId":"4bf58dd8d48988d11b941735","category":"Pub","checkinsCount":5774,"usersCount":1573,"tipCount":39,"visitsCount":6132,"url":"http://www.trialspub.com","tier":2,"message":"Moderate","currency":"$","rating":7.5},{"name":"Hookah Castle","phone":"4082699900","address":"1920 Camden Ave.","lat":37.261549278368754,"lng":-121.92501951998167,"city_fetched":"Fremont,US","state":"CA","country":"United States","canonicalUrl":"https://foursquare.com/v/hookah-castle/502c8b14e4b0beacbcd23610","categoryId":"4bf58dd8d48988d119941735","category":"Hookah Bar","checkinsCount":200,"usersCount":61,"tipCount":4,"visitsCount":207,"url":"http://www.hookahcastle.net","tier":"","message":"","currency":"","rating":7.5},{"name":"By-Th'-Bucket Bar & Grill","phone":"4082486244","twitter":"btbbarandgrill","address":"4565 Stevens Creek Blvd","lat":37.323383940284934,"lng":-121.98275426061876,"city_fetched":"Fremont,US","state":"CA","country":"United States","canonicalUrl":"https://foursquare.com/v/bythbucket-bar--grill/4b0aef61f964a520502a23e3","categoryId":"4bf58dd8d48988d11d941735","category":"Sports Bar","checkinsCount":1901,"usersCount":1415,"tipCount":22,"visitsCount":2427,"url":"http://www.btbbarandgrill.com","tier":3,"message":"Expensive","currency":"$","rating":7.5},{"name":"Dirty Bird Lounge","phone":"5105372201","address":"29308 Mission Blvd","lat":37.632937,"lng":-122.04992,"city_fetched":"Fremont,US","state":"CA","country":"United States","canonicalUrl":"https://foursquare.com/v/dirty-bird-lounge/4b36ea0af964a5201f3e25e3","categoryId":"4bf58dd8d48988d118941735","category":"Dive Bar","checkinsCount":1307,"usersCount":687,"tipCount":10,"visitsCount":1544,"url":"http://dirtybirdlounge.com","tier":"","message":"","currency":"","rating":7.4},{"name":"The Bank","phone":"4088675155","address":"14421 Big Basin Way","lat":37.25874787906453,"lng":-122.03277468681335,"neighborhood":"Saratoga Village","city_fetched":"Fremont,US","state":"CA","country":"United States","canonicalUrl":"https://foursquare.com/v/the-bank/4a827638f964a52030f91fe3","categoryId":"4bf58dd8d48988d118941735","category":"Dive Bar","checkinsCount":922,"usersCount":580,"tipCount":6,"visitsCount":950,"tier":"","message":"","currency":"","rating":7.4},{"name":"Fred's Place","phone":"6509409838","address":"2534 Old Middlefield Way","lat":37.415501,"lng":-122.100927,"city_fetched":"Fremont,US","state":"CA","country":"United States","canonicalUrl":"https://foursquare.com/v/freds-place/4a8231ebf964a520d9f81fe3","categoryId":"4bf58dd8d48988d118941735","category":"Dive Bar","checkinsCount":2984,"usersCount":720,"tipCount":11,"visitsCount":3412,"url":"http://fredsplace.tv","tier":1,"message":"Cheap","currency":"$","rating":7.4},{"name":"First & Main Sports Lounge","phone":"6509491380","twitter":"firstandmain","address":"397 Main St","lat":37.377733,"lng":-122.117586,"neighborhood":"North Los Altos","city_fetched":"Fremont,US","state":"CA","country":"United States","canonicalUrl":"https://foursquare.com/v/first--main-sports-lounge/4a0121f5f964a520da701fe3","categoryId":"4bf58dd8d48988d11d941735","category":"Sports Bar","checkinsCount":2536,"usersCount":1156,"tipCount":17,"visitsCount":2910,"url":"http://www.firstandmainsportslounge.com","tier":2,"message":"Moderate","currency":"$","rating":7.4},{"name":"Gravity Bistro & Wine Bar","phone":"6503273161","address":"544 Emerson St","lat":37.4440665233206,"lng":-122.16197927150341,"neighborhood":"University South","city_fetched":"Fremont,US","state":"CA","country":"United States","canonicalUrl":"https://foursquare.com/v/gravity-bistro--wine-bar/4cf40ae46195721e611f50c1","categoryId":"4bf58dd8d48988d123941735","category":"Wine Bar","checkinsCount":3449,"usersCount":2321,"tipCount":29,"visitsCount":3527,"url":"http://gravitywinebar.com","tier":2,"message":"Moderate","currency":"$","rating":7.4},{"name":"nomikai","phone":"4082877199","twitter":"nomikaisj","address":"48 S 1st St","lat":37.335226455493256,"lng":-121.88991616641978,"neighborhood":"Downtown San Jose","city_fetched":"Fremont,US","state":"CA","country":"United States","canonicalUrl":"https://foursquare.com/v/nomikai/52b27051498e39530e4f5972","categoryId":"4bf58dd8d48988d121941735","category":"Lounge","checkinsCount":866,"usersCount":454,"tipCount":9,"visitsCount":891,"url":"http://www.nomikaisj.com","tier":"","message":"","currency":"","rating":7.3},{"name":"Fibbar MaGees","phone":"4087498343","twitter":"fibbar_magees","address":"156 S Murphy Ave","lat":37.37669294545592,"lng":-122.03000144487535,"neighborhood":"Heritage District","city_fetched":"Fremont,US","state":"CA","country":"United States","canonicalUrl":"https://foursquare.com/v/fibbar-magees/434b0080f964a520a2281fe3","categoryId":"4bf58dd8d48988d11b941735","category":"Pub","checkinsCount":5638,"usersCount":2472,"tipCount":27,"visitsCount":5982,"url":"http://www.fibbars.com","tier":2,"message":"Moderate","currency":"$","rating":7.3},{"name":"Steelhead Brewing Company","phone":"6503446050","address":"333 California Dr","lat":37.57994818144164,"lng":-122.346271276474,"neighborhood":"Downtown Burlingame","city_fetched":"Fremont,US","state":"CA","country":"United States","canonicalUrl":"https://foursquare.com/v/steelhead-brewing-company/422ceb00f964a520e01f1fe3","categoryId":"50327c8591d4c4b30a586d5d","category":"Brewery","checkinsCount":7431,"usersCount":4569,"tipCount":54,"visitsCount":7846,"url":"http://steelheadbrewery.com","tier":2,"message":"Moderate","currency":"$","rating":7.3},{"name":"Cellar Door","phone":"9258463667","address":"4469 Railroad Ave","lat":37.66038894294512,"lng":-121.87435865030736,"city_fetched":"Fremont,US","state":"CA","country":"United States","canonicalUrl":"https://foursquare.com/v/cellar-door/5202ee1f498e17d8ec66d30f","categoryId":"4bf58dd8d48988d123941735","category":"Wine Bar","checkinsCount":336,"usersCount":116,"tipCount":5,"visitsCount":348,"url":"http://ourcellardoor.com","tier":"","message":"","currency":"","rating":7.3},{"name":"The World Famous Turf Club","phone":"5108819877","twitter":"turfclubca","address":"22519 Main St","lat":37.67363920688155,"lng":-122.08366423845291,"neighborhood":"Downtown Hayward","city_fetched":"Fremont,US","state":"CA","country":"United States","canonicalUrl":"https://foursquare.com/v/the-world-famous-turf-club/4a862ad1f964a520a50020e3","categoryId":"4bf58dd8d48988d116941735","category":"Bar","checkinsCount":1621,"usersCount":502,"tipCount":12,"visitsCount":1715,"url":"http://www.worldfamousturfclub.com","tier":"","message":"","currency":"","rating":7.3},{"name":"O'Neill's Irish Pub","phone":"6503471544","address":"34 S B St","lat":37.56714077277743,"lng":-122.32432851790301,"neighborhood":"Downtown San Mateo","city_fetched":"Fremont,US","state":"CA","country":"United States","canonicalUrl":"https://foursquare.com/v/oneills-irish-pub/49e81b21f964a52040651fe3","categoryId":"4bf58dd8d48988d116941735","category":"Bar","checkinsCount":3990,"usersCount":1783,"tipCount":25,"visitsCount":4060,"url":"http://www.tisoneills.com","tier":2,"message":"Moderate","currency":"$","rating":7.3},{"name":"Marriott Concierge Lounge","address":"1770 S Amphlett Blvd","lat":37.556121395293424,"lng":-122.30147520122752,"neighborhood":"Hayward Park","city_fetched":"Fremont,US","state":"CA","country":"United States","canonicalUrl":"https://foursquare.com/v/marriott-concierge-lounge/4ec42f10e5fa74ea52ce63a9","categoryId":"4bf58dd8d48988d1d5941735","category":"Hotel Bar","checkinsCount":492,"usersCount":147,"tipCount":1,"visitsCount":496,"tier":"","message":"","currency":"","rating":7.3},{"name":"Chaplin's Sports Bistro","phone":"5104296860","address":"29200 Kohoutek Way","lat":37.60897446420421,"lng":-122.08220491044615,"city_fetched":"Fremont,US","state":"CA","country":"United States","canonicalUrl":"https://foursquare.com/v/chaplins-sports-bistro/4f1c8be9e4b0817d3ddf985a","categoryId":"4bf58dd8d48988d11d941735","category":"Sports Bar","checkinsCount":1406,"usersCount":685,"tipCount":21,"visitsCount":1749,"url":"http://www.chaplinssportsbistro.com","tier":2,"message":"Moderate","currency":"$","rating":7.3},{"name":"The Saddle Rack","phone":"5109790477","twitter":"thesaddlerack","address":"42011 Boscell Rd","lat":37.5080306371728,"lng":-121.98177690001529,"city_fetched":"Fremont,US","state":"CA","country":"United States","canonicalUrl":"https://foursquare.com/v/the-saddle-rack/42d1b680f964a52006261fe3","categoryId":"4bf58dd8d48988d11f941735","category":"Nightclub","checkinsCount":4465,"usersCount":3650,"tipCount":26,"visitsCount":5333,"url":"http://www.thesaddlerack.com","tier":2,"message":"Moderate","currency":"$","rating":7.3},{"name":"55 South","phone":"4082886000","address":"55 S 1st St","lat":37.335180518976394,"lng":-121.88994951351323,"neighborhood":"Downtown San Jose","city_fetched":"Fremont,US","state":"CA","country":"United States","canonicalUrl":"https://foursquare.com/v/55-south/509dbfa7e4b0f56d608ba241","categoryId":"4bf58dd8d48988d11e941735","category":"Cocktail Bar","checkinsCount":3395,"usersCount":1530,"tipCount":30,"visitsCount":3552,"url":"http://the55south.com","tier":2,"message":"Moderate","currency":"$","rating":7.3},{"name":"C.B. Hannegan's","phone":"4083951233","twitter":"cbhannegans","address":"208 Bachman Ave","lat":37.22758395,"lng":-121.98203905,"city_fetched":"Fremont,US","state":"CA","country":"United States","canonicalUrl":"https://foursquare.com/v/cb-hannegans/4ac2fd90f964a520049b20e3","categoryId":"4bf58dd8d48988d11b941735","category":"Pub","checkinsCount":3022,"usersCount":1302,"tipCount":23,"visitsCount":3178,"url":"http://cbhannegans.com","tier":"","message":"","currency":"","rating":7.3},{"name":"Britannia Arms","phone":"4082781400","twitter":"thebritdowntown","address":"173 W Santa Clara St","lat":37.33492665881856,"lng":-121.89382326570097,"neighborhood":"Downtown San Jose","city_fetched":"Fremont,US","state":"CA","country":"United States","canonicalUrl":"https://foursquare.com/v/britannia-arms/49f6aabcf964a520596c1fe3","categoryId":"4bf58dd8d48988d11b941735","category":"Pub","checkinsCount":8352,"usersCount":3930,"tipCount":48,"visitsCount":8732,"url":"http://www.britanniaarmsdowntown.com","tier":2,"message":"Moderate","currency":"$","rating":7.3},{"name":"Black Watch","phone":"4083542200","address":"141 N Santa Cruz Ave","lat":37.22560429014152,"lng":-121.98259592056276,"city_fetched":"Fremont,US","state":"CA","country":"United States","canonicalUrl":"https://foursquare.com/v/black-watch/4ae28d15f964a520f78e21e3","categoryId":"4bf58dd8d48988d116941735","category":"Bar","checkinsCount":2788,"usersCount":1391,"tipCount":24,"visitsCount":2919,"tier":"","message":"","currency":"","rating":7.3},{"name":"VIP Oriental","phone":"4082601166","address":"2776 El Camino Real","lat":37.35133733375672,"lng":-121.97657341860308,"city_fetched":"Fremont,US","state":"CA","country":"United States","canonicalUrl":"https://foursquare.com/v/vip-oriental/4ab3047af964a520506d20e3","categoryId":"4bf58dd8d48988d121941735","category":"Lounge","checkinsCount":2351,"usersCount":1098,"tipCount":17,"visitsCount":2456,"tier":1,"message":"Cheap","currency":"$","rating":7.2},{"name":"Beefy's Cabin","phone":"4087367141","address":"693 Grape Ave","lat":37.37191129014126,"lng":-122.05353967043092,"city_fetched":"Fremont,US","state":"CA","country":"United States","canonicalUrl":"https://foursquare.com/v/beefys-cabin/4784d7dcf964a520314d1fe3","categoryId":"4bf58dd8d48988d118941735","category":"Dive Bar","checkinsCount":1736,"usersCount":378,"tipCount":8,"visitsCount":1849,"tier":1,"message":"Cheap","currency":"$","rating":7.2},{"name":"3rd Avenue Sports Bar & Grill","phone":"6503409872","address":"77 E 3rd Ave","lat":37.56411573920789,"lng":-122.3246623632703,"neighborhood":"Downtown San Mateo","city_fetched":"Fremont,US","state":"CA","country":"United States","canonicalUrl":"https://foursquare.com/v/3rd-avenue-sports-bar--grill/4aa1b5cbf964a5207f4120e3","categoryId":"4bf58dd8d48988d11b941735","category":"Pub","checkinsCount":1990,"usersCount":980,"tipCount":12,"visitsCount":2036,"tier":2,"message":"Moderate","currency":"$","rating":7.2},{"name":"Gordon Biersch Brewery","phone":"4082781008","twitter":"gbbrewingco","address":"357 E Taylor St","lat":37.3536649048242,"lng":-121.8928451144105,"neighborhood":"Downtown San Jose","city_fetched":"Fremont,US","state":"CA","country":"United States","canonicalUrl":"https://foursquare.com/v/gordon-biersch-brewery/4ceafc55948f224b3e60fe5d","categoryId":"50327c8591d4c4b30a586d5d","category":"Brewery","checkinsCount":1301,"usersCount":353,"tipCount":2,"visitsCount":1327,"url":"http://gordonbiersch.com","tier":"","message":"","currency":"","rating":7.2},{"name":"Brass Rail","phone":"4087341454","address":"160 Persian Dr","lat":37.40342493627224,"lng":-122.02173050001512,"city_fetched":"Fremont,US","state":"CA","country":"United States","canonicalUrl":"https://foursquare.com/v/brass-rail/4a64f887f964a5201ac71fe3","categoryId":"4bf58dd8d48988d1d6941735","category":"Strip Club","checkinsCount":577,"usersCount":462,"tipCount":5,"visitsCount":851,"url":"http://brass-rail.com","tier":"","message":"","currency":"","rating":7.2},{"name":"Lariat","phone":"6505937201","address":"1428 El Camino Real","lat":37.51706867421074,"lng":-122.27205981977029,"neighborhood":"Downtown Belmont","city_fetched":"Fremont,US","state":"CA","country":"United States","canonicalUrl":"https://foursquare.com/v/lariat/49f1e34af964a520bf691fe3","categoryId":"4bf58dd8d48988d11d941735","category":"Sports Bar","checkinsCount":2553,"usersCount":443,"tipCount":16,"visitsCount":2636,"tier":"","message":"","currency":"","rating":7.2},{"name":"Ricky's Sports Theatre & Grill","phone":"5103520200","twitter":"rickysports","address":"15028 Hesperian Blvd","lat":37.704363695165,"lng":-122.1293423531284,"city_fetched":"Fremont,US","state":"CA","country":"United States","canonicalUrl":"https://foursquare.com/v/rickys-sports-theatre--grill/4abfe0fff964a520c59220e3","categoryId":"4bf58dd8d48988d11d941735","category":"Sports Bar","checkinsCount":1290,"usersCount":724,"tipCount":21,"visitsCount":1512,"url":"http://rickys.com","tier":2,"message":"Moderate","currency":"$","rating":7.2},{"name":"Murphy's Law","phone":"4087363822","address":"135 S Murphy Ave","lat":37.377163,"lng":-122.03028559684753,"neighborhood":"Heritage District","city_fetched":"Fremont,US","state":"CA","country":"United States","canonicalUrl":"https://foursquare.com/v/murphys-law/4a752c12f964a520a9e01fe3","categoryId":"4bf58dd8d48988d11b941735","category":"Pub","checkinsCount":1693,"usersCount":740,"tipCount":11,"visitsCount":1697,"url":"http://murphyslawpub.com","tier":1,"message":"Cheap","currency":"$","rating":7.2},{"name":"Stanley's Sports Bar","phone":"4082796000","twitter":"stanleys_bar","address":"1500 S 10th St","lat":37.31947663712175,"lng":-121.86449163916971,"neighborhood":"Central San Jose","city_fetched":"Fremont,US","state":"CA","country":"United States","canonicalUrl":"https://foursquare.com/v/stanleys-sports-bar/4ac90621f964a52018be20e3","categoryId":"4bf58dd8d48988d11d941735","category":"Sports Bar","checkinsCount":4267,"usersCount":802,"tipCount":24,"visitsCount":4309,"tier":1,"message":"Cheap","currency":"$","rating":7.2},{"name":"Strike Brewing Co.","phone":"4082792337","twitter":"strikebrewingco","address":"2099 S 10th St #30","lat":37.310517287725645,"lng":-121.858053982852,"neighborhood":"South San Jose","city_fetched":"Fremont,US","state":"CA","country":"United States","canonicalUrl":"https://foursquare.com/v/strike-brewing-co/53bb2d94498ec85e3b7108ad","categoryId":"50327c8591d4c4b30a586d5d","category":"Brewery","checkinsCount":374,"usersCount":255,"tipCount":4,"visitsCount":471,"url":"http://strikebrewingco.com","tier":"","message":"","currency":"","rating":7.2},{"name":"The Saddle Room","phone":"6503619756","address":"1607 Woodside Rd","lat":37.45552881264163,"lng":-122.22778853829347,"city_fetched":"Fremont,US","state":"CA","country":"United States","canonicalUrl":"https://foursquare.com/v/the-saddle-room/4a387768f964a520fb9e1fe3","categoryId":"4bf58dd8d48988d118941735","category":"Dive Bar","checkinsCount":3034,"usersCount":362,"tipCount":10,"visitsCount":3185,"tier":"","message":"","currency":"","rating":7.2},{"name":"The Bears","phone":"4089983425","address":"1872 W San Carlos St","lat":37.323299236033975,"lng":-121.9275308400503,"neighborhood":"Central San Jose","city_fetched":"Fremont,US","state":"CA","country":"United States","canonicalUrl":"https://foursquare.com/v/the-bears/4b652f86f964a52007e82ae3","categoryId":"4bf58dd8d48988d118941735","category":"Dive Bar","checkinsCount":703,"usersCount":189,"tipCount":9,"visitsCount":733,"tier":"","message":"","currency":"","rating":7.2},{"name":"Schubros Brewery","twitter":"schubrosbrewery","address":"12893 Alcosta Blvd Ste N","lat":37.77769252747333,"lng":-121.9627332879584,"city_fetched":"Fremont,US","state":"CA","country":"United States","canonicalUrl":"https://foursquare.com/v/schubros-brewery/50f515188acaa8fa444c2c31","categoryId":"50327c8591d4c4b30a586d5d","category":"Brewery","checkinsCount":260,"usersCount":186,"tipCount":5,"visitsCount":366,"url":"http://schubrosbrewery.com","tier":"","message":"","currency":"","rating":7.2},{"name":"Los Gatos Bar & Grill","phone":"4084025870","twitter":"lgbglosgatos","address":"15 1/2 N Santa Cruz Ave","lat":37.22303298559933,"lng":-121.98385378086931,"city_fetched":"Fremont,US","state":"CA","country":"United States","canonicalUrl":"https://foursquare.com/v/los-gatos-bar--grill/4c9271b0911b8cfa0861edb5","categoryId":"4bf58dd8d48988d11f941735","category":"Nightclub","checkinsCount":1657,"usersCount":885,"tipCount":9,"visitsCount":1662,"url":"http://www.losgatosbarandgrill.com","tier":"","message":"","currency":"","rating":7.2},{"name":"Hookah Nights","lat":37.445451,"lng":-122.162454,"neighborhood":"Downtown North","city_fetched":"Fremont,US","state":"CA","country":"United States","canonicalUrl":"https://foursquare.com/v/hookah-nights/50960bd6e4b07ba8c6bac46f","categoryId":"4bf58dd8d48988d119941735","category":"Hookah Bar","checkinsCount":1144,"usersCount":638,"tipCount":15,"visitsCount":1204,"url":"http://www.hookahnites.com","tier":2,"message":"Moderate","currency":"$","rating":7.2},{"name":"Renegades","phone":"4082759902","address":"501 W. Taylor St.","lat":37.342253167295134,"lng":-121.9113564491272,"neighborhood":"Central San Jose","city_fetched":"Fremont,US","state":"CA","country":"United States","canonicalUrl":"https://foursquare.com/v/renegades/463c5459f964a5202e461fe3","categoryId":"4bf58dd8d48988d1d8941735","category":"Gay Bar","checkinsCount":2601,"usersCount":613,"tipCount":9,"visitsCount":2823,"url":"http://renegadesbar.com","tier":"","message":"","currency":"","rating":7.1},{"name":"Tower Grille","phone":"9258206996","address":"301 Hartz Ave","lat":37.822304,"lng":-122.001168,"city_fetched":"Fremont,US","state":"CA","country":"United States","canonicalUrl":"https://foursquare.com/v/tower-grille/4b80a60bf964a5207f8330e3","categoryId":"4bf58dd8d48988d116941735","category":"Bar","checkinsCount":1698,"usersCount":602,"tipCount":17,"visitsCount":1846,"url":"http://towergrille.com","tier":"","message":"","currency":"","rating":7.1},{"name":"The Englander","phone":"5103573571","address":"101 Parrott St","lat":37.72199344553191,"lng":-122.15321391820908,"neighborhood":"Downtown San Leandro","city_fetched":"Fremont,US","state":"CA","country":"United States","canonicalUrl":"https://foursquare.com/v/the-englander/4b5eb347f964a520509629e3","categoryId":"4bf58dd8d48988d116941735","category":"Bar","checkinsCount":4681,"usersCount":1842,"tipCount":50,"visitsCount":5451,"url":"http://englanderpub.com","tier":2,"message":"Moderate","currency":"$","rating":7.1},{"name":"Faultline Brewing Company","phone":"4087362739","twitter":"faultlinebrew","address":"1235 Oakmead Pkwy","lat":37.387604712954364,"lng":-121.99252545833588,"city_fetched":"Fremont,US","state":"CA","country":"United States","canonicalUrl":"https://foursquare.com/v/faultline-brewing-company/40958b80f964a520e8f21ee3","categoryId":"50327c8591d4c4b30a586d5d","category":"Brewery","checkinsCount":8390,"usersCount":5853,"tipCount":73,"visitsCount":10442,"url":"http://www.faultlinebrewing.com","tier":3,"message":"Expensive","currency":"$","rating":7.1},{"name":"Clandestine Brewing","phone":"4085200220","twitter":"clandestinebrew","address":"1805 Little Orchard St Ste 124","lat":37.30539365754591,"lng":-121.87359631061554,"neighborhood":"South San Jose","city_fetched":"Fremont,US","state":"CA","country":"United States","canonicalUrl":"https://foursquare.com/v/clandestine-brewing/501c1e40e4b03c7b5e0e5262","categoryId":"50327c8591d4c4b30a586d5d","category":"Brewery","checkinsCount":213,"usersCount":162,"tipCount":6,"visitsCount":304,"url":"http://clandestinebrewing.com","tier":"","message":"","currency":"","rating":7.1},{"name":"Boulevard Tavern","phone":"4083580774","address":"15043 Los Gatos Blvd","lat":37.25022173333333,"lng":-121.95514558333333,"neighborhood":"East Los Gatos","city_fetched":"Fremont,US","state":"CA","country":"United States","canonicalUrl":"https://foursquare.com/v/boulevard-tavern/4b5292c9f964a520bc8227e3","categoryId":"4bf58dd8d48988d116941735","category":"Bar","checkinsCount":980,"usersCount":398,"tipCount":4,"visitsCount":1176,"url":"http://boulevardlg.com","tier":"","message":"","currency":"","rating":7.1},{"name":"Grill Em Steak House & Sports Bar","phone":"4083718729","twitter":"grillem","address":"2509 S Bascom Ave","lat":37.27761268132075,"lng":-121.93251441839377,"city_fetched":"Fremont,US","state":"CA","country":"United States","canonicalUrl":"https://foursquare.com/grillem","categoryId":"4bf58dd8d48988d11d941735","category":"Sports Bar","checkinsCount":1664,"usersCount":915,"tipCount":21,"visitsCount":2208,"url":"http://www.ugrillem.com","tier":2,"message":"Moderate","currency":"$","rating":7.1},{"name":"The Old Pro","phone":"6503261446","twitter":"theoldproca","address":"541 Ramona St","lat":37.4449352800068,"lng":-122.16129181350485,"neighborhood":"University South","city_fetched":"Fremont,US","state":"CA","country":"United States","canonicalUrl":"https://foursquare.com/v/the-old-pro/4283ee00f964a520c7221fe3","categoryId":"4bf58dd8d48988d11d941735","category":"Sports Bar","checkinsCount":18656,"usersCount":8886,"tipCount":93,"visitsCount":18937,"url":"http://oldpropa.com","tier":2,"message":"Moderate","currency":"$","rating":7.1},{"name":"E One Entertainment","phone":"5106388883","address":"200 Hegenberger Rd","lat":37.73107899822629,"lng":-122.19889041801467,"neighborhood":"Central East Oakland","city_fetched":"Fremont,US","state":"CA","country":"United States","canonicalUrl":"https://foursquare.com/v/e-one-entertainment/500a1b41e4b0e954040a7093","categoryId":"4bf58dd8d48988d11d941735","category":"Sports Bar","checkinsCount":105,"usersCount":69,"tipCount":2,"visitsCount":109,"tier":"","message":"","currency":"","rating":7.1},{"name":"The Doghouse Sports Lounge","address":"1336 N 1st St","lat":37.36083711,"lng":-121.90842265,"neighborhood":"North San Jose","city_fetched":"Fremont,US","state":"CA","country":"United States","canonicalUrl":"https://foursquare.com/v/the-doghouse-sports-lounge/4d97ef6a97d06ea85146290b","categoryId":"4bf58dd8d48988d11d941735","category":"Sports Bar","checkinsCount":390,"usersCount":198,"tipCount":7,"visitsCount":402,"tier":"","message":"","currency":"","rating":7},{"name":"Oasis","phone":"4087389957","address":"952 E El Camino Real","lat":37.35205689,"lng":-122.011517,"city_fetched":"Fremont,US","state":"CA","country":"United States","canonicalUrl":"https://foursquare.com/v/oasis/4b4832f9f964a520f44926e3","categoryId":"4bf58dd8d48988d118941735","category":"Dive Bar","checkinsCount":875,"usersCount":344,"tipCount":13,"visitsCount":943,"url":"http://www.myspace.com/sunnyvaleoasis","tier":1,"message":"Cheap","currency":"$","rating":7},{"name":"St. Stephen's Green","phone":"6509649151","twitter":"stephensgreen","address":"223 Castro St","lat":37.39352313527258,"lng":-122.07904799885718,"neighborhood":"Downtown Mountain View","city_fetched":"Fremont,US","state":"CA","country":"United States","canonicalUrl":"https://foursquare.com/v/st-stephens-green/462d478ff964a520e9451fe3","categoryId":"4bf58dd8d48988d11b941735","category":"Pub","checkinsCount":12765,"usersCount":5375,"tipCount":65,"visitsCount":13188,"url":"http://ststephensgreen.com","tier":2,"message":"Moderate","currency":"$","rating":7},{"name":"Antonio's Nut House","phone":"6503212550","address":"321 S California Ave","lat":37.427091,"lng":-122.143896,"city_fetched":"Fremont,US","state":"CA","country":"United States","canonicalUrl":"https://foursquare.com/v/antonios-nut-house/40a40c00f964a52014f31ee3","categoryId":"4bf58dd8d48988d118941735","category":"Dive Bar","checkinsCount":10697,"usersCount":4828,"tipCount":70,"visitsCount":11832,"url":"http://antoniosnuthouse.com","tier":1,"message":"Cheap","currency":"$","rating":7},{"name":"The Swinging Hookah","phone":"4082984824","twitter":"swinginghookah","address":"386 S 1st St","lat":37.330398353893514,"lng":-121.88613676396265,"neighborhood":"Downtown San Jose","city_fetched":"Fremont,US","state":"CA","country":"United States","canonicalUrl":"https://foursquare.com/v/the-swinging-hookah/4cede46d4cd4236a0a08ab63","categoryId":"4bf58dd8d48988d119941735","category":"Hookah Bar","checkinsCount":1449,"usersCount":783,"tipCount":20,"visitsCount":1471,"url":"http://www.theswinginghookah.com","tier":"","message":"","currency":"","rating":7},{"name":"The Hut","phone":"4082966024","address":"3200 The Alameda","lat":37.35142785337721,"lng":-121.94041434423602,"city_fetched":"Fremont,US","state":"CA","country":"United States","canonicalUrl":"https://foursquare.com/v/the-hut/43f18ee6f964a520832f1fe3","categoryId":"4bf58dd8d48988d118941735","category":"Dive Bar","checkinsCount":2122,"usersCount":892,"tipCount":9,"visitsCount":2233,"tier":1,"message":"Cheap","currency":"$","rating":7},{"name":"Woodham's Sports Lounge","phone":"4082442899","address":"4475 Stevens Creek Blvd","lat":37.32374527096795,"lng":-121.98062181472778,"city_fetched":"Fremont,US","state":"CA","country":"United States","canonicalUrl":"https://foursquare.com/v/woodhams-sports-lounge/4a53be76f964a520adb21fe3","categoryId":"4bf58dd8d48988d118941735","category":"Dive Bar","checkinsCount":969,"usersCount":311,"tipCount":19,"visitsCount":1062,"tier":"","message":"","currency":"","rating":6.9},{"name":"Coach's Sports Bar and Grill","phone":"4083792654","address":"2240 Winchester Blvd","lat":37.282744391164385,"lng":-121.94958576825933,"neighborhood":"Central Campbell","city_fetched":"Fremont,US","state":"CA","country":"United States","canonicalUrl":"https://foursquare.com/v/coachs-sports-bar-and-grill/4b1478f0f964a5208da323e3","categoryId":"4bf58dd8d48988d118941735","category":"Dive Bar","checkinsCount":1589,"usersCount":596,"tipCount":11,"visitsCount":1713,"url":"http://coachssportsbar.com","tier":1,"message":"Cheap","currency":"$","rating":6.9},{"name":"Elliott's Bar","phone":"9258379955","address":"Hartz Ave","lat":37.82184429877814,"lng":-122.0003230498855,"city_fetched":"Fremont,US","state":"CA","country":"United States","canonicalUrl":"https://foursquare.com/v/elliotts-bar/4ae65c0ff964a520a3a621e3","categoryId":"4bf58dd8d48988d118941735","category":"Dive Bar","checkinsCount":609,"usersCount":385,"tipCount":6,"visitsCount":622,"tier":"","message":"","currency":"","rating":6.9},{"name":"Sporty's Bikini Bar","address":"1053 E El Camino Real","lat":37.35291028066166,"lng":-122.00428426265717,"neighborhood":"Ponderosa Park","city_fetched":"Fremont,US","state":"CA","country":"United States","canonicalUrl":"https://foursquare.com/v/sportys-bikini-bar/4a767334f964a5200ae31fe3","categoryId":"4bf58dd8d48988d1d6941735","category":"Strip Club","checkinsCount":421,"usersCount":243,"tipCount":5,"visitsCount":440,"tier":"","message":"","currency":"","rating":6.9},{"name":"Tequila Shots Bar & Grill","phone":"4085145286","twitter":"tequilashotsbar","address":"38 N Main St","lat":37.431260085001846,"lng":-121.90681629422669,"neighborhood":"Midtown","city_fetched":"Fremont,US","state":"CA","country":"United States","canonicalUrl":"https://foursquare.com/v/tequila-shots-bar--grill/4daa159493a04642f077d65c","categoryId":"4bf58dd8d48988d118941735","category":"Dive Bar","checkinsCount":776,"usersCount":482,"tipCount":7,"visitsCount":1005,"url":"http://tequilashotsbarandgrill.com","tier":"","message":"","currency":"","rating":6.9},{"name":"V Bar","phone":"4085510010","address":"355 Santana Row","lat":37.32094540648577,"lng":-121.94806373148411,"city_fetched":"Fremont,US","state":"CA","country":"United States","canonicalUrl":"https://foursquare.com/v/v-bar/40b92400f964a5209a001fe3","categoryId":"4bf58dd8d48988d1d5941735","category":"Hotel Bar","checkinsCount":4248,"usersCount":2779,"tipCount":23,"visitsCount":4269,"url":"http://www.hotelvalencia.com","tier":3,"message":"Expensive","currency":"$","rating":6.9},{"name":"Fieldhouse Sports Grill","address":"3483 Blackhawk Plaza Cir","lat":37.80018661097679,"lng":-121.91911880365566,"city_fetched":"Fremont,US","state":"CA","country":"United States","canonicalUrl":"https://foursquare.com/v/fieldhouse-sports-grill/51e09bc7498ec9be234b6bcf","categoryId":"4bf58dd8d48988d11d941735","category":"Sports Bar","checkinsCount":463,"usersCount":233,"tipCount":9,"visitsCount":498,"url":"http://fieldhousesportsgrill.com","tier":2,"message":"Moderate","currency":"$","rating":6.8},{"name":"Gordon Biersch Brewery Restaurant","phone":"4082946785","address":"33 E San Fernando St","lat":37.33472821639385,"lng":-121.8885933902626,"neighborhood":"Downtown San Jose","city_fetched":"Fremont,US","state":"CA","country":"United States","canonicalUrl":"https://foursquare.com/v/gordon-biersch-brewery-restaurant/438f5a5ff964a5203f2b1fe3","categoryId":"50327c8591d4c4b30a586d5d","category":"Brewery","checkinsCount":8445,"usersCount":6102,"tipCount":63,"visitsCount":9092,"url":"http://gordonbiersch.com","tier":2,"message":"Moderate","currency":"$","rating":6.8},{"name":"Antone's Cocktail Lounge","phone":"6505749672","address":"32 37th Ave","lat":37.53414225988124,"lng":-122.29525169174184,"city_fetched":"Fremont,US","state":"CA","country":"United States","canonicalUrl":"https://foursquare.com/v/antones-cocktail-lounge/4a99f71af964a520453120e3","categoryId":"4bf58dd8d48988d118941735","category":"Dive Bar","checkinsCount":860,"usersCount":127,"tipCount":3,"visitsCount":887,"tier":"","message":"","currency":"","rating":6.7},{"name":"Court's Lounge","phone":"4085599880","address":"2425 S Bascom Ave","lat":37.27873163082464,"lng":-121.93231441290756,"city_fetched":"Fremont,US","state":"CA","country":"United States","canonicalUrl":"https://foursquare.com/v/courts-lounge/4bef8557d1b7d13a4eebcdec","categoryId":"4bf58dd8d48988d116941735","category":"Bar","checkinsCount":972,"usersCount":284,"tipCount":6,"visitsCount":1059,"url":"http://www.courtslounge.com","tier":"","message":"","currency":"","rating":6.7},{"name":"The Sportsmen's Lounge","phone":"4082444600","address":"2368 Pruneridge Ave","lat":37.329612909286666,"lng":-121.96288325058096,"city_fetched":"Fremont,US","state":"CA","country":"United States","canonicalUrl":"https://foursquare.com/v/the-sportsmens-lounge/4b5c0bd3f964a520502229e3","categoryId":"4bf58dd8d48988d118941735","category":"Dive Bar","checkinsCount":773,"usersCount":309,"tipCount":3,"visitsCount":890,"tier":"","message":"","currency":"","rating":6.7},{"name":"City Pub","phone":"6503632620","address":"2620 Broadway St","lat":37.48648177008505,"lng":-122.23388671875,"city_fetched":"Fremont,US","state":"CA","country":"United States","canonicalUrl":"https://foursquare.com/v/city-pub/46c6259cf964a5200b4a1fe3","categoryId":"4bf58dd8d48988d11b941735","category":"Pub","checkinsCount":3814,"usersCount":1529,"tipCount":44,"visitsCount":3920,"url":"http://city-pub.com","tier":2,"message":"Moderate","currency":"$","rating":6.7},{"name":"Scotty's Bar & Grill","phone":"6505614929","twitter":"scottysbar1","address":"548 Emerson St","lat":37.444039161000596,"lng":-122.161934919507,"neighborhood":"University South","city_fetched":"Fremont,US","state":"CA","country":"United States","canonicalUrl":"https://foursquare.com/v/scottys-bar--grill/4a6555f3f964a5207fc71fe3","categoryId":"4bf58dd8d48988d116941735","category":"Bar","checkinsCount":2925,"usersCount":1258,"tipCount":12,"visitsCount":2955,"url":"http://www.scottyspaloalto.com","tier":1,"message":"Cheap","currency":"$","rating":6.7},{"name":"Galaxy Cocktail Lounge & Bar","phone":"4082621123","address":"134 S Main St","lat":37.42873505,"lng":-121.905832,"neighborhood":"Midtown","city_fetched":"Fremont,US","state":"CA","country":"United States","canonicalUrl":"https://foursquare.com/v/galaxy-cocktail-lounge--bar/4b676f29f964a520b84e2be3","categoryId":"4bf58dd8d48988d118941735","category":"Dive Bar","checkinsCount":331,"usersCount":191,"tipCount":2,"visitsCount":339,"tier":"","message":"","currency":"","rating":6.7},{"name":"The Sports Page","phone":"6509611992","twitter":"bisportspage","address":"1431 Plymouth St","lat":37.41607098,"lng":-122.07860549,"city_fetched":"Fremont,US","state":"CA","country":"United States","canonicalUrl":"https://foursquare.com/v/the-sports-page/455fa0a5f964a520943d1fe3","categoryId":"4bf58dd8d48988d11d941735","category":"Sports Bar","checkinsCount":8415,"usersCount":4995,"tipCount":46,"visitsCount":11609,"url":"http://sportspagesf.com","tier":2,"message":"Moderate","currency":"$","rating":6.7},{"name":"Steamie's Bar","phone":"6503934344","address":"3403 Pacific Blvd","lat":37.53681883062607,"lng":-122.29594230651855,"neighborhood":"San Mateo Glendale Village","city_fetched":"Fremont,US","state":"CA","country":"United States","canonicalUrl":"https://foursquare.com/v/steamies-bar/4a4bf7f7f964a520ecac1fe3","categoryId":"4bf58dd8d48988d11d941735","category":"Sports Bar","checkinsCount":1240,"usersCount":493,"tipCount":9,"visitsCount":1402,"url":"http://steamiesbar.com","tier":"","message":"","currency":"","rating":6.7},{"name":"Mac's Club Inc","phone":"4082888221","address":"39 Post St","lat":37.334998666666664,"lng":-121.89078245,"neighborhood":"Downtown San Jose","city_fetched":"Fremont,US","state":"CA","country":"United States","canonicalUrl":"https://foursquare.com/v/macs-club-inc/4b48c9ecf964a520005726e3","categoryId":"4bf58dd8d48988d1d8941735","category":"Gay Bar","checkinsCount":1375,"usersCount":464,"tipCount":12,"visitsCount":1440,"url":"http://www.macsclub.com","tier":"","message":"","currency":"","rating":6.7},{"name":"Redcoats British Pub & Restaurant","phone":"9254626600","twitter":"redcoatspub","address":"336 Saint Mary St","lat":37.66259038967638,"lng":-121.87567234039307,"city_fetched":"Fremont,US","state":"CA","country":"United States","canonicalUrl":"https://foursquare.com/v/redcoats-british-pub--restaurant/4ae8bdd8f964a520dfb121e3","categoryId":"4bf58dd8d48988d11b941735","category":"Pub","checkinsCount":2739,"usersCount":1115,"tipCount":22,"visitsCount":2940,"url":"http://www.redcoatspub.com","tier":2,"message":"Moderate","currency":"$","rating":6.7},{"name":"The Willow Den","phone":"4082711880","address":"805 Lincoln Ave","lat":37.31463557532832,"lng":-121.90607721088404,"city_fetched":"Fremont,US","state":"CA","country":"United States","canonicalUrl":"https://foursquare.com/v/the-willow-den/4baea2b6f964a52046c93be3","categoryId":"4bf58dd8d48988d116941735","category":"Bar","checkinsCount":2928,"usersCount":1317,"tipCount":18,"visitsCount":3464,"url":"http://www.thewillowden.com","tier":1,"message":"Cheap","currency":"$","rating":6.7},{"name":"SmokeEaters","phone":"4089703300","address":"3175 Mission College Blvd","lat":37.38881809605268,"lng":-121.98472006177401,"city_fetched":"Fremont,US","state":"CA","country":"United States","canonicalUrl":"https://foursquare.com/v/smokeeaters/51f09509498e68343017e3e9","categoryId":"4bf58dd8d48988d11d941735","category":"Sports Bar","checkinsCount":3018,"usersCount":2042,"tipCount":33,"visitsCount":4510,"url":"http://smoke-eaters.com","tier":2,"message":"Moderate","currency":"$","rating":6.7},{"name":"Splash Video Dance Bar","phone":"4082922222","twitter":"splashsanjose","address":"65 Post St","lat":37.33496494026638,"lng":-121.89094992163636,"neighborhood":"Downtown San Jose","city_fetched":"Fremont,US","state":"CA","country":"United States","canonicalUrl":"https://foursquare.com/v/splash-video-dance-bar/4e2f5c5a45ddcf0f5c82623f","categoryId":"4bf58dd8d48988d1d8941735","category":"Gay Bar","checkinsCount":3879,"usersCount":1464,"tipCount":20,"visitsCount":4250,"url":"http://www.splashsj.com","tier":1,"message":"Cheap","currency":"$","rating":6.6},{"name":"Jack's Brewing Co.","phone":"5107962036","address":"39176 Argonaut Way","lat":37.54415072522913,"lng":-121.98750210985493,"neighborhood":"Sundale","city_fetched":"Fremont,US","state":"CA","country":"United States","canonicalUrl":"https://foursquare.com/v/jacks-brewing-co/4b29b895f964a520dfa224e3","categoryId":"50327c8591d4c4b30a586d5d","category":"Brewery","checkinsCount":2271,"usersCount":975,"tipCount":28,"visitsCount":2415,"url":"http://www.jacksbrewingcompany.com","tier":2,"message":"Moderate","currency":"$","rating":6.6},{"name":"Lilly Mac's","phone":"4087320200","address":"187 S Murphy Ave","lat":37.37636424632677,"lng":-122.03055381774902,"neighborhood":"Heritage District","city_fetched":"Fremont,US","state":"CA","country":"United States","canonicalUrl":"https://foursquare.com/v/lilly-macs/4b298e17f964a520d1a024e3","categoryId":"4bf58dd8d48988d116941735","category":"Bar","checkinsCount":3100,"usersCount":1609,"tipCount":32,"visitsCount":3191,"url":"http://lillymacs.com","tier":2,"message":"Moderate","currency":"$","rating":6.6},{"name":"Double D's Sports Grille","phone":"4083956882","address":"354 N Santa Cruz Ave","lat":37.22862473333333,"lng":-121.980861,"city_fetched":"Fremont,US","state":"CA","country":"United States","canonicalUrl":"https://foursquare.com/v/double-ds-sports-grille/4a642eb5f964a52026c61fe3","categoryId":"4bf58dd8d48988d11d941735","category":"Sports Bar","checkinsCount":3521,"usersCount":1439,"tipCount":21,"visitsCount":3676,"url":"http://www.doubleds.com","tier":2,"message":"Moderate","currency":"$","rating":6.6},{"name":"Homestead Lounge","phone":"4082419838","address":"3557 Homestead Rd","lat":37.33855426311493,"lng":-121.99497699737549,"city_fetched":"Fremont,US","state":"CA","country":"United States","canonicalUrl":"https://foursquare.com/v/homestead-lounge/4abf24f0f964a520db9020e3","categoryId":"4bf58dd8d48988d121941735","category":"Lounge","checkinsCount":1202,"usersCount":206,"tipCount":5,"visitsCount":1207,"tier":"","message":"","currency":"","rating":6.6},{"name":"Orchid Room","phone":"6505927696","address":"678 Laurel St","lat":37.50519804028514,"lng":-122.26002216339111,"city_fetched":"Fremont,US","state":"CA","country":"United States","canonicalUrl":"https://foursquare.com/v/orchid-room/4acd7b59f964a5202fcc20e3","categoryId":"4bf58dd8d48988d116941735","category":"Bar","checkinsCount":3312,"usersCount":350,"tipCount":10,"visitsCount":3320,"tier":"","message":"","currency":"","rating":6.6},{"name":"Working Man Brewing Company","phone":"9252699622","address":"5542 Brisa St","lat":37.6973502123721,"lng":-121.72517612565768,"city_fetched":"Fremont,US","state":"CA","country":"United States","canonicalUrl":"https://foursquare.com/v/working-man-brewing-company/51a2745b498e624edfa709bb","categoryId":"50327c8591d4c4b30a586d5d","category":"Brewery","checkinsCount":145,"usersCount":169,"tipCount":5,"visitsCount":226,"url":"http://workingmanbrewing.com","tier":"","message":"","currency":"","rating":6.6},{"name":"Spanky's","phone":"5105382306","address":"20812 Baker Rd","lat":37.694558587322746,"lng":-122.08379165379772,"city_fetched":"Fremont,US","state":"CA","country":"United States","canonicalUrl":"https://foursquare.com/v/spankys/4bb6895ef562ef3b99573097","categoryId":"4bf58dd8d48988d116941735","category":"Bar","checkinsCount":3365,"usersCount":267,"tipCount":9,"visitsCount":3411,"tier":"","message":"","currency":"","rating":6.5},{"name":"Barrelhouse","phone":"6503408642","twitter":"barrelhousebar","address":"305 California Dr","lat":37.57985644754192,"lng":-122.34595933565174,"neighborhood":"Downtown Burlingame","city_fetched":"Fremont,US","state":"CA","country":"United States","canonicalUrl":"https://foursquare.com/v/barrelhouse/4d99189a0caaa14304bdbdb3","categoryId":"4bf58dd8d48988d11e941735","category":"Cocktail Bar","checkinsCount":3079,"usersCount":1772,"tipCount":18,"visitsCount":3183,"url":"http://www.barrelhouseburlingame.com","tier":2,"message":"Moderate","currency":"$","rating":6.5},{"name":"Kirby's Sports Bar","address":"42312 Fremont Blvd","lat":37.52337517678429,"lng":-121.95701789302956,"neighborhood":"Grimmer","city_fetched":"Fremont,US","state":"CA","country":"United States","canonicalUrl":"https://foursquare.com/v/kirbys-sports-bar/4bf3a48f94af2d7f72ae3972","categoryId":"4bf58dd8d48988d116941735","category":"Bar","checkinsCount":701,"usersCount":360,"tipCount":9,"visitsCount":706,"tier":"","message":"","currency":"","rating":6.5},{"name":"Quarter Note Bar","phone":"4087322110","address":"1214 Apollo Way Ste 403","lat":37.3788281712079,"lng":-121.99539542198181,"city_fetched":"Fremont,US","state":"CA","country":"United States","canonicalUrl":"https://foursquare.com/v/quarter-note-bar/4b65225df964a520b5e52ae3","categoryId":"4bf58dd8d48988d116941735","category":"Bar","checkinsCount":656,"usersCount":290,"tipCount":5,"visitsCount":664,"url":"http://quarternote.com","tier":"","message":"","currency":"","rating":6.5},{"name":"Polomoni's Bar & Lounge","phone":"9254475311","address":"1845 1st St","lat":37.680161866666666,"lng":-121.77312623333333,"city_fetched":"Fremont,US","state":"CA","country":"United States","canonicalUrl":"https://foursquare.com/v/polomonis-bar--lounge/4b3c273af964a5205c8225e3","categoryId":"4bf58dd8d48988d118941735","category":"Dive Bar","checkinsCount":306,"usersCount":141,"tipCount":4,"visitsCount":308,"tier":"","message":"","currency":"","rating":6.5},{"name":"Britannia Arms","phone":"4082527262","twitter":"britanniaarms","address":"1087 S De Anza Blvd","lat":37.306680130834145,"lng":-122.03280687332153,"city_fetched":"Fremont,US","state":"CA","country":"United States","canonicalUrl":"https://foursquare.com/v/britannia-arms/4a39ed53f964a520c59f1fe3","categoryId":"4bf58dd8d48988d11b941735","category":"Pub","checkinsCount":2509,"usersCount":1119,"tipCount":19,"visitsCount":2662,"url":"http://britanniaarmscupertino-hub.com","tier":2,"message":"Moderate","currency":"$","rating":6.5},{"name":"Campbell Brewing Company","address":"200 E Campbell Ave","lat":37.28705768295563,"lng":-121.9463305836405,"neighborhood":"Downtown Campbell","city_fetched":"Fremont,US","state":"CA","country":"United States","canonicalUrl":"https://foursquare.com/v/campbell-brewing-company/4ce609acd99f721eb9cba173","categoryId":"50327c8591d4c4b30a586d5d","category":"Brewery","checkinsCount":1300,"usersCount":628,"tipCount":6,"visitsCount":1402,"tier":2,"message":"Moderate","currency":"$","rating":6.5},{"name":"LGBG","phone":"4084025870","address":"15 1/2 N. Santa Cruz Ave","lat":37.222998,"lng":-121.983884,"city_fetched":"Fremont,US","state":"CA","country":"United States","canonicalUrl":"https://foursquare.com/v/lgbg/4cd9b4ffa99d370492b70cce","categoryId":"4bf58dd8d48988d11f941735","category":"Nightclub","checkinsCount":2609,"usersCount":1067,"tipCount":9,"visitsCount":2640,"url":"http://www.losgatosbarandgrill.com","tier":2,"message":"Moderate","currency":"$","rating":6.5},{"name":"Park Lane Lounge","phone":"4082576738","address":"5152 Moorpark Ave","lat":37.3089,"lng":-121.993671,"neighborhood":"West Valley","city_fetched":"Fremont,US","state":"CA","country":"United States","canonicalUrl":"https://foursquare.com/v/park-lane-lounge/4bf494246a31d13a6efe952e","categoryId":"4bf58dd8d48988d116941735","category":"Bar","checkinsCount":2123,"usersCount":404,"tipCount":7,"visitsCount":2153,"tier":"","message":"","currency":"","rating":6.5},{"name":"The Ballpark","phone":"4082440293","address":"2531 Newhall St","lat":37.337915824270574,"lng":-121.95077419281006,"city_fetched":"Fremont,US","state":"CA","country":"United States","canonicalUrl":"https://foursquare.com/v/the-ballpark/4b652e40f964a520d2e72ae3","categoryId":"4bf58dd8d48988d11d941735","category":"Sports Bar","checkinsCount":590,"usersCount":163,"tipCount":3,"visitsCount":606,"tier":"","message":"","currency":"","rating":6.5},{"name":"Hyde Park Lounge","phone":"4082751681","twitter":"hydeparklounge","address":"1070 N 4th St","lat":37.358511,"lng":-121.902591,"neighborhood":"Hyde Park","city_fetched":"Fremont,US","state":"CA","country":"United States","canonicalUrl":"https://foursquare.com/v/hyde-park-lounge/4bb18b28f964a520fc983ce3","categoryId":"4bf58dd8d48988d118941735","category":"Dive Bar","checkinsCount":393,"usersCount":125,"tipCount":7,"visitsCount":396,"url":"http://hydeparklounge-hub.com","tier":"","message":"","currency":"","rating":6.4},{"name":"Bobby D's Cocktail Lounge & Sports Bar","phone":"6503661043","twitter":"bobbyds_rwc","address":"700 Winslow St","lat":37.48720513318092,"lng":-122.23110176464505,"city_fetched":"Fremont,US","state":"CA","country":"United States","canonicalUrl":"https://foursquare.com/v/bobby-ds-cocktail-lounge--sports-bar/4f5e9913e4b0028cf99997b3","categoryId":"4bf58dd8d48988d11d941735","category":"Sports Bar","checkinsCount":536,"usersCount":334,"tipCount":2,"visitsCount":765,"tier":"","message":"","currency":"","rating":6.4},{"name":"Sharks Cage","phone":"4084412657","twitter":"hmshost","address":"Terminal B","lat":37.36640541388642,"lng":-121.92687034606934,"neighborhood":"North San Jose","city_fetched":"Fremont,US","state":"CA","country":"United States","canonicalUrl":"https://foursquare.com/v/sharks-cage/4abc39f8f964a520d78620e3","categoryId":"4bf58dd8d48988d11d941735","category":"Sports Bar","checkinsCount":1297,"usersCount":1027,"tipCount":7,"visitsCount":1297,"tier":"","message":"","currency":"","rating":6.4},{"name":"Off the Hook Sports Bar","phone":"4083743257","address":"2391 Winchester Blvd","lat":37.27968053544135,"lng":-121.95061896368821,"neighborhood":"Central Campbell","city_fetched":"Fremont,US","state":"CA","country":"United States","canonicalUrl":"https://foursquare.com/v/off-the-hook-sports-bar/4bd3ae97462cb713771cdf07","categoryId":"4bf58dd8d48988d116941735","category":"Bar","checkinsCount":524,"usersCount":225,"tipCount":4,"visitsCount":529,"tier":"","message":"","currency":"","rating":6.4},{"name":"Sodini's","address":"727 El Camino Real","lat":37.48694508,"lng":-122.23531901836395,"city_fetched":"Fremont,US","state":"CA","country":"United States","canonicalUrl":"https://foursquare.com/v/sodinis/4b7cc061f964a5201ca42fe3","categoryId":"4bf58dd8d48988d118941735","category":"Dive Bar","checkinsCount":665,"usersCount":252,"tipCount":2,"visitsCount":711,"tier":"","message":"","currency":"","rating":6.4},{"name":"The Blue Chip","phone":"4089712898","address":"325 S 1st St","lat":37.33097462266798,"lng":-121.88674258864322,"neighborhood":"Downtown San Jose","city_fetched":"Fremont,US","state":"CA","country":"United States","canonicalUrl":"https://foursquare.com/v/the-blue-chip/4b01f638f964a520d74622e3","categoryId":"4bf58dd8d48988d11d941735","category":"Sports Bar","checkinsCount":1275,"usersCount":744,"tipCount":21,"visitsCount":1315,"url":"http://www.thebluechipsj.com","tier":"","message":"","currency":"","rating":6.4},{"name":"The Patio Bar","phone":"4082451250","address":"948 E El Camino Real","lat":37.352005,"lng":-122.011855,"city_fetched":"Fremont,US","state":"CA","country":"United States","canonicalUrl":"https://foursquare.com/v/the-patio-bar/4bb02d05f964a5200c3b3ce3","categoryId":"4bf58dd8d48988d118941735","category":"Dive Bar","checkinsCount":937,"usersCount":271,"tipCount":8,"visitsCount":955,"tier":"","message":"","currency":"","rating":6.3},{"name":"Katie Bloom's","phone":"4083799687","address":"369 E Campbell Ave","lat":37.2871575,"lng":-121.943399,"neighborhood":"Downtown Campbell","city_fetched":"Fremont,US","state":"CA","country":"United States","canonicalUrl":"https://foursquare.com/v/katie-blooms/441b2867f964a52045311fe3","categoryId":"4bf58dd8d48988d11b941735","category":"Pub","checkinsCount":5414,"usersCount":2441,"tipCount":27,"visitsCount":5515,"url":"http://www.katieblooms.com","tier":1,"message":"Cheap","currency":"$","rating":6.3},{"name":"Gordon Biersch Brewery Restaurant","phone":"5106352511","address":"Terminal 2","lat":37.70948345276874,"lng":-122.21237540245056,"neighborhood":"Central East Oakland","city_fetched":"Fremont,US","state":"CA","country":"United States","canonicalUrl":"https://foursquare.com/v/gordon-biersch-brewery-restaurant/4b8708dcf964a520b3ac31e3","categoryId":"50327c8591d4c4b30a586d5d","category":"Brewery","checkinsCount":841,"usersCount":677,"tipCount":10,"visitsCount":846,"tier":"","message":"","currency":"","rating":6.3},{"name":"Characters Sports Bar & Grill","phone":"4089881500","address":"2700 Mission College Blvd","lat":37.390567660331726,"lng":-121.97424,"city_fetched":"Fremont,US","state":"CA","country":"United States","canonicalUrl":"https://foursquare.com/v/characters-sports-bar--grill/4b5e4acaf964a520108829e3","categoryId":"4bf58dd8d48988d1d5941735","category":"Hotel Bar","checkinsCount":1596,"usersCount":831,"tipCount":9,"visitsCount":1604,"tier":2,"message":"Moderate","currency":"$","rating":6.3},{"name":"Bucky's Cocktail Lounge","phone":"6503494711","address":"101 South Blvd","lat":37.553911800981425,"lng":-122.3129633729377,"neighborhood":"Hayward Park","city_fetched":"Fremont,US","state":"CA","country":"United States","canonicalUrl":"https://foursquare.com/v/buckys-cocktail-lounge/4b516351f964a520424c27e3","categoryId":"4bf58dd8d48988d116941735","category":"Bar","checkinsCount":481,"usersCount":203,"tipCount":4,"visitsCount":523,"tier":"","message":"","currency":"","rating":6.3},{"name":"Bert's Alibi","phone":"6509658255","address":"1313 W El Camino Real","lat":37.38822743808663,"lng":-122.08964464957909,"city_fetched":"Fremont,US","state":"CA","country":"United States","canonicalUrl":"https://foursquare.com/v/berts-alibi/4b403daaf964a52017b725e3","categoryId":"4bf58dd8d48988d118941735","category":"Dive Bar","checkinsCount":917,"usersCount":290,"tipCount":10,"visitsCount":988,"tier":"","message":"","currency":"","rating":6.2},{"name":"Pick 6","lat":37.69204411379399,"lng":-121.90191491223548,"city_fetched":"Fremont,US","state":"CA","country":"United States","canonicalUrl":"https://foursquare.com/v/pick-6/5580d861498e0975d251fd0f","categoryId":"4bf58dd8d48988d11d941735","category":"Sports Bar","checkinsCount":127,"usersCount":157,"tipCount":3,"visitsCount":236,"tier":"","message":"","currency":"","rating":6.2},{"name":"Outpost Sports Bar & Grill","phone":"9258377748","address":"2251 San Ramon Valley Blvd","lat":37.77944945014594,"lng":-121.97832584381104,"city_fetched":"Fremont,US","state":"CA","country":"United States","canonicalUrl":"https://foursquare.com/v/outpost-sports-bar--grill/4bede30da40fc92815b0820c","categoryId":"4bf58dd8d48988d11d941735","category":"Sports Bar","checkinsCount":3213,"usersCount":922,"tipCount":11,"visitsCount":3614,"url":"http://outpostsportsbar.com","tier":"","message":"","currency":"","rating":6.2},{"name":"Molly Magees","phone":"6509610108","twitter":"mollysmtview","address":"241 Castro St","lat":37.393214,"lng":-122.078907,"neighborhood":"Downtown Mountain View","city_fetched":"Fremont,US","state":"CA","country":"United States","canonicalUrl":"https://foursquare.com/v/molly-magees/412bd680f964a520ad0c1fe3","categoryId":"4bf58dd8d48988d11b941735","category":"Pub","checkinsCount":7701,"usersCount":4042,"tipCount":44,"visitsCount":7982,"url":"http://www.mollysmtview.com","tier":2,"message":"Moderate","currency":"$","rating":6.2},{"name":"TL Beer Garden","phone":"4089008252","address":"769 N Mathilda Ave","lat":37.39504739132583,"lng":-122.02940751202947,"city_fetched":"Fremont,US","state":"CA","country":"United States","canonicalUrl":"https://foursquare.com/v/tl-beer-garden/506a40b1e4b08f8cbd27c948","categoryId":"4bf58dd8d48988d116941735","category":"Bar","checkinsCount":1387,"usersCount":1065,"tipCount":25,"visitsCount":1832,"tier":2,"message":"Moderate","currency":"$","rating":6.2},{"name":"Blue Bonnet Bar","phone":"4082456651","address":"208 S Fair Oaks Ave","lat":37.373802,"lng":-122.02077043,"neighborhood":"Ponderosa","city_fetched":"Fremont,US","state":"CA","country":"United States","canonicalUrl":"https://foursquare.com/v/blue-bonnet-bar/4ad96ee1f964a520231a21e3","categoryId":"4bf58dd8d48988d118941735","category":"Dive Bar","checkinsCount":1351,"usersCount":285,"tipCount":14,"visitsCount":1408,"tier":"","message":"","currency":"","rating":6.2},{"name":"Yuppie Bar","phone":"6503438183","address":"709 S B St","lat":37.562569,"lng":-122.319149,"neighborhood":"Downtown San Mateo","city_fetched":"Fremont,US","state":"CA","country":"United States","canonicalUrl":"https://foursquare.com/v/yuppie-bar/4b04cbebf964a520a45622e3","categoryId":"4bf58dd8d48988d118941735","category":"Dive Bar","checkinsCount":1167,"usersCount":511,"tipCount":9,"visitsCount":1179,"tier":"","message":"","currency":"","rating":6.2},{"name":"Freddie J's Bar & Lounge","phone":"4088928109","address":"97 E Santa Clara St","lat":37.33730121558107,"lng":-121.8886489694114,"neighborhood":"Downtown San Jose","city_fetched":"Fremont,US","state":"CA","country":"United States","canonicalUrl":"https://foursquare.com/v/freddie-js-bar--lounge/4bbd2c2e07809521b756da91","categoryId":"4bf58dd8d48988d116941735","category":"Bar","checkinsCount":2250,"usersCount":697,"tipCount":13,"visitsCount":2255,"url":"http://www.freddiejs.com","tier":1,"message":"Cheap","currency":"$","rating":6.1},{"name":"Blinky's Can't Say","phone":"4089857201","address":"1031 Monroe St","lat":37.34896344373718,"lng":-121.94804706673118,"city_fetched":"Fremont,US","state":"CA","country":"United States","canonicalUrl":"https://foursquare.com/v/blinkys-cant-say/4afe5ed5f964a520442f22e3","categoryId":"4bf58dd8d48988d118941735","category":"Dive Bar","checkinsCount":1025,"usersCount":354,"tipCount":4,"visitsCount":1039,"tier":"","message":"","currency":"","rating":6.1},{"name":"LV's 19th Hole - Mariner's Point Golf Course","address":"2401 E 3rd Ave","lat":37.57224653007197,"lng":-122.28279250373103,"neighborhood":"Vintage Park","city_fetched":"Fremont,US","state":"CA","country":"United States","canonicalUrl":"https://foursquare.com/v/lvs-19th-hole--mariners-point-golf-course/4de9bb6b22713dd97381746d","categoryId":"4bf58dd8d48988d11d941735","category":"Sports Bar","checkinsCount":537,"usersCount":114,"tipCount":6,"visitsCount":558,"tier":"","message":"","currency":"","rating":6.1},{"name":"The Escape","address":"2942 S Bascom Ave","lat":37.268689583333334,"lng":-121.93853828333333,"neighborhood":"Cambrian","city_fetched":"Fremont,US","state":"CA","country":"United States","canonicalUrl":"https://foursquare.com/v/the-escape/4ab5d339f964a520247620e3","categoryId":"4bf58dd8d48988d118941735","category":"Dive Bar","checkinsCount":362,"usersCount":192,"tipCount":5,"visitsCount":477,"tier":"","message":"","currency":"","rating":6.1},{"name":"Zone 8 Sports Bar & Grill","phone":"4082443333","twitter":"zone8sportsbar","address":"1887 Matrix Blvd","lat":37.37119378530743,"lng":-121.91972444728943,"neighborhood":"North San Jose","city_fetched":"Fremont,US","state":"CA","country":"United States","canonicalUrl":"https://foursquare.com/v/zone-8-sports-bar--grill/50281775e4b057b8a44bc971","categoryId":"4bf58dd8d48988d11d941735","category":"Sports Bar","checkinsCount":1005,"usersCount":671,"tipCount":7,"visitsCount":1090,"url":"http://www.zone8sportsbar.com","tier":"","message":"","currency":"","rating":6.1},{"name":"Cinebar","phone":"4082929562","address":"69 E San Fernando St","lat":37.33488313829445,"lng":-121.88786566257477,"neighborhood":"Downtown San Jose","city_fetched":"Fremont,US","state":"CA","country":"United States","canonicalUrl":"https://foursquare.com/v/cinebar/46a25e88f964a5202d491fe3","categoryId":"4bf58dd8d48988d118941735","category":"Dive Bar","checkinsCount":3549,"usersCount":1198,"tipCount":26,"visitsCount":3607,"tier":1,"message":"Cheap","currency":"$","rating":6.1},{"name":"Redi Room","address":"4340 Moorpark Ave","lat":37.315503358839855,"lng":-121.978215,"neighborhood":"Strawberry Park","city_fetched":"Fremont,US","state":"CA","country":"United States","canonicalUrl":"https://foursquare.com/v/redi-room/4a792302f964a520f7e61fe3","categoryId":"4bf58dd8d48988d116941735","category":"Bar","checkinsCount":1007,"usersCount":367,"tipCount":4,"visitsCount":1009,"tier":"","message":"","currency":"","rating":6},{"name":"Ryan's Sports Bar","phone":"6503501535","address":"477 E Hillsdale Blvd","lat":37.54270727625529,"lng":-122.28929915074809,"neighborhood":"Hillsdale","city_fetched":"Fremont,US","state":"CA","country":"United States","canonicalUrl":"https://foursquare.com/v/ryans-sports-bar/4b3bbee9f964a520397a25e3","categoryId":"4bf58dd8d48988d11d941735","category":"Sports Bar","checkinsCount":406,"usersCount":126,"tipCount":1,"visitsCount":416,"tier":"","message":"","currency":"","rating":6},{"name":"The X Bar","phone":"4082555700","twitter":"homesteadbowl","address":"20990 Homestead Rd","lat":37.336392119104175,"lng":-122.04034201841259,"neighborhood":"Homestead Road","city_fetched":"Fremont,US","state":"CA","country":"United States","canonicalUrl":"https://foursquare.com/v/the-x-bar/4d6f33415b5ca1cd43796944","categoryId":"4bf58dd8d48988d11d941735","category":"Sports Bar","checkinsCount":674,"usersCount":239,"tipCount":10,"visitsCount":679,"url":"http://www.homesteadbowl.com","tier":"","message":"","currency":"","rating":6},{"name":"Bronco's Cocktail Lounge","phone":"4082484682","address":"1251 Franklin Mall","lat":37.34902,"lng":-121.947618,"city_fetched":"Fremont,US","state":"CA","country":"United States","canonicalUrl":"https://foursquare.com/v/broncos-cocktail-lounge/4c369a06dfb0e21ee874aba8","categoryId":"4bf58dd8d48988d118941735","category":"Dive Bar","checkinsCount":925,"usersCount":260,"tipCount":3,"visitsCount":934,"tier":1,"message":"Cheap","currency":"$","rating":6},{"name":"Paul & Harvey's","phone":"4087365770","address":"130 S Murphy Ave","lat":37.377107,"lng":-122.029855,"neighborhood":"Heritage District","city_fetched":"Fremont,US","state":"CA","country":"United States","canonicalUrl":"https://foursquare.com/v/paul--harveys/485ce6e3f964a520d1501fe3","categoryId":"4bf58dd8d48988d118941735","category":"Dive Bar","checkinsCount":958,"usersCount":483,"tipCount":10,"visitsCount":959,"tier":"","message":"","currency":"","rating":5.9},{"name":"C&J's Sports Bar","phone":"4084239013","address":"1550 Lafayette St","lat":37.355321097487135,"lng":-121.94649723365958,"city_fetched":"Fremont,US","state":"CA","country":"United States","canonicalUrl":"https://foursquare.com/v/cjs-sports-bar/4abd9079f964a520028b20e3","categoryId":"4bf58dd8d48988d116941735","category":"Bar","checkinsCount":1101,"usersCount":432,"tipCount":3,"visitsCount":1158,"url":"http://www.candjsportsbar.com","tier":"","message":"","currency":"","rating":5.9},{"name":"Evolution Caf & Bar","phone":"4082001234","address":"5101 Great America Pkwy","lat":37.4048836874942,"lng":-121.97664006026916,"city_fetched":"Fremont,US","state":"CA","country":"United States","canonicalUrl":"https://foursquare.com/v/evolution-caf%C3%A9--bar/4b7b62faf964a52043612fe3","categoryId":"4bf58dd8d48988d1d5941735","category":"Hotel Bar","checkinsCount":2192,"usersCount":1098,"tipCount":15,"visitsCount":2200,"url":"http://santaclara.hyatt.com/en/hotel/our-hotel.html","tier":2,"message":"Moderate","currency":"$","rating":5.9},{"name":"Shisha","phone":"4082980300","address":"84 N Market St","lat":37.33672838080018,"lng":-121.89275063342939,"neighborhood":"Downtown San Jose","city_fetched":"Fremont,US","state":"CA","country":"United States","canonicalUrl":"https://foursquare.com/v/shisha/4b5552dbf964a5209ce127e3","categoryId":"4bf58dd8d48988d119941735","category":"Hookah Bar","checkinsCount":555,"usersCount":358,"tipCount":6,"visitsCount":564,"tier":"","message":"","currency":"","rating":5.9},{"name":"Hookah Beats","lat":37.339247,"lng":-121.889333,"neighborhood":"Downtown San Jose","city_fetched":"Fremont,US","state":"CA","country":"United States","canonicalUrl":"https://foursquare.com/v/hookah-beats/4e4222d52271a90466a2b60a","categoryId":"4bf58dd8d48988d119941735","category":"Hookah Bar","checkinsCount":450,"usersCount":285,"tipCount":9,"visitsCount":514,"tier":"","message":"","currency":"","rating":5.9},{"name":"The Pink Poodle","phone":"4082923685","address":"328 S Bascom Ave","lat":37.32306405294411,"lng":-121.93180884186313,"neighborhood":"Central San Jose","city_fetched":"Fremont,US","state":"CA","country":"United States","canonicalUrl":"https://foursquare.com/v/the-pink-poodle/4b1af14bf964a52029f523e3","categoryId":"4bf58dd8d48988d1d6941735","category":"Strip Club","checkinsCount":811,"usersCount":339,"tipCount":6,"visitsCount":824,"url":"http://pinkpoodle.com","tier":"","message":"","currency":"","rating":5.8},{"name":"Downtown Ollie's","phone":"9254436507","address":"2128 Railroad Ave","lat":37.6833575963974,"lng":-121.77046,"city_fetched":"Fremont,US","state":"CA","country":"United States","canonicalUrl":"https://foursquare.com/v/downtown-ollies/4c19a250fe5a76b072000415","categoryId":"4bf58dd8d48988d118941735","category":"Dive Bar","checkinsCount":250,"usersCount":97,"tipCount":4,"visitsCount":251,"url":"http://www.downtownollies.com","tier":"","message":"","currency":"","rating":5.8},{"name":"Tanq","phone":"4086001965","twitter":"tanqbar","address":"301 S Market St","lat":37.33074572544064,"lng":-121.88840997887316,"neighborhood":"Downtown San Jose","city_fetched":"Fremont,US","state":"CA","country":"United States","canonicalUrl":"https://foursquare.com/v/tanq/4aa0a78ef964a520324020e3","categoryId":"4bf58dd8d48988d1d5941735","category":"Hotel Bar","checkinsCount":2720,"usersCount":1672,"tipCount":24,"visitsCount":2779,"url":"http://www.tanqbar.com","tier":2,"message":"Moderate","currency":"$","rating":5.8},{"name":"Russell City Grill & Sports Bar","lat":37.63857881287405,"lng":-122.12013058981915,"city_fetched":"Fremont,US","state":"CA","country":"United States","canonicalUrl":"https://foursquare.com/v/russell-city-grill--sports-bar/4f907f02e4b05c243cd69aef","categoryId":"50327c8591d4c4b30a586d5d","category":"Brewery","checkinsCount":284,"usersCount":66,"tipCount":2,"visitsCount":298,"tier":"","message":"","currency":"","rating":5.7},{"name":"Bogart's Sports Pub","phone":"4082452800","address":"1209 Wildwood Ave","lat":37.391949749523164,"lng":-121.99415985790193,"city_fetched":"Fremont,US","state":"CA","country":"United States","canonicalUrl":"https://foursquare.com/v/bogarts-sports-pub/4ba6bbf0f964a5202b6c39e3","categoryId":"4bf58dd8d48988d11b941735","category":"Pub","checkinsCount":1747,"usersCount":463,"tipCount":15,"visitsCount":1766,"url":"http://bogartslounge.com","tier":"","message":"","currency":"","rating":5.7},{"name":"The Brit","address":"Terminal B","lat":37.366792923474996,"lng":-121.9266196597444,"neighborhood":"North San Jose","city_fetched":"Fremont,US","state":"CA","country":"United States","canonicalUrl":"https://foursquare.com/v/the-brit/4ac93f7df964a5205cbf20e3","categoryId":"4bf58dd8d48988d11b941735","category":"Pub","checkinsCount":3160,"usersCount":2153,"tipCount":46,"visitsCount":3161,"tier":"","message":"","currency":"","rating":5.6},{"name":"Marriott Bar Pleasanton","address":"11950 Dublin Canyon ed","lat":37.695505,"lng":-121.935143,"city_fetched":"Fremont,US","state":"CA","country":"United States","canonicalUrl":"https://foursquare.com/v/marriott-bar-pleasanton/4afa2ca3f964a5202b1722e3","categoryId":"4bf58dd8d48988d1d5941735","category":"Hotel Bar","checkinsCount":405,"usersCount":160,"tipCount":6,"visitsCount":405,"tier":"","message":"","currency":"","rating":5.6},{"name":"Cheetah's Gentleman's Club","phone":"4087332628","address":"907 E Arques Ave","lat":37.381234110110015,"lng":-122.00888431283461,"city_fetched":"Fremont,US","state":"CA","country":"United States","canonicalUrl":"https://foursquare.com/v/cheetahs-gentlemans-club/4ae4bd30f964a5209e9d21e3","categoryId":"4bf58dd8d48988d1d6941735","category":"Strip Club","checkinsCount":573,"usersCount":280,"tipCount":10,"visitsCount":602,"url":"http://cheetahsgc.com","tier":"","message":"","currency":"","rating":5.6},{"name":"Diamonds Sports Bar","address":"77 Hegenberger Rd","lat":37.72924519070691,"lng":-122.20153950605057,"neighborhood":"Central East Oakland","city_fetched":"Fremont,US","state":"CA","country":"United States","canonicalUrl":"https://foursquare.com/v/diamonds-sports-bar/4c0afad2340720a12e7c8793","categoryId":"4bf58dd8d48988d11d941735","category":"Sports Bar","checkinsCount":631,"usersCount":290,"tipCount":3,"visitsCount":635,"tier":"","message":"","currency":"","rating":5.6},{"name":"Livermore Saloon","phone":"9254541449","address":"2223 1st St","lat":37.68172912,"lng":-121.768477,"city_fetched":"Fremont,US","state":"CA","country":"United States","canonicalUrl":"https://foursquare.com/v/livermore-saloon/4ba85bcef964a520f4d739e3","categoryId":"4bf58dd8d48988d118941735","category":"Dive Bar","checkinsCount":1020,"usersCount":433,"tipCount":8,"visitsCount":1025,"tier":"","message":"","currency":"","rating":5.6},{"name":"The Downtown Tiki Lounge","phone":"6509210789","address":"144 S B St","lat":37.56655505217481,"lng":-122.32361442631037,"neighborhood":"Downtown San Mateo","city_fetched":"Fremont,US","state":"CA","country":"United States","canonicalUrl":"https://foursquare.com/v/the-downtown-tiki-lounge/4c6d7260a437224bda132db1","categoryId":"56aa371be4b08b9a8d57354d","category":"Tiki Bar","checkinsCount":1543,"usersCount":969,"tipCount":7,"visitsCount":1545,"url":"http://thedowntowntikilounge.com","tier":"","message":"","currency":"","rating":5.6},{"name":"The Back Bar","lat":37.32945209120084,"lng":-121.88635908533207,"neighborhood":"Downtown San Jose","city_fetched":"Fremont,US","state":"CA","country":"United States","canonicalUrl":"https://foursquare.com/v/the-back-bar/5299618211d2d664acc08385","categoryId":"4bf58dd8d48988d116941735","category":"Bar","checkinsCount":175,"usersCount":155,"tipCount":2,"visitsCount":189,"tier":"","message":"","currency":"","rating":5.5},{"name":"FireHouse Grill & Brewery","phone":"4087739500","address":"111 S Murphy Ave","lat":37.37740012772162,"lng":-122.0301528275013,"neighborhood":"Heritage District","city_fetched":"Fremont,US","state":"CA","country":"United States","canonicalUrl":"https://foursquare.com/v/firehouse-grill--brewery/49e926d5f964a520d2651fe3","categoryId":"50327c8591d4c4b30a586d5d","category":"Brewery","checkinsCount":7637,"usersCount":4227,"tipCount":54,"visitsCount":8065,"url":"http://firehousegrill.com","tier":2,"message":"Moderate","currency":"$","rating":5.5},{"name":"The Lobby Lounge","phone":"4089981900","address":"170 S Market St","lat":37.33292338692166,"lng":-121.88925478032057,"neighborhood":"Downtown San Jose","city_fetched":"Fremont,US","state":"CA","country":"United States","canonicalUrl":"https://foursquare.com/v/the-lobby-lounge/4c4632b6342c1b8d4aedb589","categoryId":"4bf58dd8d48988d1d5941735","category":"Hotel Bar","checkinsCount":630,"usersCount":408,"tipCount":6,"visitsCount":636,"tier":"","message":"","currency":"","rating":5.4},{"name":"Coach's Sports Bar","phone":"5106561751","address":"40968 Fremont Blvd","lat":37.53369198121124,"lng":-121.9596840035083,"neighborhood":"Irvington","city_fetched":"Fremont,US","state":"CA","country":"United States","canonicalUrl":"https://foursquare.com/v/coachs-sports-bar/4bc01850461576b021cb7932","categoryId":"4bf58dd8d48988d116941735","category":"Bar","checkinsCount":588,"usersCount":226,"tipCount":6,"visitsCount":629,"url":"http://coachs-sportsbar.com","tier":"","message":"","currency":"","rating":5.4},{"name":"Eight Bar","twitter":"hmshost","address":"Oakland International Airport, One Airport Drive","lat":37.71108942738001,"lng":-122.2160418252839,"neighborhood":"Central East Oakland","city_fetched":"Fremont,US","state":"CA","country":"United States","canonicalUrl":"https://foursquare.com/v/eight-bar/4e374f3aa809a0c63b353245","categoryId":"4bf58dd8d48988d11b941735","category":"Pub","checkinsCount":560,"usersCount":473,"tipCount":11,"visitsCount":561,"tier":"","message":"","currency":"","rating":5.3},{"name":"Bamboo Lounge","lat":37.362141609191895,"lng":-121.906208,"neighborhood":"North San Jose","city_fetched":"Fremont,US","state":"CA","country":"United States","canonicalUrl":"https://foursquare.com/v/bamboo-lounge/4b7f72cbf964a5202e2f30e3","categoryId":"4bf58dd8d48988d121941735","category":"Lounge","checkinsCount":337,"usersCount":269,"tipCount":4,"visitsCount":343,"tier":"","message":"","currency":"","rating":5.2},{"name":"The Clubhouse Bistro","phone":"6505705700","twitter":"clubhousebistro","address":"1221 Chess Dr","lat":37.56201033179976,"lng":-122.27723246614747,"neighborhood":"Vintage Park","city_fetched":"Fremont,US","state":"CA","country":"United States","canonicalUrl":"https://foursquare.com/v/the-clubhouse-bistro/4bc00ace74a9a593d9a1cff6","categoryId":"4bf58dd8d48988d1d5941735","category":"Hotel Bar","checkinsCount":1603,"usersCount":751,"tipCount":8,"visitsCount":1659,"url":"http://www.clubhousebistro.com","tier":"","message":"","currency":"","rating":5.2},{"name":"Affinity Restaurant & Bar","phone":"4082872100","twitter":"hiltonhotels","address":"Hilton San Jose","lat":37.32922769449263,"lng":-121.89047750781815,"neighborhood":"Downtown San Jose","city_fetched":"Fremont,US","state":"CA","country":"United States","canonicalUrl":"https://foursquare.com/v/affinity-restaurant--bar/50ca02c8245f2d4aa8c2cda0","categoryId":"4bf58dd8d48988d1d5941735","category":"Hotel Bar","checkinsCount":691,"usersCount":368,"tipCount":12,"visitsCount":696,"url":"http://www.hilton.com","tier":"","message":"","currency":"","rating":5.1},{"name":"2050 Lobby Lounge & Bar","address":"2050 Gateway Pl","lat":37.37173103333333,"lng":-121.92224,"neighborhood":"North San Jose","city_fetched":"Fremont,US","state":"CA","country":"United States","canonicalUrl":"https://foursquare.com/v/2050-lobby-lounge--bar/4b9c27c8f964a520cf4f36e3","categoryId":"4bf58dd8d48988d1d5941735","category":"Hotel Bar","checkinsCount":480,"usersCount":287,"tipCount":5,"visitsCount":480,"tier":"","message":"","currency":"","rating":5.1},{"name":"Hops Bar & Grill","phone":"4083464624","twitter":"hopsmontagues","address":"2151 Laurelwood Rd","lat":37.383700899928996,"lng":-121.96207233914214,"city_fetched":"Fremont,US","state":"CA","country":"United States","canonicalUrl":"https://foursquare.com/v/hops-bar--grill/4bb566f046d4a593c50ac5c0","categoryId":"4bf58dd8d48988d116941735","category":"Bar","checkinsCount":238,"usersCount":124,"tipCount":5,"visitsCount":239,"url":"https://www.facebook.com/pages/Hops-Bar-Grill-and-Montagues-Cafe/546555138792764","tier":"","message":"","currency":"","rating":5},{"name":"Pyramid Ale Taproom","phone":"5105633300","twitter":"hmshost","address":"Oakland International Airport, One Airport Drive","lat":37.711280891909055,"lng":-122.21223494874171,"neighborhood":"Central East Oakland","city_fetched":"Fremont,US","state":"CA","country":"United States","canonicalUrl":"https://foursquare.com/v/pyramid-ale-taproom/4e263669e4cd60a2c623ff51","categoryId":"4bf58dd8d48988d116941735","category":"Bar","checkinsCount":2551,"usersCount":1949,"tipCount":28,"visitsCount":2556,"tier":2,"message":"Moderate","currency":"$","rating":4.8},{"name":"Gordon Biersch Bar & Restaurant","twitter":"hmshost","address":"Terminal A, San Jose International Airport","lat":37.36951656803012,"lng":-121.92976986693425,"neighborhood":"North San Jose","city_fetched":"Fremont,US","state":"CA","country":"United States","canonicalUrl":"https://foursquare.com/v/gordon-biersch-bar--restaurant/4f9ab1dcd4f2465542bc6820","categoryId":"4bf58dd8d48988d11b941735","category":"Pub","checkinsCount":2966,"usersCount":2402,"tipCount":51,"visitsCount":2971,"url":"http://gordonbiersch.com","tier":"","message":"","currency":"","rating":4.8}]