[{"name":"Goldstein's Mortuary & Delicatessen","address":"1279 N Wishon Ave","lat":36.75903275462206,"lng":-119.80130821578538,"neighborhood":"Tower District","city_fetched":"Fresno,US","state":"CA","country":"United States","canonicalUrl":"https://foursquare.com/v/goldsteins-mortuary--delicatessen/55a6fe34498eb7d78c4e2622","categoryId":"4bf58dd8d48988d116941735","category":"Bar","checkinsCount":214,"usersCount":141,"tipCount":3,"visitsCount":365,"tier":"","message":"","currency":"","rating":9},{"name":"Dog House Grill","phone":"5592949920","address":"2789 E Shaw Ave","lat":36.808269,"lng":-119.73660266,"city_fetched":"Fresno,US","state":"CA","country":"United States","canonicalUrl":"https://foursquare.com/v/dog-house-grill/4b6354dbf964a520c1722ae3","categoryId":"4bf58dd8d48988d11d941735","category":"Sports Bar","checkinsCount":7226,"usersCount":3599,"tipCount":77,"visitsCount":9031,"url":"http://firestonegrill.com/dog-house-grill/","tier":2,"message":"Moderate","currency":"$","rating":9},{"name":"Daily Grill","phone":"5594355550","twitter":"dailygrill","address":"7855 N Palm Ave","lat":36.851474,"lng":-119.805694,"city_fetched":"Fresno,US","state":"CA","country":"United States","canonicalUrl":"https://foursquare.com/v/daily-grill/4b7f961ef964a5208d3530e3","categoryId":"4bf58dd8d48988d116941735","category":"Bar","checkinsCount":1204,"usersCount":651,"tipCount":19,"visitsCount":1365,"url":"http://t.co/GmPLdB5Wf0","tier":"","message":"","currency":"","rating":8.9},{"name":"Tioga-Sequoia Brewing Company","phone":"5594862337","twitter":"tiogasequoia","address":"745 Fulton St","lat":36.73156549290166,"lng":-119.78815314927344,"neighborhood":"Central Fresno","city_fetched":"Fresno,US","state":"CA","country":"United States","canonicalUrl":"https://foursquare.com/tiogasequoia","categoryId":"4bf58dd8d48988d117941735","category":"Beer Garden","checkinsCount":754,"usersCount":418,"tipCount":8,"visitsCount":1167,"url":"http://tiogasequoia.com","tier":1,"message":"Cheap","currency":"$","rating":8.6},{"name":"Strummer's","lat":36.7588441,"lng":-119.8001805,"neighborhood":"Tower District","city_fetched":"Fresno,US","state":"CA","country":"United States","canonicalUrl":"https://foursquare.com/v/strummers/51c65763b589996c8f6326ea","categoryId":"4bf58dd8d48988d116941735","category":"Bar","checkinsCount":243,"usersCount":132,"tipCount":2,"visitsCount":253,"tier":"","message":"","currency":"","rating":8},{"name":"Red Wave Inn","phone":"5592288446","address":"2375 E Shaw Ave","lat":36.808049,"lng":-119.745919,"city_fetched":"Fresno,US","state":"CA","country":"United States","canonicalUrl":"https://foursquare.com/v/red-wave-inn/4b29badaf964a520f6a224e3","categoryId":"4bf58dd8d48988d120941735","category":"Karaoke Bar","checkinsCount":1876,"usersCount":579,"tipCount":22,"visitsCount":2019,"url":"http://redwaveinn.com","tier":1,"message":"Cheap","currency":"$","rating":8},{"name":"Spokeasy Public House","phone":"5594927765","address":"1472 N Van Ness Ave","lat":36.762634,"lng":-119.798864,"neighborhood":"Tower District","city_fetched":"Fresno,US","state":"CA","country":"United States","canonicalUrl":"https://foursquare.com/v/spokeasy-public-house/4f6bf193e4b0f375f81d280b","categoryId":"4bf58dd8d48988d11b941735","category":"Pub","checkinsCount":1332,"usersCount":320,"tipCount":10,"visitsCount":1578,"url":"http://spokeasypub.com","tier":"","message":"","currency":"","rating":8},{"name":"Kocky's Bar & Grill","phone":"5592665500","twitter":"kockysbg","address":"1231 Van Ness Ave","lat":36.737031,"lng":-119.792069,"neighborhood":"Fulton Mall","city_fetched":"Fresno,US","state":"CA","country":"United States","canonicalUrl":"https://foursquare.com/v/kockys-bar--grill/4e403a07c65b4ec27606358d","categoryId":"4bf58dd8d48988d11d941735","category":"Sports Bar","checkinsCount":217,"usersCount":92,"tipCount":8,"visitsCount":217,"url":"http://www.kockys.com","tier":2,"message":"Moderate","currency":"$","rating":7.9},{"name":"The Cosmopolitan","phone":"5592668662","address":"1546 Fresno St","lat":36.73754286117376,"lng":-119.78531956672667,"neighborhood":"Central Fresno","city_fetched":"Fresno,US","state":"CA","country":"United States","canonicalUrl":"https://foursquare.com/v/the-cosmopolitan/4bcdf678fb84c9b60bee223e","categoryId":"4bf58dd8d48988d121941735","category":"Lounge","checkinsCount":215,"usersCount":116,"tipCount":2,"visitsCount":230,"url":"http://www.cosmofresno.com","tier":"","message":"","currency":"","rating":7.8},{"name":"Fat Boys Taqueria And Sports Bar","address":"3045 W Bullard Ave","lat":36.822031721531076,"lng":-119.84480093806951,"city_fetched":"Fresno,US","state":"CA","country":"United States","canonicalUrl":"https://foursquare.com/v/fat-boys-taqueria-and-sports-bar/4e970f48d3e3b37495ddbeec","categoryId":"4bf58dd8d48988d11d941735","category":"Sports Bar","checkinsCount":261,"usersCount":120,"tipCount":5,"visitsCount":307,"tier":"","message":"","currency":"","rating":7.7},{"name":"Sequoia Brewing Company","phone":"5594342739","twitter":"sequoiachampca","address":"1188 E Champlain Dr","lat":36.87199916380002,"lng":-119.76305501116344,"neighborhood":"Woodward Park","city_fetched":"Fresno,US","state":"CA","country":"United States","canonicalUrl":"https://foursquare.com/v/sequoia-brewing-company/4b74dcbff964a520ccf52de3","categoryId":"50327c8591d4c4b30a586d5d","category":"Brewery","checkinsCount":1580,"usersCount":789,"tipCount":20,"visitsCount":1972,"url":"http://sequoiabrewingchamplain-hub.com","tier":"","message":"","currency":"","rating":7.7},{"name":"O'Sullivan's Sunnyside Lounge","phone":"5594541752","address":"5689 E Kings Canyon Rd","lat":36.73651110428731,"lng":-119.6949291229248,"neighborhood":"Sunnyside","city_fetched":"Fresno,US","state":"CA","country":"United States","canonicalUrl":"https://foursquare.com/v/osullivans-sunnyside-lounge/4dcda119b0fb25f6e32f44a2","categoryId":"4bf58dd8d48988d121941735","category":"Lounge","checkinsCount":561,"usersCount":240,"tipCount":10,"visitsCount":684,"tier":"","message":"","currency":"","rating":7.6},{"name":"Veni Vidi Vici","phone":"5592665510","twitter":"fresnovvv","address":"1116 N Fulton St","lat":36.75708824185907,"lng":-119.80003064038453,"neighborhood":"Tower District","city_fetched":"Fresno,US","state":"CA","country":"United States","canonicalUrl":"https://foursquare.com/v/veni-vidi-vici/4b2bd06bf964a5208ebb24e3","categoryId":"4bf58dd8d48988d116941735","category":"Bar","checkinsCount":1625,"usersCount":713,"tipCount":10,"visitsCount":1771,"tier":"","message":"","currency":"","rating":7.5},{"name":"Club Legends","phone":"5592222271","address":"3075 N Maroa Ave","lat":36.77824701529975,"lng":-119.80018892470038,"neighborhood":"Tower District","city_fetched":"Fresno,US","state":"CA","country":"United States","canonicalUrl":"https://foursquare.com/v/club-legends/4c7214e68ffc9521fef30264","categoryId":"4bf58dd8d48988d11f941735","category":"Nightclub","checkinsCount":2029,"usersCount":497,"tipCount":18,"visitsCount":2225,"url":"http://www.clublegendsfresno.com","tier":"","message":"","currency":"","rating":7.5},{"name":"Strummers","phone":"5594855356","address":"835 E Fern","lat":36.75888942395572,"lng":-119.8001663126663,"neighborhood":"Tower District","city_fetched":"Fresno,US","state":"CA","country":"United States","canonicalUrl":"https://foursquare.com/v/strummers/4b8dd162f964a520f70e33e3","categoryId":"4bf58dd8d48988d116941735","category":"Bar","checkinsCount":1707,"usersCount":360,"tipCount":9,"visitsCount":1717,"url":"http://strummersclub.com","tier":"","message":"","currency":"","rating":7.4},{"name":"Club Habanos","phone":"5594492447","address":"6759 N Palm Ave","lat":36.83617149062652,"lng":-119.8105618069348,"city_fetched":"Fresno,US","state":"CA","country":"United States","canonicalUrl":"https://foursquare.com/v/club-habanos/4ba46f9ff964a520409d38e3","categoryId":"4bf58dd8d48988d11f941735","category":"Nightclub","checkinsCount":610,"usersCount":295,"tipCount":6,"visitsCount":712,"url":"http://habanosfresno.com","tier":"","message":"","currency":"","rating":7.4},{"name":"Cuvée","twitter":"cuveewineparlor","address":"1140 N Van Ness Ave Ste 103","lat":36.75739853177589,"lng":-119.79860607342414,"neighborhood":"Tower District","city_fetched":"Fresno,US","state":"CA","country":"United States","canonicalUrl":"https://foursquare.com/v/cuv%C3%A9e/50e65c84e4b0f324db61f45a","categoryId":"4bf58dd8d48988d123941735","category":"Wine Bar","checkinsCount":258,"usersCount":148,"tipCount":9,"visitsCount":278,"url":"http://cuveewineparlor.com","tier":"","message":"","currency":"","rating":7.3},{"name":"Tower Sports Club","phone":"5599072962","address":"1294 N Wishon Ave","lat":36.75928582901705,"lng":-119.80082206015976,"neighborhood":"Tower District","city_fetched":"Fresno,US","state":"CA","country":"United States","canonicalUrl":"https://foursquare.com/v/tower-sports-club/4efa6927f7907312549b1317","categoryId":"4bf58dd8d48988d116941735","category":"Bar","checkinsCount":655,"usersCount":214,"tipCount":9,"visitsCount":658,"tier":"","message":"","currency":"","rating":7.3},{"name":"Full Circle Brewing Co.","phone":"5592646323","twitter":"fullcirclebrews","address":"620 F St","lat":36.72699681,"lng":-119.790749,"neighborhood":"Chinatown","city_fetched":"Fresno,US","state":"CA","country":"United States","canonicalUrl":"https://foursquare.com/fullcirclebrews","categoryId":"50327c8591d4c4b30a586d5d","category":"Brewery","checkinsCount":546,"usersCount":275,"tipCount":7,"visitsCount":595,"url":"http://www.fullcirclebrewing.com","tier":"","message":"","currency":"","rating":7.2},{"name":"Livingstone's Restaurant & Pub","phone":"5594855198","address":"831 E Fern Ave","lat":36.758941,"lng":-119.80039,"neighborhood":"Tower District","city_fetched":"Fresno,US","state":"CA","country":"United States","canonicalUrl":"https://foursquare.com/v/livingstones-restaurant--pub/4af91213f964a520ed1022e3","categoryId":"4bf58dd8d48988d11b941735","category":"Pub","checkinsCount":5314,"usersCount":998,"tipCount":31,"visitsCount":5433,"url":"http://towerdistrict.org/content/livingstones-restaurant-pub","tier":2,"message":"Moderate","currency":"$","rating":7.2},{"name":"Ya Hala","address":"6567 N Blackstone Ave","lat":36.83318316936493,"lng":-119.790645,"city_fetched":"Fresno,US","state":"CA","country":"United States","canonicalUrl":"https://foursquare.com/v/ya-hala/4d08449e05216dcbd72e1ab6","categoryId":"4bf58dd8d48988d119941735","category":"Hookah Bar","checkinsCount":162,"usersCount":92,"tipCount":6,"visitsCount":162,"tier":"","message":"","currency":"","rating":7.1},{"name":"Sequoia Brewing Company","phone":"5592645521","twitter":"sequoiaoliveca","address":"777 E Olive Ave","lat":36.75787370943003,"lng":-119.80215050464251,"neighborhood":"Tower District","city_fetched":"Fresno,US","state":"CA","country":"United States","canonicalUrl":"https://foursquare.com/v/sequoia-brewing-company/4b5a8313f964a5200dc928e3","categoryId":"50327c8591d4c4b30a586d5d","category":"Brewery","checkinsCount":2237,"usersCount":1158,"tipCount":30,"visitsCount":2454,"url":"http://sequoiabrewingolive-hub.com","tier":2,"message":"Moderate","currency":"$","rating":7.1},{"name":"North Tower Circle","phone":"5592294188","address":"2777 N Maroa Ave","lat":36.775622,"lng":-119.799986,"neighborhood":"Tower District","city_fetched":"Fresno,US","state":"CA","country":"United States","canonicalUrl":"https://foursquare.com/v/north-tower-circle/4bf8ce9d5ec320a1fb6d89d3","categoryId":"4bf58dd8d48988d1d8941735","category":"Gay Bar","checkinsCount":610,"usersCount":178,"tipCount":4,"visitsCount":634,"url":"http://www.northtowercircle.com","tier":"","message":"","currency":"","rating":7},{"name":"Ozzy's Sports Grill","phone":"5594343040","address":"1552 E Champlain Dr #101","lat":36.867583,"lng":-119.754755,"neighborhood":"Woodward Park","city_fetched":"Fresno,US","state":"CA","country":"United States","canonicalUrl":"https://foursquare.com/v/ozzys-sports-grill/4e6fad6a1838a9b627c16b31","categoryId":"4bf58dd8d48988d11d941735","category":"Sports Bar","checkinsCount":616,"usersCount":231,"tipCount":8,"visitsCount":629,"url":"http://ozzyssportsgrill.com","tier":"","message":"","currency":"","rating":6.8},{"name":"Yosemite Falls Café","phone":"5592227800","address":"4020 N Cedar Ave","lat":36.78979438,"lng":-119.7533842,"neighborhood":"McLane","city_fetched":"Fresno,US","state":"CA","country":"United States","canonicalUrl":"https://foursquare.com/v/yosemite-falls-caf%C3%A9/4cae7dff75ebb60cd91db5ad","categoryId":"4bf58dd8d48988d11d941735","category":"Sports Bar","checkinsCount":693,"usersCount":445,"tipCount":3,"visitsCount":787,"url":"http://yosemitefallscafe.net","tier":"","message":"","currency":"","rating":6.8},{"name":"Beer To The People","phone":"5599086180","address":"6460 N Blackstone Ave","lat":36.831342,"lng":-119.789807,"city_fetched":"Fresno,US","state":"CA","country":"United States","canonicalUrl":"https://foursquare.com/v/beer-to-the-people/53ddc750498e52f8fb6614ee","categoryId":"4bf58dd8d48988d116941735","category":"Bar","checkinsCount":400,"usersCount":82,"tipCount":2,"visitsCount":565,"tier":"","message":"","currency":"","rating":6.5},{"name":"Landmark","phone":"5592336505","address":"644 E Olive Ave","lat":36.75758317,"lng":-119.803202,"neighborhood":"Tower District","city_fetched":"Fresno,US","state":"CA","country":"United States","canonicalUrl":"https://foursquare.com/v/landmark/4b4e918df964a520acf126e3","categoryId":"4bf58dd8d48988d116941735","category":"Bar","checkinsCount":2151,"usersCount":498,"tipCount":18,"visitsCount":2171,"tier":2,"message":"Moderate","currency":"$","rating":6.3},{"name":"Arena Nightclub","phone":"5595790517","address":"1145 N Fulton St","lat":36.75743243774785,"lng":-119.80048853380433,"neighborhood":"Tower District","city_fetched":"Fresno,US","state":"CA","country":"United States","canonicalUrl":"https://foursquare.com/v/arena-nightclub/504d9675e4b0a6730b1b9c13","categoryId":"4bf58dd8d48988d11f941735","category":"Nightclub","checkinsCount":83,"usersCount":45,"tipCount":2,"visitsCount":83,"tier":"","message":"","currency":"","rating":6.2},{"name":"El Basha","address":"5048 N Blackstone Ave","lat":36.80916102996251,"lng":-119.78995660332627,"city_fetched":"Fresno,US","state":"CA","country":"United States","canonicalUrl":"https://foursquare.com/v/el-basha/4ecb4dc5d3e32939cd386646","categoryId":"4bf58dd8d48988d119941735","category":"Hookah Bar","checkinsCount":159,"usersCount":83,"tipCount":1,"visitsCount":175,"tier":"","message":"","currency":"","rating":6},{"name":"Silver Dollar Hofbrau","phone":"5592276000","twitter":"silverdollarh","address":"333 E Shaw Ave","lat":36.808233261107326,"lng":-119.78329181671143,"city_fetched":"Fresno,US","state":"CA","country":"United States","canonicalUrl":"https://foursquare.com/v/silver-dollar-hofbrau/4c3f570dce54e21e5fe8071a","categoryId":"4bf58dd8d48988d116941735","category":"Bar","checkinsCount":752,"usersCount":426,"tipCount":5,"visitsCount":764,"url":"http://www.thesilverdollarhofbrau.com","tier":"","message":"","currency":"","rating":6},{"name":"Ewell's Place","phone":"5592719913","address":"2742 W Shaw Ave","lat":36.809419357436894,"lng":-119.84354636875565,"city_fetched":"Fresno,US","state":"CA","country":"United States","canonicalUrl":"https://foursquare.com/v/ewells-place/4b6e3b1ef964a52023b32ce3","categoryId":"4bf58dd8d48988d118941735","category":"Dive Bar","checkinsCount":696,"usersCount":90,"tipCount":4,"visitsCount":764,"tier":"","message":"","currency":"","rating":5.9},{"name":"The Brig","phone":"5592277297","address":"4705 N Blackstone Ave","lat":36.803268,"lng":-119.79075,"city_fetched":"Fresno,US","state":"CA","country":"United States","canonicalUrl":"https://foursquare.com/v/the-brig/4b6514a8f964a5203ae32ae3","categoryId":"4bf58dd8d48988d116941735","category":"Bar","checkinsCount":520,"usersCount":174,"tipCount":7,"visitsCount":544,"tier":"","message":"","currency":"","rating":5.8},{"name":"Slicks","phone":"5592754502","address":"3759 W Shaw Ave #104","lat":36.80765024105847,"lng":-119.8619003721129,"city_fetched":"Fresno,US","state":"CA","country":"United States","canonicalUrl":"https://foursquare.com/v/slicks/4c82f978d8086dcb91587c52","categoryId":"4bf58dd8d48988d118941735","category":"Dive Bar","checkinsCount":317,"usersCount":91,"tipCount":5,"visitsCount":340,"tier":"","message":"","currency":"","rating":5.8},{"name":"Score Sports Bar","phone":"5592644801","address":"737 E Olive Ave","lat":36.75784466199063,"lng":-119.8026479614333,"neighborhood":"Tower District","city_fetched":"Fresno,US","state":"CA","country":"United States","canonicalUrl":"https://foursquare.com/v/score-sports-bar/4ba9791cf964a52055293ae3","categoryId":"4bf58dd8d48988d11d941735","category":"Sports Bar","checkinsCount":590,"usersCount":247,"tipCount":11,"visitsCount":592,"tier":"","message":"","currency":"","rating":5.7},{"name":"Red Lantern","address":"4618 E Belmont Ave","lat":36.75031813338428,"lng":-119.7447557970188,"neighborhood":"Huntington","city_fetched":"Fresno,US","state":"CA","country":"United States","canonicalUrl":"https://foursquare.com/v/red-lantern/4bb569001344b713cf559c04","categoryId":"4bf58dd8d48988d120941735","category":"Karaoke Bar","checkinsCount":1095,"usersCount":252,"tipCount":4,"visitsCount":1261,"tier":"","message":"","currency":"","rating":5.7}]