[{"name":"Swamp Head Brewery","address":"3650 SW 42nd Ave","lat":29.614682552774937,"lng":-82.37700003972203,"city_fetched":"Gainesville","state":"FL","country":"United States","canonicalUrl":"https://foursquare.com/v/swamp-head-brewery/54dab1cb498e577dc3362bdd","category":"Brewery","checkinsCount":471,"usersCount":484,"tipCount":3,"visitsCount":895,"url":"http://swamphead.com","tier":"","message":"","currency":"","rating":9.2},{"name":"First Magnitude Brewing","phone":"3527274677","address":"1220 SE Veitch St","lat":29.639810171260645,"lng":-82.32453629434822,"city_fetched":"Gainesville","state":"FL","country":"United States","canonicalUrl":"https://foursquare.com/v/first-magnitude-brewing/538b22e7498ef93b52fb9b6e","category":"Brewery","checkinsCount":754,"usersCount":577,"tipCount":6,"visitsCount":1467,"url":"http://www.fmbrewing.com","tier":"","message":"","currency":"","rating":9.2},{"name":"The Top","phone":"3523371188","address":"30 N Main St","lat":29.65259126449366,"lng":-82.32510566711426,"city_fetched":"Gainesville","state":"FL","country":"United States","canonicalUrl":"https://foursquare.com/v/the-top/4b4fe2fef964a520a81827e3","category":"American Restaurant","checkinsCount":12248,"usersCount":3579,"tipCount":129,"visitsCount":13356,"tier":2,"message":"Moderate","currency":"$","rating":9.2},{"name":"The Bull","address":"18 SW 1st Ave","lat":29.65124965,"lng":-82.32575912,"city_fetched":"Gainesville","state":"FL","country":"United States","canonicalUrl":"https://foursquare.com/v/the-bull/4d12e0f80ad2f04da6bcaf54","category":"Bar","checkinsCount":1377,"usersCount":500,"tipCount":11,"visitsCount":1385,"url":"http://thebulldowntown.com","tier":"","message":"","currency":"","rating":8.8},{"name":"Miller's Gainesville Ale House","phone":"3523710818","address":"3950 SW Archer Rd","lat":29.61976701647504,"lng":-82.3825762658602,"city_fetched":"Gainesville","state":"FL","country":"United States","canonicalUrl":"https://foursquare.com/v/millers-gainesville-ale-house/4e4d0664bd413c4cc66e1349","category":"Bar","checkinsCount":6268,"usersCount":3034,"tipCount":46,"visitsCount":6792,"url":"http://www.millersalehouse.com","tier":"","message":"","currency":"","rating":8.7},{"name":"Swamp Head Brewery","phone":"3525053035","twitter":"swamphead","address":"3650 SW 42nd Way","lat":29.624858463133506,"lng":-82.38872766494751,"city_fetched":"Gainesville","state":"FL","country":"United States","canonicalUrl":"https://foursquare.com/swamphead","category":"Brewery","checkinsCount":4683,"usersCount":1171,"tipCount":27,"visitsCount":4939,"url":"http://www.swamphead.com","tier":1,"message":"Cheap","currency":"$","rating":8.7},{"name":"The Backyard","address":"15 SE 2nd Pl","lat":29.649427933237636,"lng":-82.32446739755866,"city_fetched":"Gainesville","state":"FL","country":"United States","canonicalUrl":"https://foursquare.com/v/the-backyard/4dfd8811d22d879302f94ca3","category":"Beer Garden","checkinsCount":1180,"usersCount":271,"tipCount":2,"visitsCount":1192,"tier":"","message":"","currency":"","rating":8.6},{"name":"Gainesville House of Beer","phone":"3523761100","twitter":"gainesvillehob","address":"19 W University Ave","lat":29.651915277859807,"lng":-82.32577642497142,"city_fetched":"Gainesville","state":"FL","country":"United States","canonicalUrl":"https://foursquare.com/gainesvillehob","category":"Pub","checkinsCount":2350,"usersCount":914,"tipCount":14,"visitsCount":2485,"url":"http://www.gainesvillehob.com","tier":2,"message":"Moderate","currency":"$","rating":8.6},{"name":"Hogan's Great Sandwiches","phone":"3523766224","address":"2327 NW 13th St","lat":29.675418266666668,"lng":-82.337967,"city_fetched":"Gainesville","state":"FL","country":"United States","canonicalUrl":"https://foursquare.com/v/hogans-great-sandwiches/4bcc8ee23740b7137c386465","category":"Sandwich Place","checkinsCount":1452,"usersCount":759,"tipCount":25,"visitsCount":2046,"url":"http://www.hogans83.com","tier":1,"message":"Cheap","currency":"$","rating":8.5},{"name":"Hippodrome Theatre","phone":"3523754477","twitter":"hippville","address":"25 SE 2nd Pl","lat":29.64955288106522,"lng":-82.32397451854919,"city_fetched":"Gainesville","state":"FL","country":"United States","canonicalUrl":"https://foursquare.com/v/hippodrome-theatre/4b5110d3f964a520854027e3","category":"Theater","checkinsCount":1636,"usersCount":815,"tipCount":12,"visitsCount":1656,"url":"http://thehipp.org","tier":"","message":"","currency":"","rating":8.4},{"name":"Mother's Pub & Grill","phone":"3523788135","address":"1017 W University Ave","lat":29.651983,"lng":-82.335848,"city_fetched":"Gainesville","state":"FL","country":"United States","canonicalUrl":"https://foursquare.com/v/mothers-pub--grill/4b63ac97f964a520548b2ae3","category":"Pub","checkinsCount":6718,"usersCount":2061,"tipCount":55,"visitsCount":7203,"url":"http://www.motherspub.com","tier":1,"message":"Cheap","currency":"$","rating":8.3},{"name":"The Midnight","phone":"3526726113","address":"223 S Main St","lat":29.649309233264656,"lng":-82.32480525970459,"city_fetched":"Gainesville","state":"FL","country":"United States","canonicalUrl":"https://foursquare.com/v/the-midnight/4c21741613c00f476c1386de","category":"Bar","checkinsCount":2796,"usersCount":761,"tipCount":25,"visitsCount":2985,"url":"http://midnightgainesville.com","tier":1,"message":"Cheap","currency":"$","rating":8.3},{"name":"The JAM","twitter":"thejamgville","address":"817 W University Ave","lat":29.651943199049416,"lng":-82.3334287109375,"city_fetched":"Gainesville","state":"FL","country":"United States","canonicalUrl":"https://foursquare.com/v/the-jam/50f60b4df0e42ccaf5ae32fb","category":"Lounge","checkinsCount":290,"usersCount":117,"tipCount":5,"visitsCount":307,"url":"http://www.thejamgainesville.com","tier":"","message":"","currency":"","rating":8.2},{"name":"Loosey's Downtown","phone":"3526726465","twitter":"looseyspub","address":"120 SW 1st Ave","lat":29.65123547711357,"lng":-82.32646007733587,"neighborhood":"Downtown","city_fetched":"Gainesville","state":"FL","country":"United States","canonicalUrl":"https://foursquare.com/looseyspub","category":"Gastropub","checkinsCount":3196,"usersCount":1087,"tipCount":21,"visitsCount":3427,"url":"http://www.looseys.com","tier":1,"message":"Cheap","currency":"$","rating":8.2},{"name":"BJ's Restaurant and Brewhouse","phone":"3523318070","twitter":"bjsrestaurants","address":"6611 W Newberry Rd","lat":29.65924712,"lng":-82.41301258,"city_fetched":"Gainesville","state":"FL","country":"United States","canonicalUrl":"https://foursquare.com/v/bjs-restaurant-and-brewhouse/4b818d85f964a52086ae30e3","category":"American Restaurant","checkinsCount":6587,"usersCount":3667,"tipCount":74,"visitsCount":8380,"url":"http://t.co/bl46gcjDLN","tier":2,"message":"Moderate","currency":"$","rating":8.1},{"name":"High Dive","twitter":"doubledownlive","address":"210 SW 2nd Ave #A","lat":29.650588958454527,"lng":-82.32726269963678,"city_fetched":"Gainesville","state":"FL","country":"United States","canonicalUrl":"https://foursquare.com/v/high-dive/4e29ee0b8130a29b90c0fa8c","category":"Rock Club","checkinsCount":2445,"usersCount":1123,"tipCount":11,"visitsCount":2701,"tier":"","message":"","currency":"","rating":8.1},{"name":"101 Cantina","phone":"3522838033","twitter":"101cantina","address":"1632 W University Ave","lat":29.652458,"lng":-82.34442376666667,"neighborhood":"University Park","city_fetched":"Gainesville","state":"FL","country":"United States","canonicalUrl":"https://foursquare.com/v/101-cantina/4b6525b5f964a52044e62ae3","category":"Mexican Restaurant","checkinsCount":6544,"usersCount":2167,"tipCount":34,"visitsCount":6761,"url":"http://www.101cantina.com","tier":2,"message":"Moderate","currency":"$","rating":8},{"name":"Public & General","phone":"3527457358","twitter":"pubandgeneral","address":"1000 NE 16th Ave","lat":29.666906136233052,"lng":-82.3137398709401,"city_fetched":"Gainesville","state":"FL","country":"United States","canonicalUrl":"https://foursquare.com/v/public--general/55ea1a5d498ef330d00d0557","category":"Gastropub","checkinsCount":115,"usersCount":105,"tipCount":1,"visitsCount":210,"url":"http://www.publicandgeneral.com","tier":"","message":"","currency":"","rating":8},{"name":"Palomino Pool Hall","address":"19 SE 2nd Pl","lat":29.64962159027646,"lng":-82.32432782649994,"city_fetched":"Gainesville","state":"FL","country":"United States","canonicalUrl":"https://foursquare.com/v/palomino-pool-hall/4b7ca3f3f964a520079f2fe3","category":"Pool Hall","checkinsCount":1697,"usersCount":618,"tipCount":4,"visitsCount":1725,"tier":"","message":"","currency":"","rating":8},{"name":"Gator Tales","phone":"3523769500","address":"5112 NW 34th Blvd","lat":29.702431927766565,"lng":-82.36734517693709,"city_fetched":"Gainesville","state":"FL","country":"United States","canonicalUrl":"https://foursquare.com/v/gator-tales/4b8f10daf964a520624733e3","category":"Bar","checkinsCount":1258,"usersCount":211,"tipCount":13,"visitsCount":1319,"url":"http://gator-tales.com","tier":2,"message":"Moderate","currency":"$","rating":8},{"name":"Tall Paul's Brew House","phone":"3525050990","twitter":"tallpaulsbrew","address":"10 SE 2nd Ave","lat":29.650434,"lng":-82.324596,"city_fetched":"Gainesville","state":"FL","country":"United States","canonicalUrl":"https://foursquare.com/v/tall-pauls-brew-house/4d60918529ef236afb34a759","category":"Brewery","checkinsCount":3258,"usersCount":1505,"tipCount":21,"visitsCount":3526,"tier":2,"message":"Moderate","currency":"$","rating":7.9},{"name":"Curia on the Drag","address":"2029 NW 6th St","lat":29.671757406496415,"lng":-82.33074732642253,"city_fetched":"Gainesville","state":"FL","country":"United States","canonicalUrl":"https://foursquare.com/v/curia-on-the-drag/554ebcf8498eaae943cfaa2c","category":"Coffee Shop","checkinsCount":81,"usersCount":85,"tipCount":2,"visitsCount":173,"tier":"","message":"","currency":"","rating":7.9},{"name":"The Atlantic","phone":"3523371188","address":"15 N Main St","lat":29.652331428635996,"lng":-82.32497617225316,"city_fetched":"Gainesville","state":"FL","country":"United States","canonicalUrl":"https://foursquare.com/v/the-atlantic/4b50823cf964a5208b2527e3","category":"Bar","checkinsCount":2771,"usersCount":899,"tipCount":16,"visitsCount":2781,"url":"http://atlanticnightspot.com","tier":"","message":"","currency":"","rating":7.9},{"name":"Copper Monkey","phone":"3523744984","address":"1700 W University Ave","lat":29.65216236876441,"lng":-82.34473943710327,"neighborhood":"University Park","city_fetched":"Gainesville","state":"FL","country":"United States","canonicalUrl":"https://foursquare.com/v/copper-monkey/4b4bb03cf964a52022a426e3","category":"Bar","checkinsCount":2266,"usersCount":1068,"tipCount":17,"visitsCount":2320,"url":"http://mycoppermonkey.com","tier":2,"message":"Moderate","currency":"$","rating":7.9},{"name":"The Brass Tap","phone":"3523717860","twitter":"brasstap","address":"3833 SW Archer Rd","lat":29.61967708926117,"lng":-82.38105118850063,"city_fetched":"Gainesville","state":"FL","country":"United States","canonicalUrl":"https://foursquare.com/v/the-brass-tap/51201dcae4b00c9525902019","category":"Beer Garden","checkinsCount":1312,"usersCount":519,"tipCount":14,"visitsCount":1436,"url":"http://www.brasstapbeerbar.com","tier":2,"message":"Moderate","currency":"$","rating":7.9},{"name":"The Swamp Restaurant","phone":"3523779267","address":"1642 W University Ave","lat":29.652280971781025,"lng":-82.344593,"neighborhood":"University Park","city_fetched":"Gainesville","state":"FL","country":"United States","canonicalUrl":"https://foursquare.com/v/the-swamp-restaurant/4b5c9f79f964a520793a29e3","category":"Restaurant","checkinsCount":7752,"usersCount":3853,"tipCount":40,"visitsCount":8066,"url":"http://swamprestaurant.com","tier":2,"message":"Moderate","currency":"$","rating":7.8},{"name":"Crafty Bastards","lat":29.688984231648735,"lng":-82.39521511865863,"city_fetched":"Gainesville","state":"FL","country":"United States","canonicalUrl":"https://foursquare.com/v/crafty-bastards/54cd1e03498e90135b66304a","category":"Pub","checkinsCount":253,"usersCount":178,"tipCount":4,"visitsCount":415,"tier":"","message":"","currency":"","rating":7.7},{"name":"Uptown Village","phone":"3523759071","twitter":"uptownvillage","address":"3780 NW 24th Blvd","lat":29.68782905728782,"lng":-82.35793590545654,"city_fetched":"Gainesville","state":"FL","country":"United States","canonicalUrl":"https://foursquare.com/v/uptown-village/4bd0d12f046076b03cc77071","category":"Residential Building (Apartment / Condo)","checkinsCount":2187,"usersCount":201,"tipCount":6,"visitsCount":2252,"url":"http://www.uptownvillageattownsend.com","tier":"","message":"","currency":"","rating":7.7},{"name":"2nd St. Speakeasy","twitter":"21speakeasy","address":"21 SW 2nd St","lat":29.651426,"lng":-82.326533,"city_fetched":"Gainesville","state":"FL","country":"United States","canonicalUrl":"https://foursquare.com/v/2nd-st-speakeasy/4bd8ff2911dcc9283ab5f833","category":"Cocktail Bar","checkinsCount":1584,"usersCount":413,"tipCount":11,"visitsCount":1594,"tier":"","message":"","currency":"","rating":7.6},{"name":"Gumby's Pizza","phone":"3523748629","address":"2028 SW 34th St","lat":29.632860169496084,"lng":-82.37364292144775,"city_fetched":"Gainesville","state":"FL","country":"United States","canonicalUrl":"https://foursquare.com/v/gumbys-pizza/4b6aff75f964a52083eb2be3","category":"Pizza Place","checkinsCount":1259,"usersCount":425,"tipCount":9,"visitsCount":1304,"url":"http://www.gumbyspizza.com","tier":"","message":"","currency":"","rating":7.6},{"name":"Gator's Dockside","phone":"3523384445","twitter":"dockside_gville","address":"3842 W Newberry Rd","lat":29.653925425765713,"lng":-82.38171841395187,"city_fetched":"Gainesville","state":"FL","country":"United States","canonicalUrl":"https://foursquare.com/v/gators-dockside/4b5903b3f964a520847828e3","category":"American Restaurant","checkinsCount":4510,"usersCount":2009,"tipCount":25,"visitsCount":4930,"url":"http://www.gatorscaters.com","tier":2,"message":"Moderate","currency":"$","rating":7.5},{"name":"Whiskey House","phone":"3525195534","address":"60 SW 2nd St","lat":29.650935755530263,"lng":-82.32666146203118,"city_fetched":"Gainesville","state":"FL","country":"United States","canonicalUrl":"https://foursquare.com/v/whiskey-house/543745a0498e5f4612f74a39","category":"Whisky Bar","checkinsCount":158,"usersCount":104,"tipCount":2,"visitsCount":168,"url":"http://www.whiskeyhouse.com","tier":"","message":"","currency":"","rating":7.5},{"name":"Stage 7 KTV","phone":"3525055156","twitter":"stage7ktv","address":"4110 SW 34th St Ste 1","lat":29.61440019417919,"lng":-82.37238726871085,"city_fetched":"Gainesville","state":"FL","country":"United States","canonicalUrl":"https://foursquare.com/stage7ktv","category":"Karaoke Bar","checkinsCount":102,"usersCount":112,"tipCount":1,"visitsCount":147,"url":"http://stage7ktv.com","tier":"","message":"","currency":"","rating":7.4},{"name":"Lillian's Music Store","phone":"3523721010","address":"112 SE 1st St","lat":29.65052135953462,"lng":-82.32396841049194,"city_fetched":"Gainesville","state":"FL","country":"United States","canonicalUrl":"https://foursquare.com/v/lillians-music-store/4b4ea856f964a52083f326e3","category":"Bar","checkinsCount":1493,"usersCount":686,"tipCount":10,"visitsCount":1515,"tier":"","message":"","currency":"","rating":7.4},{"name":"101 Downtown","phone":"3523764177","twitter":"101downtown","address":"201 SE 2nd Ave #101","lat":29.65023632759644,"lng":-82.32330674145561,"city_fetched":"Gainesville","state":"FL","country":"United States","canonicalUrl":"https://foursquare.com/v/101-downtown/4b5a51e6f964a520edbc28e3","category":"American Restaurant","checkinsCount":2611,"usersCount":1120,"tipCount":16,"visitsCount":2665,"url":"http://101gainesville.com","tier":2,"message":"Moderate","currency":"$","rating":7.3},{"name":"Vellos Historic Brickstreet Grill","phone":"3528725556","twitter":"vellosgnv","address":"115 SE 1st Ave","lat":29.650617203648483,"lng":-82.32399571771775,"city_fetched":"Gainesville","state":"FL","country":"United States","canonicalUrl":"https://foursquare.com/vellosgnv","category":"American Restaurant","checkinsCount":1733,"usersCount":935,"tipCount":28,"visitsCount":1748,"url":"http://vellosbrickstreetgrill.com","tier":"","message":"","currency":"","rating":7.3},{"name":"TGI Fridays","phone":"3523360033","twitter":"tgifridays","address":"3598 SW Archer Rd","lat":29.62535349,"lng":-82.37513061,"city_fetched":"Gainesville","state":"FL","country":"United States","canonicalUrl":"https://foursquare.com/v/tgi-fridays/4b468f4af964a520512426e3","category":"American Restaurant","checkinsCount":4031,"usersCount":2230,"tipCount":25,"visitsCount":4652,"url":"http://tgifridays.com","tier":2,"message":"Moderate","currency":"$","rating":7.3},{"name":"Flashbacks Cafe","address":"211 W University Ave, Gainesville, FL 32601","lat":29.65192658502296,"lng":-82.32714372302652,"city_fetched":"Gainesville","state":"FL","country":"United States","canonicalUrl":"https://foursquare.com/v/flashbacks-cafe/4ee1184449010b299236f919","category":"Caf√©","checkinsCount":696,"usersCount":166,"tipCount":12,"visitsCount":696,"tier":"","message":"","currency":"","rating":7.1},{"name":"Court Of Hero's","phone":"3523748629","address":"2104 SW 34th St","lat":29.633012164671968,"lng":-82.3737430631475,"city_fetched":"Gainesville","state":"FL","country":"United States","canonicalUrl":"https://foursquare.com/v/court-of-heros/4bf30865706e20a1e9c3a798","category":"Dive Bar","checkinsCount":1013,"usersCount":232,"tipCount":2,"visitsCount":1049,"url":"http://courtofherosgainesville.com","tier":"","message":"","currency":"","rating":7.1},{"name":"Rockeys Dueling Piano Bar","phone":"3525050042","address":"112 S Main St","lat":29.650536698129013,"lng":-82.32526235639473,"city_fetched":"Gainesville","state":"FL","country":"United States","canonicalUrl":"https://foursquare.com/v/rockeys-dueling-piano-bar/4d0c252f95c1a1cd959ffafe","category":"Bar","checkinsCount":2181,"usersCount":1256,"tipCount":20,"visitsCount":2320,"tier":"","message":"","currency":"","rating":7.1},{"name":"Grog House Bar & Grill","phone":"3523787033","address":"1718 W University Ave","lat":29.652265,"lng":-82.345208,"neighborhood":"University Park","city_fetched":"Gainesville","state":"FL","country":"United States","canonicalUrl":"https://foursquare.com/v/grog-house-bar--grill/4b60f4d7f964a52077032ae3","category":"Bar","checkinsCount":3097,"usersCount":1089,"tipCount":14,"visitsCount":3120,"url":"http://groghouse.com","tier":"","message":"","currency":"","rating":6.9}]