[{"name":"MacDuff's Pub","phone":"5305428777","address":"1041 Fremont Ave","lat":38.9443556536224,"lng":-119.97067998019398,"city_fetched":"Gardnerville Ranchos,US","state":"CA","country":"United States","canonicalUrl":"https://foursquare.com/v/macduffs-pub/4d12bf76ffa36ea8e265fbda","categoryId":"4bf58dd8d48988d11b941735","category":"Pub","checkinsCount":2054,"usersCount":1820,"tipCount":69,"visitsCount":2448,"url":"http://www.macduffspub.com","tier":2,"message":"Moderate","currency":"$","rating":8.8},{"name":"The Brewery at Lake Tahoe","phone":"5305442739","address":"3542 Lake Tahoe Blvd","lat":38.946709933432324,"lng":-119.96168560467348,"city_fetched":"Gardnerville Ranchos,US","state":"CA","country":"United States","canonicalUrl":"https://foursquare.com/v/the-brewery-at-lake-tahoe/4b5cf577f964a520a24c29e3","categoryId":"50327c8591d4c4b30a586d5d","category":"Brewery","checkinsCount":2703,"usersCount":2528,"tipCount":38,"visitsCount":3081,"url":"http://brewerylaketahoe.com","tier":2,"message":"Moderate","currency":"$","rating":8.4},{"name":"Unbuckle Apres Ski at Tamarack","phone":"7755867000","twitter":"skiheavenly","address":"4080 Lake Tahoe Blvd","lat":38.93659183422999,"lng":-119.90992677940824,"city_fetched":"Gardnerville Ranchos,US","state":"NV","country":"United States","canonicalUrl":"https://foursquare.com/v/unbuckle-apres-ski-at-tamarack/4ef386e54fc6a80cdf8efd16","categoryId":"4bf58dd8d48988d11f941735","category":"Nightclub","checkinsCount":106,"usersCount":88,"tipCount":3,"visitsCount":106,"tier":"","message":"","currency":"","rating":7.7},{"name":"Tahoe Ridge Winery and Bistro and Olive Oil Market","phone":"7754731790","address":"1105 S Carson St","lat":38.956375674613845,"lng":-119.77024737052803,"city_fetched":"Gardnerville Ranchos,US","state":"NV","country":"United States","canonicalUrl":"https://foursquare.com/v/tahoe-ridge-winery-and-bistro-and-olive-oil-market/4b6c8daef964a520a2422ce3","categoryId":"4bf58dd8d48988d123941735","category":"Wine Bar","checkinsCount":279,"usersCount":119,"tipCount":4,"visitsCount":287,"url":"http://tahoeridgewinery.com","tier":2,"message":"Moderate","currency":"$","rating":7.6},{"name":"Jethros","lat":38.895127,"lng":-119.743834,"city_fetched":"Gardnerville Ranchos,US","state":"NV","country":"United States","canonicalUrl":"https://foursquare.com/v/jethros/4bd12a7277b29c74734d8c82","categoryId":"4bf58dd8d48988d116941735","category":"Bar","checkinsCount":186,"usersCount":82,"tipCount":1,"visitsCount":196,"tier":"","message":"","currency":"","rating":7.5},{"name":"Genoa Bar & Saloon","address":"2282 Main St","lat":39.00323305109159,"lng":-119.84639456373979,"city_fetched":"Gardnerville Ranchos,US","state":"NV","country":"United States","canonicalUrl":"https://foursquare.com/v/genoa-bar--saloon/4b63c04ff964a520ce8f2ae3","categoryId":"4bf58dd8d48988d116941735","category":"Bar","checkinsCount":555,"usersCount":478,"tipCount":7,"visitsCount":636,"tier":"","message":"","currency":"","rating":7.3},{"name":"Fox & Hound","phone":"7755588887","address":"237 Tramway","lat":38.97023306503184,"lng":-119.88640435458345,"city_fetched":"Gardnerville Ranchos,US","state":"NV","country":"United States","canonicalUrl":"https://foursquare.com/v/fox--hound/4bb2709f4019a5936ad536b8","categoryId":"4bf58dd8d48988d118941735","category":"Dive Bar","checkinsCount":1202,"usersCount":759,"tipCount":16,"visitsCount":1423,"tier":"","message":"","currency":"","rating":7.3},{"name":"Stateline Brewery & Restaurant","phone":"5305429000","address":"4118 Lake Tahoe Blvd","lat":38.95782740048872,"lng":-119.94274635279739,"city_fetched":"Gardnerville Ranchos,US","state":"CA","country":"United States","canonicalUrl":"https://foursquare.com/v/stateline-brewery--restaurant/4b1d5b90f964a520560f24e3","categoryId":"50327c8591d4c4b30a586d5d","category":"Brewery","checkinsCount":4223,"usersCount":3849,"tipCount":60,"visitsCount":4676,"url":"http://statelinebrewery.com","tier":2,"message":"Moderate","currency":"$","rating":6.7},{"name":"Mo's Place","phone":"5305421095","address":"3600 Lake Tahoe Blvd","lat":38.94751945,"lng":-119.9592681,"city_fetched":"Gardnerville Ranchos,US","state":"CA","country":"United States","canonicalUrl":"https://foursquare.com/v/mos-place/4ba57451f964a520c30839e3","categoryId":"4bf58dd8d48988d11d941735","category":"Sports Bar","checkinsCount":677,"usersCount":467,"tipCount":11,"visitsCount":721,"tier":"","message":"","currency":"","rating":6.5},{"name":"Echo","phone":"5305432140","address":"4130 Lake Tahoe Blvd","lat":38.95857,"lng":-119.942025,"city_fetched":"Gardnerville Ranchos,US","state":"CA","country":"United States","canonicalUrl":"https://foursquare.com/v/echo/4b1c5e48f964a5209e0624e3","categoryId":"4bf58dd8d48988d11d941735","category":"Sports Bar","checkinsCount":344,"usersCount":274,"tipCount":7,"visitsCount":345,"tier":"","message":"","currency":"","rating":6.1}]