[{"name":"Plattduetsche Park Biergarten","phone":"5163543131","address":"1132 Hempstead Tpke","lat":40.709362917682796,"lng":-73.6820146203855,"city_fetched":"Garden City,US","state":"NY","country":"United States","canonicalUrl":"https://foursquare.com/v/plattduetsche-park-biergarten/4b7ed493f964a520ab0230e3","categoryId":"4bf58dd8d48988d117941735","category":"Beer Garden","checkinsCount":4816,"usersCount":2234,"tipCount":24,"visitsCount":5849,"url":"http://www.parkrestaurant.com","tier":2,"message":"Moderate","currency":"$","rating":9.2},{"name":"Novita Wine Bar & Trattoria","phone":"5167397660","twitter":"novitawinebar","address":"860 Franklin Ave","lat":40.727539,"lng":-73.635246,"city_fetched":"Garden City,US","state":"NY","country":"United States","canonicalUrl":"https://foursquare.com/v/novita-wine-bar--trattoria/4b57c072f964a520473f28e3","categoryId":"4bf58dd8d48988d123941735","category":"Wine Bar","checkinsCount":3652,"usersCount":2037,"tipCount":38,"visitsCount":3855,"url":"http://www.novitany.com","tier":2,"message":"Moderate","currency":"$","rating":9},{"name":"Black Sheep Ale House","phone":"5163071280","twitter":"blacksheepah","address":"78 2nd St","lat":40.74300357319426,"lng":-73.63425555053682,"city_fetched":"Garden City,US","state":"NY","country":"United States","canonicalUrl":"https://foursquare.com/v/black-sheep-ale-house/4b34368af964a520252625e3","categoryId":"4bf58dd8d48988d116941735","category":"Bar","checkinsCount":3895,"usersCount":1191,"tipCount":33,"visitsCount":4718,"url":"http://www.blacksheepalehouse.com","tier":2,"message":"Moderate","currency":"$","rating":8.8},{"name":"Croxley's Ale House","phone":"5163269542","twitter":"croxley_fs","address":"129 New Hyde Park Rd","lat":40.710934576460055,"lng":-73.67647932545374,"city_fetched":"Garden City,US","state":"NY","country":"United States","canonicalUrl":"https://foursquare.com/v/croxleys-ale-house/4a9465f7f964a520772120e3","categoryId":"4bf58dd8d48988d11b941735","category":"Pub","checkinsCount":5975,"usersCount":2728,"tipCount":71,"visitsCount":6972,"url":"http://www.croxley.com/franklin-square.html","tier":2,"message":"Moderate","currency":"$","rating":8.5},{"name":"Cork and Kerry","address":"143 Tulip Ave","lat":40.72471838464138,"lng":-73.70391865510413,"neighborhood":"Northeastern Queens","city_fetched":"Garden City,US","state":"NY","country":"United States","canonicalUrl":"https://foursquare.com/v/cork-and-kerry/555ead2b498eb6113303f30a","categoryId":"4bf58dd8d48988d1d4941735","category":"Speakeasy","checkinsCount":111,"usersCount":71,"tipCount":2,"visitsCount":131,"tier":"","message":"","currency":"","rating":8.5},{"name":"Charlie Bullfrogs","phone":"5163522384","twitter":"charliebullfrog","address":"316 Jericho Tpke","lat":40.7297684469009,"lng":-73.69882076095848,"neighborhood":"Northeastern Queens","city_fetched":"Garden City,US","state":"NY","country":"United States","canonicalUrl":"https://foursquare.com/v/charlie-bullfrogs/4b58a765f964a520e26328e3","categoryId":"4bf58dd8d48988d116941735","category":"Bar","checkinsCount":877,"usersCount":217,"tipCount":16,"visitsCount":1037,"url":"http://charliebullfrogs-hub.com","tier":"","message":"","currency":"","rating":8.3},{"name":"Charlie Meaney's","phone":"5165962337","address":"52 Central Ct","lat":40.6816,"lng":-73.71162896666667,"city_fetched":"Garden City,US","state":"NY","country":"United States","canonicalUrl":"https://foursquare.com/v/charlie-meaneys/4bf36abb3f86c9b6a02db21c","categoryId":"4bf58dd8d48988d116941735","category":"Bar","checkinsCount":1057,"usersCount":494,"tipCount":17,"visitsCount":1479,"url":"http://www.charliemeaneys.com","tier":"","message":"","currency":"","rating":8.1},{"name":"Croxley's Ale House & Eatery","phone":"5167640470","twitter":"croxley_rvc","address":"7 S Park Ave","lat":40.65587870109071,"lng":-73.64538001759666,"city_fetched":"Garden City,US","state":"NY","country":"United States","canonicalUrl":"https://foursquare.com/v/croxleys-ale-house--eatery/4a946573f964a520752120e3","categoryId":"4bf58dd8d48988d116941735","category":"Bar","checkinsCount":6440,"usersCount":3063,"tipCount":57,"visitsCount":6981,"url":"http://www.croxley.com/rockville-centre.html","tier":2,"message":"Moderate","currency":"$","rating":8.1},{"name":"The Nest Bar & Lounge","address":"382 A E Meadow Ave","lat":40.71442481219918,"lng":-73.55995632571391,"city_fetched":"Garden City,US","state":"NY","country":"United States","canonicalUrl":"https://foursquare.com/v/the-nest-bar--lounge/505d0d95e4b033df399ecf28","categoryId":"4bf58dd8d48988d121941735","category":"Lounge","checkinsCount":514,"usersCount":296,"tipCount":10,"visitsCount":694,"url":"http://thenestbar.com","tier":1,"message":"Cheap","currency":"$","rating":8},{"name":"The Greene Turtle","phone":"5162807251","twitter":"greeneturtleem","address":"1740 Hempstead Tpke","lat":40.723356180961375,"lng":-73.5715161153189,"city_fetched":"Garden City,US","state":"NY","country":"United States","canonicalUrl":"https://foursquare.com/v/the-greene-turtle/5644bca5498ee6f4e85cebfc","categoryId":"4bf58dd8d48988d11d941735","category":"Sports Bar","checkinsCount":416,"usersCount":488,"tipCount":3,"visitsCount":844,"url":"http://www.thegreeneturtle.com/location/East-Meadow","tier":"","message":"","currency":"","rating":8},{"name":"The Dark Horse Tavern","phone":"5164425477","address":"12 S Park Ave","lat":40.6556899,"lng":-73.6455969,"city_fetched":"Garden City,US","state":"NY","country":"United States","canonicalUrl":"https://foursquare.com/v/the-dark-horse-tavern/4ce726e3f1c6236a3edf57f0","categoryId":"4bf58dd8d48988d116941735","category":"Bar","checkinsCount":3267,"usersCount":1342,"tipCount":23,"visitsCount":3378,"url":"http://darkhorservc.com","tier":2,"message":"Moderate","currency":"$","rating":8},{"name":"Marriot Hotel Crew Lounge","lat":40.72393980655714,"lng":-73.58773324452606,"city_fetched":"Garden City,US","state":"NY","country":"United States","canonicalUrl":"https://foursquare.com/v/marriot-hotel-crew-lounge/4e83d8149a52bd4693cf637c","categoryId":"4bf58dd8d48988d121941735","category":"Lounge","checkinsCount":202,"usersCount":90,"tipCount":0,"visitsCount":202,"tier":"","message":"","currency":"","rating":8},{"name":"Rumors Night Club","lat":40.70660335508004,"lng":-73.65830318813285,"city_fetched":"Garden City,US","state":"NY","country":"United States","canonicalUrl":"https://foursquare.com/v/rumors-night-club/5074bebbe4b0e2c61dcd5993","categoryId":"4bf58dd8d48988d11f941735","category":"Nightclub","checkinsCount":443,"usersCount":121,"tipCount":5,"visitsCount":443,"tier":"","message":"","currency":"","rating":7.9},{"name":"Connolly Station","phone":"5168875160","address":"280 Hempstead Ave","lat":40.675446,"lng":-73.66909945,"city_fetched":"Garden City,US","state":"NY","country":"United States","canonicalUrl":"https://foursquare.com/v/connolly-station/4bf5d9d54d5f20a14b5a98fe","categoryId":"4bf58dd8d48988d11d941735","category":"Sports Bar","checkinsCount":998,"usersCount":415,"tipCount":8,"visitsCount":1051,"url":"http://connollystationli.com","tier":"","message":"","currency":"","rating":7.9},{"name":"Maxi's Cigar Lounge","phone":"5165051489","address":"749 Hempstead Tpke","lat":40.706628,"lng":-73.667679,"city_fetched":"Garden City,US","state":"NY","country":"United States","canonicalUrl":"https://foursquare.com/v/maxis-cigar-lounge/4b5f7032f964a52057ba29e3","categoryId":"4bf58dd8d48988d121941735","category":"Lounge","checkinsCount":864,"usersCount":89,"tipCount":5,"visitsCount":886,"url":"http://maxiscigarlounge.com","tier":"","message":"","currency":"","rating":7.8},{"name":"Majlis Hookah Lounge & Cafe","phone":"7183434869","twitter":"majlishookah","address":"24805 Union Tpke","lat":40.7424739807907,"lng":-73.7219244130804,"neighborhood":"Glen Oaks","city_fetched":"Garden City,US","state":"NY","country":"United States","canonicalUrl":"https://foursquare.com/v/majlis-hookah-lounge--cafe/4f668bd6e4b041039f9f141b","categoryId":"4bf58dd8d48988d119941735","category":"Hookah Bar","checkinsCount":662,"usersCount":286,"tipCount":14,"visitsCount":828,"url":"http://www.majlishookahlounge.com","tier":"","message":"","currency":"","rating":7.7},{"name":"Beverage Barn","phone":"5167944818","address":"2080 Front St","lat":40.724202,"lng":-73.55949640274048,"city_fetched":"Garden City,US","state":"NY","country":"United States","canonicalUrl":"https://foursquare.com/v/beverage-barn/4c011bdd9a950f47068908c6","categoryId":"50327c8591d4c4b30a586d5d","category":"Brewery","checkinsCount":692,"usersCount":340,"tipCount":2,"visitsCount":827,"url":"http://www.bigbeverage.net/pages/index.shtml","tier":"","message":"","currency":"","rating":7.5},{"name":"Chalet Restaurant & Lounge","address":"1 Railroad Ave","lat":40.79275591465425,"lng":-73.64370132529373,"city_fetched":"Garden City,US","state":"NY","country":"United States","canonicalUrl":"https://foursquare.com/v/chalet-restaurant--lounge/4bd389089854d13a7a16fe4d","categoryId":"4bf58dd8d48988d116941735","category":"Bar","checkinsCount":623,"usersCount":384,"tipCount":10,"visitsCount":657,"url":"http://chaletrestaurantandbakery.com","tier":"","message":"","currency":"","rating":7.5},{"name":"Sugar Dining Den and Social Club","phone":"5162487600","twitter":"sugardiningden","address":"246 Voice Rd","lat":40.74634653333333,"lng":-73.61959299799832,"city_fetched":"Garden City,US","state":"NY","country":"United States","canonicalUrl":"https://foursquare.com/v/sugar-dining-den-and-social-club/4be376d4f07b0f474241f843","categoryId":"4bf58dd8d48988d11f941735","category":"Nightclub","checkinsCount":1904,"usersCount":1072,"tipCount":15,"visitsCount":1913,"url":"http://www.sugarli.com","tier":"","message":"","currency":"","rating":7.4},{"name":"The Greene Turtle","phone":"5167439700","twitter":"thegreeneturtle","address":"700 Hempstead Tpke","lat":40.70699553215356,"lng":-73.6658968945873,"city_fetched":"Garden City,US","state":"NY","country":"United States","canonicalUrl":"https://foursquare.com/v/the-greene-turtle/518e85ed498e6bd4ca4e1e87","categoryId":"4bf58dd8d48988d11d941735","category":"Sports Bar","checkinsCount":1611,"usersCount":1145,"tipCount":37,"visitsCount":2429,"url":"http://thegreeneturtle.com","tier":2,"message":"Moderate","currency":"$","rating":7.4},{"name":"Body English","phone":"5169182727","address":"440 Old Country Rd","lat":40.745610996961105,"lng":-73.60327005386353,"city_fetched":"Garden City,US","state":"NY","country":"United States","canonicalUrl":"https://foursquare.com/v/body-english/4c05b6fb517d0f474602f515","categoryId":"4bf58dd8d48988d11f941735","category":"Nightclub","checkinsCount":491,"usersCount":318,"tipCount":2,"visitsCount":501,"url":"http://bodyenglishtuesdays.com","tier":"","message":"","currency":"","rating":7.3},{"name":"Cafe Moments","address":"784 Elmont Rd","lat":40.689842939930315,"lng":-73.72111376182438,"city_fetched":"Garden City,US","state":"NY","country":"United States","canonicalUrl":"https://foursquare.com/v/cafe-moments/4c43827a429a0f471780471e","categoryId":"4bf58dd8d48988d121941735","category":"Lounge","checkinsCount":303,"usersCount":141,"tipCount":9,"visitsCount":308,"tier":"","message":"","currency":"","rating":7.3},{"name":"Off The Hookah","phone":"5163555505","address":"251-12 Hillside Ave","lat":40.73559453122238,"lng":-73.71601630074763,"neighborhood":"Bellerose","city_fetched":"Garden City,US","state":"NY","country":"United States","canonicalUrl":"https://foursquare.com/v/off-the-hookah/4f373bfee4b02a70e11ce01e","categoryId":"4bf58dd8d48988d119941735","category":"Hookah Bar","checkinsCount":432,"usersCount":199,"tipCount":2,"visitsCount":462,"tier":2,"message":"Moderate","currency":"$","rating":7.3},{"name":"Rein Restaurant @ The Garden City Hotel","phone":"5168779385","twitter":"reinrestaurant","address":"45 7th St","lat":40.724521,"lng":-73.64066740048769,"city_fetched":"Garden City,US","state":"NY","country":"United States","canonicalUrl":"https://foursquare.com/v/rein-restaurant--the-garden-city-hotel/4bb0d3a7f964a52099603ce3","categoryId":"4bf58dd8d48988d116941735","category":"Bar","checkinsCount":566,"usersCount":278,"tipCount":12,"visitsCount":566,"url":"https://www.gardencityhotel.com/dine-at-rein/","tier":"","message":"","currency":"","rating":7.3},{"name":"Rollin' Greens Irish Pub & Grille","phone":"7183433313","address":"247-77 Jericho Tpke","lat":40.72484048524606,"lng":-73.71776335938758,"neighborhood":"Bellerose","city_fetched":"Garden City,US","state":"NY","country":"United States","canonicalUrl":"https://foursquare.com/v/rollin-greens-irish-pub--grille/4c74580cff1fb60c1c56f3a7","categoryId":"4bf58dd8d48988d11b941735","category":"Pub","checkinsCount":1089,"usersCount":288,"tipCount":10,"visitsCount":1137,"tier":"","message":"","currency":"","rating":7.3},{"name":"O'Carroll's Fine Food & Spirits","phone":"5162482540","address":"214 Station Plz N","lat":40.74071848209796,"lng":-73.64071758827639,"city_fetched":"Garden City,US","state":"NY","country":"United States","canonicalUrl":"https://foursquare.com/v/ocarrolls-fine-food--spirits/4ba43e3bf964a5205d8f38e3","categoryId":"4bf58dd8d48988d116941735","category":"Bar","checkinsCount":3846,"usersCount":840,"tipCount":19,"visitsCount":3935,"tier":"","message":"","currency":"","rating":7.1},{"name":"Cafe Oasis","phone":"5168679829","address":"779 Brooklyn Ave","lat":40.65714029,"lng":-73.608319,"city_fetched":"Garden City,US","state":"NY","country":"United States","canonicalUrl":"https://foursquare.com/v/cafe-oasis/4c1443c277cea593046dd060","categoryId":"4bf58dd8d48988d116941735","category":"Bar","checkinsCount":1083,"usersCount":213,"tipCount":11,"visitsCount":1124,"url":"http://cafeoasisbaldwin.com","tier":"","message":"","currency":"","rating":7},{"name":"Public House 55","phone":"5163288326","address":"53-55 New Hyde Park Road","lat":40.71333741442005,"lng":-73.68292278524413,"city_fetched":"Garden City,US","state":"NY","country":"United States","canonicalUrl":"https://foursquare.com/v/public-house-55/4c95a48ef244b1f754072e1d","categoryId":"4bf58dd8d48988d116941735","category":"Bar","checkinsCount":1016,"usersCount":231,"tipCount":1,"visitsCount":1077,"tier":"","message":"","currency":"","rating":7},{"name":"Buffalo Wild Wings Westbury","phone":"5167949453","twitter":"bwwings","address":"737 Merrick Ave","lat":40.74192458213511,"lng":-73.58618634607812,"city_fetched":"Garden City,US","state":"NY","country":"United States","canonicalUrl":"https://foursquare.com/v/buffalo-wild-wings-westbury/50e61e18f31ce7d874f9b0e8","categoryId":"4bf58dd8d48988d11d941735","category":"Sports Bar","checkinsCount":5101,"usersCount":3072,"tipCount":47,"visitsCount":6404,"url":"http://www.buffalowildwings.com","tier":2,"message":"Moderate","currency":"$","rating":6.9},{"name":"Mystique Hookah Lounge","phone":"5163852320","address":"973 Old Country Rd","lat":40.75469921540493,"lng":-73.56046819066589,"city_fetched":"Garden City,US","state":"NY","country":"United States","canonicalUrl":"https://foursquare.com/v/mystique-hookah-lounge/4c3d2f9e7c1ee21eccaf8d71","categoryId":"4bf58dd8d48988d119941735","category":"Hookah Bar","checkinsCount":1043,"usersCount":788,"tipCount":19,"visitsCount":1256,"url":"http://mystiquehookahlounge.com","tier":2,"message":"Moderate","currency":"$","rating":6.9},{"name":"C.J. Wellingtons","phone":"5163264990","address":"30 New Hyde Park Rd","lat":40.708282966666665,"lng":-73.675345,"city_fetched":"Garden City,US","state":"NY","country":"United States","canonicalUrl":"https://foursquare.com/v/cj-wellingtons/4b32c05df964a520381325e3","categoryId":"4bf58dd8d48988d116941735","category":"Bar","checkinsCount":1170,"usersCount":499,"tipCount":18,"visitsCount":1206,"url":"http://www.cjwellingtons.com","tier":2,"message":"Moderate","currency":"$","rating":6.8},{"name":"Walk Street Tavern","address":"1218 Jericho Tpke","lat":40.73286725524584,"lng":-73.68283656723547,"city_fetched":"Garden City,US","state":"NY","country":"United States","canonicalUrl":"https://foursquare.com/v/walk-street-tavern/4b9b04e2f964a52036ec35e3","categoryId":"4bf58dd8d48988d116941735","category":"Bar","checkinsCount":437,"usersCount":261,"tipCount":12,"visitsCount":452,"tier":"","message":"","currency":"","rating":6.8},{"name":"Black Pearl","address":"1299","lat":40.67849130539739,"lng":-73.6143507382493,"city_fetched":"Garden City,US","state":"NY","country":"United States","canonicalUrl":"https://foursquare.com/v/black-pearl/4fbaf065e4b0590708d59738","categoryId":"4bf58dd8d48988d121941735","category":"Lounge","checkinsCount":126,"usersCount":86,"tipCount":2,"visitsCount":129,"tier":"","message":"","currency":"","rating":6.8},{"name":"Cannon's Blackthorn","address":"49 N Village Ave","lat":40.65820000735754,"lng":-73.64774281120977,"city_fetched":"Garden City,US","state":"NY","country":"United States","canonicalUrl":"https://foursquare.com/v/cannons-blackthorn/4c4a69b5c9e4ef3bb079d110","categoryId":"4bf58dd8d48988d116941735","category":"Bar","checkinsCount":2686,"usersCount":1699,"tipCount":16,"visitsCount":2855,"url":"http://cannonsblackthornli.com","tier":"","message":"","currency":"","rating":6.7},{"name":"The Beach House","phone":"5162088733","address":"21 S Park Ave","lat":40.65543679636611,"lng":-73.64560422545959,"city_fetched":"Garden City,US","state":"NY","country":"United States","canonicalUrl":"https://foursquare.com/v/the-beach-house/4d78179fa56e3704c2526567","categoryId":"4bf58dd8d48988d11d941735","category":"Sports Bar","checkinsCount":3023,"usersCount":1386,"tipCount":12,"visitsCount":3092,"url":"http://thebeachhouselbny.com","tier":"","message":"","currency":"","rating":6.7},{"name":"Murph's Bar","phone":"5163580548","address":"935 Hempstead Tpke","lat":40.70724297000253,"lng":-73.67488136186454,"city_fetched":"Garden City,US","state":"NY","country":"United States","canonicalUrl":"https://foursquare.com/v/murphs-bar/4bdde2300ee3a59380092fb0","categoryId":"4bf58dd8d48988d11b941735","category":"Pub","checkinsCount":1648,"usersCount":311,"tipCount":9,"visitsCount":1698,"url":"http://murphs.info","tier":"","message":"","currency":"","rating":6.6},{"name":"Frankie And Vinnys","lat":40.724689629392834,"lng":-73.72332626126746,"neighborhood":"Bellerose","city_fetched":"Garden City,US","state":"NY","country":"United States","canonicalUrl":"https://foursquare.com/v/frankie-and-vinnys/4bdd08fdb0f5c92812974be3","categoryId":"4bf58dd8d48988d116941735","category":"Bar","checkinsCount":494,"usersCount":131,"tipCount":2,"visitsCount":532,"tier":"","message":"","currency":"","rating":6.6},{"name":"The Raging Bull Bar & Lounge","phone":"5167964867","address":"2552 Hempstead Tpke","lat":40.724104,"lng":-73.541347,"city_fetched":"Garden City,US","state":"NY","country":"United States","canonicalUrl":"https://foursquare.com/v/the-raging-bull-bar--lounge/506ce1b1e4b0f909ffbd2aaf","categoryId":"4bf58dd8d48988d116941735","category":"Bar","checkinsCount":155,"usersCount":78,"tipCount":5,"visitsCount":157,"url":"http://instagram.com","tier":"","message":"","currency":"","rating":6.6},{"name":"Zachary's Lounge","phone":"5167949770","address":"1916 Hempstead Tpke","lat":40.72330977470459,"lng":-73.56519569293827,"city_fetched":"Garden City,US","state":"NY","country":"United States","canonicalUrl":"https://foursquare.com/v/zacharys-lounge/4be58207cf200f475343133c","categoryId":"4bf58dd8d48988d121941735","category":"Lounge","checkinsCount":408,"usersCount":256,"tipCount":6,"visitsCount":415,"url":"http://www.zacharyspartys.com ","tier":"","message":"","currency":"","rating":6.5},{"name":"Meadowlands Sports Bar and Restaurant","phone":"5165975152","address":"2367 Hempstead Tpke","lat":40.7255108947935,"lng":-73.54776321635298,"city_fetched":"Garden City,US","state":"NY","country":"United States","canonicalUrl":"https://foursquare.com/v/meadowlands-sports-bar-and-restaurant/54d6c265498efd97694e5a23","categoryId":"4bf58dd8d48988d11d941735","category":"Sports Bar","checkinsCount":310,"usersCount":95,"tipCount":0,"visitsCount":397,"url":"http://www.meadowlandsrestaurant.com","tier":"","message":"","currency":"","rating":6.5},{"name":"Winner's Circle","phone":"5169974050","address":"39 Post Ave","lat":40.74911914842488,"lng":-73.58787700773631,"city_fetched":"Garden City,US","state":"NY","country":"United States","canonicalUrl":"https://foursquare.com/v/winners-circle/4bca8b46fb84c9b6f57f1d3e","categoryId":"4bf58dd8d48988d11f941735","category":"Nightclub","checkinsCount":1059,"usersCount":284,"tipCount":2,"visitsCount":1258,"url":"http://www.clubwc.com","tier":"","message":"","currency":"","rating":6.5},{"name":"Hunter's Pub","phone":"5168760412","address":"470 Westbury Ave","lat":40.75043331127801,"lng":-73.60749112439949,"city_fetched":"Garden City,US","state":"NY","country":"United States","canonicalUrl":"https://foursquare.com/v/hunters-pub/4bd0b630b221c9b65c40d4d0","categoryId":"4bf58dd8d48988d116941735","category":"Bar","checkinsCount":181,"usersCount":80,"tipCount":6,"visitsCount":183,"tier":"","message":"","currency":"","rating":6.4},{"name":"Chi Dining Lounge","phone":"5163853795","address":"103 Post Ave","lat":40.75184218027406,"lng":-73.58789425931484,"city_fetched":"Garden City,US","state":"NY","country":"United States","canonicalUrl":"https://foursquare.com/v/chi-dining-lounge/4b32f541f964a520611625e3","categoryId":"4bf58dd8d48988d121941735","category":"Lounge","checkinsCount":1083,"usersCount":639,"tipCount":20,"visitsCount":1199,"url":"http://www.chidininglounge.com","tier":"","message":"","currency":"","rating":6.4},{"name":"Love Jones Cafe","phone":"5168688900","address":"1920 Grand Ave","lat":40.66357702,"lng":-73.60788,"city_fetched":"Garden City,US","state":"NY","country":"United States","canonicalUrl":"https://foursquare.com/v/love-jones-cafe/4e87e1bbd5fb988c9ddf235c","categoryId":"4bf58dd8d48988d121941735","category":"Lounge","checkinsCount":315,"usersCount":182,"tipCount":6,"visitsCount":395,"url":"http://lovejonescafe.com","tier":"","message":"","currency":"","rating":6.4},{"name":"Aura","phone":"5167943091","address":"1900 Hempstead Tpke","lat":40.723545374943576,"lng":-73.56557526876064,"city_fetched":"Garden City,US","state":"NY","country":"United States","canonicalUrl":"https://foursquare.com/v/aura/4e83d0114690c0a782d30e0a","categoryId":"4bf58dd8d48988d11f941735","category":"Nightclub","checkinsCount":2279,"usersCount":969,"tipCount":22,"visitsCount":2535,"url":"http://auranightclubli.com","tier":"","message":"","currency":"","rating":6.4},{"name":"Double H Pub","phone":"5167415270","address":"91 Mineola Blvd","lat":40.74128954915482,"lng":-73.6404473825885,"city_fetched":"Garden City,US","state":"NY","country":"United States","canonicalUrl":"https://foursquare.com/v/double-h-pub/4cdc5524930af04de2c18f97","categoryId":"4bf58dd8d48988d11b941735","category":"Pub","checkinsCount":1063,"usersCount":78,"tipCount":16,"visitsCount":1063,"tier":"","message":"","currency":"","rating":6.3},{"name":"Marriott Concierge Lounge","address":"101 James Doolittle Blvd","lat":40.72393495629067,"lng":-73.58797476666233,"city_fetched":"Garden City,US","state":"NY","country":"United States","canonicalUrl":"https://foursquare.com/v/marriott-concierge-lounge/4e7910468877ce31d208b945","categoryId":"4bf58dd8d48988d1d5941735","category":"Hotel Bar","checkinsCount":667,"usersCount":216,"tipCount":3,"visitsCount":672,"tier":"","message":"","currency":"","rating":6},{"name":"Kasbah Hookah Lounge","phone":"5162804095","address":"2051 Hempstead Tpke","lat":40.724841,"lng":-73.56054557,"city_fetched":"Garden City,US","state":"NY","country":"United States","canonicalUrl":"https://foursquare.com/v/kasbah-hookah-lounge/4bac3002f964a520f5e93ae3","categoryId":"4bf58dd8d48988d119941735","category":"Hookah Bar","checkinsCount":654,"usersCount":326,"tipCount":5,"visitsCount":675,"tier":"","message":"","currency":"","rating":5.9},{"name":"Magnet Sports and Entertainment Lounge","lat":40.68949818,"lng":-73.721195,"city_fetched":"Garden City,US","state":"NY","country":"United States","canonicalUrl":"https://foursquare.com/v/magnet-sports-and-entertainment-lounge/4e07e4b362e100e58172fe1f","categoryId":"4bf58dd8d48988d11d941735","category":"Sports Bar","checkinsCount":477,"usersCount":342,"tipCount":7,"visitsCount":534,"tier":"","message":"","currency":"","rating":5.9},{"name":"Le Caire Lounge","phone":"5168775072","twitter":"lecairelounge","address":"279 Hillside Ave","lat":40.72302419781942,"lng":-73.98359693517386,"city_fetched":"Garden City,US","state":"NY","country":"United States","canonicalUrl":"https://foursquare.com/lecairelounge","categoryId":"4bf58dd8d48988d121941735","category":"Lounge","checkinsCount":938,"usersCount":668,"tipCount":20,"visitsCount":938,"url":"http://www.lecairelounge.com","tier":1,"message":"Cheap","currency":"$","rating":5.7},{"name":"Callahan's","address":"1964 Hempstead Tpke","lat":40.722690954273375,"lng":-73.5638614209223,"city_fetched":"Garden City,US","state":"NY","country":"United States","canonicalUrl":"https://foursquare.com/v/callahans/4c4b8c269e6dbe9a5ad8320c","categoryId":"4bf58dd8d48988d116941735","category":"Bar","checkinsCount":148,"usersCount":103,"tipCount":6,"visitsCount":153,"tier":"","message":"","currency":"","rating":5.7},{"name":"Canz-a-Citi Roadhouse","phone":"5162272269","address":"1610 Old Country Rd","lat":40.74705021618925,"lng":-73.58898685636412,"city_fetched":"Garden City,US","state":"NY","country":"United States","canonicalUrl":"https://foursquare.com/v/canzaciti-roadhouse/4b035d44f964a520f24e22e3","categoryId":"4bf58dd8d48988d11d941735","category":"Sports Bar","checkinsCount":2775,"usersCount":1396,"tipCount":33,"visitsCount":2977,"tier":2,"message":"Moderate","currency":"$","rating":5.7},{"name":"Love","lat":40.74644308466323,"lng":-73.61954273352545,"city_fetched":"Garden City,US","state":"NY","country":"United States","canonicalUrl":"https://foursquare.com/v/love/5244e582498e8c326c57db97","categoryId":"4bf58dd8d48988d121941735","category":"Lounge","checkinsCount":232,"usersCount":133,"tipCount":6,"visitsCount":250,"tier":"","message":"","currency":"","rating":5.6},{"name":"SPA Nightclub","address":"1900 Hempstead Tpke","lat":40.72322082658129,"lng":-73.56532796943975,"city_fetched":"Garden City,US","state":"NY","country":"United States","canonicalUrl":"https://foursquare.com/v/spa-nightclub/4c413266e26920a1e2375ee7","categoryId":"4bf58dd8d48988d11f941735","category":"Nightclub","checkinsCount":690,"usersCount":293,"tipCount":7,"visitsCount":752,"tier":"","message":"","currency":"","rating":5.4},{"name":"McHebe's","phone":"5165641226","address":"722 Fulton Ave","lat":40.712670449390565,"lng":-73.6071288752534,"city_fetched":"Garden City,US","state":"NY","country":"United States","canonicalUrl":"https://foursquare.com/v/mchebes/4bc810f292b376b017df503a","categoryId":"4bf58dd8d48988d116941735","category":"Bar","checkinsCount":1907,"usersCount":722,"tipCount":7,"visitsCount":2041,"tier":"","message":"","currency":"","rating":5.2}]