[{"name":"Draught House Pub & Brewery","phone":"5124526258","twitter":"draughthouse","address":"4112 Medical Pkwy","lat":30.311027942775503,"lng":-97.74289637804031,"neighborhood":"Rosedale","city_fetched":"Georgetown,US","state":"TX","country":"United States","canonicalUrl":"https://foursquare.com/v/draught-house-pub--brewery/40b13b00f964a5209af31ee3","categoryId":"50327c8591d4c4b30a586d5d","category":"Brewery","checkinsCount":14081,"usersCount":5851,"tipCount":97,"visitsCount":15969,"url":"http://draughthouse.com","tier":2,"message":"Moderate","currency":"$","rating":9.4},{"name":"Black Star Co-op Pub & Brewery","phone":"5124522337","address":"7020 Easy Wind Dr","lat":30.338250359914642,"lng":-97.71896839141846,"neighborhood":"Crestview","city_fetched":"Georgetown,US","state":"TX","country":"United States","canonicalUrl":"https://foursquare.com/v/black-star-coop-pub--brewery/4b888dbbf964a520480032e3","categoryId":"50327c8591d4c4b30a586d5d","category":"Brewery","checkinsCount":14576,"usersCount":6085,"tipCount":149,"visitsCount":16835,"url":"http://www.blackstar.coop","tier":2,"message":"Moderate","currency":"$","rating":9.1},{"name":"Adelbert's Brewery","phone":"5126621462","twitter":"adelbertsbeer","address":"2314 Rutland Dr #100","lat":30.38236982849948,"lng":-97.71990028815432,"neighborhood":"North Burnet","city_fetched":"Georgetown,US","state":"TX","country":"United States","canonicalUrl":"https://foursquare.com/v/adelberts-brewery/4f064ba877c84c82651e2505","categoryId":"50327c8591d4c4b30a586d5d","category":"Brewery","checkinsCount":1661,"usersCount":1361,"tipCount":25,"visitsCount":2427,"url":"http://www.adelbertsbeer.com","tier":1,"message":"Cheap","currency":"$","rating":9.1},{"name":"Austin Beerworks","phone":"5122167661","twitter":"austinbeerworks","address":"3009 Industrial Ter","lat":30.379530960724928,"lng":-97.73024210742246,"neighborhood":"North Burnet","city_fetched":"Georgetown,US","state":"TX","country":"United States","canonicalUrl":"https://foursquare.com/v/austin-beerworks/4d7826e0b706224bc0b1248d","categoryId":"50327c8591d4c4b30a586d5d","category":"Brewery","checkinsCount":3697,"usersCount":2523,"tipCount":34,"visitsCount":4976,"url":"http://austinbeerworks.com","tier":1,"message":"Cheap","currency":"$","rating":9},{"name":"The Brass Tap","phone":"5123412337","twitter":"thebrasstaprr","address":"204 E Main St","lat":30.509142206602988,"lng":-97.67750943919256,"city_fetched":"Georgetown,US","state":"TX","country":"United States","canonicalUrl":"https://foursquare.com/v/the-brass-tap/51bb8512498e3e2a6418576e","categoryId":"4bf58dd8d48988d116941735","category":"Bar","checkinsCount":2605,"usersCount":1056,"tipCount":35,"visitsCount":3164,"url":"http://thebrasstap-hub.com","tier":2,"message":"Moderate","currency":"$","rating":8.9},{"name":"Vino Vino","phone":"5124659282","address":"4119 Guadalupe St","lat":30.306960940361023,"lng":-97.735198,"neighborhood":"Hyde Park","city_fetched":"Georgetown,US","state":"TX","country":"United States","canonicalUrl":"https://foursquare.com/v/vino-vino/49bed457f964a520e5541fe3","categoryId":"4bf58dd8d48988d123941735","category":"Wine Bar","checkinsCount":3065,"usersCount":1949,"tipCount":54,"visitsCount":3464,"url":"http://www.vinovinotx.com","tier":2,"message":"Moderate","currency":"$","rating":8.9},{"name":"drink.well.","phone":"5126146683","twitter":"drinkwellaustin","address":"207 E 53rd St","lat":30.317207549764777,"lng":-97.72057378599331,"neighborhood":"North Loop","city_fetched":"Georgetown,US","state":"TX","country":"United States","canonicalUrl":"https://foursquare.com/v/drinkwell/4f43bd78e4b059a7f245a2db","categoryId":"4bf58dd8d48988d11e941735","category":"Cocktail Bar","checkinsCount":4048,"usersCount":2427,"tipCount":47,"visitsCount":4840,"url":"http://drinkwellaustin.com","tier":2,"message":"Moderate","currency":"$","rating":8.8},{"name":"4th Tap Brewing Cooperative","twitter":"4thtap","address":"10615 Metric Blvd","lat":30.385205014543082,"lng":-97.71211575780478,"neighborhood":"North Austin","city_fetched":"Georgetown,US","state":"TX","country":"United States","canonicalUrl":"https://foursquare.com/v/4th-tap-brewing-cooperative/560ff267498e5d594389eed6","categoryId":"50327c8591d4c4b30a586d5d","category":"Brewery","checkinsCount":524,"usersCount":542,"tipCount":5,"visitsCount":880,"tier":2,"message":"Moderate","currency":"$","rating":8.8},{"name":"Growler Room","phone":"5124584438","address":"6800 Burnet Rd #2","lat":30.34442351614695,"lng":-97.73849013463162,"neighborhood":"Allandale","city_fetched":"Georgetown,US","state":"TX","country":"United States","canonicalUrl":"https://foursquare.com/v/growler-room/5133a94fe4b08f94a50a346c","categoryId":"50327c8591d4c4b30a586d5d","category":"Brewery","checkinsCount":633,"usersCount":312,"tipCount":3,"visitsCount":762,"url":"http://www.growlerroom.com","tier":"","message":"","currency":"","rating":8.8},{"name":"Flying Saucer Draught Emporium","phone":"5124548200","address":"815 W 47th St","lat":30.315432231607847,"lng":-97.73397096295244,"city_fetched":"Georgetown,US","state":"TX","country":"United States","canonicalUrl":"https://foursquare.com/v/flying-saucer-draught-emporium/48287126f964a520c04f1fe3","categoryId":"4bf58dd8d48988d117941735","category":"Beer Garden","checkinsCount":31342,"usersCount":7881,"tipCount":134,"visitsCount":33402,"url":"http://www.beerknurd.com","tier":2,"message":"Moderate","currency":"$","rating":8.8},{"name":"Workhorse Bar","phone":"5123235700","address":"100 N Loop Blvd, Austin, TX 78751","lat":30.31787217087491,"lng":-97.72202686629363,"neighborhood":"North Loop","city_fetched":"Georgetown,US","state":"TX","country":"United States","canonicalUrl":"https://foursquare.com/v/workhorse-bar/4ee7c46bd3e3348f5371cecf","categoryId":"4bf58dd8d48988d116941735","category":"Bar","checkinsCount":4081,"usersCount":1688,"tipCount":34,"visitsCount":4740,"url":"http://workhorsebar.com","tier":1,"message":"Cheap","currency":"$","rating":8.8},{"name":"Draft Shack @ Whole Foods Market Domain","phone":"5128313981","address":"11920 Domain Dr","lat":30.406334860083295,"lng":-97.72026620350279,"neighborhood":"North Burnet","city_fetched":"Georgetown,US","state":"TX","country":"United States","canonicalUrl":"https://foursquare.com/v/draft-shack--whole-foods-market-domain/52d41a3511d299169324d093","categoryId":"4bf58dd8d48988d116941735","category":"Bar","checkinsCount":968,"usersCount":392,"tipCount":9,"visitsCount":1121,"tier":1,"message":"Cheap","currency":"$","rating":8.7},{"name":"North By Northwest (NXNW)","phone":"5124676969","twitter":"nxnwbrew","address":"10010 N Capital of Texas Hwy","lat":30.391062198099544,"lng":-97.73859813809395,"neighborhood":"North Burnet - Gateway","city_fetched":"Georgetown,US","state":"TX","country":"United States","canonicalUrl":"https://foursquare.com/v/north-by-northwest-nxnw/40b13b00f964a520cff31ee3","categoryId":"50327c8591d4c4b30a586d5d","category":"Brewery","checkinsCount":12969,"usersCount":7747,"tipCount":117,"visitsCount":15389,"url":"http://www.nxnwbrew.com","tier":2,"message":"Moderate","currency":"$","rating":8.7},{"name":"LaVaca Street Bar Rock Rose","twitter":"lavacastreet","address":"11420 Rock Rose Avenue, Suite 100","lat":30.400503762291223,"lng":-97.72314727306365,"neighborhood":"North Burnet","city_fetched":"Georgetown,US","state":"TX","country":"United States","canonicalUrl":"https://foursquare.com/v/lavaca-street-bar-rock-rose/56d0d503cd100741b35b6a31","categoryId":"4bf58dd8d48988d116941735","category":"Bar","checkinsCount":466,"usersCount":291,"tipCount":4,"visitsCount":532,"url":"http://www.lavacastreet.com","tier":"","message":"","currency":"","rating":8.6},{"name":"The Dig Pub","phone":"5129969900","twitter":"thedigpub","address":"401 Cypress Creek Rd","lat":30.497820522645096,"lng":-97.82062947750092,"neighborhood":"Buttercup Creek","city_fetched":"Georgetown,US","state":"TX","country":"United States","canonicalUrl":"https://foursquare.com/v/the-dig-pub/4af63c36f964a520810222e3","categoryId":"4bf58dd8d48988d11b941735","category":"Pub","checkinsCount":4909,"usersCount":1229,"tipCount":47,"visitsCount":5588,"url":"http://www.thedigpub.com","tier":2,"message":"Moderate","currency":"$","rating":8.6},{"name":"Lala's Little Nugget","address":"2207 Justin Ln","lat":30.344619173828463,"lng":-97.7362622764142,"neighborhood":"Brentwood","city_fetched":"Georgetown,US","state":"TX","country":"United States","canonicalUrl":"https://foursquare.com/v/lalas-little-nugget/40b13b00f964a520bdf31ee3","categoryId":"4bf58dd8d48988d118941735","category":"Dive Bar","checkinsCount":2287,"usersCount":1558,"tipCount":25,"visitsCount":2575,"tier":1,"message":"Cheap","currency":"$","rating":8.5},{"name":"Barfly's","phone":"5124526455","twitter":"barflysaustin","address":"5420 Airport Blvd","lat":30.31673972343371,"lng":-97.71425270583143,"neighborhood":"North Loop","city_fetched":"Georgetown,US","state":"TX","country":"United States","canonicalUrl":"https://foursquare.com/v/barflys/48261dbef964a5209f4f1fe3","categoryId":"4bf58dd8d48988d118941735","category":"Dive Bar","checkinsCount":4928,"usersCount":1943,"tipCount":46,"visitsCount":5440,"url":"http://www.barflysaustin.com","tier":1,"message":"Cheap","currency":"$","rating":8.5},{"name":"The Shed","address":"212 Royal St","lat":30.942418215972236,"lng":-97.53413543479503,"city_fetched":"Georgetown,US","state":"TX","country":"United States","canonicalUrl":"https://foursquare.com/v/the-shed/50036e83e4b07c8ae9dfdb3a","categoryId":"4bf58dd8d48988d118941735","category":"Dive Bar","checkinsCount":169,"usersCount":208,"tipCount":6,"visitsCount":300,"tier":"","message":"","currency":"","rating":8.5},{"name":"Cru Wine Bar","phone":"5123399463","address":"11410 Century Oaks Ter #104","lat":30.402120836476087,"lng":-97.7263069152832,"neighborhood":"North Burnet","city_fetched":"Georgetown,US","state":"TX","country":"United States","canonicalUrl":"https://foursquare.com/v/cru-wine-bar/49e71bedf964a52079641fe3","categoryId":"4bf58dd8d48988d123941735","category":"Wine Bar","checkinsCount":3291,"usersCount":1890,"tipCount":42,"visitsCount":3323,"url":"http://www.cruawinebar.com","tier":3,"message":"Expensive","currency":"$","rating":8.4},{"name":"Perfect 10 Men's Club","phone":"5122387700","twitter":"perfect10atx","address":"16511 Bratton Ln","lat":30.47042523362299,"lng":-97.6736671132964,"city_fetched":"Georgetown,US","state":"TX","country":"United States","canonicalUrl":"https://foursquare.com/v/perfect-10-mens-club/4513f371f964a520ca391fe3","categoryId":"4bf58dd8d48988d1d6941735","category":"Strip Club","checkinsCount":2083,"usersCount":1157,"tipCount":13,"visitsCount":3259,"url":"http://www.sugarsperfect.com/p10a/","tier":"","message":"","currency":"","rating":8.4},{"name":"Pour House Pints & Pies","phone":"5122704740","address":"11835 Jollyville Road","lat":30.422754109769762,"lng":-97.75527477264403,"neighborhood":"Northwest Austin","city_fetched":"Georgetown,US","state":"TX","country":"United States","canonicalUrl":"https://foursquare.com/v/pour-house-pints--pies/523b35acbce69c7c875b38cc","categoryId":"4bf58dd8d48988d11b941735","category":"Pub","checkinsCount":2420,"usersCount":1523,"tipCount":34,"visitsCount":3750,"url":"http://pourhousepintsandpies.com","tier":2,"message":"Moderate","currency":"$","rating":8.4},{"name":"The Rotten Bunch","address":"14900 Avery Ranch Blvd Ste B100","lat":30.49844351018372,"lng":-97.77727675549077,"city_fetched":"Georgetown,US","state":"TX","country":"United States","canonicalUrl":"https://foursquare.com/v/the-rotten-bunch/56280116498e8ce441d4ae44","categoryId":"4bf58dd8d48988d121941735","category":"Lounge","checkinsCount":131,"usersCount":121,"tipCount":3,"visitsCount":195,"tier":"","message":"","currency":"","rating":8.4},{"name":"Wagner's Backyard","phone":"5129877783","address":"15505 interstate 35","lat":30.44944383665221,"lng":-97.66545319266613,"neighborhood":"Three Point Acres","city_fetched":"Georgetown,US","state":"TX","country":"United States","canonicalUrl":"https://foursquare.com/v/wagners-backyard/5595f283498e0f5bf702b35a","categoryId":"4bf58dd8d48988d117941735","category":"Beer Garden","checkinsCount":221,"usersCount":244,"tipCount":5,"visitsCount":479,"url":"http://wagnerbrosbackyard.com","tier":"","message":"","currency":"","rating":8.3},{"name":"Apothecary Cafe & Wine Bar","phone":"5123711600","twitter":"apothecaryatx","address":"4800 Burnet Rd","lat":30.31895142366329,"lng":-97.73943901062012,"neighborhood":"Brentwood","city_fetched":"Georgetown,US","state":"TX","country":"United States","canonicalUrl":"https://foursquare.com/v/apothecary-cafe--wine-bar/4af23eaff964a520dee621e3","categoryId":"4bf58dd8d48988d123941735","category":"Wine Bar","checkinsCount":3147,"usersCount":1726,"tipCount":40,"visitsCount":3200,"url":"http://www. apothecaryaustin.com","tier":2,"message":"Moderate","currency":"$","rating":8.2},{"name":"Sidelines Sports Grille","address":"200 Buttercup Creek Blvd","lat":30.50324556846582,"lng":-97.82008347021882,"neighborhood":"Buttercup Creek","city_fetched":"Georgetown,US","state":"TX","country":"United States","canonicalUrl":"https://foursquare.com/v/sidelines-sports-grille/540379e6498ed2702bc7b179","categoryId":"4bf58dd8d48988d11d941735","category":"Sports Bar","checkinsCount":162,"usersCount":74,"tipCount":3,"visitsCount":198,"tier":"","message":"","currency":"","rating":8.2},{"name":"Jack & Ginger's Irish Pub","phone":"5127954230","twitter":"jackgingersatx","address":"11500 Rock Rose","lat":30.401146395077372,"lng":-97.72287009089078,"neighborhood":"North Burnet","city_fetched":"Georgetown,US","state":"TX","country":"United States","canonicalUrl":"https://foursquare.com/v/jack--gingers-irish-pub/56aaaa65498e3b4bcf0344e7","categoryId":"4bf58dd8d48988d116941735","category":"Bar","checkinsCount":852,"usersCount":603,"tipCount":6,"visitsCount":1012,"tier":"","message":"","currency":"","rating":8.2},{"name":"Bluebonnet Brewery","address":"1700 Bryant Dr Ste 107","lat":30.49185738697879,"lng":-97.64714756845046,"city_fetched":"Georgetown,US","state":"TX","country":"United States","canonicalUrl":"https://foursquare.com/v/bluebonnet-brewery/54a73992498ee74ea18bd63b","categoryId":"50327c8591d4c4b30a586d5d","category":"Brewery","checkinsCount":130,"usersCount":117,"tipCount":2,"visitsCount":292,"tier":"","message":"","currency":"","rating":8.2},{"name":"Cover 3","phone":"5123741121","twitter":"cover3austin","address":"2700 W Anderson Ln","lat":30.358584,"lng":-97.73502612,"neighborhood":"North Shoal Creek","city_fetched":"Georgetown,US","state":"TX","country":"United States","canonicalUrl":"https://foursquare.com/v/cover-3/4a47949df964a520d8a91fe3","categoryId":"4bf58dd8d48988d11d941735","category":"Sports Bar","checkinsCount":8726,"usersCount":4792,"tipCount":93,"visitsCount":9655,"url":"http://cover-3.com","tier":2,"message":"Moderate","currency":"$","rating":8.1},{"name":"Pardner's","address":"1110 E Palm Valley Blvd","lat":30.51858885,"lng":-97.6683706,"city_fetched":"Georgetown,US","state":"TX","country":"United States","canonicalUrl":"https://foursquare.com/v/pardners/40b13b00f964a520d4f31ee3","categoryId":"4bf58dd8d48988d11f941735","category":"Nightclub","checkinsCount":223,"usersCount":76,"tipCount":3,"visitsCount":235,"tier":"","message":"","currency":"","rating":8},{"name":"Ginny's Little Longhorn Saloon","phone":"5124581813","address":"5434 Burnet Rd","lat":30.3293225279654,"lng":-97.74003177881241,"neighborhood":"Allandale","city_fetched":"Georgetown,US","state":"TX","country":"United States","canonicalUrl":"https://foursquare.com/v/ginnys-little-longhorn-saloon/40b13b00f964a520abf31ee3","categoryId":"4bf58dd8d48988d118941735","category":"Dive Bar","checkinsCount":2546,"usersCount":1833,"tipCount":35,"visitsCount":2839,"url":"http://ginnyslittlelonghorn.com","tier":1,"message":"Cheap","currency":"$","rating":8},{"name":"Hanover's Draught Haus","phone":"5129695027","twitter":"hanoversaustin","address":"108 E Main St","lat":30.44070461797222,"lng":-97.61973254479035,"city_fetched":"Georgetown,US","state":"TX","country":"United States","canonicalUrl":"https://foursquare.com/v/hanovers-draught-haus/4b64e2edf964a52085d72ae3","categoryId":"4bf58dd8d48988d116941735","category":"Bar","checkinsCount":1992,"usersCount":1113,"tipCount":13,"visitsCount":2387,"url":"http://hanoversaustin-hub.com","tier":"","message":"","currency":"","rating":8},{"name":"Brass Tap - Domain","address":"10910 Domain Dr Bldg W #120","lat":30.39596,"lng":-97.727134,"neighborhood":"North Burnet","city_fetched":"Georgetown,US","state":"TX","country":"United States","canonicalUrl":"https://foursquare.com/v/brass-tap--domain/57a2b298498e18542093a7c1","categoryId":"56aa371ce4b08b9a8d57356c","category":"Beer Bar","checkinsCount":78,"usersCount":68,"tipCount":3,"visitsCount":87,"tier":"","message":"","currency":"","rating":8},{"name":"Nomad Bar","phone":"5126284288","twitter":"nomadbar","address":"1213 Corona Dr","lat":30.31243115410374,"lng":-97.70484924316406,"neighborhood":"Windsor Park","city_fetched":"Georgetown,US","state":"TX","country":"United States","canonicalUrl":"https://foursquare.com/v/nomad-bar/49bdbd93f964a52093541fe3","categoryId":"4bf58dd8d48988d116941735","category":"Bar","checkinsCount":5418,"usersCount":2341,"tipCount":36,"visitsCount":6394,"url":"http://nomadbar.com","tier":1,"message":"Cheap","currency":"$","rating":8},{"name":"Rumi's Tavern","phone":"5122674327","twitter":"rumistavern","address":"18626 FM 1431","lat":30.494335289319235,"lng":-97.92487621307373,"city_fetched":"Georgetown,US","state":"TX","country":"United States","canonicalUrl":"https://foursquare.com/rumistavern","categoryId":"4bf58dd8d48988d116941735","category":"Bar","checkinsCount":165,"usersCount":76,"tipCount":3,"visitsCount":180,"tier":"","message":"","currency":"","rating":8},{"name":"Circle Brewing Company","address":"2340 W Braker Ln","lat":30.38530190365952,"lng":-97.71585943659431,"neighborhood":"North Burnet","city_fetched":"Georgetown,US","state":"TX","country":"United States","canonicalUrl":"https://foursquare.com/v/circle-brewing-company/4d7bd2e87498a1cdc1e271fc","categoryId":"50327c8591d4c4b30a586d5d","category":"Brewery","checkinsCount":717,"usersCount":652,"tipCount":8,"visitsCount":1032,"url":"http://circlebrewing.com","tier":"","message":"","currency":"","rating":8},{"name":"Hideout Pub","phone":"5128219093","twitter":"hideoutpubatx","address":"12164 N MO Pac Expy","lat":30.412493485534046,"lng":-97.70974557136837,"city_fetched":"Georgetown,US","state":"TX","country":"United States","canonicalUrl":"https://foursquare.com/v/hideout-pub/446ef248f964a52079331fe3","categoryId":"4bf58dd8d48988d116941735","category":"Bar","checkinsCount":13414,"usersCount":2771,"tipCount":56,"visitsCount":15203,"url":"http://thehideoutpub.com","tier":1,"message":"Cheap","currency":"$","rating":8},{"name":"The Common Interest Karaoke Bar & Grill","phone":"5124536796","twitter":"ciaustin","address":"8440 Burnet Rd","lat":30.366149,"lng":-97.7290803194046,"neighborhood":"North Shoal Creek","city_fetched":"Georgetown,US","state":"TX","country":"United States","canonicalUrl":"https://foursquare.com/ciaustin","categoryId":"4bf58dd8d48988d120941735","category":"Karaoke Bar","checkinsCount":5102,"usersCount":2366,"tipCount":31,"visitsCount":5707,"url":"http://www.ciaustin.com","tier":2,"message":"Moderate","currency":"$","rating":8},{"name":"Dave & Buster's","phone":"5123468015","twitter":"daveandbusters","address":"9333 Research Blvd Ste A600","lat":30.38320870910451,"lng":-97.73745576312315,"neighborhood":"North Burnet - Gateway","city_fetched":"Georgetown,US","state":"TX","country":"United States","canonicalUrl":"https://foursquare.com/v/dave--busters/40b13b00f964a52090f31ee3","categoryId":"4bf58dd8d48988d11d941735","category":"Sports Bar","checkinsCount":9541,"usersCount":6266,"tipCount":50,"visitsCount":11376,"url":"http://daveandbusters.com/default.aspx","tier":2,"message":"Moderate","currency":"$","rating":7.9},{"name":"Quinn's Neighborhood Bar","phone":"5123109965","address":"101 E Main St","lat":30.50852769,"lng":-97.6786399,"city_fetched":"Georgetown,US","state":"TX","country":"United States","canonicalUrl":"https://foursquare.com/v/quinns-neighborhood-bar/4a8f4f9af964a520d81420e3","categoryId":"4bf58dd8d48988d116941735","category":"Bar","checkinsCount":1884,"usersCount":570,"tipCount":16,"visitsCount":1918,"url":"http://www.quinnsrr.com","tier":"","message":"","currency":"","rating":7.9},{"name":"The Growler Bar","twitter":"thegrowlerbar","address":"1300 FM 685","lat":30.449175312292486,"lng":-97.60680207267544,"city_fetched":"Georgetown,US","state":"TX","country":"United States","canonicalUrl":"https://foursquare.com/v/the-growler-bar/56672a34498e31604743d22e","categoryId":"4bf58dd8d48988d117941735","category":"Beer Garden","checkinsCount":206,"usersCount":146,"tipCount":3,"visitsCount":350,"url":"http://www.txgrowlerbar.com","tier":"","message":"","currency":"","rating":7.9},{"name":"Cedar Park Pub","phone":"5123349144","address":"2403 S Bell Blvd Ste B","lat":30.481671119336617,"lng":-97.80536391826674,"city_fetched":"Georgetown,US","state":"TX","country":"United States","canonicalUrl":"https://foursquare.com/v/cedar-park-pub/4ff0975ce4b0b61f2a8fbd09","categoryId":"4bf58dd8d48988d118941735","category":"Dive Bar","checkinsCount":219,"usersCount":66,"tipCount":1,"visitsCount":228,"tier":"","message":"","currency":"","rating":7.9},{"name":"The Aristocrat Lounge","lat":30.34025829805629,"lng":-97.73858561584441,"neighborhood":"Brentwood","city_fetched":"Georgetown,US","state":"TX","country":"United States","canonicalUrl":"https://foursquare.com/v/the-aristocrat-lounge/547933aa498e8d78ee0f10c0","categoryId":"4bf58dd8d48988d121941735","category":"Lounge","checkinsCount":432,"usersCount":365,"tipCount":1,"visitsCount":570,"tier":"","message":"","currency":"","rating":7.8},{"name":"The Park at The Domain","phone":"5124787275","twitter":"eatdrinkthepark","address":"11601 Domain Dr Ste 200","lat":30.403112109004333,"lng":-97.72376105616583,"neighborhood":"North Burnet","city_fetched":"Georgetown,US","state":"TX","country":"United States","canonicalUrl":"https://foursquare.com/v/the-park-at-the-domain/4dd6fc01ae60680f14fbf5fd","categoryId":"4bf58dd8d48988d116941735","category":"Bar","checkinsCount":14995,"usersCount":7002,"tipCount":102,"visitsCount":17393,"url":"http://eatdrinkthepark.com","tier":2,"message":"Moderate","currency":"$","rating":7.8},{"name":"Bout Time II","phone":"5124746481","twitter":"bouttimeii","address":"6607 N Interstate 35","lat":30.32764139112257,"lng":-97.70430558008714,"neighborhood":"St. Johns","city_fetched":"Georgetown,US","state":"TX","country":"United States","canonicalUrl":"https://foursquare.com/bouttimeii","categoryId":"4bf58dd8d48988d1d8941735","category":"Gay Bar","checkinsCount":3352,"usersCount":1191,"tipCount":21,"visitsCount":4788,"url":"http://www.bouttime2.com","tier":2,"message":"Moderate","currency":"$","rating":7.8},{"name":"Twin Peaks Restaurant","phone":"5122387325","address":"100 Louis Henna Blvd","lat":30.48163,"lng":-97.673083,"city_fetched":"Georgetown,US","state":"TX","country":"United States","canonicalUrl":"https://foursquare.com/v/twin-peaks-restaurant/4a61e3c6f964a5209fc21fe3","categoryId":"4bf58dd8d48988d11d941735","category":"Sports Bar","checkinsCount":6111,"usersCount":2405,"tipCount":25,"visitsCount":7287,"url":"http://www.twinpeaksrestaurant.com","tier":2,"message":"Moderate","currency":"$","rating":7.8},{"name":"The Uptown Social","phone":"5128638100","address":"501 S Austin Ave Unit 1410","lat":30.63895676536405,"lng":-97.67779033473195,"neighborhood":"Downtown Georgetown","city_fetched":"Georgetown,US","state":"TX","country":"United States","canonicalUrl":"https://foursquare.com/v/the-uptown-social/4eed641ae5faa560f12f423f","categoryId":"4bf58dd8d48988d121941735","category":"Lounge","checkinsCount":882,"usersCount":338,"tipCount":13,"visitsCount":928,"url":"http://theuptownsocial.com","tier":2,"message":"Moderate","currency":"$","rating":7.8},{"name":"Rock Rose Avenue","phone":"5126825589","address":"Rock Rose Avenue","lat":30.40103233948158,"lng":-97.7227215977755,"neighborhood":"North Burnet","city_fetched":"Georgetown,US","state":"TX","country":"United States","canonicalUrl":"https://foursquare.com/v/rock-rose-avenue/568eefba498e127732dc2807","categoryId":"4bf58dd8d48988d11a941735","category":"Other Nightlife","checkinsCount":266,"usersCount":85,"tipCount":2,"visitsCount":266,"url":"http://www.rockroseatx.com","tier":"","message":"","currency":"","rating":7.8},{"name":"77 Degrees Rooftop","address":"11500 Rock Rose Ave","lat":30.401509933749608,"lng":-97.72276402434788,"neighborhood":"North Burnet","city_fetched":"Georgetown,US","state":"TX","country":"United States","canonicalUrl":"https://foursquare.com/v/77-degrees-rooftop/57479677498ee1d0f2204b8c","categoryId":"4bf58dd8d48988d11e941735","category":"Cocktail Bar","checkinsCount":197,"usersCount":141,"tipCount":1,"visitsCount":198,"tier":"","message":"","currency":"","rating":7.7},{"name":"The Goodnight","phone":"5124595000","twitter":"thegoodnightatx","address":"2700 W Anderson Ln #101","lat":30.358286112770926,"lng":-97.73433208465576,"neighborhood":"North Shoal Creek","city_fetched":"Georgetown,US","state":"TX","country":"United States","canonicalUrl":"https://foursquare.com/v/the-goodnight/50783229d63e7e0c0d63f33c","categoryId":"4bf58dd8d48988d116941735","category":"Bar","checkinsCount":6053,"usersCount":4149,"tipCount":58,"visitsCount":7144,"url":"http://thegoodnight.com","tier":2,"message":"Moderate","currency":"$","rating":7.7},{"name":"Leander Beer Market","address":"106 W Willis St","lat":30.579246,"lng":-97.853966,"city_fetched":"Georgetown,US","state":"TX","country":"United States","canonicalUrl":"https://foursquare.com/v/leander-beer-market/541cacac498e35d26fe40c70","categoryId":"4bf58dd8d48988d117941735","category":"Beer Garden","checkinsCount":262,"usersCount":184,"tipCount":2,"visitsCount":483,"tier":"","message":"","currency":"","rating":7.7},{"name":"C-Hunts Ice House","phone":"5128360558","address":"9611 McNeil Rd","lat":30.37942358,"lng":-97.724055,"neighborhood":"North Burnet","city_fetched":"Georgetown,US","state":"TX","country":"United States","canonicalUrl":"https://foursquare.com/v/chunts-ice-house/44bbecc5f964a52096351fe3","categoryId":"4bf58dd8d48988d117941735","category":"Beer Garden","checkinsCount":1592,"usersCount":714,"tipCount":12,"visitsCount":1940,"url":"http://www.chuntsicehouse.com","tier":1,"message":"Cheap","currency":"$","rating":7.7},{"name":"Dogwood Rock Rose","twitter":"dogwoodrockrose","address":"11420 Rock Rose Suite 130","lat":30.40094990036835,"lng":-97.72296024757799,"neighborhood":"North Burnet","city_fetched":"Georgetown,US","state":"TX","country":"United States","canonicalUrl":"https://foursquare.com/v/dogwood-rock-rose/53dd806e498ed10544b63476","categoryId":"4bf58dd8d48988d116941735","category":"Bar","checkinsCount":921,"usersCount":560,"tipCount":7,"visitsCount":995,"url":"http://www.thedogwoodrockrose.com","tier":"","message":"","currency":"","rating":7.7},{"name":"Foxy's Cabaret","phone":"5122527079","address":"16328 N Interstate 35","lat":30.465126170196484,"lng":-97.6699044880985,"city_fetched":"Georgetown,US","state":"TX","country":"United States","canonicalUrl":"https://foursquare.com/v/foxys-cabaret/571d3ef4498eba1f35dc75f6","categoryId":"4bf58dd8d48988d1d6941735","category":"Strip Club","checkinsCount":57,"usersCount":11,"tipCount":2,"visitsCount":59,"tier":"","message":"","currency":"","rating":7.6},{"name":"Kung Fu Saloon Rock Rose","address":"11501 Rock Rose","lat":30.401015246829054,"lng":-97.72287009089078,"neighborhood":"North Burnet","city_fetched":"Georgetown,US","state":"TX","country":"United States","canonicalUrl":"https://foursquare.com/v/kung-fu-saloon-rock-rose/56e8a503498e0ca6d00cfc04","categoryId":"4bf58dd8d48988d116941735","category":"Bar","checkinsCount":380,"usersCount":256,"tipCount":1,"visitsCount":387,"tier":"","message":"","currency":"","rating":7.6},{"name":"Mavericks Country Rock Bar","phone":"5125145650","address":"1700 Grand Avenue Pkwy #240","lat":30.456645959818943,"lng":-97.66116114019604,"city_fetched":"Georgetown,US","state":"TX","country":"United States","canonicalUrl":"https://foursquare.com/v/mavericks-country-rock-bar/4ff72a86e4b0cfb36f9a88a9","categoryId":"4bf58dd8d48988d116941735","category":"Bar","checkinsCount":1400,"usersCount":689,"tipCount":5,"visitsCount":1839,"url":"http://maverickscountryrock.com","tier":"","message":"","currency":"","rating":7.6},{"name":"little woodrows","address":"12601 Tech Ridge Blvd","lat":30.400751,"lng":-97.658001,"city_fetched":"Georgetown,US","state":"TX","country":"United States","canonicalUrl":"https://foursquare.com/v/little-woodrows/565ccdae498e68f25d37043a","categoryId":"4bf58dd8d48988d11b941735","category":"Pub","checkinsCount":333,"usersCount":168,"tipCount":2,"visitsCount":523,"tier":"","message":"","currency":"","rating":7.6},{"name":"Dry Creek Cafe & Boat Dock","phone":"5124539244","address":"4812 Mount Bonnell Rd","lat":30.33313930880745,"lng":-97.77650718302394,"city_fetched":"Georgetown,US","state":"TX","country":"United States","canonicalUrl":"https://foursquare.com/v/dry-creek-cafe--boat-dock/4a1dbfcbf964a520927b1fe3","categoryId":"4bf58dd8d48988d118941735","category":"Dive Bar","checkinsCount":428,"usersCount":351,"tipCount":6,"visitsCount":493,"tier":"","message":"","currency":"","rating":7.5},{"name":"BB Rover's Cafe & Pub","phone":"5123359504","address":"12161 Jollyville Rd","lat":30.430709525154672,"lng":-97.764598454338,"neighborhood":"Twin Rock at Oak Knoll","city_fetched":"Georgetown,US","state":"TX","country":"United States","canonicalUrl":"https://foursquare.com/v/bb-rovers-cafe--pub/40b13b00f964a52065f31ee3","categoryId":"4bf58dd8d48988d11b941735","category":"Pub","checkinsCount":3625,"usersCount":1008,"tipCount":29,"visitsCount":4009,"url":"http://www.bbrovers.com","tier":1,"message":"Cheap","currency":"$","rating":7.4},{"name":"Hi Tunes","phone":"5124540911","address":"911 W Anderson Ln","lat":30.347949834322236,"lng":-97.71462389449432,"neighborhood":"Crestview","city_fetched":"Georgetown,US","state":"TX","country":"United States","canonicalUrl":"https://foursquare.com/v/hi-tunes/4e9909d5b634d75c18572b84","categoryId":"4bf58dd8d48988d120941735","category":"Karaoke Bar","checkinsCount":809,"usersCount":557,"tipCount":13,"visitsCount":969,"url":"http://www.hituneskaraoke.com","tier":"","message":"","currency":"","rating":7.4},{"name":"Somersault","phone":"5124787275","address":"11601 Domain Dr","lat":30.402780387183494,"lng":-97.72389894465732,"neighborhood":"North Burnet","city_fetched":"Georgetown,US","state":"TX","country":"United States","canonicalUrl":"https://foursquare.com/v/somersault/51847502498ea34fb450eb8f","categoryId":"4bf58dd8d48988d11e941735","category":"Cocktail Bar","checkinsCount":659,"usersCount":414,"tipCount":16,"visitsCount":673,"url":"http://somersaultcocktails.com","tier":"","message":"","currency":"","rating":7.4},{"name":"Casa Garcia's #4","phone":"5122188908","address":"1901 N Interstate 35","lat":30.526648116041788,"lng":-97.68936633013082,"city_fetched":"Georgetown,US","state":"TX","country":"United States","canonicalUrl":"https://foursquare.com/v/casa-garcias-4/49f87952f964a520f56c1fe3","categoryId":"4bf58dd8d48988d116941735","category":"Bar","checkinsCount":2362,"usersCount":1471,"tipCount":21,"visitsCount":2858,"url":"http://www.casagarcias.net","tier":1,"message":"Cheap","currency":"$","rating":7.4},{"name":"Wine Sensation","phone":"5122550526","address":"3021 S. IH 35, Suite 120 (Next To Target)","lat":30.478888743150474,"lng":-97.66939045500293,"city_fetched":"Georgetown,US","state":"TX","country":"United States","canonicalUrl":"https://foursquare.com/v/wine-sensation/5090115d498e5bcb6471316a","categoryId":"4bf58dd8d48988d123941735","category":"Wine Bar","checkinsCount":786,"usersCount":122,"tipCount":7,"visitsCount":860,"url":"http://winesensation.com","tier":"","message":"","currency":"","rating":7.4},{"name":"Red Rooster","phone":"5122514129","address":"109 Pecan St E","lat":30.439744094317653,"lng":-97.62053217364908,"city_fetched":"Georgetown,US","state":"TX","country":"United States","canonicalUrl":"https://foursquare.com/v/red-rooster/4c5b6ec594fd0f477625c645","categoryId":"4bf58dd8d48988d116941735","category":"Bar","checkinsCount":918,"usersCount":361,"tipCount":7,"visitsCount":1050,"url":"http://roosteraustin.com","tier":"","message":"","currency":"","rating":7.4},{"name":"Vino 100","address":"3021 S IH 35","lat":30.478815810469584,"lng":-97.66931626497092,"city_fetched":"Georgetown,US","state":"TX","country":"United States","canonicalUrl":"https://foursquare.com/v/vino-100/4b563794f964a520cb0528e3","categoryId":"4bf58dd8d48988d123941735","category":"Wine Bar","checkinsCount":828,"usersCount":249,"tipCount":9,"visitsCount":828,"tier":"","message":"","currency":"","rating":7.4},{"name":"Sherlock's Baker Street Pub","phone":"5123809443","address":"9012 Research Blvd","lat":30.37140045080648,"lng":-97.72465733619201,"neighborhood":"Crestview - Wooten","city_fetched":"Georgetown,US","state":"TX","country":"United States","canonicalUrl":"https://foursquare.com/v/sherlocks-baker-street-pub/43504680f964a520b5281fe3","categoryId":"4bf58dd8d48988d11b941735","category":"Pub","checkinsCount":11205,"usersCount":4599,"tipCount":63,"visitsCount":11754,"url":"http://sherlockspub.com","tier":2,"message":"Moderate","currency":"$","rating":7.4},{"name":"CJ's Sports Bar and Grill (at Mel's)","phone":"5129302200","twitter":"melslonestarlns","address":"1010 N Austin Ave","lat":30.65208897375373,"lng":-97.67571809413468,"city_fetched":"Georgetown,US","state":"TX","country":"United States","canonicalUrl":"https://foursquare.com/v/cjs-sports-bar-and-grill-at-mels/4ebb3a13f7903b1fae6d7ad7","categoryId":"4bf58dd8d48988d116941735","category":"Bar","checkinsCount":652,"usersCount":127,"tipCount":8,"visitsCount":664,"url":"http://www.melslonestarlanes.com","tier":"","message":"","currency":"","rating":7.4},{"name":"Urban an American Grill","phone":"5124901511","twitter":"whitelodging","address":"11301 Domain Dr","lat":30.39904860397669,"lng":-97.72497653961182,"neighborhood":"North Burnet","city_fetched":"Georgetown,US","state":"TX","country":"United States","canonicalUrl":"https://foursquare.com/v/urban-an-american-grill/4b999fdcf964a520378835e3","categoryId":"4bf58dd8d48988d1d5941735","category":"Hotel Bar","checkinsCount":2942,"usersCount":1275,"tipCount":21,"visitsCount":2954,"url":"http://www.whitelodging.com","tier":3,"message":"Expensive","currency":"$","rating":7.4},{"name":"Walburg Biergarten","address":"3777 FM 972","lat":30.73570516326313,"lng":-97.58806721027854,"city_fetched":"Georgetown,US","state":"TX","country":"United States","canonicalUrl":"https://foursquare.com/v/walburg-biergarten/4df41fbfa809141629a52c71","categoryId":"4bf58dd8d48988d117941735","category":"Beer Garden","checkinsCount":382,"usersCount":334,"tipCount":5,"visitsCount":430,"tier":"","message":"","currency":"","rating":7.3},{"name":"Yellow Rose","phone":"5124582106","twitter":"yellowroseatx","address":"6528 N Lamar Blvd","lat":30.33378254882947,"lng":-97.72163442558897,"neighborhood":"Brentwood","city_fetched":"Georgetown,US","state":"TX","country":"United States","canonicalUrl":"https://foursquare.com/v/yellow-rose/40b13b00f964a52002f41ee3","categoryId":"4bf58dd8d48988d1d6941735","category":"Strip Club","checkinsCount":4650,"usersCount":1430,"tipCount":29,"visitsCount":5051,"url":"http://www.yellowroseaustin.com","tier":1,"message":"Cheap","currency":"$","rating":7.3},{"name":"Texas Bar and Grill","phone":"5122551300","address":"14611 N MO Pac Expy","lat":30.449878120299935,"lng":-97.69518155078956,"city_fetched":"Georgetown,US","state":"TX","country":"United States","canonicalUrl":"https://foursquare.com/v/texas-bar-and-grill/44b163c0f964a52033351fe3","categoryId":"4bf58dd8d48988d116941735","category":"Bar","checkinsCount":1956,"usersCount":293,"tipCount":4,"visitsCount":2094,"url":"http://www.tbagaustin.com","tier":"","message":"","currency":"","rating":7.3},{"name":"The Rock Sports Bar","phone":"5123581175","twitter":"rockmainstreet","address":"114 E Main St","lat":30.508858072024232,"lng":-97.67824082992966,"city_fetched":"Georgetown,US","state":"TX","country":"United States","canonicalUrl":"https://foursquare.com/v/the-rock-sports-bar/548f8f86498e0926076cf3c3","categoryId":"4bf58dd8d48988d11d941735","category":"Sports Bar","checkinsCount":263,"usersCount":156,"tipCount":4,"visitsCount":324,"url":"http://www.rocksportsbar.com","tier":"","message":"","currency":"","rating":7.3},{"name":"Little Woodrow's","phone":"5129182337","address":"6301 W Parmer Ln","lat":30.44557699615742,"lng":-97.74461242478102,"neighborhood":"Milwood","city_fetched":"Georgetown,US","state":"TX","country":"United States","canonicalUrl":"https://foursquare.com/v/little-woodrows/4513f5c3f964a520cc391fe3","categoryId":"4bf58dd8d48988d116941735","category":"Bar","checkinsCount":6269,"usersCount":2291,"tipCount":40,"visitsCount":6755,"url":"http://littlewoodrows.com","tier":2,"message":"Moderate","currency":"$","rating":7.3},{"name":"Boulevard Grill and Sports Bar","phone":"5123453103","twitter":"timoteostewart","address":"3616 Far West Blvd #116","lat":30.354875359674143,"lng":-97.75596004554549,"neighborhood":"Northwest Hills","city_fetched":"Georgetown,US","state":"TX","country":"United States","canonicalUrl":"https://foursquare.com/v/boulevard-grill-and-sports-bar/49f9c910f964a520836d1fe3","categoryId":"4bf58dd8d48988d11d941735","category":"Sports Bar","checkinsCount":1578,"usersCount":414,"tipCount":21,"visitsCount":1598,"url":"http://blvd-grill.com","tier":"","message":"","currency":"","rating":7.3},{"name":"Tony C's Pizza & Wine Bar","phone":"5122559463","address":"10526 W Parmer Ln Ste 509","lat":30.497401726692946,"lng":-97.7735563483498,"neighborhood":"Avery Ranch","city_fetched":"Georgetown,US","state":"TX","country":"United States","canonicalUrl":"https://foursquare.com/v/tony-cs-pizza--wine-bar/517afe4ae4b0e311c7495e2f","categoryId":"4bf58dd8d48988d123941735","category":"Wine Bar","checkinsCount":1035,"usersCount":474,"tipCount":22,"visitsCount":1295,"url":"http://tonycs.com","tier":2,"message":"Moderate","currency":"$","rating":7.3},{"name":"Glass Half Full","address":"14028 N Highway 183 Bldg F","lat":30.47563006630113,"lng":-97.80442413727654,"city_fetched":"Georgetown,US","state":"TX","country":"United States","canonicalUrl":"https://foursquare.com/v/glass-half-full/5215496e11d2c2cb97b7f6b2","categoryId":"4bf58dd8d48988d11e941735","category":"Cocktail Bar","checkinsCount":643,"usersCount":230,"tipCount":3,"visitsCount":656,"url":"http://glasshalffullbar.com","tier":"","message":"","currency":"","rating":7.3},{"name":"Nasty's","phone":"5124534349","twitter":"nastysatx","address":"606 Maiden Ln","lat":30.301848649978638,"lng":-97.739364,"neighborhood":"West University","city_fetched":"Georgetown,US","state":"TX","country":"United States","canonicalUrl":"https://foursquare.com/v/nastys/40b13b00f964a520ccf31ee3","categoryId":"4bf58dd8d48988d116941735","category":"Bar","checkinsCount":1830,"usersCount":906,"tipCount":18,"visitsCount":1928,"url":"http://nastys-hub.com","tier":1,"message":"Cheap","currency":"$","rating":7.2},{"name":"Whitestone Brewery","phone":"5127654828","twitter":"whitestonebeer","address":"601 E Whitestone Blvd Ste 500 Bldg 5","lat":30.523682499018836,"lng":-97.82496942251676,"neighborhood":"Cedar Park Town Center","city_fetched":"Georgetown,US","state":"TX","country":"United States","canonicalUrl":"https://foursquare.com/v/whitestone-brewery/555979e7498e3205bb78b27e","categoryId":"50327c8591d4c4b30a586d5d","category":"Brewery","checkinsCount":194,"usersCount":131,"tipCount":1,"visitsCount":229,"url":"http://www.whitestonebrewery.com","tier":"","message":"","currency":"","rating":7.2},{"name":"Cover 2","phone":"5125069935","address":"13701 N Highway 183","lat":30.45714553452796,"lng":-97.79140949249268,"neighborhood":"Northwest Austin","city_fetched":"Georgetown,US","state":"TX","country":"United States","canonicalUrl":"https://foursquare.com/v/cover-2/4f57be13e4b0b1792eee6267","categoryId":"4bf58dd8d48988d11d941735","category":"Sports Bar","checkinsCount":2958,"usersCount":1711,"tipCount":32,"visitsCount":4038,"url":"http://cover-2.com","tier":2,"message":"Moderate","currency":"$","rating":7.2},{"name":"Rogness Brewing","address":"2400 Patterson Industrial Dr","lat":30.402215517048187,"lng":-97.62877788818886,"city_fetched":"Georgetown,US","state":"TX","country":"United States","canonicalUrl":"https://foursquare.com/v/rogness-brewing/4fd4dcb4e4b02d3b876f96be","categoryId":"50327c8591d4c4b30a586d5d","category":"Brewery","checkinsCount":423,"usersCount":356,"tipCount":6,"visitsCount":558,"url":"http://rognessbrewing.com","tier":"","message":"","currency":"","rating":7.2},{"name":"Meridian Hive Meadery","twitter":"meridianhive","address":"8120 Exchange Dr Ste 400","lat":30.329269372399406,"lng":-97.67010056357267,"city_fetched":"Georgetown,US","state":"TX","country":"United States","canonicalUrl":"https://foursquare.com/v/meridian-hive-meadery/52bdc8f211d274c4fc28d2ef","categoryId":"50327c8591d4c4b30a586d5d","category":"Brewery","checkinsCount":67,"usersCount":85,"tipCount":1,"visitsCount":142,"tier":"","message":"","currency":"","rating":7.2},{"name":"Uncle Gary's Bar","phone":"5122527083","address":"19903 FM 685","lat":30.47967672232292,"lng":-97.58495492747294,"city_fetched":"Georgetown,US","state":"TX","country":"United States","canonicalUrl":"https://foursquare.com/v/uncle-garys-bar/515fa5a1e4b05edd05e8e0fc","categoryId":"4bf58dd8d48988d116941735","category":"Bar","checkinsCount":480,"usersCount":340,"tipCount":3,"visitsCount":725,"url":"http://unclegarysbar.com","tier":"","message":"","currency":"","rating":7.1},{"name":"Hardtails Bar and Grill","phone":"5128695454","twitter":"hardtailsbar","address":"1515 N Interstate 35","lat":30.66861,"lng":-97.668248,"city_fetched":"Georgetown,US","state":"TX","country":"United States","canonicalUrl":"https://foursquare.com/v/hardtails-bar-and-grill/4bfee2658f76b7132fdd1fd5","categoryId":"4bf58dd8d48988d116941735","category":"Bar","checkinsCount":1823,"usersCount":912,"tipCount":17,"visitsCount":2234,"url":"http://www.hardtailsbarandgrill.com","tier":1,"message":"Cheap","currency":"$","rating":7.1},{"name":"Mister Tramps Sports Pub and Caf√©","phone":"5128373500","twitter":"mistertramps","address":"8565 Research Blvd","lat":30.361468314416925,"lng":-97.71635790178726,"neighborhood":"North Austin","city_fetched":"Georgetown,US","state":"TX","country":"United States","canonicalUrl":"https://foursquare.com/v/mister-tramps-sports-pub-and-caf%C3%A9/4b92f729f964a520fd2a34e3","categoryId":"4bf58dd8d48988d11d941735","category":"Sports Bar","checkinsCount":6757,"usersCount":2274,"tipCount":46,"visitsCount":7675,"url":"http://mistertramps-hub.com","tier":2,"message":"Moderate","currency":"$","rating":7.1},{"name":"Shenanigans","address":"13233 Pond Springs Rd","lat":30.446498806477408,"lng":-97.77898045952085,"neighborhood":"Northwest Austin","city_fetched":"Georgetown,US","state":"TX","country":"United States","canonicalUrl":"https://foursquare.com/v/shenanigans/453c8887f964a520133c1fe3","categoryId":"4bf58dd8d48988d120941735","category":"Karaoke Bar","checkinsCount":1742,"usersCount":624,"tipCount":14,"visitsCount":1960,"url":"http://shenanigansnightclub.com","tier":1,"message":"Cheap","currency":"$","rating":7},{"name":"Roadhouse Bar","address":"1103 Wonder St","lat":30.517241246677933,"lng":-97.69281148910522,"city_fetched":"Georgetown,US","state":"TX","country":"United States","canonicalUrl":"https://foursquare.com/v/roadhouse-bar/4b9b03fbf964a520e4eb35e3","categoryId":"4bf58dd8d48988d116941735","category":"Bar","checkinsCount":684,"usersCount":164,"tipCount":10,"visitsCount":838,"tier":"","message":"","currency":"","rating":7},{"name":"Shooters","phone":"5122602060","address":"601 E Whitestone Blvd","lat":30.523642598794247,"lng":-97.82471980592958,"neighborhood":"Cedar Park Town Center","city_fetched":"Georgetown,US","state":"TX","country":"United States","canonicalUrl":"https://foursquare.com/v/shooters/48a6a3a2f964a52099511fe3","categoryId":"4bf58dd8d48988d116941735","category":"Bar","checkinsCount":1591,"usersCount":575,"tipCount":9,"visitsCount":1771,"url":"http://shootersbilliards.net","tier":"","message":"","currency":"","rating":7},{"name":"W XYZ Bar","address":"11601 Domain Dr","lat":30.402490978446036,"lng":-97.72441864013672,"neighborhood":"North Burnet","city_fetched":"Georgetown,US","state":"TX","country":"United States","canonicalUrl":"https://foursquare.com/v/w-xyz-bar/4ce8a8c4948f224b4618f25d","categoryId":"4bf58dd8d48988d1d5941735","category":"Hotel Bar","checkinsCount":683,"usersCount":314,"tipCount":7,"visitsCount":685,"tier":"","message":"","currency":"","rating":7},{"name":"Raggedy Anne's","phone":"5122519647","address":"2113 Wells Branch Pkwy #600","lat":30.43633459241635,"lng":-97.68419823881439,"city_fetched":"Georgetown,US","state":"TX","country":"United States","canonicalUrl":"https://foursquare.com/v/raggedy-annes/4bafce53f964a52040223ce3","categoryId":"4bf58dd8d48988d116941735","category":"Bar","checkinsCount":497,"usersCount":191,"tipCount":4,"visitsCount":556,"tier":"","message":"","currency":"","rating":6.9},{"name":"XTC Cabaret","phone":"5129293558","address":"3501 Andtree Blvd","lat":30.322115995505918,"lng":-97.65987357579898,"city_fetched":"Georgetown,US","state":"TX","country":"United States","canonicalUrl":"https://foursquare.com/v/xtc-cabaret/40b13b00f964a52000f41ee3","categoryId":"4bf58dd8d48988d1d6941735","category":"Strip Club","checkinsCount":509,"usersCount":661,"tipCount":4,"visitsCount":1000,"url":"http://www.rick.com","tier":"","message":"","currency":"","rating":6.8},{"name":"Rawshe Hookah Cafe","address":"11331 N Lamar Blvd","lat":30.382271219443304,"lng":-97.68561876338529,"city_fetched":"Georgetown,US","state":"TX","country":"United States","canonicalUrl":"https://foursquare.com/v/rawshe-hookah-cafe/4cb0ea3eef1b3704f42b3f00","categoryId":"4bf58dd8d48988d119941735","category":"Hookah Bar","checkinsCount":667,"usersCount":345,"tipCount":8,"visitsCount":791,"url":"http://hookahrawshe.com","tier":2,"message":"Moderate","currency":"$","rating":6.8},{"name":"Spotlight Karaoke","phone":"5122593838","address":"601 E Whitestone Blvd","lat":30.523879643086367,"lng":-97.82430555055224,"neighborhood":"Cedar Park Town Center","city_fetched":"Georgetown,US","state":"TX","country":"United States","canonicalUrl":"https://foursquare.com/v/spotlight-karaoke/4b884738f964a5202dec31e3","categoryId":"4bf58dd8d48988d120941735","category":"Karaoke Bar","checkinsCount":954,"usersCount":418,"tipCount":10,"visitsCount":988,"url":"http://spotlightkaraokebar.com","tier":"","message":"","currency":"","rating":6.8},{"name":"Rick's Cabaret ViP Room","phone":"512218012","address":"3105 S.  I-35","lat":30.4783882,"lng":-97.67179907,"city_fetched":"Georgetown,US","state":"TX","country":"United States","canonicalUrl":"https://foursquare.com/v/ricks-cabaret-vip-room/4e4713971f6e29f10dafb67e","categoryId":"4bf58dd8d48988d1d6941735","category":"Strip Club","checkinsCount":668,"usersCount":191,"tipCount":9,"visitsCount":670,"tier":"","message":"","currency":"","rating":6.8},{"name":"Spinner's Bar & Grill","phone":"5129903665","address":"N Ih 35","lat":30.43075978823517,"lng":-97.67133532174338,"city_fetched":"Georgetown,US","state":"TX","country":"United States","canonicalUrl":"https://foursquare.com/v/spinners-bar--grill/4c23e943a852c9285c4ce26c","categoryId":"4bf58dd8d48988d11d941735","category":"Sports Bar","checkinsCount":2818,"usersCount":1041,"tipCount":17,"visitsCount":3340,"url":"http://spinnersaustin.com","tier":"","message":"","currency":"","rating":6.8},{"name":"Inn Between Bar","phone":"5122556010","address":"15912 RR 620 N","lat":30.48900500649327,"lng":-97.7301307258868,"city_fetched":"Georgetown,US","state":"TX","country":"United States","canonicalUrl":"https://foursquare.com/v/inn-between-bar/4abc8099f964a520268720e3","categoryId":"4bf58dd8d48988d120941735","category":"Karaoke Bar","checkinsCount":1553,"usersCount":221,"tipCount":8,"visitsCount":1588,"tier":"","message":"","currency":"","rating":6.8},{"name":"The Water Tank","phone":"5123319831","address":"7309 McNeil Dr","lat":30.434992461594597,"lng":-97.76688027445351,"neighborhood":"Northwest Austin","city_fetched":"Georgetown,US","state":"TX","country":"United States","canonicalUrl":"https://foursquare.com/v/the-water-tank/40b13b00f964a52043f71ee3","categoryId":"4bf58dd8d48988d120941735","category":"Karaoke Bar","checkinsCount":2549,"usersCount":646,"tipCount":15,"visitsCount":2745,"url":"http://www.austinwatertank.com","tier":1,"message":"Cheap","currency":"$","rating":6.8},{"name":"Buddy's","phone":"5124594677","address":"8619 Burnet Rd","lat":30.369,"lng":-97.72719376,"neighborhood":"Crestview - Wooten","city_fetched":"Georgetown,US","state":"TX","country":"United States","canonicalUrl":"https://foursquare.com/v/buddys/40b13b00f964a52072f31ee3","categoryId":"4bf58dd8d48988d118941735","category":"Dive Bar","checkinsCount":582,"usersCount":259,"tipCount":6,"visitsCount":626,"tier":"","message":"","currency":"","rating":6.7},{"name":"Down In Texas Saloon","phone":"5125292954","address":"16328 N Interstate 35","lat":30.465201990240782,"lng":-97.66974550838745,"city_fetched":"Georgetown,US","state":"TX","country":"United States","canonicalUrl":"https://foursquare.com/v/down-in-texas-saloon/5256203f11d299564dfc299c","categoryId":"4bf58dd8d48988d1d6941735","category":"Strip Club","checkinsCount":333,"usersCount":223,"tipCount":6,"visitsCount":575,"url":"http://downintexassaloonaustin.com","tier":"","message":"","currency":"","rating":6.7},{"name":"Third Base","phone":"5123882273","twitter":"thirdbasesports","address":"3107 S Interstate 35","lat":30.477837300122484,"lng":-97.67019595183974,"city_fetched":"Georgetown,US","state":"TX","country":"United States","canonicalUrl":"https://foursquare.com/v/third-base/4a9ea429f964a520bb3a20e3","categoryId":"4bf58dd8d48988d11d941735","category":"Sports Bar","checkinsCount":7143,"usersCount":2969,"tipCount":45,"visitsCount":8333,"url":"http://thirdbaseaustin.com","tier":2,"message":"Moderate","currency":"$","rating":6.7},{"name":"Homer's Bar & Grill","phone":"5122515554","address":"1773 Wells Branch Pkwy","lat":30.43553420426742,"lng":-97.67377840528913,"city_fetched":"Georgetown,US","state":"TX","country":"United States","canonicalUrl":"https://foursquare.com/v/homers-bar--grill/4b835ac0f964a520a20331e3","categoryId":"4bf58dd8d48988d120941735","category":"Karaoke Bar","checkinsCount":1203,"usersCount":352,"tipCount":12,"visitsCount":1243,"tier":"","message":"","currency":"","rating":6.7},{"name":"Midtown Live","phone":"5124515483","address":"7408 Cameron Rd Ste 3","lat":30.32975881706773,"lng":-97.69059612693671,"neighborhood":"St. Johns","city_fetched":"Georgetown,US","state":"TX","country":"United States","canonicalUrl":"https://foursquare.com/v/midtown-live/4f807fbbe4b023c638b1c2d8","categoryId":"4bf58dd8d48988d116941735","category":"Bar","checkinsCount":711,"usersCount":382,"tipCount":9,"visitsCount":1338,"tier":1,"message":"Cheap","currency":"$","rating":6.6},{"name":"Simplicity Wine & Eats","phone":"5124190200","address":"4801 Burnet Rd","lat":30.3188479723348,"lng":-97.73900997835622,"neighborhood":"Brentwood","city_fetched":"Georgetown,US","state":"TX","country":"United States","canonicalUrl":"https://foursquare.com/v/simplicity-wine--eats/4b104f10f964a5208a6d23e3","categoryId":"4bf58dd8d48988d123941735","category":"Wine Bar","checkinsCount":787,"usersCount":364,"tipCount":19,"visitsCount":787,"url":"http://www.simplicitywinebar.com","tier":"","message":"","currency":"","rating":6.6},{"name":"Austin Karaoke","phone":"5123239822","address":"6800 N Lamar Blvd","lat":30.33621322373595,"lng":-97.72053480148315,"neighborhood":"Brentwood","city_fetched":"Georgetown,US","state":"TX","country":"United States","canonicalUrl":"https://foursquare.com/v/austin-karaoke/49e177f8f964a520c8611fe3","categoryId":"4bf58dd8d48988d120941735","category":"Karaoke Bar","checkinsCount":1868,"usersCount":1377,"tipCount":10,"visitsCount":1959,"url":"http://austinkaraoke1.com","tier":"","message":"","currency":"","rating":6.5},{"name":"Little Woodrow's","address":"5425 Burnet Rd","lat":30.329078674316406,"lng":-97.73963165283203,"neighborhood":"Brentwood","city_fetched":"Georgetown,US","state":"TX","country":"United States","canonicalUrl":"https://foursquare.com/v/little-woodrows/5420260a498e556bb472e46b","categoryId":"4bf58dd8d48988d116941735","category":"Bar","checkinsCount":563,"usersCount":383,"tipCount":5,"visitsCount":701,"tier":"","message":"","currency":"","rating":6.5},{"name":"Rick's Cabaret","phone":"5122188012","address":"3105 S Interstate 35","lat":30.479006176536384,"lng":-97.67309188842773,"city_fetched":"Georgetown,US","state":"TX","country":"United States","canonicalUrl":"https://foursquare.com/v/ricks-cabaret/4b8f40bdf964a520484f33e3","categoryId":"4bf58dd8d48988d1d6941735","category":"Strip Club","checkinsCount":1697,"usersCount":416,"tipCount":11,"visitsCount":1784,"tier":"","message":"","currency":"","rating":6.5},{"name":"Fast Eddie's Round Rock","phone":"5122480646","twitter":"fasteddies_","address":"100 Parker Dr","lat":30.47494029267485,"lng":-97.67383670116543,"city_fetched":"Georgetown,US","state":"TX","country":"United States","canonicalUrl":"https://foursquare.com/v/fast-eddies-round-rock/4417f575f964a52012311fe3","categoryId":"4bf58dd8d48988d11d941735","category":"Sports Bar","checkinsCount":3922,"usersCount":1242,"tipCount":19,"visitsCount":4537,"url":"http://fasteddiesbilliards.com","tier":1,"message":"Cheap","currency":"$","rating":6.4},{"name":"Anderson Mill Tavern","phone":"5129181599","twitter":"andersonmilltav","address":"10401 Anderson Mill Rd","lat":30.446937071970613,"lng":-97.80677626794483,"city_fetched":"Georgetown,US","state":"TX","country":"United States","canonicalUrl":"https://foursquare.com/v/anderson-mill-tavern/43e5b6daf964a520f62e1fe3","categoryId":"4bf58dd8d48988d11b941735","category":"Pub","checkinsCount":775,"usersCount":378,"tipCount":6,"visitsCount":830,"url":"http://www.andersonmilltavern.com","tier":"","message":"","currency":"","rating":6.4},{"name":"The Parlor","phone":"5123230440","address":"4301 Guadalupe St","lat":30.30861936296097,"lng":-97.73406100954642,"neighborhood":"Hyde Park","city_fetched":"Georgetown,US","state":"TX","country":"United States","canonicalUrl":"https://foursquare.com/v/the-parlor/45f12438f964a520c7431fe3","categoryId":"4bf58dd8d48988d116941735","category":"Bar","checkinsCount":3337,"usersCount":1159,"tipCount":20,"visitsCount":3574,"url":"https://theparloraustin.wordpress.com","tier":"","message":"","currency":"","rating":6.4},{"name":"Wild West Cedar Park","phone":"5129867464","twitter":"wildwestcp","address":"401 E Whitestone Blvd #B100","lat":30.52312857890443,"lng":-97.82671676320886,"neighborhood":"Cedar Park Town Center","city_fetched":"Georgetown,US","state":"TX","country":"United States","canonicalUrl":"https://foursquare.com/v/wild-west-cedar-park/50625c4ce4b0315cb0840884","categoryId":"4bf58dd8d48988d11f941735","category":"Nightclub","checkinsCount":1220,"usersCount":655,"tipCount":15,"visitsCount":1428,"url":"http://www.wildwestcedarpark.com","tier":"","message":"","currency":"","rating":6.3},{"name":"Third Base","address":"13301 N Highway 183 Bldg E","lat":30.445145234384054,"lng":-97.78656535983886,"neighborhood":"Anderson Arbor","city_fetched":"Georgetown,US","state":"TX","country":"United States","canonicalUrl":"https://foursquare.com/v/third-base/51afc5d0498ec538e158544f","categoryId":"4bf58dd8d48988d11d941735","category":"Sports Bar","checkinsCount":1407,"usersCount":1153,"tipCount":23,"visitsCount":2271,"url":"http://thirdbaseaustin.com","tier":2,"message":"Moderate","currency":"$","rating":6.3},{"name":"The Stomping Grounds","address":"9112 Anderson Mill Rd","lat":30.452451777258098,"lng":-97.78133705240438,"neighborhood":"Northwest Austin","city_fetched":"Georgetown,US","state":"TX","country":"United States","canonicalUrl":"https://foursquare.com/v/the-stomping-grounds/4fa0924fe4b025db97c3582b","categoryId":"4bf58dd8d48988d116941735","category":"Bar","checkinsCount":574,"usersCount":345,"tipCount":8,"visitsCount":742,"tier":"","message":"","currency":"","rating":6.3},{"name":"Parmer Lane Tavern","phone":"5123394140","address":"2121 W Parmer Ln Ste 101","lat":30.413025116554493,"lng":-97.69731798355042,"city_fetched":"Georgetown,US","state":"TX","country":"United States","canonicalUrl":"https://foursquare.com/v/parmer-lane-tavern/4aa9eff3f964a520895520e3","categoryId":"4bf58dd8d48988d118941735","category":"Dive Bar","checkinsCount":4697,"usersCount":735,"tipCount":25,"visitsCount":5310,"url":"http://parmerlanetavern.com","tier":1,"message":"Cheap","currency":"$","rating":6.3},{"name":"Graham Central Station","phone":"5122520664","twitter":"gcsaustin","address":"1719 Grand Avenue Pkwy","lat":30.45546873549315,"lng":-97.66296271040437,"city_fetched":"Georgetown,US","state":"TX","country":"United States","canonicalUrl":"https://foursquare.com/v/graham-central-station/4b7f58a9f964a520f92830e3","categoryId":"4bf58dd8d48988d11f941735","category":"Nightclub","checkinsCount":2780,"usersCount":1360,"tipCount":20,"visitsCount":3138,"url":"http://www.grahamcentralstationaustin.com","tier":1,"message":"Cheap","currency":"$","rating":6.3},{"name":"Carousel Lounge","phone":"5124526790","address":"1110 E 52nd St","lat":30.309884548187256,"lng":-97.70822882652283,"neighborhood":"Windsor Park","city_fetched":"Georgetown,US","state":"TX","country":"United States","canonicalUrl":"https://foursquare.com/v/carousel-lounge/40b13b00f964a52077f31ee3","categoryId":"4bf58dd8d48988d118941735","category":"Dive Bar","checkinsCount":889,"usersCount":693,"tipCount":9,"visitsCount":989,"tier":"","message":"","currency":"","rating":6.1},{"name":"Big Shotz","phone":"5124705202","address":"399 Louis Henna Blvd Suite B","lat":30.47918925271784,"lng":-97.67807653134551,"city_fetched":"Georgetown,US","state":"TX","country":"United States","canonicalUrl":"https://foursquare.com/v/big-shotz/4b6ce45ff964a520055c2ce3","categoryId":"4bf58dd8d48988d116941735","category":"Bar","checkinsCount":1747,"usersCount":414,"tipCount":10,"visitsCount":1814,"tier":"","message":"","currency":"","rating":6},{"name":"Canary Roost","phone":"5128366360","address":"11900 Metric Blvd","lat":30.400336795388373,"lng":-97.70385491744825,"neighborhood":"North Burnet","city_fetched":"Georgetown,US","state":"TX","country":"United States","canonicalUrl":"https://foursquare.com/v/canary-roost/4b15fbaef964a52045b623e3","categoryId":"4bf58dd8d48988d120941735","category":"Karaoke Bar","checkinsCount":3753,"usersCount":824,"tipCount":16,"visitsCount":3937,"tier":1,"message":"Cheap","currency":"$","rating":5.9},{"name":"Snuffy's Bar","lat":30.543032581138508,"lng":-97.54760254285557,"city_fetched":"Georgetown,US","state":"TX","country":"United States","canonicalUrl":"https://foursquare.com/v/snuffys-bar/4c0ac9687e3fc9281f44f482","categoryId":"4bf58dd8d48988d116941735","category":"Bar","checkinsCount":361,"usersCount":220,"tipCount":5,"visitsCount":470,"tier":"","message":"","currency":"","rating":5.9},{"name":"Sugar's Uptown Cabaret","address":"404 E Highland Mall Blvd","lat":30.32912668081016,"lng":-97.71083255969626,"neighborhood":"Highland","city_fetched":"Georgetown,US","state":"TX","country":"United States","canonicalUrl":"https://foursquare.com/v/sugars-uptown-cabaret/40b13b00f964a520eef31ee3","categoryId":"4bf58dd8d48988d1d6941735","category":"Strip Club","checkinsCount":1006,"usersCount":450,"tipCount":7,"visitsCount":1178,"url":"http://sugarsperfect.com","tier":"","message":"","currency":"","rating":5.9},{"name":"Yahala Hookah Lounge","phone":"5124672233","address":"6617 Airport Blvd","lat":30.331124,"lng":-97.715275,"neighborhood":"Highland","city_fetched":"Georgetown,US","state":"TX","country":"United States","canonicalUrl":"https://foursquare.com/v/yahala-hookah-lounge/4b986cd4f964a520ce4135e3","categoryId":"4bf58dd8d48988d119941735","category":"Hookah Bar","checkinsCount":423,"usersCount":245,"tipCount":3,"visitsCount":424,"tier":"","message":"","currency":"","rating":5.8},{"name":"Bikinis Sports Bar & Grill","phone":"5124542247","twitter":"bikinissbg","address":"6901 N Interstate 35","lat":30.330071506123726,"lng":-97.70478275544549,"neighborhood":"St. Johns","city_fetched":"Georgetown,US","state":"TX","country":"United States","canonicalUrl":"https://foursquare.com/v/bikinis-sports-bar--grill/4584000af964a5208d3f1fe3","categoryId":"4bf58dd8d48988d11d941735","category":"Sports Bar","checkinsCount":2604,"usersCount":1821,"tipCount":29,"visitsCount":3063,"url":"http://www.bikinissportsbarandgrill.com","tier":2,"message":"Moderate","currency":"$","rating":5.6},{"name":"Delaney's Icehouse","phone":"5124543334","address":"7849 Shoal Creek Blvd","lat":30.36036034006142,"lng":-97.74038917417668,"neighborhood":"Allandale","city_fetched":"Georgetown,US","state":"TX","country":"United States","canonicalUrl":"https://foursquare.com/v/delaneys-icehouse/54af0ab1498ee5fc196b1948","categoryId":"4bf58dd8d48988d11b941735","category":"Pub","checkinsCount":131,"usersCount":88,"tipCount":5,"visitsCount":146,"url":"http://www.delaneysicehouse.com","tier":"","message":"","currency":"","rating":5.6}]