[{"name":"Garryowen Irish Pub","phone":"7173372719","twitter":"thegopub","address":"126 Chambersburg St","lat":39.830886437995204,"lng":-77.23409665989217,"city_fetched":"Gettysburg,US","state":"PA","country":"United States","canonicalUrl":"https://foursquare.com/v/garryowen-irish-pub/4bec7c64976ac9287d15610b","categoryId":"4bf58dd8d48988d11b941735","category":"Pub","checkinsCount":3185,"usersCount":1659,"tipCount":48,"visitsCount":3926,"url":"http://garryowenirishpub.net","tier":2,"message":"Moderate","currency":"$","rating":9.3},{"name":"Gettysburg Wine & Music Festival","address":"95 Presidential Cir","lat":39.8417917559321,"lng":-77.19213008880615,"city_fetched":"Gettysburg,US","state":"PA","country":"United States","canonicalUrl":"https://foursquare.com/v/gettysburg-wine--music-festival/4c8ac16aa92fa093f65b94bf","categoryId":"4bf58dd8d48988d123941735","category":"Wine Bar","checkinsCount":158,"usersCount":131,"tipCount":3,"visitsCount":165,"url":"http://www.gettysburgwineandmusicfestival.com","tier":"","message":"","currency":"","rating":8.4},{"name":"Sidney Willoughby Run","phone":"7173343774","address":"730 Chambersburg Rd","lat":39.8391239898398,"lng":-77.25829869155197,"city_fetched":"Gettysburg,US","state":"PA","country":"United States","canonicalUrl":"https://foursquare.com/v/sidney-willoughby-run/4fcccc7ce4b09d0295db0c93","categoryId":"4bf58dd8d48988d11e941735","category":"Cocktail Bar","checkinsCount":143,"usersCount":78,"tipCount":7,"visitsCount":143,"url":"http://www.restaurantsidney.com/willoughby-run/","tier":"","message":"","currency":"","rating":8.1},{"name":"Appalachian Brewing Company - Gateway","address":"Presidential Circle","lat":39.842823233931554,"lng":-77.1920400027634,"city_fetched":"Gettysburg,US","state":"PA","country":"United States","canonicalUrl":"https://foursquare.com/v/appalachian-brewing-company--gateway/51d1fb43498ef5ed553d4b19","categoryId":"50327c8591d4c4b30a586d5d","category":"Brewery","checkinsCount":890,"usersCount":636,"tipCount":20,"visitsCount":1090,"tier":2,"message":"Moderate","currency":"$","rating":8},{"name":"O'Rorke's Eatery & Spirits","phone":"7173342333","address":"44 Steinwehr Ave","lat":39.823477157551025,"lng":-77.23149206344146,"city_fetched":"Gettysburg,US","state":"PA","country":"United States","canonicalUrl":"https://foursquare.com/v/ororkes-eatery--spirits/4bb6259a1344b713b90a9d04","categoryId":"4bf58dd8d48988d116941735","category":"Bar","checkinsCount":1587,"usersCount":1253,"tipCount":33,"visitsCount":1794,"url":"http://www.ororkespub.com","tier":2,"message":"Moderate","currency":"$","rating":8},{"name":"Adams County Winery","phone":"7173341381","address":"25 Chambersburg St","lat":39.83096461,"lng":-77.232158,"city_fetched":"Gettysburg,US","state":"PA","country":"United States","canonicalUrl":"https://foursquare.com/v/adams-county-winery/4ce18131ffcf37045b382682","categoryId":"4bf58dd8d48988d123941735","category":"Wine Bar","checkinsCount":403,"usersCount":365,"tipCount":12,"visitsCount":423,"url":"http://www.adamscountywinery.com","tier":"","message":"","currency":"","rating":7.9},{"name":"The Pike Restaurant & Lounge","phone":"7173349227","address":"985 Baltimore Pike","lat":39.81749630137233,"lng":-77.2268159949656,"city_fetched":"Gettysburg,US","state":"PA","country":"United States","canonicalUrl":"https://foursquare.com/v/the-pike-restaurant--lounge/4c866eb147cc224b5b6fa99f","categoryId":"4bf58dd8d48988d116941735","category":"Bar","checkinsCount":1159,"usersCount":879,"tipCount":17,"visitsCount":1398,"url":"http://thepikerestaurant.com","tier":"","message":"","currency":"","rating":7.8},{"name":"Battlefield Brew Works","address":"248 Hunterstown Rd","lat":39.8459015955069,"lng":-77.21050163437262,"city_fetched":"Gettysburg,US","state":"PA","country":"United States","canonicalUrl":"https://foursquare.com/v/battlefield-brew-works/51f1b6fb498ebc48404c0b5a","categoryId":"50327c8591d4c4b30a586d5d","category":"Brewery","checkinsCount":392,"usersCount":381,"tipCount":4,"visitsCount":616,"tier":"","message":"","currency":"","rating":7.2},{"name":"Appalachian Brewing Company","phone":"7173982419","twitter":"abcbrew","address":"259 Steinwehr Ave","lat":39.820180668617695,"lng":-77.23431050777434,"city_fetched":"Gettysburg,US","state":"PA","country":"United States","canonicalUrl":"https://foursquare.com/v/appalachian-brewing-company/5717adee498e959178e705a9","categoryId":"50327c8591d4c4b30a586d5d","category":"Brewery","checkinsCount":115,"usersCount":202,"tipCount":3,"visitsCount":258,"url":"http://abcbrew.com","tier":"","message":"","currency":"","rating":7},{"name":"Dobbin House Springhouse Tavern","lat":39.822706,"lng":-77.232633,"city_fetched":"Gettysburg,US","state":"PA","country":"United States","canonicalUrl":"https://foursquare.com/v/dobbin-house-springhouse-tavern/530134d4498e68882f6171d2","categoryId":"4bf58dd8d48988d11b941735","category":"Pub","checkinsCount":200,"usersCount":187,"tipCount":3,"visitsCount":207,"tier":"","message":"","currency":"","rating":6.5},{"name":"Flying Bull Saloon","phone":"7173346202","address":"28 Carslile St","lat":39.831655,"lng":-77.23105385,"city_fetched":"Gettysburg,US","state":"PA","country":"United States","canonicalUrl":"https://foursquare.com/v/flying-bull-saloon/4af5ebe5f964a520dafe21e3","categoryId":"4bf58dd8d48988d121941735","category":"Lounge","checkinsCount":522,"usersCount":201,"tipCount":10,"visitsCount":524,"tier":"","message":"","currency":"","rating":6}]