[{"name":"Gillette Brewing Company","phone":"3076708948","twitter":"gillettebrewing","address":"301 S Gillette Ave","lat":44.29201446541236,"lng":-105.50356383555176,"city_fetched":"Gillette,US","state":"WY","country":"United States","canonicalUrl":"https://foursquare.com/v/gillette-brewing-company/51d79563498e1aa1c175afee","categoryId":"50327c8591d4c4b30a586d5d","category":"Brewery","checkinsCount":125,"usersCount":116,"tipCount":1,"visitsCount":186,"url":"http://www.gillettebrewingcompany.com","tier":"","message":"","currency":"","rating":7.6},{"name":"Humphrey's Bar & Grill","phone":"3076820100","address":"408 W Juniper Ln","lat":44.278954,"lng":-105.50783406666666,"city_fetched":"Gillette,US","state":"WY","country":"United States","canonicalUrl":"https://foursquare.com/v/humphreys-bar--grill/4c0596bc761ac9b66ec11f74","categoryId":"4bf58dd8d48988d11d941735","category":"Sports Bar","checkinsCount":779,"usersCount":363,"tipCount":8,"visitsCount":893,"url":"http://humphard.net","tier":"","message":"","currency":"","rating":7.2},{"name":"Prairie Fire Brewing Company","phone":"3076708094","twitter":"pfbrewing","address":"601 S Douglas Hwy","lat":44.288929828941896,"lng":-105.49398422241211,"city_fetched":"Gillette,US","state":"WY","country":"United States","canonicalUrl":"https://foursquare.com/pfbrewing","categoryId":"50327c8591d4c4b30a586d5d","category":"Brewery","checkinsCount":120,"usersCount":90,"tipCount":3,"visitsCount":145,"url":"http://www.prairiefirebeer.com","tier":"","message":"","currency":"","rating":6.5}]