[{"name":"The Pullman","phone":"9702309234","twitter":"thepullmangws","address":"330 7th St","lat":39.54767600914618,"lng":-107.32381743857519,"city_fetched":"Glenwood Springs","state":"CO","country":"United States","canonicalUrl":"https://foursquare.com/v/the-pullman/4d46165a14aa8cfa1083793d","category":"Cocktail Bar","checkinsCount":1671,"usersCount":1312,"tipCount":45,"visitsCount":1840,"url":"http://www.thepullmangws.com","tier":2,"message":"Moderate","currency":"$","rating":8.8},{"name":"Glenwood Canyon Brewing Company","phone":"9709451276","twitter":"glenwoodbrewpub","address":"402 7th St","lat":39.54773818532245,"lng":-107.32311883776356,"city_fetched":"Glenwood Springs","state":"CO","country":"United States","canonicalUrl":"https://foursquare.com/v/glenwood-canyon-brewing-company/4a14b645f964a5206d781fe3","category":"Brewery","checkinsCount":2825,"usersCount":2282,"tipCount":52,"visitsCount":3193,"url":"http://www.glenwoodcanyon.com","tier":1,"message":"Cheap","currency":"$","rating":8.6},{"name":"The Brew Pub","address":"8th st","lat":39.54772856239283,"lng":-107.32305532869452,"city_fetched":"Glenwood Springs","state":"CO","country":"United States","canonicalUrl":"https://foursquare.com/v/the-brew-pub/4ba1384ef964a52047a337e3","category":"Brewery","checkinsCount":307,"usersCount":250,"tipCount":7,"visitsCount":307,"tier":"","message":"","currency":"","rating":7.7},{"name":"Casey Brewing & Blending","address":"3421 Grand Ave","lat":39.51591515646542,"lng":-107.3200704204377,"city_fetched":"Glenwood Springs","state":"CO","country":"United States","canonicalUrl":"https://foursquare.com/v/casey-brewing--blending/537fd683498e59fb622b0d2d","category":"Brewery","checkinsCount":138,"usersCount":122,"tipCount":2,"visitsCount":251,"tier":"","message":"","currency":"","rating":7.4},{"name":"The Springs Restaurant & Bar","address":"722 Grand Ave","lat":39.54712828,"lng":-107.32449965,"city_fetched":"Glenwood Springs","state":"CO","country":"United States","canonicalUrl":"https://foursquare.com/v/the-springs-restaurant--bar/4c142e687f7f2d7f9984e068","category":"Bar","checkinsCount":326,"usersCount":215,"tipCount":4,"visitsCount":329,"tier":"","message":"","currency":"","rating":7.4},{"name":"Doc Holliday's Saloon & Restaurant","address":"724 Grand Ave","lat":39.547079223262664,"lng":-107.32453336206922,"city_fetched":"Glenwood Springs","state":"CO","country":"United States","canonicalUrl":"https://foursquare.com/v/doc-hollidays-saloon--restaurant/4bd8d64411dcc928df10f833","category":"Bar","checkinsCount":872,"usersCount":705,"tipCount":13,"visitsCount":892,"tier":2,"message":"Moderate","currency":"$","rating":6.5},{"name":"Loyal Brothers Lounge","address":"813 Grand Ave","lat":39.54619,"lng":-107.325038,"city_fetched":"Glenwood Springs","state":"CO","country":"United States","canonicalUrl":"https://foursquare.com/v/loyal-brothers-lounge/4c4119e2d7fad13aa42207da","category":"Lounge","checkinsCount":180,"usersCount":89,"tipCount":2,"visitsCount":180,"tier":"","message":"","currency":"","rating":6.3}]