[{"name":"The Flying Shamrock","phone":"9195800934","twitter":"flyingshamrock","address":"115 N John St","lat":35.383180975914,"lng":-77.995268,"city_fetched":"Goldsboro","state":"NC","country":"United States","canonicalUrl":"https://foursquare.com/v/the-flying-shamrock/4b91c145f964a5200bd533e3","category":"Pub","checkinsCount":599,"usersCount":239,"tipCount":11,"visitsCount":613,"url":"http://www.theflyingshamrock.com","tier":"","message":"","currency":"","rating":8.2},{"name":"Heroes Sports And Oyster Bar","lat":35.38146055027773,"lng":-77.9304174353643,"city_fetched":"Goldsboro","state":"NC","country":"United States","canonicalUrl":"https://foursquare.com/v/heroes-sports-and-oyster-bar/4d320be58250f04d82d3efe0","category":"Sports Bar","checkinsCount":496,"usersCount":192,"tipCount":5,"visitsCount":550,"tier":"","message":"","currency":"","rating":7.7},{"name":"Matchbox Restaurant & Bar","phone":"9199470446","twitter":"matchboxnc","address":"108 N John St","lat":35.383024,"lng":-77.995279,"city_fetched":"Goldsboro","state":"NC","country":"United States","canonicalUrl":"https://foursquare.com/v/matchbox-restaurant--bar/527982da498e214ea3b9cc1e","category":"Pizza Place","checkinsCount":56,"usersCount":44,"tipCount":2,"visitsCount":60,"url":"http://www.matchboxnc.com","tier":2,"message":"Moderate","currency":"$","rating":7},{"name":"Morgan's","phone":"9197780118","address":"2715 E Ash St","lat":35.3704323,"lng":-77.950919,"city_fetched":"Goldsboro","state":"NC","country":"United States","canonicalUrl":"https://foursquare.com/v/morgans/4cafa2399b34199c474bb763","category":"Bar","checkinsCount":180,"usersCount":93,"tipCount":1,"visitsCount":189,"tier":"","message":"","currency":"","rating":6.9}]