[{"name":"Old Chicago","phone":"9702448383","address":"120 North Ave","lat":39.077524075228055,"lng":-108.57019988164315,"city_fetched":"Grand Junction,US","state":"CO","country":"United States","canonicalUrl":"https://foursquare.com/v/old-chicago/4b5a5421f964a5209dbd28e3","categoryId":"4bf58dd8d48988d11b941735","category":"Pub","checkinsCount":3766,"usersCount":805,"tipCount":20,"visitsCount":4471,"url":"http://oldchicago.com","tier":2,"message":"Moderate","currency":"$","rating":8.6},{"name":"Edgewater Brewery","address":"905 Struthers Ave","lat":39.055247564690546,"lng":-108.55720715974245,"city_fetched":"Grand Junction,US","state":"CO","country":"United States","canonicalUrl":"https://foursquare.com/v/edgewater-brewery/518c42b7498ebb3f6d37d68d","categoryId":"4bf58dd8d48988d117941735","category":"Beer Garden","checkinsCount":350,"usersCount":215,"tipCount":4,"visitsCount":470,"tier":2,"message":"Moderate","currency":"$","rating":8.3},{"name":"Cruisers Bar","phone":"9703142554","twitter":"cruisers_bar","address":"715 Horizon Dr Ste 100","lat":39.10840743286647,"lng":-108.54390764666769,"city_fetched":"Grand Junction,US","state":"CO","country":"United States","canonicalUrl":"https://foursquare.com/v/cruisers-bar/4e683b9ca8095c0200088ba3","categoryId":"4bf58dd8d48988d121941735","category":"Lounge","checkinsCount":624,"usersCount":194,"tipCount":6,"visitsCount":826,"url":"http://cruisersgj.com","tier":1,"message":"Cheap","currency":"$","rating":8.1},{"name":"Kannah Creek Brewing Company","phone":"9702630111","twitter":"kannahcreekbrew","address":"1960 N 12th St","lat":39.085316636747926,"lng":-108.55200827121735,"city_fetched":"Grand Junction,US","state":"CO","country":"United States","canonicalUrl":"https://foursquare.com/v/kannah-creek-brewing-company/4b085165f964a520e70823e3","categoryId":"50327c8591d4c4b30a586d5d","category":"Brewery","checkinsCount":1457,"usersCount":970,"tipCount":21,"visitsCount":1729,"url":"http://kannahcreekbrewingco.com","tier":2,"message":"Moderate","currency":"$","rating":8.1},{"name":"Charlie Dwellington's","phone":"9702414010","address":"103 N 1st St","lat":39.06753227417621,"lng":-108.5713768448834,"neighborhood":"Downtown Grand Junction","city_fetched":"Grand Junction,US","state":"CO","country":"United States","canonicalUrl":"https://foursquare.com/v/charlie-dwellingtons/50d691aae4b0fb6ffe6a70f1","categoryId":"4bf58dd8d48988d116941735","category":"Bar","checkinsCount":140,"usersCount":73,"tipCount":8,"visitsCount":154,"url":"http://charliedwellingtons.com","tier":"","message":"","currency":"","rating":8},{"name":"Rockslide Brew Pub","phone":"9702452111","address":"401 Main St","lat":39.067033466666665,"lng":-108.565978,"neighborhood":"Downtown Grand Junction","city_fetched":"Grand Junction,US","state":"CO","country":"United States","canonicalUrl":"https://foursquare.com/v/rockslide-brew-pub/4b5bdaeff964a520ff1929e3","categoryId":"50327c8591d4c4b30a586d5d","category":"Brewery","checkinsCount":1920,"usersCount":1398,"tipCount":30,"visitsCount":2228,"url":"http://www.rockslidebrewpub.com","tier":2,"message":"Moderate","currency":"$","rating":7.9},{"name":"Mesa Theatre  Club & Lounge","phone":"9702411717","twitter":"mesatheaterclub","address":"538 Main St","lat":39.06746718594882,"lng":-108.56352663099325,"neighborhood":"Downtown Grand Junction","city_fetched":"Grand Junction,US","state":"CO","country":"United States","canonicalUrl":"https://foursquare.com/mesatheaterclub","categoryId":"4bf58dd8d48988d11f941735","category":"Nightclub","checkinsCount":502,"usersCount":197,"tipCount":7,"visitsCount":542,"url":"http://www.mesatheater.com","tier":2,"message":"Moderate","currency":"$","rating":7.6},{"name":"Andy's Liquor","lat":39.07616375504915,"lng":-108.57048977370906,"city_fetched":"Grand Junction,US","state":"CO","country":"United States","canonicalUrl":"https://foursquare.com/v/andys-liquor/4e338be7b61cd25ad4aac889","categoryId":"4d4b7105d754a06376d81259","category":"Nightlife Spot","checkinsCount":223,"usersCount":100,"tipCount":1,"visitsCount":275,"tier":"","message":"","currency":"","rating":7.5},{"name":"Copper Club Tap Room","lat":39.15897596933204,"lng":-108.73149652416575,"city_fetched":"Grand Junction,US","state":"CO","country":"United States","canonicalUrl":"https://foursquare.com/v/copper-club-tap-room/50fc65b2e4b0646ce80cfcb7","categoryId":"50327c8591d4c4b30a586d5d","category":"Brewery","checkinsCount":131,"usersCount":84,"tipCount":3,"visitsCount":133,"tier":"","message":"","currency":"","rating":7.5},{"name":"Wrigley Field Bar","phone":"9702459010","address":"1810 North Ave","lat":39.07772777,"lng":-108.54353,"city_fetched":"Grand Junction,US","state":"CO","country":"United States","canonicalUrl":"https://foursquare.com/v/wrigley-field-bar/4b89ffcaf964a520e45a32e3","categoryId":"4bf58dd8d48988d11d941735","category":"Sports Bar","checkinsCount":1271,"usersCount":173,"tipCount":7,"visitsCount":1511,"tier":"","message":"","currency":"","rating":7.1},{"name":"Quincy Bar","phone":"9702431044","address":"609 Main St","lat":39.0671639114986,"lng":-108.56240187290878,"neighborhood":"Downtown Grand Junction","city_fetched":"Grand Junction,US","state":"CO","country":"United States","canonicalUrl":"https://foursquare.com/v/quincy-bar/4beb5d616295c9b66ab68708","categoryId":"4bf58dd8d48988d118941735","category":"Dive Bar","checkinsCount":603,"usersCount":263,"tipCount":10,"visitsCount":697,"url":"http://quincybar.com","tier":"","message":"","currency":"","rating":7},{"name":"Â¡Sabrosa!","lat":39.06680269315714,"lng":-108.56432671878888,"neighborhood":"Downtown Grand Junction","city_fetched":"Grand Junction,US","state":"CO","country":"United States","canonicalUrl":"https://foursquare.com/v/sabrosa/4dfc3ce3b61c84188eec4349","categoryId":"4bf58dd8d48988d118941735","category":"Dive Bar","checkinsCount":677,"usersCount":131,"tipCount":5,"visitsCount":704,"tier":"","message":"","currency":"","rating":5.7}]