[{"name":"Founders Brewing Co.","phone":"6167761195","twitter":"foundersbrewing","address":"235 Grandville Ave SW","lat":42.95844458358797,"lng":-85.67369388439957,"neighborhood":"Heartside-Downtown Grand Rapids","city_fetched":"Grand Rapids","state":"MI","country":"United States","canonicalUrl":"https://foursquare.com/v/founders-brewing-co/4b12c269f964a5208b8d23e3","category":"Brewery","checkinsCount":58717,"usersCount":17485,"tipCount":333,"visitsCount":67035,"url":"http://www.foundersbrewing.com","tier":2,"message":"Moderate","currency":"$","rating":9.5},{"name":"HopCat","phone":"6164514677","twitter":"hopcatgr","address":"25 Ionia Ave SW","lat":42.96234273742804,"lng":-85.67040771245956,"neighborhood":"Heartside-Downtown Grand Rapids","city_fetched":"Grand Rapids","state":"MI","country":"United States","canonicalUrl":"https://foursquare.com/v/hopcat/4b2bd71ef964a5201cbc24e3","category":"Brewery","checkinsCount":36918,"usersCount":13764,"tipCount":243,"visitsCount":39428,"url":"http://www.hopcat.com/grand-rapids","tier":2,"message":"Moderate","currency":"$","rating":9.3},{"name":"Greyline Brewing Company","address":"1727 Alpine Ave NW","lat":42.9952326354791,"lng":-85.68866177801803,"neighborhood":"West Grand","city_fetched":"Grand Rapids","state":"MI","country":"United States","canonicalUrl":"https://foursquare.com/v/greyline-brewing-company/5716b783498e7391df0a6b14","category":"Brewery","checkinsCount":382,"usersCount":352,"tipCount":14,"visitsCount":608,"tier":"","message":"","currency":"","rating":9.2},{"name":"Brewery Vivant","phone":"6167191604","twitter":"breweryvivant","address":"925 Cherry St SE","lat":42.959813273309884,"lng":-85.64612387948753,"neighborhood":"East Hills","city_fetched":"Grand Rapids","state":"MI","country":"United States","canonicalUrl":"https://foursquare.com/v/brewery-vivant/4c5c987e7735c9b6f7c88c72","category":"Brewery","checkinsCount":15061,"usersCount":6517,"tipCount":156,"visitsCount":16255,"url":"http://www.breweryvivant.com","tier":2,"message":"Moderate","currency":"$","rating":9.1},{"name":"Green Well Gastro Pub","phone":"6168083566","twitter":"thegreenwell","address":"924 Cherry St SE","lat":42.959382,"lng":-85.646562,"neighborhood":"East Hills","city_fetched":"Grand Rapids","state":"MI","country":"United States","canonicalUrl":"https://foursquare.com/v/green-well-gastro-pub/4b326971f964a520fb0a25e3","category":"Gastropub","checkinsCount":7296,"usersCount":3819,"tipCount":85,"visitsCount":7696,"url":"http://www.thegreenwell.com","tier":3,"message":"Expensive","currency":"$","rating":9.1},{"name":"Stella's Lounge","phone":"6167424444","twitter":"grstellas","address":"53 Commerce Ave SW","lat":42.961673403526895,"lng":-85.66947966814041,"neighborhood":"Heartside-Downtown Grand Rapids","city_fetched":"Grand Rapids","state":"MI","country":"United States","canonicalUrl":"https://foursquare.com/v/stellas-lounge/4bc37cb8461576b005b67e32","category":"Bar","checkinsCount":27470,"usersCount":8580,"tipCount":153,"visitsCount":28961,"url":"http://www.stellasgr.com","tier":2,"message":"Moderate","currency":"$","rating":9.1},{"name":"The Winchester","phone":"6164514969","twitter":"thewinchestergr","address":"648 Wealthy St SE","lat":42.955539139339635,"lng":-85.65223038196564,"city_fetched":"Grand Rapids","state":"MI","country":"United States","canonicalUrl":"https://foursquare.com/v/the-winchester/4b2da73bf964a5200dda24e3","category":"Pub","checkinsCount":19203,"usersCount":4248,"tipCount":125,"visitsCount":20170,"url":"http://www.winchestergr.com","tier":2,"message":"Moderate","currency":"$","rating":9},{"name":"Rockwell Republic","phone":"6165513563","twitter":"randrgr","address":"45 Division Ave S","lat":42.96181865549065,"lng":-85.66811174154282,"neighborhood":"Heartside-Downtown Grand Rapids","city_fetched":"Grand Rapids","state":"MI","country":"United States","canonicalUrl":"https://foursquare.com/v/rockwell-republic/4b40285ff964a5205fb625e3","category":"Bar","checkinsCount":24229,"usersCount":6589,"tipCount":148,"visitsCount":25842,"url":"http://www.rockwellsrepublic.com","tier":2,"message":"Moderate","currency":"$","rating":9},{"name":"The Mitten Brewing Company","phone":"6166085612","twitter":"mittenbrewingco","address":"527 Leonard St NW","lat":42.9851448102484,"lng":-85.68105071783064,"neighborhood":"West Grand","city_fetched":"Grand Rapids","state":"MI","country":"United States","canonicalUrl":"https://foursquare.com/v/the-mitten-brewing-company/4f774ea5e4b0e8caa5ad5920","category":"Brewery","checkinsCount":6289,"usersCount":3445,"tipCount":81,"visitsCount":8127,"url":"http://www.mittenbrewing.com","tier":2,"message":"Moderate","currency":"$","rating":8.9},{"name":"Harmony Brewing Company","phone":"6164599333","address":"1551 Lake Dr SE","lat":42.95506211333071,"lng":-85.63065737485886,"neighborhood":"Eastown","city_fetched":"Grand Rapids","state":"MI","country":"United States","canonicalUrl":"https://foursquare.com/v/harmony-brewing-company/4ef9e6e26d8657fd6bd9d5b3","category":"Brewery","checkinsCount":7256,"usersCount":3226,"tipCount":85,"visitsCount":8192,"url":"http://harmonybeer.com","tier":2,"message":"Moderate","currency":"$","rating":8.9},{"name":"Big Bob's Pizza","phone":"6162330123","address":"661 Croswell Ave SE","lat":42.95058475235957,"lng":-85.61606454196637,"city_fetched":"Grand Rapids","state":"MI","country":"United States","canonicalUrl":"https://foursquare.com/v/big-bobs-pizza/4b538fa5f964a52064a227e3","category":"Pizza Place","checkinsCount":1985,"usersCount":805,"tipCount":19,"visitsCount":2233,"url":"http://www.bigbobspizza.com","tier":2,"message":"Moderate","currency":"$","rating":8.9},{"name":"The Pyramid Scheme","phone":"6162723758","twitter":"pyramidschemegr","address":"68 Commerce Ave SW","lat":42.9612553960253,"lng":-85.66904972085418,"neighborhood":"Heartside-Downtown Grand Rapids","city_fetched":"Grand Rapids","state":"MI","country":"United States","canonicalUrl":"https://foursquare.com/pyramidschemegr","category":"Music Venue","checkinsCount":21333,"usersCount":4736,"tipCount":63,"visitsCount":22594,"url":"http://www.pyramidschemebar.com","tier":"","message":"","currency":"","rating":8.8},{"name":"Bistro Bella Vita","phone":"6162224600","twitter":"bistrobellavita","address":"44 Grandville Ave SW","lat":42.96203653279332,"lng":-85.6731516122818,"neighborhood":"Heartside-Downtown Grand Rapids","city_fetched":"Grand Rapids","state":"MI","country":"United States","canonicalUrl":"https://foursquare.com/v/bistro-bella-vita/4addf32af964a520aa6621e3","category":"Italian Restaurant","checkinsCount":5647,"usersCount":3709,"tipCount":53,"visitsCount":6408,"url":"http://www.bistrobellavita.com","tier":2,"message":"Moderate","currency":"$","rating":8.7},{"name":"Long Road Distillers","address":"537 Leonard SE","lat":42.98505245870298,"lng":-85.68123602375096,"neighborhood":"West Grand","city_fetched":"Grand Rapids","state":"MI","country":"United States","canonicalUrl":"https://foursquare.com/v/long-road-distillers/5567a14a498e86ba27ec1cfe","category":"Distillery","checkinsCount":551,"usersCount":350,"tipCount":14,"visitsCount":614,"url":"http://longroaddistillers.com","tier":"","message":"","currency":"","rating":8.6},{"name":"Graydon's Crossing","phone":"6167268260","twitter":"gcrossing","address":"1223 Plainfield Ave NE","lat":42.985417216839714,"lng":-85.66710366560156,"city_fetched":"Grand Rapids","state":"MI","country":"United States","canonicalUrl":"https://foursquare.com/v/graydons-crossing/4b0f32b4f964a520456023e3","category":"Gastropub","checkinsCount":6529,"usersCount":2687,"tipCount":64,"visitsCount":7550,"url":"http://www.graydonscrossing.comâ€Ž","tier":2,"message":"Moderate","currency":"$","rating":8.6},{"name":"Apartment Lounge","phone":"6164510815","address":"33 Sheldon Ave NE","lat":42.96418242443989,"lng":-85.66708360280529,"neighborhood":"Heartside-Downtown Grand Rapids","city_fetched":"Grand Rapids","state":"MI","country":"United States","canonicalUrl":"https://foursquare.com/v/apartment-lounge/4b60dd3df964a52071fe29e3","category":"Gay Bar","checkinsCount":7162,"usersCount":1018,"tipCount":17,"visitsCount":7846,"url":"http://www.apartmentlounge.net","tier":1,"message":"Cheap","currency":"$","rating":8.5},{"name":"Logan's Alley","phone":"6164581612","address":"916 Michigan St NE","lat":42.96981679842908,"lng":-85.64631342887878,"neighborhood":"Midtown","city_fetched":"Grand Rapids","state":"MI","country":"United States","canonicalUrl":"https://foursquare.com/v/logans-alley/4b529c73f964a520d78327e3","category":"Bar","checkinsCount":12763,"usersCount":2908,"tipCount":64,"visitsCount":14847,"url":"http://www.logansalley.com","tier":2,"message":"Moderate","currency":"$","rating":8.5},{"name":"Reserve Wine & Food","phone":"6168559463","twitter":"reservegr","address":"201 Monroe Ave NW","lat":42.96722505479385,"lng":-85.67243007014937,"city_fetched":"Grand Rapids","state":"MI","country":"United States","canonicalUrl":"https://foursquare.com/v/reserve-wine--food/4c73fa61ec8d9521ca2cf2c2","category":"Wine Bar","checkinsCount":4225,"usersCount":2151,"tipCount":47,"visitsCount":4407,"url":"http://www.reservegr.com","tier":3,"message":"Expensive","currency":"$","rating":8.5},{"name":"Birch Lodge","phone":"6164581918","address":"732 Michigan St NE","lat":42.97007279118182,"lng":-85.65071987245227,"neighborhood":"Midtown","city_fetched":"Grand Rapids","state":"MI","country":"United States","canonicalUrl":"https://foursquare.com/v/birch-lodge/4b4a125ef964a520ae7926e3","category":"Pub","checkinsCount":8250,"usersCount":2177,"tipCount":43,"visitsCount":9439,"tier":1,"message":"Cheap","currency":"$","rating":8.5},{"name":"Grand Rapids Brewing Company","phone":"6164587000","address":"1 Ionia Ave SW","lat":42.96310431670542,"lng":-85.67039966583252,"neighborhood":"Heartside-Downtown Grand Rapids","city_fetched":"Grand Rapids","state":"MI","country":"United States","canonicalUrl":"https://foursquare.com/v/grand-rapids-brewing-company/4fe904bbe4b0476a89d69e8a","category":"Brewery","checkinsCount":12480,"usersCount":6131,"tipCount":121,"visitsCount":13365,"url":"http://www.grbrewingcompany.com","tier":2,"message":"Moderate","currency":"$","rating":8.4},{"name":"Bud & Stanley's Pub & Grub","phone":"6163619782","address":"1701 4 Mile Rd NE","lat":43.02885897332277,"lng":-85.627800822258,"city_fetched":"Grand Rapids","state":"MI","country":"United States","canonicalUrl":"https://foursquare.com/v/bud--stanleys-pub--grub/4b76cf86f964a520d9602ee3","category":"Pub","checkinsCount":2589,"usersCount":1129,"tipCount":23,"visitsCount":3079,"url":"http://www.budandstanleys.com","tier":2,"message":"Moderate","currency":"$","rating":8.4},{"name":"SpeakEZ Lounge","phone":"6164582689","address":"600 Monroe Ave NW","lat":42.973596206868315,"lng":-85.67199876158205,"city_fetched":"Grand Rapids","state":"MI","country":"United States","canonicalUrl":"https://foursquare.com/v/speakez-lounge/4f2c6f5ee4b0118a84c30b33","category":"Speakeasy","checkinsCount":5301,"usersCount":2262,"tipCount":57,"visitsCount":6687,"url":"http://speakezlounge.com","tier":2,"message":"Moderate","currency":"$","rating":8.3},{"name":"Uccello's Ristorante, Pizzeria & Sports Lounge","phone":"6169542002","twitter":"uccellosinc","address":"2630 E Beltline Ave SE","lat":42.91518891375321,"lng":-85.58312058448792,"city_fetched":"Grand Rapids","state":"MI","country":"United States","canonicalUrl":"https://foursquare.com/v/uccellos-ristorante-pizzeria--sports-lounge/4b52180df964a5204d6727e3","category":"Italian Restaurant","checkinsCount":13963,"usersCount":4638,"tipCount":50,"visitsCount":14796,"url":"http://www.uccellos.com","tier":2,"message":"Moderate","currency":"$","rating":8.3},{"name":"Cottage Bar and Restaurant","phone":"6164549088","address":"18 LA Grave Ave SE","lat":42.96296931053119,"lng":-85.66534814227772,"neighborhood":"Heartside-Downtown Grand Rapids","city_fetched":"Grand Rapids","state":"MI","country":"United States","canonicalUrl":"https://foursquare.com/v/cottage-bar-and-restaurant/4b5a65b2f964a52078c228e3","category":"American Restaurant","checkinsCount":3991,"usersCount":1964,"tipCount":41,"visitsCount":4105,"url":"http://www.cottagebar.biz","tier":2,"message":"Moderate","currency":"$","rating":8.2},{"name":"Vitale's","phone":"6164583766","address":"834 Leonard St NE","lat":42.98431361675605,"lng":-85.64898889547298,"city_fetched":"Grand Rapids","state":"MI","country":"United States","canonicalUrl":"https://foursquare.com/v/vitales/4bc106bc2a89ef3bbeabf188","category":"Italian Restaurant","checkinsCount":4579,"usersCount":1583,"tipCount":41,"visitsCount":5373,"url":"http://www.theoriginalvitales.com","tier":1,"message":"Cheap","currency":"$","rating":8.2},{"name":"Harmony Hall","address":"401 Stocking Ave NW","lat":42.97089863846983,"lng":-85.68462061179837,"neighborhood":"West Grand","city_fetched":"Grand Rapids","state":"MI","country":"United States","canonicalUrl":"https://foursquare.com/v/harmony-hall/55feffda498e47bc0c6c7ddf","category":"Brewery","checkinsCount":723,"usersCount":687,"tipCount":9,"visitsCount":1172,"tier":"","message":"","currency":"","rating":8.2},{"name":"Peppino's Downtown Grill & Pizzeria","phone":"6164568444","twitter":"peppinosgr","address":"130 Ionia Ave SW","lat":42.95990876106464,"lng":-85.66997051239014,"neighborhood":"Heartside-Downtown Grand Rapids","city_fetched":"Grand Rapids","state":"MI","country":"United States","canonicalUrl":"https://foursquare.com/v/peppinos-downtown-grill--pizzeria/4b635e2ff964a520ed742ae3","category":"Pizza Place","checkinsCount":19371,"usersCount":6792,"tipCount":87,"visitsCount":21632,"url":"http://www.peppinospizza.com","tier":2,"message":"Moderate","currency":"$","rating":8.1},{"name":"Cygnus 27","phone":"6167742000","address":"187 Monroe Ave NW","lat":42.966505859468484,"lng":-85.67422046479957,"neighborhood":"Heartside-Downtown Grand Rapids","city_fetched":"Grand Rapids","state":"MI","country":"United States","canonicalUrl":"https://foursquare.com/v/cygnus-27/4b11a596f964a520568123e3","category":"Bar","checkinsCount":2290,"usersCount":1341,"tipCount":23,"visitsCount":2298,"url":"http://www.amwaygrand.com/cygnus27.html","tier":3,"message":"Expensive","currency":"$","rating":8.1},{"name":"Joey's Tavern","phone":"6164582179","address":"1125 Fulton St W","lat":42.963918495564755,"lng":-85.69581077991533,"city_fetched":"Grand Rapids","state":"MI","country":"United States","canonicalUrl":"https://foursquare.com/v/joeys-tavern/4b707cf7f964a520931d2de3","category":"Bar","checkinsCount":9984,"usersCount":1289,"tipCount":24,"visitsCount":10928,"tier":1,"message":"Cheap","currency":"$","rating":8.1},{"name":"The Meanwhile","phone":"6162231679","twitter":"meanwhilebar","address":"1005 Wealthy St SE","lat":42.95570796247335,"lng":-85.6441542506218,"neighborhood":"East Hills","city_fetched":"Grand Rapids","state":"MI","country":"United States","canonicalUrl":"https://foursquare.com/v/the-meanwhile/4b1da289f964a5205b1324e3","category":"Bar","checkinsCount":22450,"usersCount":2930,"tipCount":107,"visitsCount":23949,"url":"http://www.meanwhilebar.com","tier":1,"message":"Cheap","currency":"$","rating":8.1},{"name":"Grove Restaurant","phone":"6164541000","twitter":"grovegr","address":"919 Cherry St SE","lat":42.959578,"lng":-85.64686,"neighborhood":"East Hills","city_fetched":"Grand Rapids","state":"MI","country":"United States","canonicalUrl":"https://foursquare.com/v/grove-restaurant/4e73ce16aeb780be097ae17a","category":"Food","checkinsCount":1693,"usersCount":1129,"tipCount":39,"visitsCount":1779,"url":"http://www.groverestaurant.com","tier":3,"message":"Expensive","currency":"$","rating":8.1},{"name":"Anchor Bar","phone":"6167747177","address":"447 Bridge St NW","lat":42.9706175368188,"lng":-85.68087100982666,"neighborhood":"West Grand","city_fetched":"Grand Rapids","state":"MI","country":"United States","canonicalUrl":"https://foursquare.com/v/anchor-bar/4b43d6d6f964a520a3eb25e3","category":"Dive Bar","checkinsCount":4230,"usersCount":1182,"tipCount":9,"visitsCount":4405,"tier":1,"message":"Cheap","currency":"$","rating":8},{"name":"Billy's Lounge","phone":"6164595757","twitter":"billyslounge","address":"1437 Wealthy St SE","lat":42.9556277697293,"lng":-85.63350292911949,"neighborhood":"Eastown","city_fetched":"Grand Rapids","state":"MI","country":"United States","canonicalUrl":"https://foursquare.com/v/billys-lounge/4b4e6a02f964a520daec26e3","category":"Bar","checkinsCount":9173,"usersCount":2665,"tipCount":45,"visitsCount":9652,"url":"http://www.billyslounge.com","tier":1,"message":"Cheap","currency":"$","rating":8},{"name":"JD Reardons","phone":"6164548590","address":"940 Monroe Ave NW","lat":42.979591368998086,"lng":-85.67163264807473,"city_fetched":"Grand Rapids","state":"MI","country":"United States","canonicalUrl":"https://foursquare.com/v/jd-reardons/4b522731f964a520e26b27e3","category":"Bar","checkinsCount":4413,"usersCount":1160,"tipCount":31,"visitsCount":4629,"url":"http://jdreardons.com","tier":2,"message":"Moderate","currency":"$","rating":8},{"name":"The Crushed Grape","phone":"6167192518","address":"2869 Knapp St NE","lat":42.999021163431436,"lng":-85.59833419302245,"city_fetched":"Grand Rapids","state":"MI","country":"United States","canonicalUrl":"https://foursquare.com/v/the-crushed-grape/4b59ee1af964a520b7a128e3","category":"Wine Shop","checkinsCount":1032,"usersCount":485,"tipCount":9,"visitsCount":1066,"url":"http://www.crushedgrapegr.com","tier":"","message":"","currency":"","rating":8},{"name":"Village Inn Pizza Parlor","phone":"6162811444","address":"2215 44th St SE","lat":42.88425837243025,"lng":-85.61037182807922,"city_fetched":"Grand Rapids","state":"MI","country":"United States","canonicalUrl":"https://foursquare.com/v/village-inn-pizza-parlor/4b6e305ff964a5208bb02ce3","category":"Pizza Place","checkinsCount":3270,"usersCount":1116,"tipCount":27,"visitsCount":3613,"url":"http://www.vipizza.net","tier":2,"message":"Moderate","currency":"$","rating":8},{"name":"Z's Bar & Restaurant","phone":"6164543141","twitter":"zsbar_gr","address":"168 Louis Campau Promenade NW","lat":42.9653146232251,"lng":-85.67344814509374,"neighborhood":"Heartside-Downtown Grand Rapids","city_fetched":"Grand Rapids","state":"MI","country":"United States","canonicalUrl":"https://foursquare.com/zsbar_gr","category":"Bar","checkinsCount":9513,"usersCount":3781,"tipCount":44,"visitsCount":10430,"url":"http://www.zsbar.com","tier":2,"message":"Moderate","currency":"$","rating":7.9},{"name":"Putt Putt's Bar","phone":"6167749129","address":"1158 Fulton St W","lat":42.96358644962311,"lng":-85.69686725,"city_fetched":"Grand Rapids","state":"MI","country":"United States","canonicalUrl":"https://foursquare.com/v/putt-putts-bar/4bd106ec77b29c7486128c82","category":"Dive Bar","checkinsCount":7464,"usersCount":1588,"tipCount":20,"visitsCount":8164,"tier":1,"message":"Cheap","currency":"$","rating":7.9},{"name":"Rezervoir Lounge","phone":"6164510010","twitter":"sazeraclounge","address":"1418 Plainfield Ave NE","lat":42.98864585756971,"lng":-85.66427473660599,"city_fetched":"Grand Rapids","state":"MI","country":"United States","canonicalUrl":"https://foursquare.com/v/rezervoir-lounge/4b55d0f6f964a5204af127e3","category":"Lounge","checkinsCount":6657,"usersCount":2248,"tipCount":55,"visitsCount":7786,"url":"http://www.thesazeraclounge.com","tier":2,"message":"Moderate","currency":"$","rating":7.8},{"name":"St. George's Hall","phone":"6164581109","address":"1513 Quarry Ave NW","lat":42.99025735207677,"lng":-85.6816522143581,"neighborhood":"West Grand","city_fetched":"Grand Rapids","state":"MI","country":"United States","canonicalUrl":"https://foursquare.com/v/st-georges-hall/4cef08feed62721ec1695efd","category":"Bar","checkinsCount":554,"usersCount":135,"tipCount":4,"visitsCount":587,"tier":"","message":"","currency":"","rating":7.8},{"name":"Hideout Brewing Company","phone":"6163619658","twitter":"hideoutbrewing","address":"3113 Plaza Dr NE","lat":43.01793336868286,"lng":-85.630851,"city_fetched":"Grand Rapids","state":"MI","country":"United States","canonicalUrl":"https://foursquare.com/v/hideout-brewing-company/4b5bc138f964a520521429e3","category":"Brewery","checkinsCount":4635,"usersCount":1841,"tipCount":43,"visitsCount":5180,"url":"http://www.hideoutbrewing.com","tier":2,"message":"Moderate","currency":"$","rating":7.8},{"name":"The Intersection","phone":"6164518232","address":"133 Grandville Ave SW","lat":42.95988707143547,"lng":-85.67400983326576,"neighborhood":"Heartside-Downtown Grand Rapids","city_fetched":"Grand Rapids","state":"MI","country":"United States","canonicalUrl":"https://foursquare.com/v/the-intersection/4b2dc5cef964a5203ddb24e3","category":"Music Venue","checkinsCount":12929,"usersCount":5815,"tipCount":58,"visitsCount":13728,"url":"http://www.sectionlive.com","tier":"","message":"","currency":"","rating":7.8},{"name":"Kosciuszko Hall","address":"935 Park St SW","lat":42.960227,"lng":-85.6914119,"city_fetched":"Grand Rapids","state":"MI","country":"United States","canonicalUrl":"https://foursquare.com/v/kosciuszko-hall/4c965ede034137043add83ef","category":"Speakeasy","checkinsCount":488,"usersCount":334,"tipCount":6,"visitsCount":631,"tier":"","message":"","currency":"","rating":7.8},{"name":"Rocky's Bar & Grill","phone":"6163562346","address":"633 Ottawa Ave NW","lat":42.974456907646555,"lng":-85.67019826127087,"city_fetched":"Grand Rapids","state":"MI","country":"United States","canonicalUrl":"https://foursquare.com/v/rockys-bar--grill/4b5a6dd1f964a5209ec428e3","category":"Bar","checkinsCount":12281,"usersCount":1600,"tipCount":33,"visitsCount":13021,"url":"http://rockysbarandgrill.net","tier":1,"message":"Cheap","currency":"$","rating":7.7},{"name":"Tip Top Deluxe Bar & Grill","phone":"6162723910","address":"760 Butterworth St SW","lat":42.959280622501545,"lng":-85.68715810775757,"city_fetched":"Grand Rapids","state":"MI","country":"United States","canonicalUrl":"https://foursquare.com/v/tip-top-deluxe-bar--grill/4dffef3afa76a10d9bc8471c","category":"Music Venue","checkinsCount":2963,"usersCount":943,"tipCount":22,"visitsCount":3341,"tier":"","message":"","currency":"","rating":7.7},{"name":"Drakes Pub","lat":42.89578241092445,"lng":-85.66488166490491,"city_fetched":"Grand Rapids","state":"MI","country":"United States","canonicalUrl":"https://foursquare.com/v/drakes-pub/520014e3498ed9485bb89478","category":"Pub","checkinsCount":706,"usersCount":243,"tipCount":6,"visitsCount":1007,"tier":2,"message":"Moderate","currency":"$","rating":7.7},{"name":"Buffalo Wild Wings","phone":"6162412999","twitter":"bwwings","address":"2035 28th St SE","lat":42.91324483213035,"lng":-85.61767107964998,"city_fetched":"Grand Rapids","state":"MI","country":"United States","canonicalUrl":"https://foursquare.com/v/buffalo-wild-wings/4b4cb90cf964a520d9bb26e3","category":"Wings Joint","checkinsCount":9546,"usersCount":3591,"tipCount":36,"visitsCount":11008,"url":"http://www.buffalowildwings.com","tier":1,"message":"Cheap","currency":"$","rating":7.7},{"name":"Polish Falcons","phone":"6167748495","address":"957 Fulton St W","lat":42.96383296308051,"lng":-85.69225645266282,"city_fetched":"Grand Rapids","state":"MI","country":"United States","canonicalUrl":"https://foursquare.com/v/polish-falcons/4c4a4e3a6e209521ebb3c5eb","category":"Speakeasy","checkinsCount":1224,"usersCount":545,"tipCount":5,"visitsCount":1345,"tier":"","message":"","currency":"","rating":7.7},{"name":"Old Chicago","phone":"6169401111","address":"3333 28th St SE","lat":42.91293772859623,"lng":-85.58446168899536,"city_fetched":"Grand Rapids","state":"MI","country":"United States","canonicalUrl":"https://foursquare.com/v/old-chicago/4b4e6536f964a52027ec26e3","category":"Pizza Place","checkinsCount":7591,"usersCount":2899,"tipCount":40,"visitsCount":8041,"url":"http://oldchicago.com","tier":2,"message":"Moderate","currency":"$","rating":7.7},{"name":"Monarchs Club","phone":"6162339799","twitter":"monarchsclub","address":"646 Stocking Ave NW","lat":42.975116,"lng":-85.68753,"neighborhood":"West Grand","city_fetched":"Grand Rapids","state":"MI","country":"United States","canonicalUrl":"https://foursquare.com/v/monarchs-club/4b589fdaf964a520026228e3","category":"Bar","checkinsCount":4441,"usersCount":1072,"tipCount":37,"visitsCount":4751,"url":"http://monarchsclub.com","tier":1,"message":"Cheap","currency":"$","rating":7.7},{"name":"Black Heron Kitchen & Bar","phone":"6165816247","twitter":"theblackherongr","address":"428 Bridge St NW","lat":42.9705409960998,"lng":-85.68004220724106,"city_fetched":"Grand Rapids","state":"MI","country":"United States","canonicalUrl":"https://foursquare.com/v/black-heron-kitchen--bar/5366eee8498eaaa5d14a968a","category":"New American Restaurant","checkinsCount":624,"usersCount":321,"tipCount":2,"visitsCount":864,"url":"http://www.theblackheron.com","tier":2,"message":"Moderate","currency":"$","rating":7.6},{"name":"six.one.six","phone":"6162421448","twitter":"ilovethejw","address":"235 Louis St NW","lat":42.96565593114114,"lng":-85.67421913146973,"neighborhood":"Heartside-Downtown Grand Rapids","city_fetched":"Grand Rapids","state":"MI","country":"United States","canonicalUrl":"https://foursquare.com/v/sixonesix/4b524008f964a520b17227e3","category":"New American Restaurant","checkinsCount":2932,"usersCount":1448,"tipCount":36,"visitsCount":2963,"url":"http://www.ilove616.com","tier":3,"message":"Expensive","currency":"$","rating":7.6},{"name":"Eastown Hookah Lounge","phone":"6164566664","address":"1522 Wealthy St SE","lat":42.955370888794945,"lng":-85.63209260944612,"neighborhood":"Eastown","city_fetched":"Grand Rapids","state":"MI","country":"United States","canonicalUrl":"https://foursquare.com/v/eastown-hookah-lounge/4bcd2e3d68f976b01e076483","category":"Hookah Bar","checkinsCount":2650,"usersCount":978,"tipCount":21,"visitsCount":2676,"tier":1,"message":"Cheap","currency":"$","rating":7.6},{"name":"Flat Lander's Bar","phone":"6162599700","address":"855 Michigan St NE","lat":42.970406734944575,"lng":-85.64738330129894,"neighborhood":"Midtown","city_fetched":"Grand Rapids","state":"MI","country":"United States","canonicalUrl":"https://foursquare.com/v/flat-landers-bar/531f3107498ea53759696a0b","category":"Bar","checkinsCount":1082,"usersCount":695,"tipCount":13,"visitsCount":1366,"url":"http://www.flatlandersbar.com","tier":2,"message":"Moderate","currency":"$","rating":7.6},{"name":"River City Saloon","phone":"6164510044","address":"1152 Leonard St NW","lat":42.985416650000005,"lng":-85.69759013333334,"neighborhood":"West Grand","city_fetched":"Grand Rapids","state":"MI","country":"United States","canonicalUrl":"https://foursquare.com/v/river-city-saloon/4b3ff980f964a52056b325e3","category":"Bar","checkinsCount":1073,"usersCount":540,"tipCount":11,"visitsCount":1258,"tier":"","message":"","currency":"","rating":7.6},{"name":"Silver Derby","phone":"6162435777","address":"816 Burton St SE","lat":42.92711135909752,"lng":-85.64722537994385,"neighborhood":"Alger Heights","city_fetched":"Grand Rapids","state":"MI","country":"United States","canonicalUrl":"https://foursquare.com/v/silver-derby/4b5f7c52f964a52026bd29e3","category":"Pub","checkinsCount":1817,"usersCount":619,"tipCount":17,"visitsCount":2196,"tier":1,"message":"Cheap","currency":"$","rating":7.6},{"name":"5th St Hall","phone":"6167742312","address":"Davis","lat":42.97631572159956,"lng":-85.68532758739532,"neighborhood":"West Grand","city_fetched":"Grand Rapids","state":"MI","country":"United States","canonicalUrl":"https://foursquare.com/v/5th-st-hall/4bbf9093abf4952155dcbd93","category":"Speakeasy","checkinsCount":4271,"usersCount":584,"tipCount":4,"visitsCount":4450,"tier":1,"message":"Cheap","currency":"$","rating":7.6},{"name":"CitySen Lounge","phone":"6164511892","address":"83 Monroe Center St NW","lat":42.96475542198799,"lng":-85.66969671828971,"neighborhood":"Heartside-Downtown Grand Rapids","city_fetched":"Grand Rapids","state":"MI","country":"United States","canonicalUrl":"https://foursquare.com/v/citysen-lounge/4e1f7814b61c8ce9c7cd2b68","category":"Lounge","checkinsCount":1783,"usersCount":741,"tipCount":17,"visitsCount":1787,"url":"http://www.cityflatshotel.com","tier":2,"message":"Moderate","currency":"$","rating":7.6},{"name":"Farah's","phone":"6162148413","address":"710 Michigan St NE","lat":42.969930920875285,"lng":-85.651673140089,"neighborhood":"Midtown","city_fetched":"Grand Rapids","state":"MI","country":"United States","canonicalUrl":"https://foursquare.com/v/farahs/4b6502e7f964a5204fdf2ae3","category":"Bar","checkinsCount":7883,"usersCount":1705,"tipCount":26,"visitsCount":8492,"tier":1,"message":"Cheap","currency":"$","rating":7.5},{"name":"Dave & Buster's","address":"3660 28th St SE","lat":42.91064774712558,"lng":-85.5769254095665,"city_fetched":"Grand Rapids","state":"MI","country":"United States","canonicalUrl":"https://foursquare.com/v/dave--busters/555521bf498ed1410f2e318a","category":"Sports Bar","checkinsCount":690,"usersCount":966,"tipCount":10,"visitsCount":1449,"tier":"","message":"","currency":"","rating":7.5},{"name":"Vandermill Cider","phone":"6162598828","address":"505 Ball Ave NE","lat":42.97127412842016,"lng":-85.63052164004944,"neighborhood":"Northeast Grand Rapids","city_fetched":"Grand Rapids","state":"MI","country":"United States","canonicalUrl":"https://foursquare.com/v/vandermill-cider/57027770498ead153539ad31","category":"Brewery","checkinsCount":202,"usersCount":233,"tipCount":3,"visitsCount":396,"url":"http://vandermill.com","tier":"","message":"","currency":"","rating":7.5},{"name":"Elk Brewing Company","address":"700 Wealthy St SE","lat":42.955568143965145,"lng":-85.65158283125542,"city_fetched":"Grand Rapids","state":"MI","country":"United States","canonicalUrl":"https://foursquare.com/v/elk-brewing-company/4e62f04f7d8b854089e50e4c","category":"Brewery","checkinsCount":1449,"usersCount":979,"tipCount":31,"visitsCount":1733,"tier":"","message":"","currency":"","rating":7.5},{"name":"JW Marriott Concierge Lounge","lat":42.96564699051564,"lng":-85.67416529947857,"neighborhood":"Heartside-Downtown Grand Rapids","city_fetched":"Grand Rapids","state":"MI","country":"United States","canonicalUrl":"https://foursquare.com/v/jw-marriott-concierge-lounge/4c5dcb1d9b28d13a47aa5a70","category":"Hotel Bar","checkinsCount":630,"usersCount":236,"tipCount":2,"visitsCount":634,"tier":"","message":"","currency":"","rating":7.5},{"name":"Broadway Bar & Grill","phone":"6164540565","address":"740 Broadway Ave NW","lat":42.977121871198115,"lng":-85.67940073470231,"neighborhood":"West Grand","city_fetched":"Grand Rapids","state":"MI","country":"United States","canonicalUrl":"https://foursquare.com/v/broadway-bar--grill/4b5fa64ef964a5205cc629e3","category":"Bar","checkinsCount":2018,"usersCount":875,"tipCount":14,"visitsCount":2530,"tier":1,"message":"Cheap","currency":"$","rating":7.5},{"name":"Triangle Bar","phone":"6164541238","address":"1200 Walker Ave NW","lat":42.98174622550184,"lng":-85.69828713797031,"neighborhood":"West Grand","city_fetched":"Grand Rapids","state":"MI","country":"United States","canonicalUrl":"https://foursquare.com/v/triangle-bar/4b5a350ef964a52042b428e3","category":"Bar","checkinsCount":3057,"usersCount":544,"tipCount":9,"visitsCount":3351,"tier":1,"message":"Cheap","currency":"$","rating":7.5},{"name":"Aperitivo","address":"435 Ionia Ave SW","lat":42.955103980926495,"lng":-85.67076499914438,"city_fetched":"Grand Rapids","state":"MI","country":"United States","canonicalUrl":"https://foursquare.com/v/aperitivo/521bd19611d231c6746869a1","category":"Wine Bar","checkinsCount":412,"usersCount":185,"tipCount":5,"visitsCount":420,"url":"http://aperitivogr.com","tier":"","message":"","currency":"","rating":7.5},{"name":"Bar Divani","phone":"6167749463","twitter":"bardivani","address":"15 Ionia Ave SW","lat":42.96262538650744,"lng":-85.67039966583252,"neighborhood":"Heartside-Downtown Grand Rapids","city_fetched":"Grand Rapids","state":"MI","country":"United States","canonicalUrl":"https://foursquare.com/v/bar-divani/4b50016cf964a5201b1b27e3","category":"Cocktail Bar","checkinsCount":3618,"usersCount":1813,"tipCount":33,"visitsCount":3625,"url":"http://www.bardivani.com","tier":"","message":"","currency":"","rating":7.5},{"name":"The B.O.B.","phone":"6163562000","twitter":"greggilmore","address":"20 Monroe Ave NW","lat":42.96354791266124,"lng":-85.67282438278198,"neighborhood":"Heartside-Downtown Grand Rapids","city_fetched":"Grand Rapids","state":"MI","country":"United States","canonicalUrl":"https://foursquare.com/v/the-bob/4ae8e843f964a5203cb321e3","category":"Nightclub","checkinsCount":21782,"usersCount":9895,"tipCount":66,"visitsCount":22735,"url":"http://www.thebob.com","tier":2,"message":"Moderate","currency":"$","rating":7.4},{"name":"Gravity Taphouse Grille","phone":"6167194944","address":"3210 Deposit Dr NE","lat":42.971212196083165,"lng":-85.58981537818909,"city_fetched":"Grand Rapids","state":"MI","country":"United States","canonicalUrl":"https://foursquare.com/v/gravity-taphouse-grille/546148e3498eefe9c04cf1be","category":"Bistro","checkinsCount":973,"usersCount":1206,"tipCount":18,"visitsCount":2022,"url":"http://www.gravitytaphouse.com","tier":2,"message":"Moderate","currency":"$","rating":7.4},{"name":"Brann's Sizzling Steaks & Sports Grille","phone":"6164549368","twitter":"branns_steak","address":"401 Leonard St NW","lat":42.985112181882144,"lng":-85.67794649889427,"neighborhood":"West Grand","city_fetched":"Grand Rapids","state":"MI","country":"United States","canonicalUrl":"https://foursquare.com/v/branns-sizzling-steaks--sports-grille/4b50ed29f964a520fb3827e3","category":"Steakhouse","checkinsCount":3780,"usersCount":2234,"tipCount":40,"visitsCount":4292,"url":"http://www.branns.com","tier":2,"message":"Moderate","currency":"$","rating":7.4},{"name":"Derby Station","phone":"6163013236","twitter":"derbystation","address":"2237 Wealthy St SE","lat":42.950554909253945,"lng":-85.61414165360804,"city_fetched":"Grand Rapids","state":"MI","country":"United States","canonicalUrl":"https://foursquare.com/v/derby-station/4b7615fbf964a520b53b2ee3","category":"Pub","checkinsCount":4522,"usersCount":2188,"tipCount":61,"visitsCount":4809,"url":"http://www.derbystation.com","tier":2,"message":"Moderate","currency":"$","rating":7.4},{"name":"Rumors Night Club","phone":"6164548720","twitter":"rumorsgr","address":"69 Division Ave S","lat":42.961316292588656,"lng":-85.66804660848608,"neighborhood":"Heartside-Downtown Grand Rapids","city_fetched":"Grand Rapids","state":"MI","country":"United States","canonicalUrl":"https://foursquare.com/v/rumors-night-club/4b6cec4ff964a5201f5e2ce3","category":"Gay Bar","checkinsCount":9293,"usersCount":1805,"tipCount":30,"visitsCount":9679,"url":"http://rumorsnightclub.net","tier":1,"message":"Cheap","currency":"$","rating":7.3},{"name":"Frankie V's","phone":"6165328998","address":"1420 28th St SW","lat":42.91308115,"lng":-85.700873,"city_fetched":"Grand Rapids","state":"MI","country":"United States","canonicalUrl":"https://foursquare.com/v/frankie-vs/4b8d437ef964a520a9f032e3","category":"Pizza Place","checkinsCount":3027,"usersCount":1369,"tipCount":12,"visitsCount":3542,"url":"http://frankievs.com","tier":2,"message":"Moderate","currency":"$","rating":7.3},{"name":"Mulligan's Pub","phone":"6164510775","address":"1518 Wealthy St SE","lat":42.95524542555224,"lng":-85.63245899501264,"neighborhood":"Eastown","city_fetched":"Grand Rapids","state":"MI","country":"United States","canonicalUrl":"https://foursquare.com/v/mulligans-pub/4b61db38f964a52061272ae3","category":"Pub","checkinsCount":18209,"usersCount":2483,"tipCount":42,"visitsCount":18690,"url":"http://www.mulligans-pub.com","tier":1,"message":"Cheap","currency":"$","rating":7.3},{"name":"Holiday Bar","phone":"6164569058","address":"801 5th St NW","lat":42.97639069061335,"lng":-85.68812234094366,"neighborhood":"West Grand","city_fetched":"Grand Rapids","state":"MI","country":"United States","canonicalUrl":"https://foursquare.com/v/holiday-bar/4bc9143eb6c49c7470df8d91","category":"Bar","checkinsCount":7610,"usersCount":1689,"tipCount":23,"visitsCount":8856,"url":"http://theholidaybargr.com","tier":2,"message":"Moderate","currency":"$","rating":7.3},{"name":"Vytautas Aid Society","phone":"6164567081","address":"1300 Hamilton Ave NW","lat":42.9868068433039,"lng":-85.6797266786456,"neighborhood":"West Grand","city_fetched":"Grand Rapids","state":"MI","country":"United States","canonicalUrl":"https://foursquare.com/v/vytautas-aid-society/4d839ff161676dcb7de15fe4","category":"Speakeasy","checkinsCount":946,"usersCount":156,"tipCount":7,"visitsCount":1202,"tier":"","message":"","currency":"","rating":7.3},{"name":"The Elbow Room","phone":"6164546666","address":"501 Fuller Ave NE","lat":42.972410917282104,"lng":-85.63999,"neighborhood":"Midtown","city_fetched":"Grand Rapids","state":"MI","country":"United States","canonicalUrl":"https://foursquare.com/v/the-elbow-room/4b80b898f964a520528830e3","category":"Bar","checkinsCount":3401,"usersCount":872,"tipCount":17,"visitsCount":3890,"tier":1,"message":"Cheap","currency":"$","rating":7.3},{"name":"Vinny's bar","phone":"6163619871","address":"1815 Plainfield Ave NE","lat":42.99603058449722,"lng":-85.65919833778946,"city_fetched":"Grand Rapids","state":"MI","country":"United States","canonicalUrl":"https://foursquare.com/v/vinnys-bar/4bf311066ba2b71311148977","category":"Bar","checkinsCount":738,"usersCount":176,"tipCount":3,"visitsCount":798,"tier":"","message":"","currency":"","rating":7.2},{"name":"Tillman's","phone":"6164519266","address":"1245 Monroe Ave NW","lat":42.98602506344609,"lng":-85.67082518334237,"city_fetched":"Grand Rapids","state":"MI","country":"United States","canonicalUrl":"https://foursquare.com/v/tillmans/4c141fcd7f7f2d7ff166e068","category":"Steakhouse","checkinsCount":815,"usersCount":452,"tipCount":12,"visitsCount":1053,"url":"http://tillmansrestaurant.com","tier":"","message":"","currency":"","rating":7.2},{"name":"Tin Can Bar","lat":42.95969865773557,"lng":-85.673232495379,"neighborhood":"Heartside-Downtown Grand Rapids","city_fetched":"Grand Rapids","state":"MI","country":"United States","canonicalUrl":"https://foursquare.com/v/tin-can-bar/54927893498ecc2164944d9f","category":"Bar","checkinsCount":763,"usersCount":593,"tipCount":6,"visitsCount":1108,"tier":"","message":"","currency":"","rating":7.2},{"name":"Brick Road Back Bar","phone":"6167192409","address":"1017 Wealthy St SE","lat":42.9559193159727,"lng":-85.64372035839438,"neighborhood":"East Hills","city_fetched":"Grand Rapids","state":"MI","country":"United States","canonicalUrl":"https://foursquare.com/v/brick-road-back-bar/51b2506f498eef5f8cca051d","category":"Bar","checkinsCount":677,"usersCount":99,"tipCount":8,"visitsCount":680,"tier":2,"message":"Moderate","currency":"$","rating":7.2},{"name":"Florentine Sports Lounge","phone":"6164552230","address":"4261 Kalamazoo Ave SE","lat":42.8854840244658,"lng":-85.62672201153946,"city_fetched":"Grand Rapids","state":"MI","country":"United States","canonicalUrl":"https://foursquare.com/v/florentine-sports-lounge/4b6b56a0f964a520e4012ce3","category":"Sports Bar","checkinsCount":4206,"usersCount":1444,"tipCount":25,"visitsCount":5343,"url":"http://www.florentinespizza.com","tier":1,"message":"Cheap","currency":"$","rating":7.2},{"name":"Casino Club","phone":"6163637721","address":"3260 Salerno Dr NE","lat":43.02289010791841,"lng":-85.63478272428846,"city_fetched":"Grand Rapids","state":"MI","country":"United States","canonicalUrl":"https://foursquare.com/v/casino-club/4bad3221f964a520e7373be3","category":"Speakeasy","checkinsCount":951,"usersCount":353,"tipCount":1,"visitsCount":1070,"url":"http://ccofgr.com","tier":"","message":"","currency":"","rating":7.2},{"name":"Boardwalk Condos","phone":"6169886466","twitter":"boardwalkcondos","address":"940 Monroe Ave NW Ste 155","lat":42.97963175319599,"lng":-85.67166775495873,"city_fetched":"Grand Rapids","state":"MI","country":"United States","canonicalUrl":"https://foursquare.com/v/boardwalk-condos/4d87f3347139b1f78a8498d4","category":"Residential Building (Apartment / Condo)","checkinsCount":3070,"usersCount":519,"tipCount":3,"visitsCount":3148,"url":"http://www.boardwalkgr.com","tier":"","message":"","currency":"","rating":7.2},{"name":"Garage Bar and Grill","phone":"6164540321","address":"819 Ottawa Ave NW","lat":42.97715845304004,"lng":-85.67057943077153,"city_fetched":"Grand Rapids","state":"MI","country":"United States","canonicalUrl":"https://foursquare.com/v/garage-bar-and-grill/544510a6498e6255f1738684","category":"Bar","checkinsCount":596,"usersCount":511,"tipCount":9,"visitsCount":1028,"url":"http://garagebargr.com","tier":"","message":"","currency":"","rating":7.2},{"name":"Monte's Lounge","phone":"6167745969","twitter":"montesgr","address":"438 Bridge St NW","lat":42.97041691087282,"lng":-85.68054403696763,"city_fetched":"Grand Rapids","state":"MI","country":"United States","canonicalUrl":"https://foursquare.com/v/montes-lounge/4eb8873c9a52ad1e4043767c","category":"Bar","checkinsCount":6671,"usersCount":1767,"tipCount":22,"visitsCount":6772,"tier":"","message":"","currency":"","rating":7.1},{"name":"Lumber Baron Bar","phone":"6167742000","address":"187 Monroe Ave NW","lat":42.96656080706671,"lng":-85.67238994856984,"neighborhood":"Heartside-Downtown Grand Rapids","city_fetched":"Grand Rapids","state":"MI","country":"United States","canonicalUrl":"https://foursquare.com/v/lumber-baron-bar/4b9030a8f964a520387b33e3","category":"Hotel Bar","checkinsCount":417,"usersCount":221,"tipCount":7,"visitsCount":417,"tier":"","message":"","currency":"","rating":7.1},{"name":"J Gardellas Tavern","phone":"6164598824","twitter":"jgardellatavern","address":"11 Ionia Ave SW","lat":42.96277063622367,"lng":-85.6703782081604,"neighborhood":"Heartside-Downtown Grand Rapids","city_fetched":"Grand Rapids","state":"MI","country":"United States","canonicalUrl":"https://foursquare.com/v/j-gardellas-tavern/4a580a58f964a52049b71fe3","category":"Bar","checkinsCount":17743,"usersCount":5306,"tipCount":55,"visitsCount":17927,"url":"http://www.jgardellastavern.com","tier":2,"message":"Moderate","currency":"$","rating":7.1},{"name":"Charlie's Bar and Grill","phone":"6163640567","address":"3519 Plainfield Ave NE","lat":43.027165870044435,"lng":-85.63233352078706,"city_fetched":"Grand Rapids","state":"MI","country":"United States","canonicalUrl":"https://foursquare.com/v/charlies-bar-and-grill/4b0cbfeef964a520964123e3","category":"Bar","checkinsCount":1144,"usersCount":303,"tipCount":12,"visitsCount":1286,"tier":"","message":"","currency":"","rating":7.1},{"name":"Dugans Pub And Grille","phone":"6164532454","address":"2715 Leonard St NW","lat":42.98958099829517,"lng":-85.7349443435669,"neighborhood":"Westside Connection","city_fetched":"Grand Rapids","state":"MI","country":"United States","canonicalUrl":"https://foursquare.com/v/dugans-pub-and-grille/4cd561bb76ab721e219e6c6a","category":"Sports Bar","checkinsCount":739,"usersCount":118,"tipCount":8,"visitsCount":739,"url":"http://www.dugansgr.com","tier":"","message":"","currency":"","rating":7.1},{"name":"College Inn","address":"1210 College Ave NE","lat":42.985014147970574,"lng":-85.65696095683974,"city_fetched":"Grand Rapids","state":"MI","country":"United States","canonicalUrl":"https://foursquare.com/v/college-inn/4bf5d194bfeac928cb529336","category":"Dive Bar","checkinsCount":745,"usersCount":213,"tipCount":6,"visitsCount":969,"tier":"","message":"","currency":"","rating":7.1},{"name":"Mixology","phone":"6162421448","address":"235 Louis Campau NW","lat":42.96572152002283,"lng":-85.67429569014503,"neighborhood":"Heartside-Downtown Grand Rapids","city_fetched":"Grand Rapids","state":"MI","country":"United States","canonicalUrl":"https://foursquare.com/v/mixology/4b5280eff964a520368027e3","category":"Lounge","checkinsCount":1241,"usersCount":473,"tipCount":9,"visitsCount":1242,"tier":"","message":"","currency":"","rating":7.1},{"name":"The Twisted Bull","phone":"6162450531","address":"3230 Eastern Ave SE","lat":42.904641361939504,"lng":-85.64630953318009,"city_fetched":"Grand Rapids","state":"MI","country":"United States","canonicalUrl":"https://foursquare.com/v/the-twisted-bull/4b7a08d0f964a52005202fe3","category":"Karaoke Bar","checkinsCount":3244,"usersCount":1238,"tipCount":12,"visitsCount":3727,"url":"http://twistedbull.net","tier":1,"message":"Cheap","currency":"$","rating":7.1},{"name":"The Last Chance Tavern and Grill","phone":"6167194270","address":"1132 Burton St SE","lat":42.9269725872597,"lng":-85.63974101303471,"neighborhood":"Alger Heights","city_fetched":"Grand Rapids","state":"MI","country":"United States","canonicalUrl":"https://foursquare.com/v/the-last-chance-tavern-and-grill/4dd970afd22d38ef43197d0f","category":"Bar","checkinsCount":1170,"usersCount":482,"tipCount":10,"visitsCount":1476,"tier":1,"message":"Cheap","currency":"$","rating":7},{"name":"Clique Lanes","phone":"6164566123","address":"533 Stocking Ave NW","lat":42.97256438667223,"lng":-85.68611741065979,"neighborhood":"West Grand","city_fetched":"Grand Rapids","state":"MI","country":"United States","canonicalUrl":"https://foursquare.com/v/clique-lanes/4b271087f964a5208b8424e3","category":"Bowling Alley","checkinsCount":3484,"usersCount":1449,"tipCount":24,"visitsCount":3978,"tier":"","message":"","currency":"","rating":7},{"name":"6th Street Hall","address":"642 6th St NW","lat":42.977211673098836,"lng":-85.68491643961205,"neighborhood":"West Grand","city_fetched":"Grand Rapids","state":"MI","country":"United States","canonicalUrl":"https://foursquare.com/v/6th-street-hall/4c79690bdf08a1cdb8a1da5d","category":"Speakeasy","checkinsCount":335,"usersCount":212,"tipCount":3,"visitsCount":337,"tier":"","message":"","currency":"","rating":6.9}]