[{"name":"Wildriver PUB","address":"559-699 Redwood Highway Spur","lat":42.43838248675894,"lng":-123.31896964532481,"city_fetched":"Grants Pass","state":"OR","country":"United States","canonicalUrl":"https://foursquare.com/v/wildriver-pub/4dd58b397d8b322663c216bf","category":"Bar","checkinsCount":168,"usersCount":85,"tipCount":2,"visitsCount":214,"tier":"","message":"","currency":"","rating":8.3},{"name":"The Haul","phone":"5414744991","address":"121 SW H St","lat":42.43828883116976,"lng":-123.32832662381777,"city_fetched":"Grants Pass","state":"OR","country":"United States","canonicalUrl":"https://foursquare.com/v/the-haul/542ca081498e80488c2122a6","category":"Brewery","checkinsCount":129,"usersCount":83,"tipCount":10,"visitsCount":165,"url":"http://www.thehaulgp.com","tier":"","message":"","currency":"","rating":8.3},{"name":"Wild River Brewing and Pizza Company","phone":"5414744456","address":"595 NE E St","lat":42.43901796401872,"lng":-123.31757202869736,"city_fetched":"Grants Pass","state":"OR","country":"United States","canonicalUrl":"https://foursquare.com/v/wild-river-brewing-and-pizza-company/4b6245ecf964a520b73f2ae3","category":"Pizza Place","checkinsCount":1033,"usersCount":628,"tipCount":22,"visitsCount":1298,"url":"http://wildriverbrewing.com","tier":2,"message":"Moderate","currency":"$","rating":8.3},{"name":"Joe's Sports Bar & Grill","phone":"5414717445","address":"820 NE E St","lat":42.4398797750473,"lng":-123.31541240215302,"city_fetched":"Grants Pass","state":"OR","country":"United States","canonicalUrl":"https://foursquare.com/v/joes-sports-bar--grill/4bb930a81261d13a7c6ee998","category":"Bar","checkinsCount":143,"usersCount":65,"tipCount":2,"visitsCount":157,"tier":"","message":"","currency":"","rating":7.8},{"name":"Blondies Bistro","address":"298 Rogue River Hwy.","lat":42.43989310285723,"lng":-123.328823,"city_fetched":"Grants Pass","state":"OR","country":"United States","canonicalUrl":"https://foursquare.com/v/blondies-bistro/4bc7b1700050b7139242b93b","category":"Cocktail Bar","checkinsCount":145,"usersCount":100,"tipCount":9,"visitsCount":145,"url":"http://blondiesbistro.com","tier":"","message":"","currency":"","rating":7.5},{"name":"Climate City Brewing Co.","address":"509 SW G St","lat":42.440086364746094,"lng":-123.33133697509766,"city_fetched":"Grants Pass","state":"OR","country":"United States","canonicalUrl":"https://foursquare.com/v/climate-city-brewing-co/5513784d498e7da1358de541","category":"Brewery","checkinsCount":93,"usersCount":156,"tipCount":2,"visitsCount":292,"tier":"","message":"","currency":"","rating":7.1},{"name":"JD's Sports Bar","address":"690 Redwood Hwy","lat":42.42373026666667,"lng":-123.340862,"city_fetched":"Grants Pass","state":"OR","country":"United States","canonicalUrl":"https://foursquare.com/v/jds-sports-bar/4cdee940abfb2c0fd5209b5a","category":"Sports Bar","checkinsCount":194,"usersCount":82,"tipCount":7,"visitsCount":200,"tier":"","message":"","currency":"","rating":6.6}]