[{"name":"The Chocolate Bar","phone":"3086750664","address":"116 W 3rd St","lat":40.925600157538476,"lng":-98.34067761898041,"city_fetched":"Grand Island","state":"NE","country":"United States","canonicalUrl":"https://foursquare.com/v/the-chocolate-bar/4eacb8602c5bb67b23586e49","category":"Coffee Shop","checkinsCount":692,"usersCount":258,"tipCount":23,"visitsCount":746,"url":"http://thechocolatebargi.com","tier":2,"message":"Moderate","currency":"$","rating":9},{"name":"Chicken Coop","phone":"3083982500","address":"120 E 3rd St","lat":40.926362452111704,"lng":-98.3393712084561,"city_fetched":"Grand Island","state":"NE","country":"United States","canonicalUrl":"https://foursquare.com/v/chicken-coop/4b5b9b7af964a520990a29e3","category":"Brewery","checkinsCount":778,"usersCount":403,"tipCount":10,"visitsCount":886,"url":"http://www.chickencoopsportsbar.com/grandisland/index.php","tier":"","message":"","currency":"","rating":8.8},{"name":"Balz Sports Bar","phone":"3083982259","twitter":"balzsportsbar","address":"3421 State St","lat":40.93715316422123,"lng":-98.38252147750055,"city_fetched":"Grand Island","state":"NE","country":"United States","canonicalUrl":"https://foursquare.com/balzsportsbar","category":"Sports Bar","checkinsCount":1262,"usersCount":455,"tipCount":14,"visitsCount":1379,"url":"http://www.balzsportsbar.com","tier":2,"message":"Moderate","currency":"$","rating":8.7},{"name":"J. Alfred Prufrocks","phone":"3083988466","address":"308 N Pine St","lat":40.92593367937948,"lng":-98.34014143406313,"city_fetched":"Grand Island","state":"NE","country":"United States","canonicalUrl":"https://foursquare.com/v/j-alfred-prufrocks/4c254111f3859c74ce206588","category":"Cocktail Bar","checkinsCount":556,"usersCount":96,"tipCount":10,"visitsCount":567,"tier":"","message":"","currency":"","rating":8.4},{"name":"Nathan Detroit's","phone":"3083843655","address":"316 N Pine St","lat":40.9263177,"lng":-98.34076796666666,"city_fetched":"Grand Island","state":"NE","country":"United States","canonicalUrl":"https://foursquare.com/v/nathan-detroits/4b04391bf964a520475222e3","category":"Bar","checkinsCount":151,"usersCount":80,"tipCount":2,"visitsCount":151,"tier":"","message":"","currency":"","rating":8.1},{"name":"The Glass Bar","phone":"3083984527","address":"1009 W North Front St","lat":40.92313880464067,"lng":-98.35171182487136,"city_fetched":"Grand Island","state":"NE","country":"United States","canonicalUrl":"https://foursquare.com/v/the-glass-bar/4bce6937ef109521f52d8486","category":"Dive Bar","checkinsCount":1421,"usersCount":116,"tipCount":10,"visitsCount":1450,"tier":"","message":"","currency":"","rating":8.1},{"name":"Whiteys Bar And Grill","phone":"3086751151","lat":40.941007913567894,"lng":-98.37908030958187,"city_fetched":"Grand Island","state":"Nebraska","country":"United States","canonicalUrl":"https://foursquare.com/v/whiteys-bar-and-grill/4e28b9da18384dd0a0e3f34e","category":"Sports Bar","checkinsCount":205,"usersCount":82,"tipCount":3,"visitsCount":219,"tier":"","message":"","currency":"","rating":8},{"name":"Cow Palace","phone":"3083848799","address":"3602 W 2nd St","lat":40.90938045830533,"lng":-98.37799393962153,"city_fetched":"Grand Island","state":"NE","country":"United States","canonicalUrl":"https://foursquare.com/v/cow-palace/4cee01407db3224b7abd252e","category":"Karaoke Bar","checkinsCount":349,"usersCount":106,"tipCount":4,"visitsCount":397,"tier":"","message":"","currency":"","rating":7.9},{"name":"Bandits","address":"1016 N Diers Ave","lat":40.92890994269083,"lng":-98.38488703802886,"city_fetched":"Grand Island","state":"NE","country":"United States","canonicalUrl":"https://foursquare.com/v/bandits/4c1bcf26b4e62d7fe603da93","category":"Sports Bar","checkinsCount":552,"usersCount":220,"tipCount":5,"visitsCount":600,"tier":"","message":"","currency":"","rating":7.4},{"name":"The Faucet","lat":40.92744425688377,"lng":-98.38445352471719,"city_fetched":"Grand Island","state":"NE","country":"United States","canonicalUrl":"https://foursquare.com/v/the-faucet/51aaa71c498ef112a226a7ea","category":"Sports Bar","checkinsCount":198,"usersCount":84,"tipCount":10,"visitsCount":213,"tier":"","message":"","currency":"","rating":6.4}]