[{"name":"Parrots Cay","phone":"7017954053","address":"1149 36th Ave S","lat":47.88552822607764,"lng":-97.04272985458374,"city_fetched":"Grand Forks,US","state":"ND","country":"United States","canonicalUrl":"https://foursquare.com/v/parrots-cay/4b5a646bf964a5201dc228e3","categoryId":"4bf58dd8d48988d116941735","category":"Bar","checkinsCount":6301,"usersCount":1009,"tipCount":21,"visitsCount":6750,"tier":2,"message":"Moderate","currency":"$","rating":8.8},{"name":"JL Beers","phone":"7017381000","address":"2531 S Columbia Rd","lat":47.89525482791992,"lng":-97.06631183624268,"city_fetched":"Grand Forks,US","state":"ND","country":"United States","canonicalUrl":"https://foursquare.com/v/jl-beers/4e33589c1520afb514c1edb3","categoryId":"4bf58dd8d48988d116941735","category":"Bar","checkinsCount":4750,"usersCount":1254,"tipCount":47,"visitsCount":5130,"url":"http://jlbeers.com","tier":2,"message":"Moderate","currency":"$","rating":8.8},{"name":"Wild Bills Sports Saloon","phone":"7017757740","address":"1405 Demers Ave","lat":47.916032016563165,"lng":-97.04683190944243,"city_fetched":"Grand Forks,US","state":"ND","country":"United States","canonicalUrl":"https://foursquare.com/v/wild-bills-sports-saloon/5170223ae4b04f4fec6e030f","categoryId":"4bf58dd8d48988d116941735","category":"Bar","checkinsCount":1246,"usersCount":403,"tipCount":16,"visitsCount":1812,"tier":2,"message":"Moderate","currency":"$","rating":7.8},{"name":"Bonzer's Sandwich Pub","phone":"7017750365","address":"420 Demers Ave","lat":47.9239204053918,"lng":-97.03251600265503,"city_fetched":"Grand Forks,US","state":"ND","country":"United States","canonicalUrl":"https://foursquare.com/v/bonzers-sandwich-pub/4ae28dd6f964a520fb8e21e3","categoryId":"4bf58dd8d48988d11b941735","category":"Pub","checkinsCount":3694,"usersCount":934,"tipCount":12,"visitsCount":3903,"url":"http://bonzerspub.com","tier":2,"message":"Moderate","currency":"$","rating":7.7},{"name":"Level 10","address":"10 N 3rd St","lat":47.925621195653775,"lng":-97.03101084790656,"city_fetched":"Grand Forks,US","state":"ND","country":"United States","canonicalUrl":"https://foursquare.com/v/level-10/4ae28fb6f964a520038f21e3","categoryId":"4bf58dd8d48988d11f941735","category":"Nightclub","checkinsCount":3750,"usersCount":701,"tipCount":7,"visitsCount":3781,"tier":2,"message":"Moderate","currency":"$","rating":7.3},{"name":"The Hub Bar","phone":"7017467443","address":"205 N 3rd St","lat":47.92672906676825,"lng":-97.0336685492776,"city_fetched":"Grand Forks,US","state":"ND","country":"United States","canonicalUrl":"https://foursquare.com/v/the-hub-bar/4b1c0087f964a5207f0024e3","categoryId":"4bf58dd8d48988d116941735","category":"Bar","checkinsCount":924,"usersCount":326,"tipCount":9,"visitsCount":996,"tier":"","message":"","currency":"","rating":7.2},{"name":"Joe Black's","phone":"7017752017","address":"118 N 3rd St","lat":47.926437989670134,"lng":-97.03248267000544,"city_fetched":"Grand Forks,US","state":"ND","country":"United States","canonicalUrl":"https://foursquare.com/v/joe-blacks/4adbdad5f964a520e62a21e3","categoryId":"4bf58dd8d48988d116941735","category":"Bar","checkinsCount":9327,"usersCount":1395,"tipCount":16,"visitsCount":9822,"tier":2,"message":"Moderate","currency":"$","rating":7.2},{"name":"Judy's Tavern","phone":"7017729876","address":"1221 N 20th St","lat":47.932039,"lng":-97.05551862716675,"city_fetched":"Grand Forks,US","state":"ND","country":"United States","canonicalUrl":"https://foursquare.com/v/judys-tavern/4b60eac4f964a52051012ae3","categoryId":"4bf58dd8d48988d116941735","category":"Bar","checkinsCount":1288,"usersCount":371,"tipCount":8,"visitsCount":1304,"tier":"","message":"","currency":"","rating":7.1},{"name":"Tavern United","phone":"7017921958","twitter":"tavernunited","address":"1000 S 42nd St","lat":47.911912424659214,"lng":-97.09044098854065,"city_fetched":"Grand Forks,US","state":"ND","country":"United States","canonicalUrl":"https://foursquare.com/v/tavern-united/4afcf196f964a5209f2622e3","categoryId":"4bf58dd8d48988d11b941735","category":"Pub","checkinsCount":3118,"usersCount":1061,"tipCount":20,"visitsCount":3310,"url":"http://www.tavernunited.com","tier":"","message":"","currency":"","rating":6.7},{"name":"Southgate Casino Bar & Grill","phone":"7017757941","twitter":"southgatecasino","address":"2525 S Washington St","lat":47.894679340198465,"lng":-97.04429626464844,"city_fetched":"Grand Forks,US","state":"ND","country":"United States","canonicalUrl":"https://foursquare.com/v/southgate-casino-bar--grill/4b53f572f964a5207aaf27e3","categoryId":"4bf58dd8d48988d116941735","category":"Bar","checkinsCount":2289,"usersCount":571,"tipCount":11,"visitsCount":2580,"url":"http://southgatecasino.com","tier":"","message":"","currency":"","rating":6.7},{"name":"The Loft","phone":"7017572020","twitter":"theloftgf","address":"308 Demers Ave","lat":47.92508316606603,"lng":-97.03098677225144,"city_fetched":"Grand Forks,US","state":"ND","country":"United States","canonicalUrl":"https://foursquare.com/theloftgf","categoryId":"4bf58dd8d48988d116941735","category":"Bar","checkinsCount":3348,"usersCount":626,"tipCount":10,"visitsCount":3469,"tier":2,"message":"Moderate","currency":"$","rating":6.7},{"name":"El Roco Bar & Grill","phone":"7017726942","address":"1730 13th Ave N","lat":47.93245372482849,"lng":-97.05140948295593,"city_fetched":"Grand Forks,US","state":"ND","country":"United States","canonicalUrl":"https://foursquare.com/v/el-roco-bar--grill/4b80baf4f964a520ec8830e3","categoryId":"4bf58dd8d48988d116941735","category":"Bar","checkinsCount":1729,"usersCount":634,"tipCount":9,"visitsCount":2037,"url":"http://elroco.com","tier":1,"message":"Cheap","currency":"$","rating":6.7},{"name":"Playmakers All-American Lounge","phone":"7017921955","address":"1000 S 42nd St","lat":47.912109517950114,"lng":-97.09083600585464,"city_fetched":"Grand Forks,US","state":"ND","country":"United States","canonicalUrl":"https://foursquare.com/v/playmakers-allamerican-lounge/4b76088ff964a5200b382ee3","categoryId":"4bf58dd8d48988d11d941735","category":"Sports Bar","checkinsCount":1456,"usersCount":513,"tipCount":2,"visitsCount":1466,"url":"http://www.canadinns.com/dinent/5_7_playgaming.php","tier":2,"message":"Moderate","currency":"$","rating":6.5},{"name":"Diamond Lounge","phone":"7017728700","address":"1607 Demers Ave","lat":47.91602042207622,"lng":-97.05002025910676,"city_fetched":"Grand Forks,US","state":"ND","country":"United States","canonicalUrl":"https://foursquare.com/v/diamond-lounge/4beb275d9ab3b713a8d9b549","categoryId":"4bf58dd8d48988d121941735","category":"Lounge","checkinsCount":500,"usersCount":207,"tipCount":5,"visitsCount":535,"tier":"","message":"","currency":"","rating":6.5},{"name":"Long Haul Saloon","phone":"7017759240","address":"4720 Gateway Dr","lat":47.93382309443751,"lng":-97.09715723991394,"city_fetched":"Grand Forks,US","state":"ND","country":"United States","canonicalUrl":"https://foursquare.com/v/long-haul-saloon/4bb3843a35f0c9b6907bbc83","categoryId":"4bf58dd8d48988d116941735","category":"Bar","checkinsCount":1020,"usersCount":288,"tipCount":7,"visitsCount":1038,"tier":"","message":"","currency":"","rating":6.5},{"name":"Rhombus Guys Brewing Company","lat":47.924036199041,"lng":-97.02862029496823,"city_fetched":"Grand Forks,US","state":"ND","country":"United States","canonicalUrl":"https://foursquare.com/v/rhombus-guys-brewing-company/5605d5d5498eb2f1f87658ad","categoryId":"50327c8591d4c4b30a586d5d","category":"Brewery","checkinsCount":192,"usersCount":167,"tipCount":2,"visitsCount":346,"tier":"","message":"","currency":"","rating":6.4},{"name":"O'Really's","phone":"7017469177","address":"10 N 3rd St","lat":47.925446398815126,"lng":-97.0310471187552,"city_fetched":"Grand Forks,US","state":"ND","country":"United States","canonicalUrl":"https://foursquare.com/v/oreallys/4b1c0547f964a520d10024e3","categoryId":"4bf58dd8d48988d11b941735","category":"Pub","checkinsCount":4826,"usersCount":662,"tipCount":6,"visitsCount":4838,"tier":2,"message":"Moderate","currency":"$","rating":6.3},{"name":"Sledster's Food & Brew","phone":"7017750050","address":"21 S 4th St","lat":47.92382694085556,"lng":-97.0304024219513,"city_fetched":"Grand Forks,US","state":"ND","country":"United States","canonicalUrl":"https://foursquare.com/v/sledsters-food--brew/4b1c00f7f964a520880024e3","categoryId":"4bf58dd8d48988d116941735","category":"Bar","checkinsCount":1635,"usersCount":512,"tipCount":10,"visitsCount":1686,"tier":"","message":"","currency":"","rating":6.3},{"name":"The Ho Sports Bar & Grill","phone":"7017727000","address":"3450 Gateway Dr","lat":47.934047578355866,"lng":-97.07836192269045,"city_fetched":"Grand Forks,US","state":"ND","country":"United States","canonicalUrl":"https://foursquare.com/v/the-ho-sports-bar--grill/4eb02b3593ad8dcab723a74d","categoryId":"4bf58dd8d48988d116941735","category":"Bar","checkinsCount":724,"usersCount":262,"tipCount":20,"visitsCount":742,"tier":"","message":"","currency":"","rating":6.3},{"name":"TJ's Pool-n-Darts","phone":"7017572030","address":"1210 S Washington St","lat":47.90964133869671,"lng":-97.04553083333896,"city_fetched":"Grand Forks,US","state":"ND","country":"United States","canonicalUrl":"https://foursquare.com/v/tjs-poolndarts/4b7794adf964a52095a22ee3","categoryId":"4bf58dd8d48988d11d941735","category":"Sports Bar","checkinsCount":748,"usersCount":293,"tipCount":6,"visitsCount":810,"tier":1,"message":"Cheap","currency":"$","rating":6},{"name":"Bun Lounge","phone":"7017724366","address":"1708 Mill Rd","lat":47.93629274389529,"lng":-97.05163147940922,"city_fetched":"Grand Forks,US","state":"ND","country":"United States","canonicalUrl":"https://foursquare.com/v/bun-lounge/4ba03636f964a520d96137e3","categoryId":"4bf58dd8d48988d116941735","category":"Bar","checkinsCount":986,"usersCount":379,"tipCount":4,"visitsCount":1156,"tier":"","message":"","currency":"","rating":5.9},{"name":"Muddy Rivers Bar & Grill","phone":"7017870733","address":"710 1st Ave N","lat":47.92272678761365,"lng":-97.03623173625769,"city_fetched":"Grand Forks,US","state":"ND","country":"United States","canonicalUrl":"https://foursquare.com/v/muddy-rivers-bar--grill/4afd15d2f964a520e32622e3","categoryId":"4bf58dd8d48988d116941735","category":"Bar","checkinsCount":1103,"usersCount":525,"tipCount":3,"visitsCount":1260,"url":"http://muddyrivers.com","tier":"","message":"","currency":"","rating":5.8},{"name":"Shotgun Sallys","lat":47.900100490000824,"lng":-97.04728104620766,"city_fetched":"Grand Forks,US","state":"ND","country":"United States","canonicalUrl":"https://foursquare.com/v/shotgun-sallys/525a258911d26b8d72377c4d","categoryId":"4bf58dd8d48988d116941735","category":"Bar","checkinsCount":235,"usersCount":183,"tipCount":5,"visitsCount":396,"tier":"","message":"","currency":"","rating":5.8},{"name":"Borrowed  Bucks Roadhouse","phone":"7017958995","address":"1970 S Columbia Rd","lat":47.9012395210684,"lng":-97.06759929656982,"city_fetched":"Grand Forks,US","state":"ND","country":"United States","canonicalUrl":"https://foursquare.com/v/borrowed--bucks-roadhouse/4b627e88f964a52099492ae3","categoryId":"4bf58dd8d48988d11f941735","category":"Nightclub","checkinsCount":1744,"usersCount":558,"tipCount":11,"visitsCount":1844,"tier":2,"message":"Moderate","currency":"$","rating":5.5},{"name":"Rumors Lounge","phone":"7017720125","address":"1826 S Washington St","lat":47.90209199,"lng":-97.04847003841685,"city_fetched":"Grand Forks,US","state":"ND","country":"United States","canonicalUrl":"https://foursquare.com/v/rumors-lounge/4b1bfef5f964a5205f0024e3","categoryId":"4bf58dd8d48988d116941735","category":"Bar","checkinsCount":1240,"usersCount":395,"tipCount":2,"visitsCount":1360,"tier":"","message":"","currency":"","rating":5.4}]