[{"name":"Old Brogue Irish Pub","phone":"7037593309","address":"760 Walker Rd","lat":38.99736119170791,"lng":-77.29035085675187,"city_fetched":"Great Falls","state":"VA","country":"United States","canonicalUrl":"https://foursquare.com/v/old-brogue-irish-pub/44f0e4bdf964a520fe371fe3","category":"Pub","checkinsCount":3146,"usersCount":1209,"tipCount":28,"visitsCount":3430,"url":"http://oldbrogue.com","tier":2,"message":"Moderate","currency":"$","rating":8.5},{"name":"The Wine Cabinet","phone":"7036689463","address":"1416 Northpoint Village Ctr","lat":38.97952343705507,"lng":-77.3490511128881,"city_fetched":"Great Falls","state":"VA","country":"United States","canonicalUrl":"https://foursquare.com/v/the-wine-cabinet/4b6a1a7cf964a520d3c72be3","category":"Wine Shop","checkinsCount":438,"usersCount":150,"tipCount":4,"visitsCount":442,"tier":"","message":"","currency":"","rating":7.8},{"name":"Kalypso's Sports Tavern","phone":"7037070660","twitter":"kalypsotavern","address":"1617 Washington Plz","lat":38.96882493615248,"lng":-77.34062790870667,"city_fetched":"Great Falls","state":"VA","country":"United States","canonicalUrl":"https://foursquare.com/v/kalypsos-sports-tavern/4c2f69583896e21e01d8e390","category":"Greek Restaurant","checkinsCount":2143,"usersCount":810,"tipCount":23,"visitsCount":2320,"url":"http://kalypsossportstavern.com","tier":2,"message":"Moderate","currency":"$","rating":7.5},{"name":"The Tavern at Great Falls","phone":"7037574770","address":"9835 Georgetown Pike","lat":38.997446792988924,"lng":-77.2872874253475,"city_fetched":"Great Falls","state":"VA","country":"United States","canonicalUrl":"https://foursquare.com/v/the-tavern-at-great-falls/4b75f1f8f964a52014312ee3","category":"Restaurant","checkinsCount":833,"usersCount":395,"tipCount":17,"visitsCount":931,"url":"http://greatfallstavern.com","tier":3,"message":"Expensive","currency":"$","rating":7}]