[{"name":"Fountain Square Brewing Company","phone":"3174931410","twitter":"fountainsqrbrew","address":"1301 Barth Ave","lat":39.74972540214757,"lng":-86.14027801022124,"neighborhood":"Fountain Square","city_fetched":"Greenwood,US","state":"IN","country":"United States","canonicalUrl":"https://foursquare.com/v/fountain-square-brewing-company/4e7e1920b8f700d320a85b00","categoryId":"50327c8591d4c4b30a586d5d","category":"Brewery","checkinsCount":3857,"usersCount":2122,"tipCount":35,"visitsCount":4513,"url":"http://fountainsquarebrewery.com","tier":1,"message":"Cheap","currency":"$","rating":8.9},{"name":"Taxman Brewing Co.","phone":"3174580210","twitter":"taxmanbrewing","address":"13 Baldwin St.","lat":39.5209426367577,"lng":-86.16699993610382,"city_fetched":"Greenwood,US","state":"IN","country":"United States","canonicalUrl":"https://foursquare.com/v/taxman-brewing-co/541f47be498eebd477e53b49","categoryId":"50327c8591d4c4b30a586d5d","category":"Brewery","checkinsCount":521,"usersCount":590,"tipCount":9,"visitsCount":1018,"url":"http://www.taxmanbrewing.com","tier":"","message":"","currency":"","rating":8.9},{"name":"Red Lion Grog House","phone":"3178224764","twitter":"redliongroghous","address":"1043 Virginia Ave","lat":39.752436206213915,"lng":-86.14066064357758,"neighborhood":"Fountain Square","city_fetched":"Greenwood,US","state":"IN","country":"United States","canonicalUrl":"https://foursquare.com/v/red-lion-grog-house/4b1eb588f964a520401e24e3","categoryId":"4bf58dd8d48988d11b941735","category":"Pub","checkinsCount":5684,"usersCount":2377,"tipCount":62,"visitsCount":5784,"url":"http://www.redliongroghouse.com","tier":2,"message":"Moderate","currency":"$","rating":8.9},{"name":"Oaken Barrel Brewing Company","phone":"3178872287","twitter":"oakenbarrel","address":"50 Airport Pkwy","lat":39.61560670538345,"lng":-86.09058380126953,"city_fetched":"Greenwood,US","state":"IN","country":"United States","canonicalUrl":"https://foursquare.com/v/oaken-barrel-brewing-company/4ae0a325f964a520258121e3","categoryId":"50327c8591d4c4b30a586d5d","category":"Brewery","checkinsCount":5603,"usersCount":2393,"tipCount":55,"visitsCount":6560,"url":"http://www.oakenbarrel.com","tier":2,"message":"Moderate","currency":"$","rating":8.7},{"name":"The Willard Restaurant & Bar","phone":"3177389991","twitter":"thewillard","address":"99 N Main St","lat":39.481359007212525,"lng":-86.0549533367157,"city_fetched":"Greenwood,US","state":"IN","country":"United States","canonicalUrl":"https://foursquare.com/v/the-willard-restaurant--bar/4b06f580f964a52045f422e3","categoryId":"4bf58dd8d48988d116941735","category":"Bar","checkinsCount":1439,"usersCount":769,"tipCount":19,"visitsCount":1618,"url":"http://thewillard.com","tier":"","message":"","currency":"","rating":8.7},{"name":"MashCraft Brewing","phone":"3172154578","twitter":"mashcraftbrews","address":"1140 N State Road 135","lat":39.63300546829909,"lng":-86.15932611734945,"city_fetched":"Greenwood,US","state":"IN","country":"United States","canonicalUrl":"https://foursquare.com/v/mashcraft-brewing/52a3539711d2f107b856b25b","categoryId":"50327c8591d4c4b30a586d5d","category":"Brewery","checkinsCount":659,"usersCount":307,"tipCount":4,"visitsCount":972,"url":"http://www.mashcraft.com","tier":"","message":"","currency":"","rating":8.5},{"name":"Planetary Brewing Company","phone":"3172154941","twitter":"planetarybrew","address":"500 Polk St","lat":39.608571,"lng":-86.099052,"city_fetched":"Greenwood,US","state":"IN","country":"United States","canonicalUrl":"https://foursquare.com/v/planetary-brewing-company/513ba77be4b024277cb44822","categoryId":"50327c8591d4c4b30a586d5d","category":"Brewery","checkinsCount":148,"usersCount":153,"tipCount":5,"visitsCount":297,"url":"http://www.planetarybrewing.com","tier":"","message":"","currency":"","rating":8.3},{"name":"Radio Radio","phone":"3179550995","address":"1119 Prospect St","lat":39.7520608990667,"lng":-86.13915860652924,"neighborhood":"Fountain Square","city_fetched":"Greenwood,US","state":"IN","country":"United States","canonicalUrl":"https://foursquare.com/v/radio-radio/4ad4bff8f964a520fde920e3","categoryId":"4bf58dd8d48988d116941735","category":"Bar","checkinsCount":2840,"usersCount":1397,"tipCount":14,"visitsCount":2859,"url":"http://futureshock.net","tier":1,"message":"Cheap","currency":"$","rating":8.3},{"name":"La Revolucion Cafe & Bar","phone":"3174239490","address":"1132 Prospect St","lat":39.75251218915367,"lng":-86.13876697786954,"neighborhood":"Fountain Square","city_fetched":"Greenwood,US","state":"IN","country":"United States","canonicalUrl":"https://foursquare.com/v/la-revolucion-cafe--bar/4df429bf22718759f82298c4","categoryId":"4bf58dd8d48988d116941735","category":"Bar","checkinsCount":4113,"usersCount":1797,"tipCount":59,"visitsCount":4410,"tier":2,"message":"Moderate","currency":"$","rating":8.3},{"name":"New Day Craft Mead & Cider","phone":"8886323379","twitter":"newdaycraft","address":"1102 Prospect St","lat":39.75248569711372,"lng":-86.13958239555359,"neighborhood":"Fountain Square","city_fetched":"Greenwood,US","state":"IN","country":"United States","canonicalUrl":"https://foursquare.com/v/new-day-craft-mead--cider/4beda0ed6c5c9521d0e7068a","categoryId":"50327c8591d4c4b30a586d5d","category":"Brewery","checkinsCount":3410,"usersCount":1722,"tipCount":32,"visitsCount":3765,"url":"http://www.newdaycraft.com","tier":2,"message":"Moderate","currency":"$","rating":8.2},{"name":"Thunderbird","phone":"3179749580","twitter":"thunderbirdindy","address":"1127 Shelby St","lat":39.751525,"lng":-86.139579,"neighborhood":"Fountain Square","city_fetched":"Greenwood,US","state":"IN","country":"United States","canonicalUrl":"https://foursquare.com/v/thunderbird/52a00826498ee805b3256475","categoryId":"4bf58dd8d48988d11e941735","category":"Cocktail Bar","checkinsCount":1312,"usersCount":902,"tipCount":24,"visitsCount":1600,"url":"http://thunderbirdindy.com","tier":3,"message":"Expensive","currency":"$","rating":8.1},{"name":"The Brass Ring","phone":"3176357464","address":"1245 Shelby St","lat":39.75037666,"lng":-86.13965661,"neighborhood":"Fountain Square","city_fetched":"Greenwood,US","state":"IN","country":"United States","canonicalUrl":"https://foursquare.com/v/the-brass-ring/4ada0331f964a520361d21e3","categoryId":"4bf58dd8d48988d116941735","category":"Bar","checkinsCount":4145,"usersCount":1797,"tipCount":35,"visitsCount":4554,"url":"http://thebrassringlounge.com","tier":2,"message":"Moderate","currency":"$","rating":8.1},{"name":"O'Reilly Irish Bar","lat":39.63668687420443,"lng":-86.15782061575777,"city_fetched":"Greenwood,US","state":"IN","country":"United States","canonicalUrl":"https://foursquare.com/v/oreilly-irish-bar/56859506498e433ef351054e","categoryId":"4bf58dd8d48988d11b941735","category":"Pub","checkinsCount":180,"usersCount":118,"tipCount":3,"visitsCount":321,"tier":"","message":"","currency":"","rating":8},{"name":"Schneider's Pub","address":"8017 S Meridian St","lat":39.65079170370129,"lng":-86.15727405306467,"city_fetched":"Greenwood,US","state":"IN","country":"United States","canonicalUrl":"https://foursquare.com/v/schneiders-pub/4c8978f82e3337048461bb41","categoryId":"4bf58dd8d48988d11b941735","category":"Pub","checkinsCount":685,"usersCount":173,"tipCount":3,"visitsCount":719,"tier":"","message":"","currency":"","rating":8},{"name":"Mikie's Pub","address":"Emerson Ave","lat":39.691513843176615,"lng":-86.08111073286872,"neighborhood":"I65-South Emerson","city_fetched":"Greenwood,US","state":"IN","country":"United States","canonicalUrl":"https://foursquare.com/v/mikies-pub/52967ef2498e1161162ef430","categoryId":"4bf58dd8d48988d116941735","category":"Bar","checkinsCount":442,"usersCount":187,"tipCount":3,"visitsCount":796,"tier":"","message":"","currency":"","rating":7.5},{"name":"Jeff Street Pub","phone":"3177385350","address":"90 E Jefferson St","lat":39.48075,"lng":-86.05402706666666,"city_fetched":"Greenwood,US","state":"IN","country":"United States","canonicalUrl":"https://foursquare.com/v/jeff-street-pub/4b06f546f964a52040f422e3","categoryId":"4bf58dd8d48988d11b941735","category":"Pub","checkinsCount":857,"usersCount":273,"tipCount":6,"visitsCount":964,"tier":"","message":"","currency":"","rating":7.5},{"name":"Rockhouse Cafe","address":"3940 S Keystone Ave","lat":39.709477569468866,"lng":-86.12057641918739,"neighborhood":"University Heights","city_fetched":"Greenwood,US","state":"IN","country":"United States","canonicalUrl":"https://foursquare.com/v/rockhouse-cafe/4c5e0683d25320a1e7dbc77a","categoryId":"4bf58dd8d48988d121941735","category":"Lounge","checkinsCount":438,"usersCount":307,"tipCount":7,"visitsCount":448,"tier":"","message":"","currency":"","rating":7.4},{"name":"Hops & Fire Craft Tap House","address":"1259 N State Road 135","lat":39.63378171699917,"lng":-86.15712995829129,"city_fetched":"Greenwood,US","state":"IN","country":"United States","canonicalUrl":"https://foursquare.com/v/hops--fire-craft-tap-house/56436985498e5f9074ddcf04","categoryId":"4bf58dd8d48988d116941735","category":"Bar","checkinsCount":145,"usersCount":154,"tipCount":0,"visitsCount":298,"tier":"","message":"","currency":"","rating":7.4},{"name":"That Place Bar & Grill","phone":"3178887100","twitter":"thatplacebar","address":"8810 S Emerson Ave","lat":39.63951282797496,"lng":-86.0839122334139,"city_fetched":"Greenwood,US","state":"IN","country":"United States","canonicalUrl":"https://foursquare.com/thatplacebar","categoryId":"4bf58dd8d48988d116941735","category":"Bar","checkinsCount":2856,"usersCount":1173,"tipCount":22,"visitsCount":3290,"url":"http://www.thatplacebarandgrill.com","tier":2,"message":"Moderate","currency":"$","rating":7.3},{"name":"O'Gara's Irish Pub","phone":"3177847474","address":"522 Main St","lat":39.72186,"lng":-86.08819,"city_fetched":"Greenwood,US","state":"IN","country":"United States","canonicalUrl":"https://foursquare.com/v/ogaras-irish-pub/4d4395a24e5d3704597ae193","categoryId":"4bf58dd8d48988d116941735","category":"Bar","checkinsCount":677,"usersCount":209,"tipCount":3,"visitsCount":726,"tier":"","message":"","currency":"","rating":7.2},{"name":"Bar Louie","phone":"3172155400","twitter":"barlouie","address":"1251 US 31 North","lat":39.633786076449155,"lng":-86.12182446084611,"city_fetched":"Greenwood,US","state":"IN","country":"United States","canonicalUrl":"https://foursquare.com/v/bar-louie/5671e735498eec5f4a5047b2","categoryId":"4bf58dd8d48988d11e941735","category":"Cocktail Bar","checkinsCount":114,"usersCount":97,"tipCount":3,"visitsCount":184,"url":"http://t.co/6m5uO0JOqN","tier":"","message":"","currency":"","rating":7.2},{"name":"The Colonial Inn","address":"4343 Madison Ave","lat":39.70231533050537,"lng":-86.139568,"city_fetched":"Greenwood,US","state":"IN","country":"United States","canonicalUrl":"https://foursquare.com/v/the-colonial-inn/4b8f0d45f964a520954633e3","categoryId":"4bf58dd8d48988d116941735","category":"Bar","checkinsCount":420,"usersCount":295,"tipCount":6,"visitsCount":554,"tier":"","message":"","currency":"","rating":7.1},{"name":"Brad's Brass Flamingo","lat":39.750562440464385,"lng":-86.09485304518734,"neighborhood":"Near Southeast","city_fetched":"Greenwood,US","state":"IN","country":"United States","canonicalUrl":"https://foursquare.com/v/brads-brass-flamingo/4b7de731f964a520ffd82fe3","categoryId":"4bf58dd8d48988d1d6941735","category":"Strip Club","checkinsCount":685,"usersCount":708,"tipCount":12,"visitsCount":1239,"tier":"","message":"","currency":"","rating":7},{"name":"Bert & Den's Grille & Chill","address":"Southern Plaza","lat":39.70309273910418,"lng":-86.15023280987442,"city_fetched":"Greenwood,US","state":"IN","country":"United States","canonicalUrl":"https://foursquare.com/v/bert--dens-grille--chill/4bf749c25efe2d7f70d96834","categoryId":"4bf58dd8d48988d11d941735","category":"Sports Bar","checkinsCount":489,"usersCount":212,"tipCount":7,"visitsCount":524,"tier":"","message":"","currency":"","rating":7},{"name":"Wing N It Bar And Grill","phone":"3178818261","address":"1675 W Smith Valley Rd","lat":39.605337091765904,"lng":-86.1575523038925,"city_fetched":"Greenwood,US","state":"IN","country":"United States","canonicalUrl":"https://foursquare.com/v/wing-n-it-bar-and-grill/4d70546fb48c236a9c4ccd57","categoryId":"4bf58dd8d48988d120941735","category":"Karaoke Bar","checkinsCount":4239,"usersCount":388,"tipCount":15,"visitsCount":4254,"tier":"","message":"","currency":"","rating":6.8},{"name":"McQ's Pub & Eatery","phone":"3177811666","address":"3149 E Thompson Rd","lat":39.692625237453264,"lng":-86.10980987548828,"neighborhood":"Edgewood","city_fetched":"Greenwood,US","state":"IN","country":"United States","canonicalUrl":"https://foursquare.com/v/mcqs-pub--eatery/4bd7b4fc885595218d3688a7","categoryId":"4bf58dd8d48988d11b941735","category":"Pub","checkinsCount":1084,"usersCount":339,"tipCount":9,"visitsCount":1192,"tier":"","message":"","currency":"","rating":6.8},{"name":"Harry C's","phone":"3177873787","address":"5505 S Dearborn","lat":39.692923,"lng":-86.1089676618576,"neighborhood":"Edgewood","city_fetched":"Greenwood,US","state":"IN","country":"United States","canonicalUrl":"https://foursquare.com/v/harry-cs/4bc136bef8219c74ad1fb310","categoryId":"4bf58dd8d48988d11b941735","category":"Pub","checkinsCount":271,"usersCount":107,"tipCount":3,"visitsCount":272,"url":"http://harrycs.com","tier":"","message":"","currency":"","rating":6.8},{"name":"Imbibe","phone":"3176851959","twitter":"fountainsqindy","address":"1105 Shelby St","lat":39.75207551329826,"lng":-86.13998475413781,"neighborhood":"Fountain Square","city_fetched":"Greenwood,US","state":"IN","country":"United States","canonicalUrl":"https://foursquare.com/v/imbibe/4af4eedaf964a52088f721e3","categoryId":"4bf58dd8d48988d116941735","category":"Bar","checkinsCount":824,"usersCount":387,"tipCount":7,"visitsCount":834,"tier":"","message":"","currency":"","rating":6.7},{"name":"Robby's Pub","phone":"3178651997","address":"1345 W Southport Rd","lat":39.66314629811911,"lng":-86.18346333503723,"neighborhood":"Glenn's Valley","city_fetched":"Greenwood,US","state":"IN","country":"United States","canonicalUrl":"https://foursquare.com/v/robbys-pub/4c1ebf92b306c928a99367b7","categoryId":"4bf58dd8d48988d11b941735","category":"Pub","checkinsCount":1741,"usersCount":472,"tipCount":19,"visitsCount":1774,"tier":"","message":"","currency":"","rating":6.5},{"name":"Mucky Duck","phone":"3178873825","address":"4425 Southport Crossings Dr","lat":39.663145064490216,"lng":-86.09290287537789,"city_fetched":"Greenwood,US","state":"IN","country":"United States","canonicalUrl":"https://foursquare.com/v/mucky-duck/4b6503bef964a52088df2ae3","categoryId":"4bf58dd8d48988d11b941735","category":"Pub","checkinsCount":3657,"usersCount":1778,"tipCount":24,"visitsCount":4207,"url":"http://muckyduckindy.com","tier":2,"message":"Moderate","currency":"$","rating":6.5},{"name":"Gallagher's II","phone":"3178843850","address":"2310 W Southport Rd","lat":39.66414481384222,"lng":-86.20041465007876,"neighborhood":"Southern Dunes","city_fetched":"Greenwood,US","state":"IN","country":"United States","canonicalUrl":"https://foursquare.com/v/gallaghers-ii/4b9499acf964a520697e34e3","categoryId":"4bf58dd8d48988d11d941735","category":"Sports Bar","checkinsCount":2096,"usersCount":652,"tipCount":15,"visitsCount":2377,"url":"http://www.gallagherspizzaexpress.com","tier":"","message":"","currency":"","rating":6.4},{"name":"Heavy's Sports Cafe","phone":"3178565653","address":"8411 Windfall Ln","lat":39.64046465479398,"lng":-86.33338077194767,"city_fetched":"Greenwood,US","state":"IN","country":"United States","canonicalUrl":"https://foursquare.com/v/heavys-sports-cafe/4cf068041d18a143d6604cec","categoryId":"4bf58dd8d48988d11d941735","category":"Sports Bar","checkinsCount":1031,"usersCount":213,"tipCount":12,"visitsCount":1072,"tier":1,"message":"Cheap","currency":"$","rating":6.4},{"name":"Main St. Grille","phone":"3172154326","address":"200 S Emerson Ave","lat":39.61340208723598,"lng":-86.08352908869998,"city_fetched":"Greenwood,US","state":"IN","country":"United States","canonicalUrl":"https://foursquare.com/v/main-st-grille/4ee6613093adf8e1a97209bb","categoryId":"4bf58dd8d48988d11b941735","category":"Pub","checkinsCount":390,"usersCount":248,"tipCount":11,"visitsCount":417,"tier":"","message":"","currency":"","rating":6.3},{"name":"Bartons Pub","phone":"3178887404","address":"7930 S Emerson Ave","lat":39.651846169882944,"lng":-86.0829916861131,"city_fetched":"Greenwood,US","state":"IN","country":"United States","canonicalUrl":"https://foursquare.com/v/bartons-pub/4b1339e8f964a520af9523e3","categoryId":"4bf58dd8d48988d116941735","category":"Bar","checkinsCount":946,"usersCount":380,"tipCount":8,"visitsCount":1039,"tier":"","message":"","currency":"","rating":6.1},{"name":"Southport Bar & Grill","phone":"3177807969","twitter":"sbgindy","address":"5220 E Southport Rd","lat":39.667193,"lng":-86.0798,"neighborhood":"I65-South Emerson","city_fetched":"Greenwood,US","state":"IN","country":"United States","canonicalUrl":"https://foursquare.com/v/southport-bar--grill/4dbd0c6afa8cee72735dfd60","categoryId":"4bf58dd8d48988d11d941735","category":"Sports Bar","checkinsCount":727,"usersCount":408,"tipCount":12,"visitsCount":837,"url":"http://www.sbgindy.com","tier":"","message":"","currency":"","rating":6.1},{"name":"Peppers 2","phone":"3178870461","address":"299 S State Road 135","lat":39.61144614867363,"lng":-86.15791005273353,"city_fetched":"Greenwood,US","state":"IN","country":"United States","canonicalUrl":"https://foursquare.com/v/peppers-2/4b7113c8f964a52018392de3","categoryId":"4bf58dd8d48988d116941735","category":"Bar","checkinsCount":1251,"usersCount":355,"tipCount":7,"visitsCount":1305,"url":"http://pepperslive.com","tier":"","message":"","currency":"","rating":6},{"name":"Blind Pig","address":"147 S Madison Ave","lat":39.614175974404795,"lng":-86.1098201251866,"city_fetched":"Greenwood,US","state":"IN","country":"United States","canonicalUrl":"https://foursquare.com/v/blind-pig/4c5dff5f7735c9b653da9072","categoryId":"4bf58dd8d48988d116941735","category":"Bar","checkinsCount":1074,"usersCount":269,"tipCount":6,"visitsCount":1112,"tier":"","message":"","currency":"","rating":5.9},{"name":"John Wayne's","address":"2351 E Stop 11 Rd","lat":39.64976561132755,"lng":-86.12063608720861,"city_fetched":"Greenwood,US","state":"IN","country":"United States","canonicalUrl":"https://foursquare.com/v/john-waynes/4c7054db9c6d6dcb6961d27a","categoryId":"4bf58dd8d48988d116941735","category":"Bar","checkinsCount":369,"usersCount":155,"tipCount":2,"visitsCount":428,"tier":"","message":"","currency":"","rating":5.8},{"name":"Classy Chassy","phone":"3177873442","address":"4444 S Harding St","lat":39.69916339762768,"lng":-86.1871862411499,"city_fetched":"Greenwood,US","state":"IN","country":"United States","canonicalUrl":"https://foursquare.com/v/classy-chassy/4c3ab55ed94dc9b67eb5fee7","categoryId":"4bf58dd8d48988d1d6941735","category":"Strip Club","checkinsCount":597,"usersCount":235,"tipCount":7,"visitsCount":604,"url":"http://www.classychassygogo.com","tier":"","message":"","currency":"","rating":5.4},{"name":"Hookah Nites","address":"817-859 W County Line Rd","lat":39.635848,"lng":-86.121508,"city_fetched":"Greenwood,US","state":"IN","country":"United States","canonicalUrl":"https://foursquare.com/v/hookah-nites/4d12d494d1848cfa9552bf71","categoryId":"4bf58dd8d48988d119941735","category":"Hookah Bar","checkinsCount":442,"usersCount":233,"tipCount":11,"visitsCount":447,"tier":"","message":"","currency":"","rating":5.2},{"name":"Whiskey River Bar and Grill","phone":"3173901505","address":"2910 S Lynhurst Dr","lat":39.72193916098585,"lng":-86.25100840997341,"neighborhood":"Mars Hill","city_fetched":"Greenwood,US","state":"IN","country":"United States","canonicalUrl":"https://foursquare.com/v/whiskey-river-bar-and-grill/4b4d20f0f964a520fbcb26e3","categoryId":"4bf58dd8d48988d116941735","category":"Bar","checkinsCount":348,"usersCount":229,"tipCount":9,"visitsCount":397,"tier":"","message":"","currency":"","rating":5.2}]