[{"name":"Crabtree Brewing Company","phone":"9703560516","twitter":"crabtreebrewing","address":"2961 W 29th St","lat":40.39079542719883,"lng":-104.7265990135889,"city_fetched":"Greeley","state":"CO","country":"United States","canonicalUrl":"https://foursquare.com/crabtreebrewing","category":"Brewery","checkinsCount":2057,"usersCount":595,"tipCount":33,"visitsCount":2257,"url":"http://www.crabtreebrewing.com","tier":"","message":"","currency":"","rating":9.3},{"name":"Weldwerks","address":"508 8th Ave","lat":40.42812029525437,"lng":-104.69057549035054,"city_fetched":"Greeley","state":"CO","country":"United States","canonicalUrl":"https://foursquare.com/v/weldwerks/54e7b855498ef7be1054dda1","category":"Brewery","checkinsCount":368,"usersCount":253,"tipCount":6,"visitsCount":685,"tier":"","message":"","currency":"","rating":8.8},{"name":"Patrick's Irish Pub","phone":"9703968095","address":"907 8th Ave","lat":40.423519830145,"lng":-104.69096273398453,"city_fetched":"Greeley","state":"CO","country":"United States","canonicalUrl":"https://foursquare.com/v/patricks-irish-pub/4b4beed1f964a5208dab26e3","category":"Bar","checkinsCount":1871,"usersCount":508,"tipCount":20,"visitsCount":1921,"url":"http://patricksgreeley.com","tier":2,"message":"Moderate","currency":"$","rating":8.4},{"name":"The Tavern @ St. Michael's Square","phone":"9703302337","twitter":"thetavernatsms","address":"2918 67th Ave","lat":40.38872374619736,"lng":-104.78686809539795,"city_fetched":"Greeley","state":"CO","country":"United States","canonicalUrl":"https://foursquare.com/thetavernatsms","category":"Bar","checkinsCount":1378,"usersCount":415,"tipCount":22,"visitsCount":1678,"url":"http://greeleytavern.com","tier":2,"message":"Moderate","currency":"$","rating":8.2},{"name":"The Kress Cinema & Lounge","phone":"9705155717","address":"817 8th Ave","lat":40.424246177851934,"lng":-104.69096842875113,"city_fetched":"Greeley","state":"CO","country":"United States","canonicalUrl":"https://foursquare.com/v/the-kress-cinema--lounge/4b43cbf0f964a52034ea25e3","category":"Indie Movie Theater","checkinsCount":462,"usersCount":193,"tipCount":10,"visitsCount":480,"url":"http://www.kresscinema.com","tier":"","message":"","currency":"","rating":8},{"name":"Tilted Kilt Pub & Eatery","phone":"9703535458","twitter":"tiltedkiltpub","address":"610 9th Ave","lat":40.42712019771622,"lng":-104.69251871109007,"city_fetched":"Greeley","state":"CO","country":"United States","canonicalUrl":"https://foursquare.com/v/tilted-kilt-pub--eatery/523896a17e4819c68bfb8dee","category":"Pub","checkinsCount":254,"usersCount":94,"tipCount":1,"visitsCount":273,"url":"http://www.tiltedkilt.com","tier":"","message":"","currency":"","rating":7.9},{"name":"The Mad Cow Saloon & Eatery","address":"800 9th St","lat":40.42366116533633,"lng":-104.69100259735521,"city_fetched":"Greeley","state":"CO","country":"United States","canonicalUrl":"https://foursquare.com/v/the-mad-cow-saloon--eatery/4cb0dd8139458cfa24c706a0","category":"Bar","checkinsCount":589,"usersCount":262,"tipCount":15,"visitsCount":599,"tier":"","message":"","currency":"","rating":7.8},{"name":"Syntax Spirits Distillery and Tasting Bar","phone":"9703525466","twitter":"syntaxspirits","address":"625 3rd St Unit C","lat":40.431239775319256,"lng":-104.68816093442038,"city_fetched":"Greeley","state":"CO","country":"United States","canonicalUrl":"https://foursquare.com/syntaxspirits","category":"Distillery","checkinsCount":415,"usersCount":125,"tipCount":8,"visitsCount":435,"url":"http://www.syntaxspirits.com","tier":"","message":"","currency":"","rating":7.7},{"name":"Cables Pub & Grill","phone":"9703304847","address":"1923 59th Ave #105","lat":40.407307913200675,"lng":-104.77581202983856,"city_fetched":"Greeley","state":"CO","country":"United States","canonicalUrl":"https://foursquare.com/v/cables-pub--grill/4d41a3957416cbffc92ce291","category":"American Restaurant","checkinsCount":1076,"usersCount":527,"tipCount":12,"visitsCount":1496,"url":"http://www.cablespubandgrill.com","tier":2,"message":"Moderate","currency":"$","rating":7.7},{"name":"The Moxi Theater","address":"802 9th St","lat":40.423704591491365,"lng":-104.69117344048958,"city_fetched":"Greeley","state":"CO","country":"United States","canonicalUrl":"https://foursquare.com/v/the-moxi-theater/517c9696e4b0266850aa01cc","category":"Concert Hall","checkinsCount":205,"usersCount":142,"tipCount":4,"visitsCount":211,"tier":"","message":"","currency":"","rating":7.7},{"name":"Highland Park Lanes","address":"59th Avenue","lat":40.40860995130962,"lng":-104.77509737175419,"city_fetched":"Greeley","state":"CO","country":"United States","canonicalUrl":"https://foursquare.com/v/highland-park-lanes/4dc03df2043706a032114054","category":"Bowling Alley","checkinsCount":502,"usersCount":219,"tipCount":4,"visitsCount":602,"tier":"","message":"","currency":"","rating":7.6},{"name":"Broken Plow Brewery","address":"4731 W 10th St Unit G","lat":40.421937992316884,"lng":-104.75760590646068,"city_fetched":"Greeley","state":"CO","country":"United States","canonicalUrl":"https://foursquare.com/v/broken-plow-brewery/52c34fca498e242380554f2c","category":"Brewery","checkinsCount":286,"usersCount":212,"tipCount":4,"visitsCount":540,"url":"http://brokenplowbrewery.com","tier":2,"message":"Moderate","currency":"$","rating":7.4},{"name":"the crvsh room","twitter":"thecrvshroom","address":"915 16th St","lat":40.413950980505625,"lng":-104.69371902569493,"city_fetched":"Greeley","state":"CO","country":"United States","canonicalUrl":"https://foursquare.com/v/the-crvsh-room/4e3095c8b3adbe71de14c823","category":"Lounge","checkinsCount":550,"usersCount":126,"tipCount":7,"visitsCount":554,"tier":"","message":"","currency":"","rating":7.3},{"name":"Istanbul","address":"630 26th St","lat":40.39562,"lng":-104.68969236666666,"city_fetched":"Greeley","state":"CO","country":"United States","canonicalUrl":"https://foursquare.com/v/istanbul/4b95f564f964a5209db834e3","category":"Hookah Bar","checkinsCount":707,"usersCount":205,"tipCount":5,"visitsCount":782,"tier":"","message":"","currency":"","rating":7.1},{"name":"Brix Taphouse & Brewery","address":"813 8th St","lat":40.42499743430208,"lng":-104.69152082211538,"city_fetched":"Greeley","state":"CO","country":"United States","canonicalUrl":"https://foursquare.com/v/brix-taphouse--brewery/54b891ed498ee6c3dd24a4c8","category":"Brewery","checkinsCount":233,"usersCount":71,"tipCount":1,"visitsCount":257,"tier":"","message":"","currency":"","rating":7},{"name":"Wiley Roots Brewery","address":"625 3rd St Unit D","lat":40.43136529628401,"lng":-104.68842288912408,"city_fetched":"Greeley","state":"CO","country":"United States","canonicalUrl":"https://foursquare.com/v/wiley-roots-brewery/51cf284de4b054a2e765946d","category":"Brewery","checkinsCount":508,"usersCount":135,"tipCount":4,"visitsCount":555,"tier":1,"message":"Cheap","currency":"$","rating":7},{"name":"Dugout","phone":"9703568739","address":"2509 11th Ave","lat":40.39681,"lng":-104.69777235,"city_fetched":"Greeley","state":"CO","country":"United States","canonicalUrl":"https://foursquare.com/v/dugout/4c5fa87f12e5c9289fad1d4c","category":"Dive Bar","checkinsCount":439,"usersCount":156,"tipCount":5,"visitsCount":502,"url":"http://www.colorado.com/bar-grill/dugout-bar-grill","tier":"","message":"","currency":"","rating":7},{"name":"Key Largo Lounge","phone":"9703461198","address":"3621 W 10th St","lat":40.423338577245836,"lng":-104.73815680040722,"city_fetched":"Greeley","state":"CO","country":"United States","canonicalUrl":"https://foursquare.com/v/key-largo-lounge/4c5fb22cb36eb713aaba99d2","category":"Lounge","checkinsCount":372,"usersCount":40,"tipCount":4,"visitsCount":374,"tier":"","message":"","currency":"","rating":6.8},{"name":"Bogeys","phone":"9703303623","address":"2200 Clubhouse Dr","lat":40.402843,"lng":-104.7677709,"city_fetched":"Greeley","state":"CO","country":"United States","canonicalUrl":"https://foursquare.com/v/bogeys/4db2fb4e93a017099db8e0a8","category":"American Restaurant","checkinsCount":352,"usersCount":118,"tipCount":8,"visitsCount":398,"tier":"","message":"","currency":"","rating":6.8},{"name":"Tavola Italian Restaurant","phone":"9705156375","address":"801 9th St","lat":40.42408492403414,"lng":-104.69090578633006,"city_fetched":"Greeley","state":"CO","country":"United States","canonicalUrl":"https://foursquare.com/v/tavola-italian-restaurant/4d8eafe7d00a6ea8e7eebf4f","category":"Italian Restaurant","checkinsCount":316,"usersCount":109,"tipCount":6,"visitsCount":316,"tier":"","message":"","currency":"","rating":6.5},{"name":"Cactus Canyon","phone":"9703518178","address":"1742 Greeley Mall","lat":40.39103846303003,"lng":-104.70750692076525,"city_fetched":"Greeley","state":"CO","country":"United States","canonicalUrl":"https://foursquare.com/v/cactus-canyon/4b43c948f964a520dae925e3","category":"Bar","checkinsCount":777,"usersCount":226,"tipCount":7,"visitsCount":837,"url":"http://cactuscanyongreeley.com","tier":"","message":"","currency":"","rating":6.4},{"name":"The JÃ¤ger","phone":"9703014212","address":"822 9th St","lat":40.42380990536839,"lng":-104.69208460708157,"city_fetched":"Greeley","state":"CO","country":"United States","canonicalUrl":"https://foursquare.com/v/the-j%C3%A4ger/4c1ab2b20137952135be46f3","category":"Bar","checkinsCount":943,"usersCount":276,"tipCount":10,"visitsCount":961,"url":"http://www.thejager.com","tier":"","message":"","currency":"","rating":6.2},{"name":"Randy's All American Grill","phone":"9706738774","twitter":"randysamerican","address":"2118 35th Ave","lat":40.404323,"lng":-104.735032,"city_fetched":"Greeley","state":"CO","country":"United States","canonicalUrl":"https://foursquare.com/v/randys-all-american-grill/4de10038d164e323c7b9b802","category":"American Restaurant","checkinsCount":1091,"usersCount":427,"tipCount":19,"visitsCount":1140,"url":"http://www.randysallamericangrill.com","tier":2,"message":"Moderate","currency":"$","rating":6.1},{"name":"Grabo's","phone":"9705156375","address":"801 9th St","lat":40.42406562272456,"lng":-104.69122052192688,"city_fetched":"Greeley","state":"CO","country":"United States","canonicalUrl":"https://foursquare.com/v/grabos/50f5b059e4b0cfb8aa73e3c9","category":"Bar","checkinsCount":205,"usersCount":83,"tipCount":4,"visitsCount":209,"tier":"","message":"","currency":"","rating":6},{"name":"Pitchers Brewery and Sports Shack","phone":"9703533393","address":"2501 11th Ave","lat":40.39702547270163,"lng":-104.69747985616665,"city_fetched":"Greeley","state":"CO","country":"United States","canonicalUrl":"https://foursquare.com/v/pitchers-brewery-and-sports-shack/4b43ce8df964a5208aea25e3","category":"Brewery","checkinsCount":898,"usersCount":333,"tipCount":13,"visitsCount":902,"tier":"","message":"","currency":"","rating":5.8},{"name":"Ricky B's Pub","address":"Main st","lat":40.48028,"lng":-104.90546464920044,"city_fetched":"Greeley","state":"CO","country":"United States","canonicalUrl":"https://foursquare.com/v/ricky-bs-pub/4b121493f964a520e18823e3","category":"Bar","checkinsCount":394,"usersCount":115,"tipCount":5,"visitsCount":439,"tier":"","message":"","currency":"","rating":5.6},{"name":"Penalty Box","phone":"9703014212","address":"822 9th St","lat":40.423699759075426,"lng":-104.6921073863156,"city_fetched":"Greeley","state":"CO","country":"United States","canonicalUrl":"https://foursquare.com/v/penalty-box/4cae80f639458cfaf461f39f","category":"Bar","checkinsCount":1392,"usersCount":350,"tipCount":9,"visitsCount":1397,"tier":"","message":"","currency":"","rating":5.5}]