[{"name":"Total Wine & More","phone":"8642884575","twitter":"totalwine","address":"1125 Woodruff Road, Suite 300","lat":34.829323,"lng":-82.295372,"city_fetched":"Greenville","state":"SC","country":"United States","canonicalUrl":"https://foursquare.com/v/total-wine--more/4c12aa6e82a3c9b69223faf8","category":"Wine Shop","checkinsCount":3523,"usersCount":1770,"tipCount":19,"visitsCount":5076,"url":"http://www.totalwine.com","tier":"","message":"","currency":"","rating":9.3},{"name":"Trappe Door","phone":"8644517490","address":"23 W Washington St","lat":34.85086444763427,"lng":-82.39979848265648,"neighborhood":"Downtown Greenville","city_fetched":"Greenville","state":"SC","country":"United States","canonicalUrl":"https://foursquare.com/v/trappe-door/4d9e40d1601d721e4ee6d3cc","category":"Beer Garden","checkinsCount":3110,"usersCount":1581,"tipCount":32,"visitsCount":3143,"url":"http://trappedoor.com","tier":2,"message":"Moderate","currency":"$","rating":9},{"name":"Yard House","phone":"8642817710","twitter":"yardhouse","address":"1025 Woodruff Rd","lat":34.8329602927784,"lng":-82.30664735361579,"city_fetched":"Greenville","state":"SC","country":"United States","canonicalUrl":"https://foursquare.com/v/yard-house/54182f55498e18ecf6c32db5","category":"American Restaurant","checkinsCount":1172,"usersCount":972,"tipCount":15,"visitsCount":2134,"url":"http://www.yardhouse.com","tier":"","message":"","currency":"","rating":9},{"name":"Barley’s Taproom & Pizzeria","phone":"8642323706","twitter":"barleysgville","address":"25 W Washington St","lat":34.85086499791776,"lng":-82.39990711212158,"neighborhood":"Downtown Greenville","city_fetched":"Greenville","state":"SC","country":"United States","canonicalUrl":"https://foursquare.com/v/barleys-taproom--pizzeria/4b5487f4f964a520cabe27e3","category":"Pizza Place","checkinsCount":7151,"usersCount":2986,"tipCount":57,"visitsCount":7473,"url":"http://www.barleystaproom.com","tier":1,"message":"Cheap","currency":"$","rating":8.9},{"name":"American Grocery Restaurant","phone":"8642327665","address":"732 S Main St","lat":34.84431911539035,"lng":-82.40541636943817,"city_fetched":"Greenville","state":"SC","country":"United States","canonicalUrl":"https://foursquare.com/v/american-grocery-restaurant/4b799021f964a5209d012fe3","category":"American Restaurant","checkinsCount":1073,"usersCount":354,"tipCount":25,"visitsCount":1092,"url":"http://www.americangr.com","tier":3,"message":"Expensive","currency":"$","rating":8.8},{"name":"Soby's On The Side","phone":"8642718431","twitter":"sobysontheside","address":"24 Old Augusta Rd","lat":34.84829838459474,"lng":-82.39949285330283,"neighborhood":"Downtown Greenville","city_fetched":"Greenville","state":"SC","country":"United States","canonicalUrl":"https://foursquare.com/v/sobys-on-the-side/4b533f89f964a520039427e3","category":"American Restaurant","checkinsCount":3845,"usersCount":1931,"tipCount":60,"visitsCount":3867,"url":"http://www.sobysontheside.com","tier":2,"message":"Moderate","currency":"$","rating":8.8},{"name":"Rick Erwin's West End Grille","phone":"8642328999","twitter":"westendgrille","address":"648 S Main St","lat":34.84478119529964,"lng":-82.40350563759483,"city_fetched":"Greenville","state":"SC","country":"United States","canonicalUrl":"https://foursquare.com/v/rick-erwins-west-end-grille/4b637d8df964a520ea7d2ae3","category":"Steakhouse","checkinsCount":1040,"usersCount":760,"tipCount":19,"visitsCount":1120,"url":"http://www.rickerwins.com","tier":3,"message":"Expensive","currency":"$","rating":8.7},{"name":"Brixx Wood Fired Pizza","phone":"8642861070","twitter":"brixxpizza","address":"1125 Woodruff Rd","lat":34.827375427401925,"lng":-82.29927313173785,"city_fetched":"Greenville","state":"SC","country":"United States","canonicalUrl":"https://foursquare.com/v/brixx-wood-fired-pizza/4b5e0559f964a5208d7929e3","category":"Pizza Place","checkinsCount":5965,"usersCount":2107,"tipCount":38,"visitsCount":6319,"url":"http://www.brixxpizza.com","tier":2,"message":"Moderate","currency":"$","rating":8.7},{"name":"Chicora Alley","phone":"8642324100","address":"608B S Main St","lat":34.84497290158956,"lng":-82.4023962020874,"city_fetched":"Greenville","state":"SC","country":"United States","canonicalUrl":"https://foursquare.com/v/chicora-alley/4b6c5b63f964a5204f332ce3","category":"Caribbean Restaurant","checkinsCount":3344,"usersCount":1609,"tipCount":41,"visitsCount":3451,"url":"http://www.chicoraalley.com","tier":2,"message":"Moderate","currency":"$","rating":8.7},{"name":"Bar Louie","phone":"8644044140","twitter":"barlouie","address":"1117 Woodruff Rd, Suite A","lat":34.83115641049469,"lng":-82.30456929042775,"city_fetched":"Greenville","state":"SC","country":"United States","canonicalUrl":"https://foursquare.com/v/bar-louie/54947903498e165b7358f0dc","category":"Restaurant","checkinsCount":256,"usersCount":235,"tipCount":7,"visitsCount":406,"url":"http://t.co/6m5uO0JOqN","tier":"","message":"","currency":"","rating":8.5},{"name":"Local Cue Barbecue and Billiards","phone":"8642886873","twitter":"localcue","address":"30 Orchard Park Dr Ste 7","lat":34.85639481149036,"lng":-82.33293589500589,"neighborhood":"Eastside","city_fetched":"Greenville","state":"SC","country":"United States","canonicalUrl":"https://foursquare.com/localcue","category":"Sports Bar","checkinsCount":659,"usersCount":576,"tipCount":11,"visitsCount":1351,"url":"http://www.localcue.com","tier":1,"message":"Cheap","currency":"$","rating":8.5},{"name":"Mac's Speed Shop Restaurant","phone":"8642390286","twitter":"macsspeedshop","address":"930 S Main St","lat":34.843565032659676,"lng":-82.40847100535208,"city_fetched":"Greenville","state":"SC","country":"United States","canonicalUrl":"https://foursquare.com/v/macs-speed-shop-restaurant/4f6f6e2ce4b05c9c2caebdf0","category":"BBQ Joint","checkinsCount":2646,"usersCount":1249,"tipCount":34,"visitsCount":3126,"url":"http://www.macspeedshop.com","tier":2,"message":"Moderate","currency":"$","rating":8.5},{"name":"Upstate Craft Beer Co","phone":"8642055000","twitter":"upstatebeerco","address":"400 Augusta St","lat":34.838428201493116,"lng":-82.40651607513428,"city_fetched":"Greenville","state":"SC","country":"United States","canonicalUrl":"https://foursquare.com/v/upstate-craft-beer-co/564e4430498ee39885f4297b","category":"Brewery","checkinsCount":340,"usersCount":125,"tipCount":1,"visitsCount":434,"url":"http://www.upstatecraftbeer.com","tier":"","message":"","currency":"","rating":8.5},{"name":"The Greenville Beer Exchange","address":"7 S Laurens St","lat":34.85067955217081,"lng":-82.39986956119537,"neighborhood":"Downtown Greenville","city_fetched":"Greenville","state":"SC","country":"United States","canonicalUrl":"https://foursquare.com/v/the-greenville-beer-exchange/4d20d5270901721e11e895a5","category":"Beer Store","checkinsCount":894,"usersCount":392,"tipCount":6,"visitsCount":899,"url":"http://greenvillebeerexchange.com","tier":"","message":"","currency":"","rating":8.5},{"name":"City Tavern","phone":"8642392202","address":"128 N Main St","lat":34.852191975453174,"lng":-82.39817991320919,"neighborhood":"Downtown Greenville","city_fetched":"Greenville","state":"SC","country":"United States","canonicalUrl":"https://foursquare.com/v/city-tavern/4b5bc318f964a520b91429e3","category":"Bar","checkinsCount":5080,"usersCount":1504,"tipCount":34,"visitsCount":5293,"tier":1,"message":"Cheap","currency":"$","rating":8.4},{"name":"Sushi Murasaki","phone":"8642712452","address":"2 S Main St","lat":34.850789426457176,"lng":-82.39907991513722,"neighborhood":"Downtown Greenville","city_fetched":"Greenville","state":"SC","country":"United States","canonicalUrl":"https://foursquare.com/v/sushi-murasaki/4b625545f964a520d7422ae3","category":"Sushi Restaurant","checkinsCount":4845,"usersCount":1432,"tipCount":24,"visitsCount":4879,"url":"http://sushihanausa.com","tier":2,"message":"Moderate","currency":"$","rating":8.4},{"name":"Purple International Bistro & Sushi","phone":"8642323255","address":"933 S Main St","lat":34.843172225370154,"lng":-82.4085009098053,"city_fetched":"Greenville","state":"SC","country":"United States","canonicalUrl":"https://foursquare.com/v/purple-international-bistro--sushi/4bc7bca414d79521260c68e9","category":"Sushi Restaurant","checkinsCount":663,"usersCount":246,"tipCount":13,"visitsCount":663,"url":"http://www.purplesushibar.com","tier":"","message":"","currency":"","rating":8.3},{"name":"Roost","phone":"8642982424","twitter":"roostgreenville","address":"220 N Main St","lat":34.853136339087065,"lng":-82.3976504948733,"neighborhood":"Downtown Greenville","city_fetched":"Greenville","state":"SC","country":"United States","canonicalUrl":"https://foursquare.com/v/roost/50ef3e17e4b0f6d24c921807","category":"American Restaurant","checkinsCount":1974,"usersCount":1180,"tipCount":38,"visitsCount":2090,"url":"http://www.roostrestaurant.com","tier":2,"message":"Moderate","currency":"$","rating":8.3},{"name":"Brewery 85","phone":"8645580104","twitter":"brewery85","address":"6 Whitlee Ct","lat":34.803040048167425,"lng":-82.34881553939906,"city_fetched":"Greenville","state":"SC","country":"United States","canonicalUrl":"https://foursquare.com/v/brewery-85/525f1f31498e835bf6e1af74","category":"Brewery","checkinsCount":455,"usersCount":267,"tipCount":3,"visitsCount":716,"url":"http://www.brewery85.com","tier":1,"message":"Cheap","currency":"$","rating":8.3},{"name":"Dark Corner Distillery","phone":"8646311144","twitter":"dcdistillery","address":"241B N Main St","lat":34.85365653873441,"lng":-82.39784985780716,"neighborhood":"Downtown Greenville","city_fetched":"Greenville","state":"SC","country":"United States","canonicalUrl":"https://foursquare.com/v/dark-corner-distillery/4e6f9235a809952e23ecd2fc","category":"Distillery","checkinsCount":613,"usersCount":475,"tipCount":12,"visitsCount":618,"url":"http://www.darkcornerdistillery.com","tier":"","message":"","currency":"","rating":8.1},{"name":"Liberty Tap Room","phone":"8647707777","twitter":"libertytaproom","address":"941 S Main St","lat":34.84310618515109,"lng":-82.40872353315353,"city_fetched":"Greenville","state":"SC","country":"United States","canonicalUrl":"https://foursquare.com/v/liberty-tap-room/4b6774dcf964a5200d502be3","category":"Bar","checkinsCount":4304,"usersCount":2099,"tipCount":43,"visitsCount":4627,"url":"http://www.libertytaproom.com","tier":2,"message":"Moderate","currency":"$","rating":8.1},{"name":"Smiley's acoustic cafe","address":"111 Augusta St","lat":34.84299363,"lng":-82.40543981,"city_fetched":"Greenville","state":"SC","country":"United States","canonicalUrl":"https://foursquare.com/v/smileys-acoustic-cafe/4c748166c219224be036a028","category":"Bar","checkinsCount":1247,"usersCount":653,"tipCount":16,"visitsCount":1455,"url":"http://smileysacousticcafe.com","tier":"","message":"","currency":"","rating":8},{"name":"TGI Fridays","phone":"8646751154","twitter":"tgifridays","address":"1114 Woodruff Rd","lat":34.83076718,"lng":-82.3064035,"city_fetched":"Greenville","state":"SC","country":"United States","canonicalUrl":"https://foursquare.com/v/tgi-fridays/4bf72ac88d30d13a6d94fe17","category":"American Restaurant","checkinsCount":3313,"usersCount":1819,"tipCount":45,"visitsCount":3809,"url":"http://tgifridays.com","tier":2,"message":"Moderate","currency":"$","rating":8},{"name":"the Irish Pub","address":"214 N Pleasantburg Dr","lat":34.84871404748459,"lng":-82.35953769004685,"neighborhood":"Eastside","city_fetched":"Greenville","state":"SC","country":"United States","canonicalUrl":"https://foursquare.com/v/the-irish-pub/4b66025ef964a5201d0e2be3","category":"Pub","checkinsCount":1826,"usersCount":483,"tipCount":21,"visitsCount":2047,"tier":"","message":"","currency":"","rating":8},{"name":"Hooters","phone":"8649879464","address":"2401 Laurens Rd","lat":34.83214239792906,"lng":-82.34856653710375,"neighborhood":"Eastside","city_fetched":"Greenville","state":"SC","country":"United States","canonicalUrl":"https://foursquare.com/v/hooters/4b46851ef964a520432326e3","category":"Wings Joint","checkinsCount":2201,"usersCount":985,"tipCount":16,"visitsCount":2450,"url":"http://www.hooters.com","tier":"","message":"","currency":"","rating":8},{"name":"Thomas Creek Brewery","phone":"8646051166","twitter":"thomascreekbeer","address":"2054 Piedmont Hwy","lat":34.796698875782724,"lng":-82.42367193039408,"city_fetched":"Greenville","state":"SC","country":"United States","canonicalUrl":"https://foursquare.com/v/thomas-creek-brewery/4c361634dfb0e21e7977aaa8","category":"Brewery","checkinsCount":1231,"usersCount":630,"tipCount":7,"visitsCount":1526,"url":"http://www.thomascreekbeer.com","tier":1,"message":"Cheap","currency":"$","rating":8},{"name":"Blu Martini Bar & Nightclub","phone":"8642425743","address":"1 College St","lat":34.853672698515346,"lng":-82.3977616730579,"neighborhood":"Downtown Greenville","city_fetched":"Greenville","state":"SC","country":"United States","canonicalUrl":"https://foursquare.com/v/blu-martini-bar--nightclub/4b5bc3fff964a520e21429e3","category":"Bar","checkinsCount":1473,"usersCount":581,"tipCount":8,"visitsCount":1499,"tier":"","message":"","currency":"","rating":7.9},{"name":"The Velo Fellow","phone":"8642429296","address":"1 Augusta St","lat":34.843783378601074,"lng":-82.404135,"city_fetched":"Greenville","state":"SC","country":"United States","canonicalUrl":"https://foursquare.com/v/the-velo-fellow/4dc854cbd22dad7970ca7183","category":"Gastropub","checkinsCount":1954,"usersCount":933,"tipCount":16,"visitsCount":2012,"url":"http://thevelofellow.com","tier":2,"message":"Moderate","currency":"$","rating":7.9},{"name":"Universal Joint Greenville","address":"300 E Stone Ave","lat":34.86008685002336,"lng":-82.38957636631797,"neighborhood":"Central Greenville","city_fetched":"Greenville","state":"SC","country":"United States","canonicalUrl":"https://foursquare.com/v/universal-joint-greenville/5394aeb5498eb27aa26db30d","category":"Restaurant","checkinsCount":597,"usersCount":434,"tipCount":9,"visitsCount":1103,"url":"http://ujgreenville.com","tier":"","message":"","currency":"","rating":7.8},{"name":"Red Fin","phone":"8642368408","address":"18 S Main St","lat":34.850209607664546,"lng":-82.39922046661377,"neighborhood":"Downtown Greenville","city_fetched":"Greenville","state":"SC","country":"United States","canonicalUrl":"https://foursquare.com/v/red-fin/502bd9d5067db17f6542ce52","category":"Other Nightlife","checkinsCount":699,"usersCount":249,"tipCount":4,"visitsCount":699,"url":"http://redfinonmain.com","tier":"","message":"","currency":"","rating":7.7},{"name":"Quest Brewing Company","address":"55 Airview Dr","lat":34.8466233261478,"lng":-82.34486848371975,"neighborhood":"Eastside","city_fetched":"Greenville","state":"SC","country":"United States","canonicalUrl":"https://foursquare.com/v/quest-brewing-company/51df41a2498e0d09f51248af","category":"Brewery","checkinsCount":784,"usersCount":475,"tipCount":15,"visitsCount":1079,"tier":"","message":"","currency":"","rating":7.7},{"name":"The Coliseum","address":"510-524 Haywood Rd","lat":34.8458219581587,"lng":-82.34037545655491,"neighborhood":"Eastside","city_fetched":"Greenville","state":"SC","country":"United States","canonicalUrl":"https://foursquare.com/v/the-coliseum/4d1041dea3d9721ec91cd4fd","category":"Bar","checkinsCount":305,"usersCount":105,"tipCount":3,"visitsCount":316,"tier":2,"message":"Moderate","currency":"$","rating":7.6},{"name":"Carolina Ale House","phone":"8645285770","twitter":"carolinalehouse","address":"1115 Woodruff Rd","lat":34.8309455216741,"lng":-82.30512061931296,"city_fetched":"Greenville","state":"SC","country":"United States","canonicalUrl":"https://foursquare.com/v/carolina-ale-house/4f008ab29a520dfd66f9ba54","category":"American Restaurant","checkinsCount":3965,"usersCount":2160,"tipCount":30,"visitsCount":4754,"url":"http://carolinaalehouse.com","tier":"","message":"","currency":"","rating":7.6},{"name":"High Cotton","phone":"8643354200","address":"550 S Main St","lat":34.84577593146903,"lng":-82.4017692633003,"city_fetched":"Greenville","state":"SC","country":"United States","canonicalUrl":"https://foursquare.com/v/high-cotton/4b6db05ff964a5209f862ce3","category":"Southern / Soul Food Restaurant","checkinsCount":2021,"usersCount":1215,"tipCount":29,"visitsCount":2036,"url":"http://www.high-cotton.net","tier":4,"message":"Very Expensive","currency":"$","rating":7.5},{"name":"The Owl","phone":"8642438341","twitter":"owl_restaurant","address":"728 Wade Hampton Blvd","lat":34.868297782661664,"lng":-82.37665973603725,"neighborhood":"Eastside","city_fetched":"Greenville","state":"SC","country":"United States","canonicalUrl":"https://foursquare.com/owl_restaurant","category":"American Restaurant","checkinsCount":432,"usersCount":171,"tipCount":8,"visitsCount":432,"tier":"","message":"","currency":"","rating":7.5},{"name":"Addy’s Dutch Cafe & Restaurant","phone":"8642713120","address":"17 E Coffee St","lat":34.85129568,"lng":-82.39776077500001,"neighborhood":"Downtown Greenville","city_fetched":"Greenville","state":"SC","country":"United States","canonicalUrl":"https://foursquare.com/v/addys-dutch-cafe--restaurant/4b6ceb13f964a520c25d2ce3","category":"Beer Garden","checkinsCount":1283,"usersCount":399,"tipCount":13,"visitsCount":1295,"url":"http://www.addys.net","tier":"","message":"","currency":"","rating":7.5},{"name":"Gottrocks","phone":"8642355519","address":"200 Eisenhower Dr","lat":34.852596762876956,"lng":-82.35897089818612,"neighborhood":"Eastside","city_fetched":"Greenville","state":"SC","country":"United States","canonicalUrl":"https://foursquare.com/v/gottrocks/4bc131d5abf49521d7c3c093","category":"Bar","checkinsCount":523,"usersCount":240,"tipCount":4,"visitsCount":649,"tier":"","message":"","currency":"","rating":7.5},{"name":"Gringo's","phone":"8645096344","twitter":"gringossc","address":"11 Falls Park Dr.","lat":34.84568729774762,"lng":-82.40282273946073,"city_fetched":"Greenville","state":"SC","country":"United States","canonicalUrl":"https://foursquare.com/v/gringos/517febebe4b0407e823e3e84","category":"Mexican Restaurant","checkinsCount":1351,"usersCount":709,"tipCount":14,"visitsCount":1746,"tier":2,"message":"Moderate","currency":"$","rating":7.5},{"name":"Nose Dive","phone":"8643737300","twitter":"thenosedive","address":"116 S Main St","lat":34.84911079573944,"lng":-82.3998740248192,"neighborhood":"Downtown Greenville","city_fetched":"Greenville","state":"SC","country":"United States","canonicalUrl":"https://foursquare.com/v/nose-dive/4d1e90985c4ca1cd4af9913d","category":"Gastropub","checkinsCount":4591,"usersCount":2356,"tipCount":61,"visitsCount":4773,"url":"http://www.thenosedive.com","tier":3,"message":"Expensive","currency":"$","rating":7.4},{"name":"Carolina Ale House","phone":"8645285770","address":"113 S Main St","lat":34.84915761704742,"lng":-82.39947167704626,"neighborhood":"Downtown Greenville","city_fetched":"Greenville","state":"SC","country":"United States","canonicalUrl":"https://foursquare.com/v/carolina-ale-house/4cfd48c634c1a09345934f0e","category":"Sports Bar","checkinsCount":14675,"usersCount":6062,"tipCount":106,"visitsCount":15657,"url":"http://carolinaalehouse.com","tier":2,"message":"Moderate","currency":"$","rating":7.4},{"name":"Sticky Fingers Smokehouse - Get Sticky. Have Fun!","phone":"8644587427","twitter":"stickyfingers","address":"3 Market Point Dr","lat":34.82522722608537,"lng":-82.29903455662475,"city_fetched":"Greenville","state":"SC","country":"United States","canonicalUrl":"https://foursquare.com/v/sticky-fingers-smokehouse--get-sticky-have-fun/4b490e93f964a520f56326e3","category":"BBQ Joint","checkinsCount":1366,"usersCount":744,"tipCount":15,"visitsCount":1395,"tier":2,"message":"Moderate","currency":"$","rating":7.4},{"name":"The Cigar Boxx","phone":"8642325062","address":"23 College St","lat":34.85429025042924,"lng":-82.39848167985859,"neighborhood":"Downtown Greenville","city_fetched":"Greenville","state":"SC","country":"United States","canonicalUrl":"https://foursquare.com/v/the-cigar-boxx/514ce3f6e4b02f9bf3371484","category":"Lounge","checkinsCount":332,"usersCount":90,"tipCount":7,"visitsCount":396,"tier":"","message":"","currency":"","rating":7.4},{"name":"SIP Tasting Room and Rooftop Lounge","address":"103 N Main St Ste 400","lat":34.851741044852474,"lng":-82.39887873924577,"neighborhood":"Downtown Greenville","city_fetched":"Greenville","state":"SC","country":"United States","canonicalUrl":"https://foursquare.com/v/sip-tasting-room-and-rooftop-lounge/5144d148e4b0a3e6f7ca7908","category":"Wine Bar","checkinsCount":1216,"usersCount":763,"tipCount":19,"visitsCount":1230,"tier":2,"message":"Moderate","currency":"$","rating":7.3},{"name":"Schwaben House","phone":"8643298681","address":"1810 Laurens Rd","lat":34.85582656949327,"lng":-82.30100145167634,"city_fetched":"Greenville","state":"SC","country":"United States","canonicalUrl":"https://foursquare.com/v/schwaben-house/4c12608fb7b9c9288aa3a737","category":"German Restaurant","checkinsCount":188,"usersCount":133,"tipCount":14,"visitsCount":189,"url":"http://www.schwabenhouse.com","tier":2,"message":"Moderate","currency":"$","rating":7.3},{"name":"Wild Wing Cafe","phone":"8642429453","twitter":"wildwingcafe","address":"15 N Washington Ave","lat":34.85086554820125,"lng":-82.39962548017502,"neighborhood":"Downtown Greenville","city_fetched":"Greenville","state":"SC","country":"United States","canonicalUrl":"https://foursquare.com/v/wild-wing-cafe/4b5a69cff964a52092c328e3","category":"Wings Joint","checkinsCount":6949,"usersCount":2743,"tipCount":43,"visitsCount":6975,"url":"http://www.wildwingcafe.com","tier":2,"message":"Moderate","currency":"$","rating":7.2},{"name":"Poinsett Bar  & Grill","phone":"8645521265","address":"110 Poinsett Hwy","lat":34.86815143814047,"lng":-82.40432739257812,"city_fetched":"Greenville","state":"SC","country":"United States","canonicalUrl":"https://foursquare.com/v/poinsett-bar---grill/4bc9f8d768f976b083465e83","category":"Bar","checkinsCount":340,"usersCount":138,"tipCount":11,"visitsCount":341,"url":"http://www.poinsettbarandgrill.org","tier":"","message":"","currency":"","rating":7.2},{"name":"Connolly's","phone":"8644670300","address":"24 E Court St","lat":34.84827257153299,"lng":-82.39939212799072,"neighborhood":"Downtown Greenville","city_fetched":"Greenville","state":"SC","country":"United States","canonicalUrl":"https://foursquare.com/v/connollys/4b62444bf964a5206f3f2ae3","category":"Pub","checkinsCount":3370,"usersCount":1142,"tipCount":18,"visitsCount":3504,"tier":"","message":"","currency":"","rating":7.2},{"name":"Jack n' Diane's","phone":"8645096414","address":"115 N Brown St Ste 100","lat":34.85178266002507,"lng":-82.3975763759849,"neighborhood":"Downtown Greenville","city_fetched":"Greenville","state":"SC","country":"United States","canonicalUrl":"https://foursquare.com/v/jack-n-dianes/51e9cd3d498e47c61d8919ca","category":"Piano Bar","checkinsCount":409,"usersCount":323,"tipCount":12,"visitsCount":453,"tier":"","message":"","currency":"","rating":7.2},{"name":"Radio Room WPBR","phone":"8642637868","address":"2845 N Pleasantburg Dr","lat":34.88659089206587,"lng":-82.39043412147274,"city_fetched":"Greenville","state":"SC","country":"United States","canonicalUrl":"https://foursquare.com/v/radio-room-wpbr/4d8168b72ad9a143b0d67228","category":"Bar","checkinsCount":1323,"usersCount":320,"tipCount":9,"visitsCount":1409,"url":"http://www.wpbrradioroom.com","tier":"","message":"","currency":"","rating":7.1},{"name":"Fitzpatrick's Irish Pub","phone":"8642335550","address":"1565 Laurens Rd","lat":34.8416504379279,"lng":-82.35957476972789,"city_fetched":"Greenville","state":"SC","country":"United States","canonicalUrl":"https://foursquare.com/v/fitzpatricks-irish-pub/4b6cc7aef964a520dd532ce3","category":"Bar","checkinsCount":908,"usersCount":349,"tipCount":14,"visitsCount":954,"url":"http://fitzpatrickspub.com","tier":"","message":"","currency":"","rating":7.1},{"name":"21 east","phone":"8642710533","address":"21 E Washington St","lat":34.850632227669934,"lng":-82.39808320999146,"neighborhood":"Downtown Greenville","city_fetched":"Greenville","state":"SC","country":"United States","canonicalUrl":"https://foursquare.com/v/21-east/4fe0cb336d868f8bffa86801","category":"New American Restaurant","checkinsCount":997,"usersCount":475,"tipCount":13,"visitsCount":1040,"url":"http://21eastbarandgrille.com","tier":2,"message":"Moderate","currency":"$","rating":7},{"name":"The Basement","phone":"8643739915","twitter":"basement233","address":"233 N Main St","lat":34.853339,"lng":-82.398158,"neighborhood":"Downtown Greenville","city_fetched":"Greenville","state":"SC","country":"United States","canonicalUrl":"https://foursquare.com/v/the-basement/4bee3697d355a593b9ae0a60","category":"Nightclub","checkinsCount":1064,"usersCount":365,"tipCount":11,"visitsCount":1065,"tier":"","message":"","currency":"","rating":6.9},{"name":"DT's Tavern","phone":"8642321514","address":"100 E North St","lat":34.85206333457648,"lng":-82.39728519387342,"neighborhood":"Downtown Greenville","city_fetched":"Greenville","state":"SC","country":"United States","canonicalUrl":"https://foursquare.com/v/dts-tavern/4d34d1bdeefa8cfae5864eb3","category":"Bar","checkinsCount":2533,"usersCount":704,"tipCount":10,"visitsCount":2546,"tier":"","message":"","currency":"","rating":6.9},{"name":"Independent Ale House","address":"110 Poinsett Hwy","lat":34.868275230927644,"lng":-82.40426264086977,"city_fetched":"Greenville","state":"SC","country":"United States","canonicalUrl":"https://foursquare.com/v/independent-ale-house/5275350d11d2efae926d45ce","category":"Bar","checkinsCount":394,"usersCount":227,"tipCount":7,"visitsCount":624,"tier":"","message":"","currency":"","rating":6.9}]