[{"name":"Wooden Bear Brewing","address":"21 North Street","lat":39.785902,"lng":-85.770022,"city_fetched":"Greenfield,US","state":"IN","country":"United States","canonicalUrl":"https://foursquare.com/v/wooden-bear-brewing/5426fcaa498e82f0e38f0efc","categoryId":"50327c8591d4c4b30a586d5d","category":"Brewery","checkinsCount":197,"usersCount":142,"tipCount":4,"visitsCount":373,"tier":"","message":"","currency":"","rating":8.6},{"name":"round the corner pub","phone":"3178611900","address":"19 S Bittner Rd","lat":39.719376,"lng":-85.88569113333334,"city_fetched":"Greenfield,US","state":"IN","country":"United States","canonicalUrl":"https://foursquare.com/v/round-the-corner-pub/4b808e6cf964a520957c30e3","categoryId":"4bf58dd8d48988d11b941735","category":"Pub","checkinsCount":354,"usersCount":249,"tipCount":4,"visitsCount":541,"tier":"","message":"","currency":"","rating":7.1},{"name":"Ro's Bar & Grill","phone":"3174622899","address":"1514 N State St","lat":39.80518390589054,"lng":-85.77141278204202,"city_fetched":"Greenfield,US","state":"IN","country":"United States","canonicalUrl":"https://foursquare.com/v/ros-bar--grill/4d753c5c6820ba7a92d444fe","categoryId":"4bf58dd8d48988d116941735","category":"Bar","checkinsCount":471,"usersCount":171,"tipCount":4,"visitsCount":532,"tier":"","message":"","currency":"","rating":6.5}]