[{"name":"Titletown Brewing Co.","phone":"9204372337","twitter":"titletown","address":"200 Dousman St","lat":44.51928328336935,"lng":-88.01808893680573,"neighborhood":"Fort Howard","city_fetched":"Green Bay,US","state":"WI","country":"United States","canonicalUrl":"https://foursquare.com/v/titletown-brewing-co/4b73386ff964a520a8a22de3","categoryId":"50327c8591d4c4b30a586d5d","category":"Brewery","checkinsCount":9400,"usersCount":5367,"tipCount":96,"visitsCount":11181,"url":"http://titletownbrewing.com","tier":2,"message":"Moderate","currency":"$","rating":9},{"name":"St. Brendan's Inn","phone":"9208848484","twitter":"sbigreenbay","address":"234 S Washington St","lat":44.51237571282311,"lng":-88.01792325597052,"neighborhood":"Downtown Green Bay","city_fetched":"Green Bay,US","state":"WI","country":"United States","canonicalUrl":"https://foursquare.com/v/st-brendans-inn/4b660f10f964a5204a112be3","categoryId":"4bf58dd8d48988d1d5941735","category":"Hotel Bar","checkinsCount":5636,"usersCount":1988,"tipCount":37,"visitsCount":6365,"url":"http://www.saintbrendansinn.com","tier":2,"message":"Moderate","currency":"$","rating":8.8},{"name":"Badger State Brewing Company","twitter":"badgerstatebeer","address":"990 Tony Canadeo Run","lat":44.49724864390383,"lng":-88.05031769072174,"city_fetched":"Green Bay,US","state":"WI","country":"United States","canonicalUrl":"https://foursquare.com/v/badger-state-brewing-company/5113c18af136616ef8804a64","categoryId":"50327c8591d4c4b30a586d5d","category":"Brewery","checkinsCount":479,"usersCount":330,"tipCount":7,"visitsCount":635,"url":"http://badgerstatebrewing.com","tier":2,"message":"Moderate","currency":"$","rating":8.4},{"name":"The Bottle Room","phone":"9206619463","twitter":"thebottleroomgb","address":"2300 Lineville Rd","lat":44.59161925068749,"lng":-88.07021929262022,"city_fetched":"Green Bay,US","state":"WI","country":"United States","canonicalUrl":"https://foursquare.com/thebottleroomgb","categoryId":"4bf58dd8d48988d123941735","category":"Wine Bar","checkinsCount":1083,"usersCount":457,"tipCount":15,"visitsCount":1283,"url":"http://www.the-bottle-room.com","tier":"","message":"","currency":"","rating":8.4},{"name":"Hinterland Brewery","phone":"9204388050","twitter":"hinterlandbeer","address":"313 Dousman St","lat":44.51889008150954,"lng":-88.01945686340332,"neighborhood":"Fort Howard","city_fetched":"Green Bay,US","state":"WI","country":"United States","canonicalUrl":"https://foursquare.com/v/hinterland-brewery/4bd8e67e2e6f0f47d4240908","categoryId":"50327c8591d4c4b30a586d5d","category":"Brewery","checkinsCount":2144,"usersCount":1260,"tipCount":35,"visitsCount":2365,"url":"http://www.hinterlandbeer.com","tier":3,"message":"Expensive","currency":"$","rating":8.4},{"name":"Stillmank Brewing Co","phone":"9207852337","twitter":"wiscodiscobeer","address":"215 N Henry St","lat":44.504551990343884,"lng":-87.97826497146525,"city_fetched":"Green Bay,US","state":"WI","country":"United States","canonicalUrl":"https://foursquare.com/v/stillmank-brewing-co/5297dc0211d2eb88c055b93f","categoryId":"50327c8591d4c4b30a586d5d","category":"Brewery","checkinsCount":223,"usersCount":176,"tipCount":3,"visitsCount":423,"url":"http://www.stillmankbrewing.com","tier":"","message":"","currency":"","rating":8.3},{"name":"Replay Sports Bar & Grill","phone":"9203309011","address":"1731 Fort Howard Ave","lat":44.46312367916107,"lng":-88.06899189949036,"city_fetched":"Green Bay,US","state":"WI","country":"United States","canonicalUrl":"https://foursquare.com/v/replay-sports-bar--grill/4bf6f149c07c9c74508cbbef","categoryId":"4bf58dd8d48988d11d941735","category":"Sports Bar","checkinsCount":1117,"usersCount":410,"tipCount":19,"visitsCount":1495,"url":"http://www.replaysportsbarandgrill.com","tier":"","message":"","currency":"","rating":8.3},{"name":"Fox Harbor Pub & Grill","phone":"9205938327","address":"348 S Washington St","lat":44.510859151830296,"lng":-88.01878333745003,"neighborhood":"Downtown Green Bay","city_fetched":"Green Bay,US","state":"WI","country":"United States","canonicalUrl":"https://foursquare.com/v/fox-harbor-pub--grill/4b5dc278f964a520396a29e3","categoryId":"4bf58dd8d48988d116941735","category":"Bar","checkinsCount":7047,"usersCount":2348,"tipCount":42,"visitsCount":8211,"url":"http://foxharborpubandgrill.com","tier":2,"message":"Moderate","currency":"$","rating":8.3},{"name":"Gasoline","address":"709 S Broadway","lat":44.51022014913214,"lng":-88.02550095566238,"neighborhood":"Tank Park","city_fetched":"Green Bay,US","state":"WI","country":"United States","canonicalUrl":"https://foursquare.com/v/gasoline/535b0107498e5c3ad7c8bf0f","categoryId":"4bf58dd8d48988d116941735","category":"Bar","checkinsCount":388,"usersCount":102,"tipCount":4,"visitsCount":481,"tier":"","message":"","currency":"","rating":8.2},{"name":"Fox Heights Pub & Grill","phone":"9208843278","address":"217 N Washington St","lat":44.51589478081459,"lng":-88.01520433319837,"neighborhood":"Downtown Green Bay","city_fetched":"Green Bay,US","state":"WI","country":"United States","canonicalUrl":"https://foursquare.com/v/fox-heights-pub--grill/4fecb61164a4963ac44f6aa8","categoryId":"4bf58dd8d48988d11b941735","category":"Pub","checkinsCount":2642,"usersCount":538,"tipCount":7,"visitsCount":2726,"url":"http://foxheightspubandgrill.com","tier":"","message":"","currency":"","rating":8.2},{"name":"Anduzzi's Green Bay-East","lat":44.48387638816354,"lng":-87.93863832995906,"city_fetched":"Green Bay,US","state":"WI","country":"United States","canonicalUrl":"https://foursquare.com/v/anduzzis-green-bayeast/537b930d498eaeb3ef2a1e5b","categoryId":"4bf58dd8d48988d116941735","category":"Bar","checkinsCount":717,"usersCount":555,"tipCount":7,"visitsCount":1563,"tier":"","message":"","currency":"","rating":8.2},{"name":"Jill's Bar","phone":"9204330315","address":"619 Bodart St","lat":44.51517229153575,"lng":-88.00789729895897,"neighborhood":"Downtown Green Bay","city_fetched":"Green Bay,US","state":"WI","country":"United States","canonicalUrl":"https://foursquare.com/v/jills-bar/4d48ecf29544a093b41823e7","categoryId":"4bf58dd8d48988d116941735","category":"Bar","checkinsCount":537,"usersCount":127,"tipCount":8,"visitsCount":551,"tier":"","message":"","currency":"","rating":8.2},{"name":"Titletown Tap Room","address":"320 N Broadway","lat":44.51990606074909,"lng":-88.01907002757146,"neighborhood":"Fort Howard","city_fetched":"Green Bay,US","state":"WI","country":"United States","canonicalUrl":"https://foursquare.com/v/titletown-tap-room/5439caa9498e78381a718bdb","categoryId":"50327c8591d4c4b30a586d5d","category":"Brewery","checkinsCount":359,"usersCount":339,"tipCount":3,"visitsCount":489,"url":"http://titletownbrewing.com","tier":"","message":"","currency":"","rating":8.1},{"name":"1919 Kitchen & Tap","phone":"9209656970","twitter":"lambeaufield","address":"1265 Lombardi Ave","lat":44.501802920135475,"lng":-88.06033405614747,"neighborhood":"Lambeau Field","city_fetched":"Green Bay,US","state":"WI","country":"United States","canonicalUrl":"https://foursquare.com/v/1919-kitchen--tap/51c6265a498e1c8b637423ff","categoryId":"4bf58dd8d48988d11d941735","category":"Sports Bar","checkinsCount":758,"usersCount":534,"tipCount":15,"visitsCount":769,"url":"http://www.1919kitchenandtap.com","tier":"","message":"","currency":"","rating":8.1},{"name":"Legend Larry's","phone":"9204357000","twitter":"legendlarrys","address":"2035 University Ave","lat":44.512813426037134,"lng":-87.97122451119768,"city_fetched":"Green Bay,US","state":"WI","country":"United States","canonicalUrl":"https://foursquare.com/v/legend-larrys/4df39db9483bdb5e1374d691","categoryId":"4bf58dd8d48988d11d941735","category":"Sports Bar","checkinsCount":2123,"usersCount":847,"tipCount":19,"visitsCount":2356,"url":"http://www.legendlarrys.com","tier":2,"message":"Moderate","currency":"$","rating":7.8},{"name":"Fitzgerald's Irish Pub","phone":"9203934118","address":"1699 E Mason St","lat":44.49387250714575,"lng":-87.98454878941862,"neighborhood":"Starlite","city_fetched":"Green Bay,US","state":"WI","country":"United States","canonicalUrl":"https://foursquare.com/v/fitzgeralds-irish-pub/518d6f767dd24db60475a43b","categoryId":"4bf58dd8d48988d116941735","category":"Bar","checkinsCount":286,"usersCount":64,"tipCount":2,"visitsCount":287,"url":"http://fitzgeraldsirishpub.com","tier":"","message":"","currency":"","rating":7.8},{"name":"Pearly Gates","phone":"9204654656","address":"3551 Finger Rd","lat":44.48792059,"lng":-87.90509283542633,"city_fetched":"Green Bay,US","state":"WI","country":"United States","canonicalUrl":"https://foursquare.com/v/pearly-gates/4c2e7cfe452620a17ef81b0f","categoryId":"4bf58dd8d48988d116941735","category":"Bar","checkinsCount":786,"usersCount":388,"tipCount":6,"visitsCount":959,"tier":2,"message":"Moderate","currency":"$","rating":7.8},{"name":"Razz-Ma-Tazz","phone":"9204685902","address":"400 Schoen St","lat":44.49610613911686,"lng":-87.97700714484634,"city_fetched":"Green Bay,US","state":"WI","country":"United States","canonicalUrl":"https://foursquare.com/v/razzmatazz/4c059c295753c92856c139f1","categoryId":"4bf58dd8d48988d116941735","category":"Bar","checkinsCount":2809,"usersCount":486,"tipCount":6,"visitsCount":3051,"tier":"","message":"","currency":"","rating":7.8},{"name":"Tundra Tailgate Zone","address":"1265 Lombardi Ave","lat":44.50063769978638,"lng":-88.05919647216797,"neighborhood":"Lambeau Field","city_fetched":"Green Bay,US","state":"WI","country":"United States","canonicalUrl":"https://foursquare.com/v/tundra-tailgate-zone/4c4de70067929c747169669b","categoryId":"4bf58dd8d48988d11d941735","category":"Sports Bar","checkinsCount":1542,"usersCount":1016,"tipCount":7,"visitsCount":1643,"tier":"","message":"","currency":"","rating":7.7},{"name":"Escapades","phone":"9204689455","address":"2657 University Ave","lat":44.51563060283661,"lng":-87.94956386089325,"city_fetched":"Green Bay,US","state":"WI","country":"United States","canonicalUrl":"https://foursquare.com/v/escapades/4b6cf445f964a520fc5f2ce3","categoryId":"4bf58dd8d48988d116941735","category":"Bar","checkinsCount":1065,"usersCount":512,"tipCount":10,"visitsCount":1169,"tier":1,"message":"Cheap","currency":"$","rating":7.7},{"name":"East Town Pub","phone":"9204688009","address":"2266 Main St","lat":44.48150656350606,"lng":-87.97051179385441,"city_fetched":"Green Bay,US","state":"WI","country":"United States","canonicalUrl":"https://foursquare.com/v/east-town-pub/4b76116af964a520793a2ee3","categoryId":"4bf58dd8d48988d11b941735","category":"Pub","checkinsCount":3061,"usersCount":478,"tipCount":15,"visitsCount":3396,"tier":2,"message":"Moderate","currency":"$","rating":7.7},{"name":"Black Sheep Pub & Grill","phone":"9204693200","address":"2638 Bay Settlement Rd.","lat":44.539906,"lng":-87.898791,"city_fetched":"Green Bay,US","state":"Wisconsin","country":"United States","canonicalUrl":"https://foursquare.com/v/black-sheep-pub--grill/56300657498ebce4fdfae9ea","categoryId":"4bf58dd8d48988d11b941735","category":"Pub","checkinsCount":122,"usersCount":114,"tipCount":2,"visitsCount":236,"url":"http://www.blacksheeppubandgrill.com","tier":"","message":"","currency":"","rating":7.6},{"name":"XS Nightclub","phone":"9204301301","address":"1106 Main St","lat":44.51246788209196,"lng":-88.00103361311845,"neighborhood":"Downtown Green Bay","city_fetched":"Green Bay,US","state":"WI","country":"United States","canonicalUrl":"https://foursquare.com/v/xs-nightclub/4b495feef964a520bc6e26e3","categoryId":"4bf58dd8d48988d11f941735","category":"Nightclub","checkinsCount":7297,"usersCount":1494,"tipCount":33,"visitsCount":8057,"tier":1,"message":"Cheap","currency":"$","rating":7.6},{"name":"C Street","phone":"9204350690","address":"312 Cherry St","lat":44.514356351161446,"lng":-88.01329286421972,"neighborhood":"Downtown Green Bay","city_fetched":"Green Bay,US","state":"WI","country":"United States","canonicalUrl":"https://foursquare.com/v/c-street/4bd0d13f41b9ef3bcde3fae5","categoryId":"4bf58dd8d48988d121941735","category":"Lounge","checkinsCount":2615,"usersCount":471,"tipCount":9,"visitsCount":2958,"tier":"","message":"","currency":"","rating":7.6},{"name":"Phat Headz","phone":"9202643410","address":"420 N Clay St","lat":44.513179063797,"lng":-88.000745,"neighborhood":"Downtown Green Bay","city_fetched":"Green Bay,US","state":"WI","country":"United States","canonicalUrl":"https://foursquare.com/v/phat-headz/4b9c5f57f964a520b36336e3","categoryId":"4bf58dd8d48988d116941735","category":"Bar","checkinsCount":2255,"usersCount":501,"tipCount":20,"visitsCount":2369,"url":"http://phatheadzbar.com","tier":1,"message":"Cheap","currency":"$","rating":7.6},{"name":"Lyric Room","phone":"9208841159","twitter":"lyricroomgb","address":"231 N Broadway","lat":44.51903083890047,"lng":-88.02035808563232,"neighborhood":"Fort Howard","city_fetched":"Green Bay,US","state":"WI","country":"United States","canonicalUrl":"https://foursquare.com/v/lyric-room/513e59f3f2e7551bebf03f96","categoryId":"4bf58dd8d48988d11a941735","category":"Other Nightlife","checkinsCount":119,"usersCount":72,"tipCount":5,"visitsCount":123,"tier":"","message":"","currency":"","rating":7.5},{"name":"The Libertine","twitter":"libertine209","address":"209 N Washington St","lat":44.515711416803896,"lng":-88.01546715374485,"neighborhood":"Downtown Green Bay","city_fetched":"Green Bay,US","state":"WI","country":"United States","canonicalUrl":"https://foursquare.com/v/the-libertine/506cda11e4b0666b5281ee0a","categoryId":"4bf58dd8d48988d116941735","category":"Bar","checkinsCount":1820,"usersCount":660,"tipCount":15,"visitsCount":1943,"tier":2,"message":"Moderate","currency":"$","rating":7.5},{"name":"Red","address":"106 S Broadway","lat":44.51623987478697,"lng":-88.02187471487018,"city_fetched":"Green Bay,US","state":"WI","country":"United States","canonicalUrl":"https://foursquare.com/v/red/5091db53e4b0679e937f87a1","categoryId":"4bf58dd8d48988d123941735","category":"Wine Bar","checkinsCount":491,"usersCount":321,"tipCount":20,"visitsCount":536,"url":"http://redgreenbay.com","tier":"","message":"","currency":"","rating":7.5},{"name":"Stadium View Bar and Grill","phone":"9208843159","address":"1963 Holmgren Way","lat":44.49771053233386,"lng":-88.05343074112662,"city_fetched":"Green Bay,US","state":"WI","country":"United States","canonicalUrl":"https://foursquare.com/v/stadium-view-bar-and-grill/4b36ca1ff964a5207f3c25e3","categoryId":"4bf58dd8d48988d11d941735","category":"Sports Bar","checkinsCount":11670,"usersCount":5762,"tipCount":45,"visitsCount":13533,"url":"http://www.thestadiumview.com","tier":2,"message":"Moderate","currency":"$","rating":7.5},{"name":"The Roundabout","phone":"9205449544","address":"1264 Main St","lat":44.511129,"lng":-87.997197,"city_fetched":"Green Bay,US","state":"WI","country":"United States","canonicalUrl":"https://foursquare.com/v/the-roundabout/523cd091498e057b7056818a","categoryId":"4bf58dd8d48988d116941735","category":"Bar","checkinsCount":260,"usersCount":81,"tipCount":2,"visitsCount":316,"tier":"","message":"","currency":"","rating":7.5},{"name":"BC's","address":"617 Lime Kiln Rd","lat":44.49190504388676,"lng":-87.97753323635018,"city_fetched":"Green Bay,US","state":"WI","country":"United States","canonicalUrl":"https://foursquare.com/v/bcs/4d4f06e98af6721eb96a1688","categoryId":"4bf58dd8d48988d116941735","category":"Bar","checkinsCount":449,"usersCount":55,"tipCount":2,"visitsCount":465,"tier":"","message":"","currency":"","rating":7.5},{"name":"El Azteca Restaurant","phone":"9204998717","address":"2469 W Mason St","lat":44.52355948333334,"lng":-88.09274017810822,"city_fetched":"Green Bay,US","state":"WI","country":"United States","canonicalUrl":"https://foursquare.com/v/el-azteca-restaurant/4b760784f964a520c3372ee3","categoryId":"4bf58dd8d48988d116941735","category":"Bar","checkinsCount":498,"usersCount":306,"tipCount":13,"visitsCount":518,"url":"http://www.aztecamex.com","tier":"","message":"","currency":"","rating":7.5},{"name":"Hammer Inn","phone":"9204326699","address":"1208 State St","lat":44.50328904,"lng":-88.02909442,"neighborhood":"Olde Norwood","city_fetched":"Green Bay,US","state":"WI","country":"United States","canonicalUrl":"https://foursquare.com/v/hammer-inn/4be5ba99bcef2d7f363904e5","categoryId":"4bf58dd8d48988d118941735","category":"Dive Bar","checkinsCount":1354,"usersCount":210,"tipCount":5,"visitsCount":1479,"tier":2,"message":"Moderate","currency":"$","rating":7.4},{"name":"Jeckyl & Hyde","address":"Broadway","lat":44.514537,"lng":-88.023145,"city_fetched":"Green Bay,US","state":"WI","country":"United States","canonicalUrl":"https://foursquare.com/v/jeckyl--hyde/5235222a11d2cb47c484aa5b","categoryId":"4bf58dd8d48988d118941735","category":"Dive Bar","checkinsCount":187,"usersCount":77,"tipCount":0,"visitsCount":225,"tier":"","message":"","currency":"","rating":7.4},{"name":"The Getaway","phone":"9204684205","address":"631 Bellevue St","lat":44.49668081964143,"lng":-87.99100384239337,"neighborhood":"Starlite","city_fetched":"Green Bay,US","state":"WI","country":"United States","canonicalUrl":"https://foursquare.com/v/the-getaway/4bf01ee1c601a5937149c3d1","categoryId":"4bf58dd8d48988d116941735","category":"Bar","checkinsCount":926,"usersCount":257,"tipCount":4,"visitsCount":1040,"tier":"","message":"","currency":"","rating":7.4},{"name":"Cropsey's","phone":"9204325674","address":"1336 State St","lat":44.50107778663234,"lng":-88.0309278186946,"neighborhood":"Olde Norwood","city_fetched":"Green Bay,US","state":"WI","country":"United States","canonicalUrl":"https://foursquare.com/v/cropseys/4b8e0790f964a520631633e3","categoryId":"4bf58dd8d48988d11d941735","category":"Sports Bar","checkinsCount":1858,"usersCount":609,"tipCount":10,"visitsCount":2351,"tier":"","message":"","currency":"","rating":7.4},{"name":"The Nines","phone":"9208276463","address":"121 S Washington St","lat":44.513624057309,"lng":-88.01633208990097,"neighborhood":"Downtown Green Bay","city_fetched":"Green Bay,US","state":"WI","country":"United States","canonicalUrl":"https://foursquare.com/v/the-nines/4bbe36130ec69c7414045659","categoryId":"4bf58dd8d48988d11e941735","category":"Cocktail Bar","checkinsCount":1781,"usersCount":686,"tipCount":10,"visitsCount":1836,"tier":"","message":"","currency":"","rating":7.3},{"name":"Pubhaus At 600","phone":"9203395100","address":"600 George St","lat":44.44889011547587,"lng":-88.05812377584178,"city_fetched":"Green Bay,US","state":"WI","country":"United States","canonicalUrl":"https://foursquare.com/v/pubhaus-at-600/4c54fad11b46c9b6165b6ecf","categoryId":"4bf58dd8d48988d11b941735","category":"Pub","checkinsCount":1084,"usersCount":343,"tipCount":11,"visitsCount":1275,"tier":"","message":"","currency":"","rating":7.3},{"name":"Keggers","phone":"9203604519","address":"231 N Broadway","lat":44.518927068652104,"lng":-88.02037444423274,"neighborhood":"Fort Howard","city_fetched":"Green Bay,US","state":"WI","country":"United States","canonicalUrl":"https://foursquare.com/v/keggers/4bdb94682a3a0f471eedafb6","categoryId":"4bf58dd8d48988d117941735","category":"Beer Garden","checkinsCount":2474,"usersCount":656,"tipCount":17,"visitsCount":2598,"tier":"","message":"","currency":"","rating":7.3},{"name":"The Haystack","phone":"9204373450","address":"1911 University Ave","lat":44.512692565630346,"lng":-87.97502228909585,"city_fetched":"Green Bay,US","state":"WI","country":"United States","canonicalUrl":"https://foursquare.com/v/the-haystack/4de70561ae60db140a8bf2d1","categoryId":"4bf58dd8d48988d116941735","category":"Bar","checkinsCount":1674,"usersCount":394,"tipCount":19,"visitsCount":1931,"tier":1,"message":"Cheap","currency":"$","rating":7.3},{"name":"Seven After Bar","address":"1689 E Mason St","lat":44.49413220114279,"lng":-87.98547646208505,"city_fetched":"Green Bay,US","state":"WI","country":"United States","canonicalUrl":"https://foursquare.com/v/seven-after-bar/4e22087a483b041af1f3aa37","categoryId":"4bf58dd8d48988d116941735","category":"Bar","checkinsCount":673,"usersCount":107,"tipCount":5,"visitsCount":808,"tier":"","message":"","currency":"","rating":7.3},{"name":"Watering Hole","phone":"9204340805","twitter":"wateringholegb","address":"2107 Velp Ave","lat":44.55886729225345,"lng":-88.0661957764782,"city_fetched":"Green Bay,US","state":"WI","country":"United States","canonicalUrl":"https://foursquare.com/v/watering-hole/4c9aab4f553cef3b610cd677","categoryId":"4bf58dd8d48988d11d941735","category":"Sports Bar","checkinsCount":2216,"usersCount":965,"tipCount":8,"visitsCount":2830,"tier":2,"message":"Moderate","currency":"$","rating":7.3},{"name":"Standard & Co.","phone":"9204307391","address":"1139 Main St","lat":44.51242568327485,"lng":-87.99994373813139,"neighborhood":"Downtown Green Bay","city_fetched":"Green Bay,US","state":"WI","country":"United States","canonicalUrl":"https://foursquare.com/v/standard--co/4b8f3480f964a520b14d33e3","categoryId":"4bf58dd8d48988d11e941735","category":"Cocktail Bar","checkinsCount":3752,"usersCount":1058,"tipCount":23,"visitsCount":3921,"tier":3,"message":"Expensive","currency":"$","rating":7.3},{"name":"The Red Lantern","address":"1642","lat":44.549403,"lng":-88.048726,"city_fetched":"Green Bay,US","state":"WI","country":"United States","canonicalUrl":"https://foursquare.com/v/the-red-lantern/51afd66d498e19ab191a7a6d","categoryId":"4bf58dd8d48988d116941735","category":"Bar","checkinsCount":358,"usersCount":164,"tipCount":5,"visitsCount":464,"tier":"","message":"","currency":"","rating":7.2},{"name":"The Roundup Saloon","address":"700 Bodart St","lat":44.514490216666665,"lng":-88.00697705,"neighborhood":"Downtown Green Bay","city_fetched":"Green Bay,US","state":"WI","country":"United States","canonicalUrl":"https://foursquare.com/v/the-roundup-saloon/4bf3f6822d6295211e0d6058","categoryId":"4bf58dd8d48988d116941735","category":"Bar","checkinsCount":1177,"usersCount":251,"tipCount":11,"visitsCount":1411,"tier":1,"message":"Cheap","currency":"$","rating":7.2},{"name":"D2 Sports Pub","address":"780 Armed Forces Dr","lat":44.498571552048546,"lng":-88.05417537689209,"city_fetched":"Green Bay,US","state":"WI","country":"United States","canonicalUrl":"https://foursquare.com/v/d2-sports-pub/5236759b0493070da473c380","categoryId":"4bf58dd8d48988d116941735","category":"Bar","checkinsCount":518,"usersCount":417,"tipCount":6,"visitsCount":753,"tier":"","message":"","currency":"","rating":7.2},{"name":"The Bar","phone":"9204683566","address":"606 Lime Kiln Rd","lat":44.49286629386035,"lng":-87.97824105874315,"city_fetched":"Green Bay,US","state":"WI","country":"United States","canonicalUrl":"https://foursquare.com/v/the-bar/4b2d8296f964a5201cd824e3","categoryId":"4bf58dd8d48988d11d941735","category":"Sports Bar","checkinsCount":12456,"usersCount":2426,"tipCount":32,"visitsCount":13684,"url":"http://www.meetatthebar.com","tier":2,"message":"Moderate","currency":"$","rating":7.2},{"name":"McGeorge's","address":"415 George St","lat":44.44903212250092,"lng":-88.06003808549204,"city_fetched":"Green Bay,US","state":"WI","country":"United States","canonicalUrl":"https://foursquare.com/v/mcgeorges/4e7bd6c3183878cd62beb6df","categoryId":"4bf58dd8d48988d11b941735","category":"Pub","checkinsCount":1264,"usersCount":434,"tipCount":10,"visitsCount":1465,"tier":1,"message":"Cheap","currency":"$","rating":7.2},{"name":"Screamin' Head Buzz","address":"780 Armed Forces Dr","lat":44.49859777449294,"lng":-88.05442381542765,"city_fetched":"Green Bay,US","state":"WI","country":"United States","canonicalUrl":"https://foursquare.com/v/screamin-head-buzz/4fc6bd70e4b04e646d08168e","categoryId":"4bf58dd8d48988d116941735","category":"Bar","checkinsCount":668,"usersCount":427,"tipCount":2,"visitsCount":671,"tier":"","message":"","currency":"","rating":7.1},{"name":"WXYZ Bar","phone":"9208840800","address":"465 Pilgrim Way","lat":44.47859661750354,"lng":-88.0525331355634,"city_fetched":"Green Bay,US","state":"WI","country":"United States","canonicalUrl":"https://foursquare.com/v/wxyz-bar/4f8f90e9e4b0051a3c0e1d5a","categoryId":"4bf58dd8d48988d1d5941735","category":"Hotel Bar","checkinsCount":474,"usersCount":193,"tipCount":4,"visitsCount":495,"tier":"","message":"","currency":"","rating":7.1},{"name":"Richard Craniums Pub","phone":"9204301699","twitter":"richardcraniumz","address":"840 S Broadway","lat":44.50807858427552,"lng":-88.0270583804444,"neighborhood":"Tank Park","city_fetched":"Green Bay,US","state":"WI","country":"United States","canonicalUrl":"https://foursquare.com/v/richard-craniums-pub/4fe1d584e4b040e806214480","categoryId":"4bf58dd8d48988d116941735","category":"Bar","checkinsCount":995,"usersCount":306,"tipCount":7,"visitsCount":1217,"tier":1,"message":"Cheap","currency":"$","rating":7.1},{"name":"Curly's Pub","phone":"9209656970","address":"Lambeau Field","lat":44.50196663379404,"lng":-88.06052023022238,"neighborhood":"Lambeau Field","city_fetched":"Green Bay,US","state":"WI","country":"United States","canonicalUrl":"https://foursquare.com/v/curlys-pub/4bd0a434b221c9b6961bd4d0","categoryId":"4bf58dd8d48988d11d941735","category":"Sports Bar","checkinsCount":6036,"usersCount":3898,"tipCount":63,"visitsCount":6088,"url":"http://www.lambeaufield.com/dining/curlys_pub","tier":3,"message":"Expensive","currency":"$","rating":7.1},{"name":"Stinger's Pub","address":"619 Lime Kiln Rd","lat":44.492281796233144,"lng":-87.97739932273922,"city_fetched":"Green Bay,US","state":"WI","country":"United States","canonicalUrl":"https://foursquare.com/v/stingers-pub/4d4f0b29122b5481b28d8b4f","categoryId":"4bf58dd8d48988d116941735","category":"Bar","checkinsCount":908,"usersCount":122,"tipCount":5,"visitsCount":970,"tier":"","message":"","currency":"","rating":7},{"name":"Woods Pub & Grill","phone":"9209651695","address":"530 Erie Rd","lat":44.49076,"lng":-87.908844,"city_fetched":"Green Bay,US","state":"WI","country":"United States","canonicalUrl":"https://foursquare.com/v/woods-pub--grill/4ba6ac7af964a520e66739e3","categoryId":"4bf58dd8d48988d11b941735","category":"Pub","checkinsCount":616,"usersCount":371,"tipCount":3,"visitsCount":647,"url":"http://www.golfthewoods.com","tier":"","message":"","currency":"","rating":7},{"name":"The Keweenaw Pub & Pasta","phone":"9203374744","address":"368 Main Ave","lat":44.44758722702752,"lng":-88.07012915611267,"city_fetched":"Green Bay,US","state":"WI","country":"United States","canonicalUrl":"https://foursquare.com/v/the-keweenaw-pub--pasta/4b5fb17ef964a52082c829e3","categoryId":"4bf58dd8d48988d11b941735","category":"Pub","checkinsCount":1787,"usersCount":525,"tipCount":14,"visitsCount":1838,"tier":"","message":"","currency":"","rating":7},{"name":"The Shelter Club","phone":"9204322662","address":"730 N Quincy St","lat":44.51844944747875,"lng":-88.00422191619873,"city_fetched":"Green Bay,US","state":"WI","country":"United States","canonicalUrl":"https://foursquare.com/v/the-shelter-club/4b6fbc1df964a52030fb2ce3","categoryId":"4bf58dd8d48988d11f941735","category":"Nightclub","checkinsCount":3122,"usersCount":501,"tipCount":13,"visitsCount":3533,"tier":2,"message":"Moderate","currency":"$","rating":7},{"name":"Mikey's Pub","phone":"9204339901","address":"240 N Broadway","lat":44.51919013707497,"lng":-88.01976763246165,"neighborhood":"Fort Howard","city_fetched":"Green Bay,US","state":"WI","country":"United States","canonicalUrl":"https://foursquare.com/v/mikeys-pub/4b4c97ecf964a52007b726e3","categoryId":"4bf58dd8d48988d116941735","category":"Bar","checkinsCount":511,"usersCount":254,"tipCount":6,"visitsCount":542,"tier":"","message":"","currency":"","rating":7},{"name":"Cool Hand Luke's","address":"1238 State St","lat":44.50240843890574,"lng":-88.02987211657636,"neighborhood":"Olde Norwood","city_fetched":"Green Bay,US","state":"WI","country":"United States","canonicalUrl":"https://foursquare.com/v/cool-hand-lukes/4d3cf638a2e4b1f7b61aee25","categoryId":"4bf58dd8d48988d116941735","category":"Bar","checkinsCount":1047,"usersCount":114,"tipCount":4,"visitsCount":1071,"tier":"","message":"","currency":"","rating":7},{"name":"Simonets","phone":"9204329564","address":"925 Main St","lat":44.5135880844349,"lng":-88.00309378621522,"neighborhood":"Downtown Green Bay","city_fetched":"Green Bay,US","state":"WI","country":"United States","canonicalUrl":"https://foursquare.com/v/simonets/4b8df7cff964a520cf1433e3","categoryId":"4bf58dd8d48988d116941735","category":"Bar","checkinsCount":2113,"usersCount":379,"tipCount":1,"visitsCount":2633,"tier":"","message":"","currency":"","rating":6.9},{"name":"St. Michael's Pub","address":"1539 Riverside Dr","lat":44.49288171933708,"lng":-88.02140648298437,"city_fetched":"Green Bay,US","state":"WI","country":"United States","canonicalUrl":"https://foursquare.com/v/st-michaels-pub/4bb6cda2ef159c742c9276f7","categoryId":"4bf58dd8d48988d11b941735","category":"Pub","checkinsCount":733,"usersCount":163,"tipCount":10,"visitsCount":776,"tier":"","message":"","currency":"","rating":6.9},{"name":"Ned Kellys","phone":"9204339306","address":"223 N Washington St","lat":44.51601672045271,"lng":-88.01516264677048,"neighborhood":"Downtown Green Bay","city_fetched":"Green Bay,US","state":"WI","country":"United States","canonicalUrl":"https://foursquare.com/v/ned-kellys/4bb15509f964a520d38c3ce3","categoryId":"4bf58dd8d48988d116941735","category":"Bar","checkinsCount":4845,"usersCount":1060,"tipCount":18,"visitsCount":4961,"tier":"","message":"","currency":"","rating":6.8},{"name":"Cock and Bull","phone":"9204321885","address":"1237 Main St","lat":44.511603627693674,"lng":-87.99815590284405,"city_fetched":"Green Bay,US","state":"WI","country":"United States","canonicalUrl":"https://foursquare.com/v/cock-and-bull/4bde36e7ffdec928b42de8a1","categoryId":"4bf58dd8d48988d116941735","category":"Bar","checkinsCount":5522,"usersCount":1350,"tipCount":29,"visitsCount":6103,"url":"http://cockandbullpub.com","tier":2,"message":"Moderate","currency":"$","rating":6.8},{"name":"Greger's Bad Habit Saloon","phone":"9205445475","address":"704 Bellevue St","lat":44.496183741198564,"lng":-87.99193616148723,"neighborhood":"Starlite","city_fetched":"Green Bay,US","state":"WI","country":"United States","canonicalUrl":"https://foursquare.com/v/gregers-bad-habit-saloon/4e95104a9a521c5c7f567a8c","categoryId":"4bf58dd8d48988d116941735","category":"Bar","checkinsCount":798,"usersCount":134,"tipCount":9,"visitsCount":878,"tier":1,"message":"Cheap","currency":"$","rating":6.8},{"name":"The Sardine Can","phone":"9208848244","address":"128 S Broadway","lat":44.515548459951006,"lng":-88.0226009423025,"city_fetched":"Green Bay,US","state":"WI","country":"United States","canonicalUrl":"https://foursquare.com/v/the-sardine-can/4ba15371f964a520e9ac37e3","categoryId":"4bf58dd8d48988d116941735","category":"Bar","checkinsCount":3397,"usersCount":1141,"tipCount":15,"visitsCount":3710,"url":"http://thesardinecan.com","tier":"","message":"","currency":"","rating":6.8},{"name":"Gippers Bar And Grill","phone":"9204351515","address":"1860 University Ave","lat":44.512279,"lng":-87.97553134,"city_fetched":"Green Bay,US","state":"WI","country":"United States","canonicalUrl":"https://foursquare.com/v/gippers-bar-and-grill/4b9c1d38f964a520914b36e3","categoryId":"4bf58dd8d48988d11d941735","category":"Sports Bar","checkinsCount":984,"usersCount":545,"tipCount":9,"visitsCount":1147,"url":"http://www.gippersgreenbay.com","tier":"","message":"","currency":"","rating":6.8},{"name":"Boehmer's","phone":"9204972344","address":"2318 Velp Ave","lat":44.56146433721712,"lng":-88.07221898228991,"city_fetched":"Green Bay,US","state":"WI","country":"United States","canonicalUrl":"https://foursquare.com/v/boehmers/4c33e0046f1fef3b4eaaec3d","categoryId":"4bf58dd8d48988d11d941735","category":"Sports Bar","checkinsCount":1015,"usersCount":350,"tipCount":2,"visitsCount":1070,"tier":"","message":"","currency":"","rating":6.8},{"name":"Chamber's Hill","address":"12350 Velp Ave","lat":44.60525337,"lng":-88.07536,"city_fetched":"Green Bay,US","state":"WI","country":"United States","canonicalUrl":"https://foursquare.com/v/chambers-hill/4c26c450905a0f479ef76360","categoryId":"4bf58dd8d48988d116941735","category":"Bar","checkinsCount":426,"usersCount":260,"tipCount":3,"visitsCount":526,"tier":"","message":"","currency":"","rating":6.7},{"name":"Vintage Liquid Emporium","phone":"9205620893","address":"119.5 S Washington St","lat":44.513666,"lng":-88.016561,"neighborhood":"Downtown Green Bay","city_fetched":"Green Bay,US","state":"WI","country":"United States","canonicalUrl":"https://foursquare.com/v/vintage-liquid-emporium/4e7d624f30f883c3604257bf","categoryId":"4bf58dd8d48988d11e941735","category":"Cocktail Bar","checkinsCount":1498,"usersCount":522,"tipCount":9,"visitsCount":1533,"tier":"","message":"","currency":"","rating":6.7},{"name":"Legends Brewhouse & Eatery","phone":"9206621111","address":"2840 Shawano Ave","lat":44.5532535750807,"lng":-88.09764389343378,"city_fetched":"Green Bay,US","state":"WI","country":"United States","canonicalUrl":"https://foursquare.com/v/legends-brewhouse--eatery/4bc7bdfa14d79521120f68e9","categoryId":"50327c8591d4c4b30a586d5d","category":"Brewery","checkinsCount":994,"usersCount":682,"tipCount":10,"visitsCount":1231,"url":"http://legendseatery.com","tier":2,"message":"Moderate","currency":"$","rating":6.6},{"name":"Shenanigans","phone":"9204387820","address":"1270 Main St","lat":44.51116887,"lng":-87.99643278121948,"city_fetched":"Green Bay,US","state":"WI","country":"United States","canonicalUrl":"https://foursquare.com/v/shenanigans/4b6e3bf6f964a52058b32ce3","categoryId":"4bf58dd8d48988d116941735","category":"Bar","checkinsCount":4391,"usersCount":974,"tipCount":19,"visitsCount":4665,"url":"http://shenanigansgb.com","tier":1,"message":"Cheap","currency":"$","rating":6.6},{"name":"Anduzzi's Sports Club","phone":"9209651111","twitter":"anduzzisgb","address":"1992 Holmgren Way","lat":44.4969549594709,"lng":-88.05464343461931,"city_fetched":"Green Bay,US","state":"WI","country":"United States","canonicalUrl":"https://foursquare.com/v/anduzzis-sports-club/4be5fbbbd4f7c9b6d93e2620","categoryId":"4bf58dd8d48988d11d941735","category":"Sports Bar","checkinsCount":10293,"usersCount":3729,"tipCount":41,"visitsCount":11523,"url":"http://www.anduzzis.com","tier":2,"message":"Moderate","currency":"$","rating":6.6},{"name":"Frets & Friends","address":"2105 University Ave","lat":44.51315517755961,"lng":-87.96941638724215,"city_fetched":"Green Bay,US","state":"WI","country":"United States","canonicalUrl":"https://foursquare.com/v/frets--friends/4fa5be5ee4b0dd0f12e6ab64","categoryId":"4bf58dd8d48988d116941735","category":"Bar","checkinsCount":705,"usersCount":211,"tipCount":10,"visitsCount":749,"tier":"","message":"","currency":"","rating":6.6},{"name":"Napalese Lounge","phone":"9204329646","address":"1351 Cedar St","lat":44.51125807397516,"lng":-87.99340724945068,"city_fetched":"Green Bay,US","state":"WI","country":"United States","canonicalUrl":"https://foursquare.com/v/napalese-lounge/4bd49774637ba5932d04f570","categoryId":"4bf58dd8d48988d1d8941735","category":"Gay Bar","checkinsCount":944,"usersCount":290,"tipCount":7,"visitsCount":993,"tier":"","message":"","currency":"","rating":6.6},{"name":"Adams Street Pub & Grill","phone":"9205932383","address":"121 N Adams St","lat":44.514410146923446,"lng":-88.01452159881592,"neighborhood":"Downtown Green Bay","city_fetched":"Green Bay,US","state":"WI","country":"United States","canonicalUrl":"https://foursquare.com/v/adams-street-pub--grill/4cee073d8604a1cd8f29f6c0","categoryId":"4bf58dd8d48988d11b941735","category":"Pub","checkinsCount":873,"usersCount":417,"tipCount":8,"visitsCount":973,"tier":2,"message":"Moderate","currency":"$","rating":6.6},{"name":"Oval Office","phone":"9205691888","twitter":"theovalofficewi","address":"1100 Main St","lat":44.512527737085385,"lng":-88.00148293975934,"neighborhood":"Downtown Green Bay","city_fetched":"Green Bay,US","state":"WI","country":"United States","canonicalUrl":"https://foursquare.com/v/oval-office/4bc534a64a9aa5934f47067b","categoryId":"4bf58dd8d48988d1d6941735","category":"Strip Club","checkinsCount":2129,"usersCount":454,"tipCount":6,"visitsCount":2158,"tier":"","message":"","currency":"","rating":6.5},{"name":"Lenny's Tap","phone":"9204321023","address":"431 N Broadway","lat":44.52211277423548,"lng":-88.0184106375226,"neighborhood":"Fort Howard","city_fetched":"Green Bay,US","state":"WI","country":"United States","canonicalUrl":"https://foursquare.com/v/lennys-tap/4c58be4eb8b3c9b6fbad87b6","categoryId":"4bf58dd8d48988d116941735","category":"Bar","checkinsCount":882,"usersCount":344,"tipCount":7,"visitsCount":1185,"tier":1,"message":"Cheap","currency":"$","rating":6.5},{"name":"The Sandbox","lat":44.48600740644911,"lng":-87.9777819319873,"city_fetched":"Green Bay,US","state":"WI","country":"United States","canonicalUrl":"https://foursquare.com/v/the-sandbox/4fd96078e4b01007e9b3f0e6","categoryId":"4bf58dd8d48988d117941735","category":"Beer Garden","checkinsCount":930,"usersCount":335,"tipCount":8,"visitsCount":1193,"tier":"","message":"","currency":"","rating":6.5},{"name":"T-Bucket Bar & Grill","address":"2424 S County Road T","lat":44.45651986041002,"lng":-87.8263909277342,"city_fetched":"Green Bay,US","state":"WI","country":"United States","canonicalUrl":"https://foursquare.com/v/tbucket-bar--grill/4f1b5d68e4b0d9f8b95093c2","categoryId":"4bf58dd8d48988d116941735","category":"Bar","checkinsCount":989,"usersCount":263,"tipCount":1,"visitsCount":1075,"tier":"","message":"","currency":"","rating":6.4},{"name":"Fuzzy's","address":"2511 W Mason St","lat":44.52352638333333,"lng":-88.09512734413147,"city_fetched":"Green Bay,US","state":"WI","country":"United States","canonicalUrl":"https://foursquare.com/v/fuzzys/4bb28aad42959c7438ff202c","categoryId":"4bf58dd8d48988d116941735","category":"Bar","checkinsCount":807,"usersCount":270,"tipCount":7,"visitsCount":837,"url":"http://fuzzy63sportsbarandgrill.com","tier":"","message":"","currency":"","rating":6.4},{"name":"Stir-Up's Parlor & Saloon","phone":"9205933933","address":"123 S Washington St","lat":44.513513983099486,"lng":-88.01646107919217,"neighborhood":"Downtown Green Bay","city_fetched":"Green Bay,US","state":"WI","country":"United States","canonicalUrl":"https://foursquare.com/v/stirups-parlor--saloon/4bbe35ce0ec69c74a2035659","categoryId":"4bf58dd8d48988d116941735","category":"Bar","checkinsCount":4427,"usersCount":1260,"tipCount":16,"visitsCount":4529,"tier":1,"message":"Cheap","currency":"$","rating":6.3},{"name":"Burkel's One Block Over","phone":"9205448367","address":"1007 Tony Canadeo Run","lat":44.49624984125793,"lng":-88.05068534764834,"city_fetched":"Green Bay,US","state":"WI","country":"United States","canonicalUrl":"https://foursquare.com/v/burkels-one-block-over/529678c3498ea4362db3e96e","categoryId":"4bf58dd8d48988d116941735","category":"Bar","checkinsCount":309,"usersCount":288,"tipCount":3,"visitsCount":468,"url":"http://www.burkelsoneblockover.com","tier":"","message":"","currency":"","rating":6.3},{"name":"Wise Fool's Pub","phone":"9209652010","address":"1939 Main St","lat":44.492493805833725,"lng":-87.97583059043367,"city_fetched":"Green Bay,US","state":"WI","country":"United States","canonicalUrl":"https://foursquare.com/v/wise-fools-pub/4bfb0080633d9c74422f0843","categoryId":"4bf58dd8d48988d116941735","category":"Bar","checkinsCount":1314,"usersCount":160,"tipCount":8,"visitsCount":1395,"tier":1,"message":"Cheap","currency":"$","rating":6.3},{"name":"Rendezvous","phone":"9204942672","address":"2928 W Mason St","lat":44.52412823712892,"lng":-88.11601284694692,"city_fetched":"Green Bay,US","state":"WI","country":"United States","canonicalUrl":"https://foursquare.com/v/rendezvous/4c6f56db9375a093f1e50337","categoryId":"4bf58dd8d48988d116941735","category":"Bar","checkinsCount":928,"usersCount":128,"tipCount":5,"visitsCount":1181,"tier":1,"message":"Cheap","currency":"$","rating":6.2},{"name":"Pump Room","address":"1500 S Webster Ave","lat":44.49238689535372,"lng":-88.01689113618743,"city_fetched":"Green Bay,US","state":"WI","country":"United States","canonicalUrl":"https://foursquare.com/v/pump-room/4c199748838020a19410e661","categoryId":"4bf58dd8d48988d116941735","category":"Bar","checkinsCount":297,"usersCount":162,"tipCount":6,"visitsCount":300,"tier":"","message":"","currency":"","rating":6.2},{"name":"Dad's Wine & Spirits","phone":"9204319165","address":"1970 University Ave","lat":44.51230679394025,"lng":-87.97205414157361,"city_fetched":"Green Bay,US","state":"WI","country":"United States","canonicalUrl":"https://foursquare.com/v/dads-wine--spirits/4c93890ff244b1f76281191d","categoryId":"4bf58dd8d48988d116941735","category":"Bar","checkinsCount":709,"usersCount":197,"tipCount":2,"visitsCount":737,"tier":"","message":"","currency":"","rating":6.2},{"name":"Townline Sports Pub & Grill","phone":"9204347943","address":"2544 Lineville Rd","lat":44.591315266624434,"lng":-88.08134078979492,"city_fetched":"Green Bay,US","state":"WI","country":"United States","canonicalUrl":"https://foursquare.com/v/townline-sports-pub--grill/4bf8894192d19521453f5a1f","categoryId":"4bf58dd8d48988d11d941735","category":"Sports Bar","checkinsCount":3746,"usersCount":1233,"tipCount":26,"visitsCount":4265,"tier":2,"message":"Moderate","currency":"$","rating":6.1},{"name":"The Hideout Bar","phone":"9208573958","address":"740 N Memorial Dr","lat":44.55762560612603,"lng":-88.05632396278172,"city_fetched":"Green Bay,US","state":"WI","country":"United States","canonicalUrl":"https://foursquare.com/v/the-hideout-bar/4c1d7c99b9f876b073c77d46","categoryId":"4bf58dd8d48988d116941735","category":"Bar","checkinsCount":1243,"usersCount":244,"tipCount":5,"visitsCount":1244,"tier":"","message":"","currency":"","rating":6.1},{"name":"Pauly G's","phone":"9204680789","address":"1803 Main St","lat":44.49515200302144,"lng":-87.97815975539193,"city_fetched":"Green Bay,US","state":"WI","country":"United States","canonicalUrl":"https://foursquare.com/v/pauly-gs/4bc3c3a6abf49521b94ac493","categoryId":"4bf58dd8d48988d116941735","category":"Bar","checkinsCount":935,"usersCount":211,"tipCount":4,"visitsCount":1025,"url":"http://www.paulygs.com","tier":"","message":"","currency":"","rating":6.1},{"name":"Leatherhead Brewing","address":"875 Lombardi Ave","lat":44.49708465322209,"lng":-88.04504123871786,"city_fetched":"Green Bay,US","state":"WI","country":"United States","canonicalUrl":"https://foursquare.com/v/leatherhead-brewing/55dcfd01498eb7b981c70319","categoryId":"50327c8591d4c4b30a586d5d","category":"Brewery","checkinsCount":138,"usersCount":191,"tipCount":4,"visitsCount":247,"tier":"","message":"","currency":"","rating":6.1},{"name":"Nic's Bar & Grill","phone":"9204688966","address":"1657 Main Street","lat":44.50168311595917,"lng":-87.98226535320282,"city_fetched":"Green Bay,US","state":"WI","country":"United States","canonicalUrl":"https://foursquare.com/v/nics-bar--grill/4bc915eb68f976b005c75c83","categoryId":"4bf58dd8d48988d11b941735","category":"Pub","checkinsCount":280,"usersCount":143,"tipCount":3,"visitsCount":286,"url":"http://nicsbarngrill.com","tier":"","message":"","currency":"","rating":6.1},{"name":"T & C Pub & Grill","phone":"9203393139","address":"1358 Mid Valley Dr","lat":44.44132340201391,"lng":-88.09969480522534,"city_fetched":"Green Bay,US","state":"WI","country":"United States","canonicalUrl":"https://foursquare.com/v/t--c-pub--grill/4b9b1b48f964a52027f335e3","categoryId":"4bf58dd8d48988d11b941735","category":"Pub","checkinsCount":543,"usersCount":181,"tipCount":4,"visitsCount":570,"tier":"","message":"","currency":"","rating":6.1},{"name":"Karen's Pub","phone":"9208842202","address":"324 N Roosevelt St","lat":44.51162108210145,"lng":-87.99929840481369,"neighborhood":"Downtown Green Bay","city_fetched":"Green Bay,US","state":"WI","country":"United States","canonicalUrl":"https://foursquare.com/v/karens-pub/4db378ac4df05e5aaacca3b8","categoryId":"4bf58dd8d48988d116941735","category":"Bar","checkinsCount":359,"usersCount":103,"tipCount":1,"visitsCount":494,"tier":"","message":"","currency":"","rating":6},{"name":"Molly McGee's Irish Pub","phone":"9204351360","address":"401 S Washington St","lat":44.510496854782104,"lng":-88.01849663257599,"neighborhood":"Downtown Green Bay","city_fetched":"Green Bay,US","state":"WI","country":"United States","canonicalUrl":"https://foursquare.com/v/molly-mcgees-irish-pub/4d826a4df662f04d1296251b","categoryId":"4bf58dd8d48988d116941735","category":"Bar","checkinsCount":537,"usersCount":292,"tipCount":6,"visitsCount":546,"tier":"","message":"","currency":"","rating":6},{"name":"Swobey's","phone":"9204327227","address":"1257 E Mason St","lat":44.50200491133471,"lng":-88.00291693055684,"neighborhood":"Joannes Park","city_fetched":"Green Bay,US","state":"WI","country":"United States","canonicalUrl":"https://foursquare.com/v/swobeys/4be20eb41dd22d7fb93c93bd","categoryId":"4bf58dd8d48988d116941735","category":"Bar","checkinsCount":2475,"usersCount":398,"tipCount":2,"visitsCount":2631,"tier":"","message":"","currency":"","rating":6},{"name":"Symba's","phone":"9204341100","address":"2334 Velp Ave","lat":44.56192792282578,"lng":-88.07287757148839,"city_fetched":"Green Bay,US","state":"WI","country":"United States","canonicalUrl":"https://foursquare.com/v/symbas/4c11b4d4d917c928704cb662","categoryId":"4bf58dd8d48988d116941735","category":"Bar","checkinsCount":1689,"usersCount":474,"tipCount":3,"visitsCount":1835,"url":"http://symbas.bravehost.com","tier":"","message":"","currency":"","rating":6},{"name":"The Pub","phone":"9204332001","address":"333 Main St","lat":44.51756204938733,"lng":-88.01010131835938,"neighborhood":"Downtown Green Bay","city_fetched":"Green Bay,US","state":"WI","country":"United States","canonicalUrl":"https://foursquare.com/v/the-pub/4b75bc5bf964a520d1202ee3","categoryId":"4bf58dd8d48988d1d5941735","category":"Hotel Bar","checkinsCount":854,"usersCount":293,"tipCount":2,"visitsCount":864,"url":"http://greenbay.hyatt.com","tier":"","message":"","currency":"","rating":5.9},{"name":"Kittners Pub","phone":"9204339187","address":"129 S Washington St","lat":44.5133688931004,"lng":-88.01655664777354,"neighborhood":"Downtown Green Bay","city_fetched":"Green Bay,US","state":"WI","country":"United States","canonicalUrl":"https://foursquare.com/v/kittners-pub/4bc1604e461576b056f77b32","categoryId":"4bf58dd8d48988d116941735","category":"Bar","checkinsCount":3691,"usersCount":1078,"tipCount":13,"visitsCount":3789,"url":"http://kittners.com","tier":2,"message":"Moderate","currency":"$","rating":5.9},{"name":"Whiskey Bay","address":"636 Lime Kiln Rd","lat":44.491981,"lng":-87.977795,"city_fetched":"Green Bay,US","state":"WI","country":"United States","canonicalUrl":"https://foursquare.com/v/whiskey-bay/528d8f2911d22962ed022af2","categoryId":"4bf58dd8d48988d116941735","category":"Bar","checkinsCount":106,"usersCount":51,"tipCount":2,"visitsCount":111,"tier":2,"message":"Moderate","currency":"$","rating":5.9},{"name":"The Bar","phone":"9204999989","address":"2001 Holmgren Way","lat":44.49647471986228,"lng":-88.05359601974487,"city_fetched":"Green Bay,US","state":"WI","country":"United States","canonicalUrl":"https://foursquare.com/v/the-bar/4c24e54fc11dc9b626392624","categoryId":"4bf58dd8d48988d11d941735","category":"Sports Bar","checkinsCount":7027,"usersCount":3171,"tipCount":33,"visitsCount":7837,"url":"http://www.meetatthebar.com","tier":2,"message":"Moderate","currency":"$","rating":5.9},{"name":"Party Line","phone":"9204069111","address":"601 Bellevue St","lat":44.497312684680296,"lng":-87.99065959655508,"neighborhood":"Starlite","city_fetched":"Green Bay,US","state":"WI","country":"United States","canonicalUrl":"https://foursquare.com/v/party-line/4bf8b3ea4a67c9280ced25cf","categoryId":"4bf58dd8d48988d116941735","category":"Bar","checkinsCount":870,"usersCount":267,"tipCount":7,"visitsCount":975,"tier":"","message":"","currency":"","rating":5.8},{"name":"Cliffhangers","phone":"9204687702","address":"2850 Humboldt Rd","lat":44.51099001,"lng":-87.94001198333333,"city_fetched":"Green Bay,US","state":"WI","country":"United States","canonicalUrl":"https://foursquare.com/v/cliffhangers/4bbad67bb35776b0fe5ecb01","categoryId":"4bf58dd8d48988d116941735","category":"Bar","checkinsCount":858,"usersCount":371,"tipCount":7,"visitsCount":922,"tier":"","message":"","currency":"","rating":5.8},{"name":"Townline Sports Pub & Grill","address":"2725 Manitowoc Rd","lat":44.46508603,"lng":-87.946612,"city_fetched":"Green Bay,US","state":"WI","country":"United States","canonicalUrl":"https://foursquare.com/v/townline-sports-pub--grill/4c39f34c6ec69c74381605a9","categoryId":"4bf58dd8d48988d11d941735","category":"Sports Bar","checkinsCount":1758,"usersCount":693,"tipCount":19,"visitsCount":2021,"tier":2,"message":"Moderate","currency":"$","rating":5.7},{"name":"Skirtz Lounge","phone":"9208573837","address":"1238 Main St","lat":44.511460140900276,"lng":-87.99812437500805,"city_fetched":"Green Bay,US","state":"WI","country":"United States","canonicalUrl":"https://foursquare.com/v/skirtz-lounge/4bde38306198c9b6277113ff","categoryId":"4bf58dd8d48988d116941735","category":"Bar","checkinsCount":1326,"usersCount":300,"tipCount":6,"visitsCount":1354,"tier":"","message":"","currency":"","rating":5.7},{"name":"Busters","phone":"9204910838","address":"2475 W Mason St","lat":44.52392176165971,"lng":-88.09337005918074,"city_fetched":"Green Bay,US","state":"WI","country":"United States","canonicalUrl":"https://foursquare.com/v/busters/4bb833a698c7ef3b9cf33002","categoryId":"4bf58dd8d48988d116941735","category":"Bar","checkinsCount":572,"usersCount":256,"tipCount":7,"visitsCount":592,"url":"http://www.bustersbarandgrill.com","tier":2,"message":"Moderate","currency":"$","rating":5.6},{"name":"Big D's Bar & Grill","phone":"9204990631","address":"2750 Ramada Way","lat":44.47606025707248,"lng":-88.07741584317436,"city_fetched":"Green Bay,US","state":"WI","country":"United States","canonicalUrl":"https://foursquare.com/v/big-ds-bar--grill/4cc595694935bfb7eed4d0d8","categoryId":"4bf58dd8d48988d11d941735","category":"Sports Bar","checkinsCount":509,"usersCount":287,"tipCount":7,"visitsCount":523,"url":"http://greenbayramada.com/restaurant.php","tier":"","message":"","currency":"","rating":5.6},{"name":"Tilted Kilt Green Bay","phone":"9204999447","twitter":"tiltedkiltpub","address":"2615 S Oneida St","lat":44.478373015894235,"lng":-88.07016134262085,"city_fetched":"Green Bay,US","state":"WI","country":"United States","canonicalUrl":"https://foursquare.com/v/tilted-kilt-green-bay/4b9bd799f964a520fe2b36e3","categoryId":"4bf58dd8d48988d11d941735","category":"Sports Bar","checkinsCount":2284,"usersCount":1465,"tipCount":23,"visitsCount":2574,"url":"http://www.tiltedkilt.com","tier":2,"message":"Moderate","currency":"$","rating":5.5}]