[{"name":"Gibb's Hundred Brewing Company","twitter":"gibbshundred","address":"117 W Lewis St","lat":36.065848700365784,"lng":-79.79184597078164,"neighborhood":"Downtown Greensboro","city_fetched":"Greensboro","state":"NC","country":"United States","canonicalUrl":"https://foursquare.com/v/gibbs-hundred-brewing-company/536262bb498e43d4e77a1932","category":"Brewery","checkinsCount":631,"usersCount":441,"tipCount":6,"visitsCount":1035,"url":"http://gibbshundred.com","tier":"","message":"","currency":"","rating":9.2},{"name":"Jake's Billiards","phone":"3363731303","address":"1714 Spring Garden St","lat":36.063993,"lng":-79.820305,"neighborhood":"Brice Street Area","city_fetched":"Greensboro","state":"NC","country":"United States","canonicalUrl":"https://foursquare.com/v/jakes-billiards/4ca2b5c5d7c33704c0019b62","category":"Bar","checkinsCount":5495,"usersCount":2035,"tipCount":42,"visitsCount":7850,"tier":1,"message":"Cheap","currency":"$","rating":9.1},{"name":"Joymongers Brewing Co.","lat":36.078472,"lng":-79.793362,"neighborhood":"Fisher Park","city_fetched":"Greensboro","state":"NC","country":"United States","canonicalUrl":"https://foursquare.com/v/joymongers-brewing-co/576c6270498e72c8c4063d76","category":"Brewery","checkinsCount":192,"usersCount":130,"tipCount":3,"visitsCount":263,"tier":"","message":"","currency":"","rating":9},{"name":"Lucky 32 Southern Kitchen","phone":"3363700707","address":"1421 Westover Ter","lat":36.09080714541591,"lng":-79.8145312066798,"city_fetched":"Greensboro","state":"NC","country":"United States","canonicalUrl":"https://foursquare.com/v/lucky-32-southern-kitchen/4b8ef067f964a520e73f33e3","category":"Southern / Soul Food Restaurant","checkinsCount":3538,"usersCount":2161,"tipCount":52,"visitsCount":4582,"url":"http://lucky32.com","tier":2,"message":"Moderate","currency":"$","rating":9},{"name":"Potent Potables","phone":"3368829463","twitter":"potentpotablenc","address":"115 E Main St","lat":35.994718078614575,"lng":-79.93567945559569,"city_fetched":"Greensboro","state":"NC","country":"United States","canonicalUrl":"https://foursquare.com/potentpotablenc","category":"Wine Bar","checkinsCount":1337,"usersCount":363,"tipCount":13,"visitsCount":1745,"url":"http://potentpotablesnc.com","tier":2,"message":"Moderate","currency":"$","rating":9},{"name":"The Q Lounge","phone":"3362722587","address":"708 W Market St","lat":36.07301333646809,"lng":-79.79872603887553,"city_fetched":"Greensboro","state":"NC","country":"United States","canonicalUrl":"https://foursquare.com/v/the-q-lounge/4b4ab7e5f964a520728d26e3","category":"Gay Bar","checkinsCount":2938,"usersCount":530,"tipCount":14,"visitsCount":3132,"tier":1,"message":"Cheap","currency":"$","rating":8.9},{"name":"Total Wine & More","phone":"3362350400","twitter":"totalwine","address":"2976 Battleground Avenue (North)","lat":36.11556,"lng":-79.834943,"city_fetched":"Greensboro","state":"NC","country":"United States","canonicalUrl":"https://foursquare.com/v/total-wine--more/4b748c33f964a52043e32de3","category":"Wine Shop","checkinsCount":1541,"usersCount":832,"tipCount":9,"visitsCount":2114,"url":"http://www.totalwine.com","tier":"","message":"","currency":"","rating":8.9},{"name":"Natty Greene's Pub & Brewing Co.","phone":"3362741373","twitter":"natty_greenes","address":"345 S Elm St","lat":36.068544683333336,"lng":-79.79051470756531,"neighborhood":"Downtown Greensboro","city_fetched":"Greensboro","state":"NC","country":"United States","canonicalUrl":"https://foursquare.com/v/natty-greenes-pub--brewing-co/4b0d896df964a5207e4a23e3","category":"Brewery","checkinsCount":10140,"usersCount":5463,"tipCount":114,"visitsCount":10842,"url":"http://www.nattygreenes.com","tier":2,"message":"Moderate","currency":"$","rating":8.7},{"name":"Total Wine & More","phone":"3362352323","twitter":"totalwine","address":"3503 W Gate City Blvd.","lat":36.03856,"lng":-79.847903,"city_fetched":"Greensboro","state":"NC","country":"United States","canonicalUrl":"https://foursquare.com/v/total-wine--more/4b818373f964a52093ab30e3","category":"Wine Shop","checkinsCount":1096,"usersCount":713,"tipCount":3,"visitsCount":1623,"url":"http://www.totalwine.com","tier":"","message":"","currency":"","rating":8.6},{"name":"M'Coul's Public House","phone":"3363780204","address":"110 W McGee St","lat":36.06892956584214,"lng":-79.79097018797692,"neighborhood":"Downtown Greensboro","city_fetched":"Greensboro","state":"NC","country":"United States","canonicalUrl":"https://foursquare.com/v/mcouls-public-house/4b3a0f50f964a520a56025e3","category":"Pub","checkinsCount":5592,"usersCount":2303,"tipCount":59,"visitsCount":5868,"url":"http://mcoulspub.com","tier":2,"message":"Moderate","currency":"$","rating":8.5},{"name":"Scuppernong Books","phone":"3367631919","address":"304 S Elm St","lat":36.069982387362884,"lng":-79.7905432407277,"neighborhood":"Downtown Greensboro","city_fetched":"Greensboro","state":"NC","country":"United States","canonicalUrl":"https://foursquare.com/v/scuppernong-books/52b73fae498ef476c0dde826","category":"Bookstore","checkinsCount":412,"usersCount":227,"tipCount":14,"visitsCount":481,"url":"http://scuppernongbooks.com","tier":"","message":"","currency":"","rating":8.5},{"name":"Brixx Wood Fired Pizza","phone":"3362352749","twitter":"brixxpizza","address":"1424 Westover Ter","lat":36.09174431672004,"lng":-79.81467348417132,"city_fetched":"Greensboro","state":"NC","country":"United States","canonicalUrl":"https://foursquare.com/v/brixx-wood-fired-pizza/4b3a0a30f964a520776025e3","category":"Pizza Place","checkinsCount":2718,"usersCount":1362,"tipCount":30,"visitsCount":3085,"url":"http://www.brixxpizza.com","tier":1,"message":"Cheap","currency":"$","rating":8.5},{"name":"Village Tavern","phone":"3362823063","twitter":"villagtavern","address":"1903 Westridge Rd","lat":36.11929621414436,"lng":-79.8442677019515,"city_fetched":"Greensboro","state":"NC","country":"United States","canonicalUrl":"https://foursquare.com/v/village-tavern/4b5c85d4f964a5203a3429e3","category":"American Restaurant","checkinsCount":3440,"usersCount":2127,"tipCount":35,"visitsCount":4631,"url":"http://www.villagetavern.com/index.cfm","tier":2,"message":"Moderate","currency":"$","rating":8.5},{"name":"Caf√© Europa","phone":"3363891010","address":"200 N Davie St","lat":36.07410872,"lng":-79.78882673,"neighborhood":"Downtown Greensboro","city_fetched":"Greensboro","state":"NC","country":"United States","canonicalUrl":"https://foursquare.com/v/caf%C3%A9-europa/4b46cf55f964a520842826e3","category":"Bar","checkinsCount":2209,"usersCount":1123,"tipCount":37,"visitsCount":2446,"url":"http://www.europabarandcafe.com","tier":1,"message":"Cheap","currency":"$","rating":8.5},{"name":"Rioja! A Wine Bar","phone":"3364120011","twitter":"riojabar","address":"1603 Battleground Ave Ste D","lat":36.089582,"lng":-79.81049766,"city_fetched":"Greensboro","state":"NC","country":"United States","canonicalUrl":"https://foursquare.com/v/rioja-a-wine-bar/4b84671af964a520613331e3","category":"Wine Bar","checkinsCount":1923,"usersCount":418,"tipCount":19,"visitsCount":2111,"url":"http://riojawinebar.com","tier":2,"message":"Moderate","currency":"$","rating":8.4},{"name":"NY Pizza Bar & Grill","phone":"3362867667","address":"2704 Battleground Ave","lat":36.110195072621785,"lng":-79.82987880706787,"city_fetched":"Greensboro","state":"NC","country":"United States","canonicalUrl":"https://foursquare.com/v/ny-pizza-bar--grill/4f300908e4b050b64bd32caa","category":"Pizza Place","checkinsCount":993,"usersCount":582,"tipCount":12,"visitsCount":1298,"url":"http://www.nypbattleground.com","tier":2,"message":"Moderate","currency":"$","rating":8.4},{"name":"Tasting Room","phone":"6765602","address":"901 S Chapman St","lat":36.06349639,"lng":-79.82367463,"city_fetched":"Greensboro","state":"NC","country":"United States","canonicalUrl":"https://foursquare.com/v/tasting-room/4e0b7ddbd22dbfe2dd7d2539","category":"Wine Shop","checkinsCount":945,"usersCount":276,"tipCount":1,"visitsCount":1035,"tier":"","message":"","currency":"","rating":8.4},{"name":"Brow Lounge","phone":"3362722769","address":"1707 Battleground Ave","lat":36.09119825,"lng":-79.813124,"city_fetched":"Greensboro","state":"NC","country":"United States","canonicalUrl":"https://foursquare.com/v/brow-lounge/4bc48bc8461576b03b088032","category":"Lounge","checkinsCount":482,"usersCount":119,"tipCount":12,"visitsCount":493,"url":"http://browlounge.com","tier":"","message":"","currency":"","rating":8.4},{"name":"The Comedy Zone","phone":"3363331034","address":"1126 S Holden Rd","lat":36.05811140826802,"lng":-79.84285633360547,"neighborhood":"Hewitt Area","city_fetched":"Greensboro","state":"NC","country":"United States","canonicalUrl":"https://foursquare.com/v/the-comedy-zone/4bec8cfa49430f47cde907d2","category":"Comedy Club","checkinsCount":1006,"usersCount":834,"tipCount":3,"visitsCount":1268,"url":"http://www.thecomedyzone.com","tier":"","message":"","currency":"","rating":8.4},{"name":"Fleming's Prime Steakhouse & Wine Bar","phone":"3362947790","address":"3342 W Friendly Ave","lat":36.08682,"lng":-79.840126,"city_fetched":"Greensboro","state":"NC","country":"United States","canonicalUrl":"https://foursquare.com/v/flemings-prime-steakhouse--wine-bar/4b46e059f964a5202b2926e3","category":"Steakhouse","checkinsCount":1637,"usersCount":840,"tipCount":9,"visitsCount":1924,"url":"http://www.flemingssteakhouse.com/locations/nc/greensboro","tier":4,"message":"Very Expensive","currency":"$","rating":8.4},{"name":"Preyer Brewing Company","phone":"3362569450","twitter":"preyerbrewing","address":"600 Battleground Ave","lat":36.07939157410673,"lng":-79.79394234078079,"neighborhood":"Fisher Park","city_fetched":"Greensboro","state":"NC","country":"United States","canonicalUrl":"https://foursquare.com/v/preyer-brewing-company/554b7f60498ebd1960760496","category":"Brewery","checkinsCount":609,"usersCount":242,"tipCount":3,"visitsCount":717,"url":"http://www.preyerbrewing.com","tier":"","message":"","currency":"","rating":8.3},{"name":"Petra Hookah Bar and Lounge","phone":"3363787204","address":"1808 Spring Garden St","lat":36.06404760476549,"lng":-79.82230688369802,"neighborhood":"Brice Street Area","city_fetched":"Greensboro","state":"NC","country":"United States","canonicalUrl":"https://foursquare.com/v/petra-hookah-bar-and-lounge/4c12e44ff1e0b713ec8f34bc","category":"Hookah Bar","checkinsCount":596,"usersCount":381,"tipCount":15,"visitsCount":736,"url":"http://petrahookahbar.net","tier":1,"message":"Cheap","currency":"$","rating":8.2},{"name":"Old Town Draught House","phone":"3363791140","address":"1205 Spring Garden St","lat":36.065777,"lng":-79.81069279,"city_fetched":"Greensboro","state":"NC","country":"United States","canonicalUrl":"https://foursquare.com/v/old-town-draught-house/4b494166f964a5209d6b26e3","category":"Beer Garden","checkinsCount":3466,"usersCount":1192,"tipCount":25,"visitsCount":3642,"url":"http://oldtowndraughthouse.com","tier":1,"message":"Cheap","currency":"$","rating":8.1},{"name":"Rio Bravo Mexican Grill","phone":"3363752226","address":"2040 Rankin Mill Rd","lat":36.151804437029845,"lng":-79.70984630220318,"city_fetched":"Greensboro","state":"NC","country":"United States","canonicalUrl":"https://foursquare.com/v/rio-bravo-mexican-grill/4f7c7407e4b0f002b4c9b887","category":"Mexican Restaurant","checkinsCount":518,"usersCount":187,"tipCount":17,"visitsCount":676,"url":"http://www.riobravonc.com/ordereze/default.aspx","tier":"","message":"","currency":"","rating":8},{"name":"Natty Greene's Brewery","address":"1918 W Lee St","lat":36.06093670396837,"lng":-79.82450649387958,"city_fetched":"Greensboro","state":"NC","country":"United States","canonicalUrl":"https://foursquare.com/v/natty-greenes-brewery/4ec18a19e3005ff92a7e3465","category":"Brewery","checkinsCount":110,"usersCount":92,"tipCount":2,"visitsCount":115,"url":"http://nattygreenes.com","tier":"","message":"","currency":"","rating":8},{"name":"Fat Dog's Grille & Pub","phone":"3368561364","address":"2503 Spring Garden St","lat":36.06392562389374,"lng":-79.83427535,"neighborhood":"Lindley Park","city_fetched":"Greensboro","state":"NC","country":"United States","canonicalUrl":"https://foursquare.com/v/fat-dogs-grille--pub/4b808c48f964a520f37b30e3","category":"Bar","checkinsCount":1013,"usersCount":521,"tipCount":13,"visitsCount":1267,"url":"http://fatdogsgrill.com","tier":"","message":"","currency":"","rating":7.9},{"name":"Pig Pounder Brewery","phone":"3365531290","twitter":"pigpounder","address":"1107 Grecade St","lat":36.08432687284203,"lng":-79.80429757260939,"city_fetched":"Greensboro","state":"NC","country":"United States","canonicalUrl":"https://foursquare.com/v/pig-pounder-brewery/4f8ed36ed5fb4e8ed26bc778","category":"Brewery","checkinsCount":278,"usersCount":250,"tipCount":7,"visitsCount":390,"url":"http://pigpounder.com","tier":"","message":"","currency":"","rating":7.9},{"name":"Mad Hatter","phone":"3362747005","twitter":"madhattergso","address":"201 Smyres Pl","lat":36.07527900597604,"lng":-79.81538486820114,"city_fetched":"Greensboro","state":"NC","country":"United States","canonicalUrl":"https://foursquare.com/v/mad-hatter/52a21cff498e314da289caba","category":"Gastropub","checkinsCount":829,"usersCount":619,"tipCount":32,"visitsCount":1280,"url":"http://madhatterbb.com","tier":2,"message":"Moderate","currency":"$","rating":7.9},{"name":"Stumble Stilskins","phone":"3366911222","address":"202 W Market St","lat":36.072635817199526,"lng":-79.79175291926877,"neighborhood":"Downtown Greensboro","city_fetched":"Greensboro","state":"NC","country":"United States","canonicalUrl":"https://foursquare.com/v/stumble-stilskins/4b30640bf964a52053f924e3","category":"Bar","checkinsCount":5239,"usersCount":1521,"tipCount":28,"visitsCount":5670,"url":"http://stumblestilskins.com","tier":2,"message":"Moderate","currency":"$","rating":7.8},{"name":"WineStyles","phone":"3362994505","twitter":"winestylesstore","address":"3340 W Friendly Ave","lat":36.086175,"lng":-79.83679,"city_fetched":"Greensboro","state":"NC","country":"United States","canonicalUrl":"https://foursquare.com/v/winestyles/4c266f23a852c928bda7e66c","category":"Wine Bar","checkinsCount":1143,"usersCount":350,"tipCount":11,"visitsCount":1193,"url":"http://t.co/bmiwSBe4ET","tier":"","message":"","currency":"","rating":7.8},{"name":"Arizona Pete's","phone":"3366951883","address":"2900 Patterson St Ste A","lat":36.05772182654166,"lng":-79.84381365955657,"neighborhood":"Hewitt Area","city_fetched":"Greensboro","state":"NC","country":"United States","canonicalUrl":"https://foursquare.com/v/arizona-petes/4c0075cfad15a59309008e73","category":"Nightclub","checkinsCount":1406,"usersCount":620,"tipCount":8,"visitsCount":1461,"url":"http://arizonapetes.com","tier":"","message":"","currency":"","rating":7.8},{"name":"Shooters Sports Bar & Billards","phone":"3368521448","address":"3808 W Gate City Blvd","lat":36.038491089029,"lng":-79.85632358799283,"city_fetched":"Greensboro","state":"NC","country":"United States","canonicalUrl":"https://foursquare.com/v/shooters-sports-bar--billards/4be88ef3c5220f4769e6a9ca","category":"Sports Bar","checkinsCount":3283,"usersCount":297,"tipCount":12,"visitsCount":3590,"tier":"","message":"","currency":"","rating":7.7},{"name":"Speakeasy Tavern","phone":"3363780006","address":"1706 Battleground Ave","lat":36.091725137532855,"lng":-79.81283480359964,"neighborhood":"Old Irving Park","city_fetched":"Greensboro","state":"NC","country":"United States","canonicalUrl":"https://foursquare.com/v/speakeasy-tavern/4c259528f1272d7f782d85c5","category":"Bar","checkinsCount":1912,"usersCount":737,"tipCount":7,"visitsCount":2108,"tier":"","message":"","currency":"","rating":7.7},{"name":"Churchill's on Elm","address":"213 S Elm St","lat":36.071183527440915,"lng":-79.790395450817,"neighborhood":"Downtown Greensboro","city_fetched":"Greensboro","state":"NC","country":"United States","canonicalUrl":"https://foursquare.com/v/churchills-on-elm/4b905fbcf964a520d08633e3","category":"Bar","checkinsCount":609,"usersCount":389,"tipCount":6,"visitsCount":635,"url":"http://churchillscigarlounge.com","tier":"","message":"","currency":"","rating":7.7},{"name":"Legends Bar & Nightlife","phone":"3368557505","twitter":"barfindercom","address":"415 S Swing Rd","lat":36.06440032379906,"lng":-79.9090568986455,"city_fetched":"Greensboro","state":"NC","country":"United States","canonicalUrl":"https://foursquare.com/v/legends-bar--nightlife/4de6d9cd52b1886171c11d79","category":"Bar","checkinsCount":370,"usersCount":147,"tipCount":6,"visitsCount":375,"tier":"","message":"","currency":"","rating":7.6},{"name":"Smokey Bones Bar & Fire Grill","phone":"3363158755","twitter":"smokeybonesbar","address":"3302 W Gate City Blvd","lat":36.04118002563326,"lng":-79.84583768597744,"city_fetched":"Greensboro","state":"NC","country":"United States","canonicalUrl":"https://foursquare.com/v/smokey-bones-bar--fire-grill/4bc3a18db492d13a2a0ba960","category":"American Restaurant","checkinsCount":3317,"usersCount":1856,"tipCount":41,"visitsCount":3673,"url":"http://www.smokeybones.com","tier":2,"message":"Moderate","currency":"$","rating":7.6},{"name":"World of Beer Greensboro","phone":"3368970031","twitter":"wob_usa","address":"1310 Westover Ter","lat":36.09047330120891,"lng":-79.81343128451446,"city_fetched":"Greensboro","state":"NC","country":"United States","canonicalUrl":"https://foursquare.com/v/world-of-beer-greensboro/5622de3e498eccd9fa916615","category":"Bar","checkinsCount":323,"usersCount":318,"tipCount":8,"visitsCount":536,"url":"https://worldofbeer.com/Locations/Greensboro","tier":"","message":"","currency":"","rating":7.6},{"name":"Bender's Tavern","phone":"3362920080","address":"4517 W Market St","lat":36.069772839546204,"lng":-79.85907745,"city_fetched":"Greensboro","state":"NC","country":"United States","canonicalUrl":"https://foursquare.com/v/benders-tavern/4be88ae4d837c9b66f75a506","category":"Sports Bar","checkinsCount":1040,"usersCount":508,"tipCount":13,"visitsCount":1244,"tier":"","message":"","currency":"","rating":7.6},{"name":"The Pour House","phone":"3363332226","address":"360 Federal Pl","lat":36.068259805983004,"lng":-79.79307205219548,"neighborhood":"Downtown Greensboro","city_fetched":"Greensboro","state":"NC","country":"United States","canonicalUrl":"https://foursquare.com/v/the-pour-house/4b568bcbf964a520b61428e3","category":"Bar","checkinsCount":5451,"usersCount":1584,"tipCount":30,"visitsCount":5868,"tier":2,"message":"Moderate","currency":"$","rating":7.6},{"name":"Liberty Brewery & Grill","phone":"3368824677","address":"914 Mall Loop Rd","lat":35.988125,"lng":-80.0042665374,"city_fetched":"Greensboro","state":"NC","country":"United States","canonicalUrl":"https://foursquare.com/v/liberty-brewery--grill/4b568d8df964a520f41428e3","category":"Steakhouse","checkinsCount":4973,"usersCount":1903,"tipCount":29,"visitsCount":5211,"url":"http://www.libertysteakhouseandbrewery.com","tier":2,"message":"Moderate","currency":"$","rating":7.5},{"name":"Ham's Restaurant","phone":"3362884544","address":"1635 New Garden Rd","lat":36.11811375133464,"lng":-79.87437698514167,"city_fetched":"Greensboro","state":"NC","country":"United States","canonicalUrl":"https://foursquare.com/v/hams-restaurant/4fe20cdee4b0e5fc16400166","category":"American Restaurant","checkinsCount":1664,"usersCount":757,"tipCount":15,"visitsCount":1922,"url":"http://www.hamsrestaurants.com","tier":2,"message":"Moderate","currency":"$","rating":7.5},{"name":"Corner Bar","phone":"3362725559","address":"1700 Spring Garden St","lat":36.063951224956384,"lng":-79.81904566950341,"neighborhood":"Brice Street Area","city_fetched":"Greensboro","state":"NC","country":"United States","canonicalUrl":"https://foursquare.com/v/corner-bar/4b96fa51f964a52077f134e3","category":"Bar","checkinsCount":2140,"usersCount":631,"tipCount":5,"visitsCount":2487,"url":"http://corner-bar.com","tier":"","message":"","currency":"","rating":7.5},{"name":"Kick Back Jack's","phone":"3362744937","twitter":"kickbackjacks","address":"1600 Battleground Ave","lat":36.08975618854514,"lng":-79.80964438337585,"neighborhood":"Old Irving Park","city_fetched":"Greensboro","state":"NC","country":"United States","canonicalUrl":"https://foursquare.com/v/kick-back-jacks/4ca0c66327d3bfb7f3f33967","category":"Sports Bar","checkinsCount":6321,"usersCount":2718,"tipCount":53,"visitsCount":7191,"url":"http://kbjacks.com","tier":1,"message":"Cheap","currency":"$","rating":7.5},{"name":"Westerwood Tavern","phone":"3362744410","address":"508 Guilford Ave","lat":36.075734182187986,"lng":-79.80050480820327,"city_fetched":"Greensboro","state":"NC","country":"United States","canonicalUrl":"https://foursquare.com/v/westerwood-tavern/4b99c3a5f964a520bc9035e3","category":"Dive Bar","checkinsCount":2029,"usersCount":536,"tipCount":12,"visitsCount":2497,"tier":1,"message":"Cheap","currency":"$","rating":7.4},{"name":"Inferno Night Club","address":"206 S Elm St","lat":36.07117564728927,"lng":-79.79047208265327,"neighborhood":"Downtown Greensboro","city_fetched":"Greensboro","state":"NC","country":"United States","canonicalUrl":"https://foursquare.com/v/inferno-night-club/4c22f3c211de20a133c085ce","category":"Nightclub","checkinsCount":476,"usersCount":261,"tipCount":1,"visitsCount":481,"tier":"","message":"","currency":"","rating":7.4},{"name":"Triad Lanes","phone":"3362920181","address":"21 Oak Branch Dr","lat":36.059218257249256,"lng":-79.86504174587387,"neighborhood":"Hewitt Area","city_fetched":"Greensboro","state":"NC","country":"United States","canonicalUrl":"https://foursquare.com/v/triad-lanes/4b76f471f964a5202c6e2ee3","category":"Bowling Alley","checkinsCount":1290,"usersCount":877,"tipCount":11,"visitsCount":1773,"url":"http://www.brunswickbowling.com","tier":"","message":"","currency":"","rating":7.3},{"name":"The Brass Taps","phone":"3365106950","address":"2506 Battleground Ave #B","lat":36.10579836466145,"lng":-79.82552967700053,"city_fetched":"Greensboro","state":"NC","country":"United States","canonicalUrl":"https://foursquare.com/v/the-brass-taps/4c311dcb213c2d7f7984335d","category":"Bar","checkinsCount":940,"usersCount":289,"tipCount":6,"visitsCount":1081,"tier":"","message":"","currency":"","rating":7.3},{"name":"Grey's Tavern","phone":"3366175341","address":"343 S Elm St","lat":36.06875326713685,"lng":-79.79069650407901,"neighborhood":"Downtown Greensboro","city_fetched":"Greensboro","state":"NC","country":"United States","canonicalUrl":"https://foursquare.com/v/greys-tavern/4b0df937f964a5205f5323e3","category":"Burger Joint","checkinsCount":3736,"usersCount":1353,"tipCount":30,"visitsCount":3784,"url":"http://greystavern.com","tier":2,"message":"Moderate","currency":"$","rating":7.3},{"name":"The Box Seat Sports Restaurant","phone":"3362970073","address":"5006 High Point Rd","lat":36.02552446,"lng":-79.876899,"city_fetched":"Greensboro","state":"NC","country":"United States","canonicalUrl":"https://foursquare.com/v/the-box-seat-sports-restaurant/4c535aa530f92d7f8edba0b8","category":"Sports Bar","checkinsCount":877,"usersCount":408,"tipCount":14,"visitsCount":1060,"tier":1,"message":"Cheap","currency":"$","rating":7.3},{"name":"Graffiti's Bistro","phone":"3365451113","address":"301 Pisgah Church Rd Ste F","lat":36.13167978526337,"lng":-79.79409559826446,"city_fetched":"Greensboro","state":"NC","country":"United States","canonicalUrl":"https://foursquare.com/v/graffitis-bistro/4b529360f964a520d28227e3","category":"Lounge","checkinsCount":911,"usersCount":381,"tipCount":13,"visitsCount":985,"url":"http://www.graffitisbistro.com","tier":2,"message":"Moderate","currency":"$","rating":7.3},{"name":"Tap Room","phone":"3362744439","address":"1740 Battleground Ave","lat":36.092458963394165,"lng":-79.81383681,"neighborhood":"Old Irving Park","city_fetched":"Greensboro","state":"NC","country":"United States","canonicalUrl":"https://foursquare.com/v/tap-room/4ba43b8ef964a520708e38e3","category":"Bar","checkinsCount":1078,"usersCount":562,"tipCount":11,"visitsCount":1174,"url":"http://taproomgso.com","tier":"","message":"","currency":"","rating":7.2},{"name":"Centerfold's Gentlemens Club","phone":"3363231555","twitter":"centerfoldsnc","address":"2104 Veasley St","lat":36.04050889135509,"lng":-79.84506637327121,"city_fetched":"Greensboro","state":"NC","country":"United States","canonicalUrl":"https://foursquare.com/centerfoldsnc","category":"Dive Bar","checkinsCount":698,"usersCount":164,"tipCount":2,"visitsCount":709,"url":"http://centerfoldsnc.com","tier":"","message":"","currency":"","rating":7.1},{"name":"Local House Bar","phone":"3369372922","twitter":"localhousebar","address":"422 N Edgeworth St","lat":36.07383446984397,"lng":-79.79479551315308,"neighborhood":"Downtown Greensboro","city_fetched":"Greensboro","state":"NC","country":"United States","canonicalUrl":"https://foursquare.com/v/local-house-bar/51df0094454a7190ddc5dc37","category":"Bar","checkinsCount":1463,"usersCount":174,"tipCount":5,"visitsCount":1640,"url":"http://www.localhousebar.com","tier":1,"message":"Cheap","currency":"$","rating":7.1},{"name":"New Orleans Bar & Grill and Aqua Lounge","phone":"3363155351","address":"4312 Big Tree Way","lat":36.05925444385134,"lng":-79.89107622668564,"city_fetched":"Greensboro","state":"NC","country":"United States","canonicalUrl":"https://foursquare.com/v/new-orleans-bar--grill-and-aqua-lounge/506a019de4b0bdd08bfca2b4","category":"Cajun / Creole Restaurant","checkinsCount":530,"usersCount":453,"tipCount":19,"visitsCount":701,"tier":2,"message":"Moderate","currency":"$","rating":7.1},{"name":"Boston's House of Jazz","address":"125 Summit Ave","lat":36.07539438368329,"lng":-79.78902154024631,"neighborhood":"Downtown Greensboro","city_fetched":"Greensboro","state":"NC","country":"United States","canonicalUrl":"https://foursquare.com/v/bostons-house-of-jazz/4bb584201344b71383709c04","category":"Lounge","checkinsCount":294,"usersCount":179,"tipCount":10,"visitsCount":304,"tier":"","message":"","currency":"","rating":7},{"name":"TGI Fridays","phone":"3362943707","twitter":"tgifridays","address":"4423 W Wendover Ave","lat":36.05520188,"lng":-79.89867022,"city_fetched":"Greensboro","state":"NC","country":"United States","canonicalUrl":"https://foursquare.com/v/tgi-fridays/4b7a17c1f964a520b0222fe3","category":"American Restaurant","checkinsCount":3214,"usersCount":2250,"tipCount":56,"visitsCount":3826,"url":"http://tgifridays.com","tier":2,"message":"Moderate","currency":"$","rating":6.9},{"name":"JP Looneys Sports Bar and Grill","phone":"3368521331","address":"3021 Spring Garden St","lat":36.061803616666666,"lng":-79.84376192092896,"neighborhood":"Lindley Park","city_fetched":"Greensboro","state":"NC","country":"United States","canonicalUrl":"https://foursquare.com/v/jp-looneys-sports-bar-and-grill/4b99e762f964a5207a9635e3","category":"Bar","checkinsCount":922,"usersCount":461,"tipCount":9,"visitsCount":922,"tier":"","message":"","currency":"","rating":6.9},{"name":"Walker's","lat":36.068858,"lng":-79.827968,"neighborhood":"Brice Street Area","city_fetched":"Greensboro","state":"NC","country":"United States","canonicalUrl":"https://foursquare.com/v/walkers/4b9075aef964a5206e8b33e3","category":"Bar","checkinsCount":507,"usersCount":124,"tipCount":8,"visitsCount":550,"tier":"","message":"","currency":"","rating":6.8}]