[{"name":"Hugo's Taproom","phone":"7248364846","address":"106 W Pittsburgh St","lat":40.301975199015224,"lng":-79.54570974633832,"city_fetched":"Greensburg,US","state":"PA","country":"United States","canonicalUrl":"https://foursquare.com/v/hugos-taproom/55dbb64a498e2ef1c69d2607","categoryId":"4bf58dd8d48988d116941735","category":"Bar","checkinsCount":309,"usersCount":55,"tipCount":3,"visitsCount":391,"tier":"","message":"","currency":"","rating":8.7},{"name":"Hookah Connection","phone":"7248373464","twitter":"hookaconnection","address":"5274 State Route 30 Ste 18B","lat":40.298544985498815,"lng":-79.5090651512146,"city_fetched":"Greensburg,US","state":"PA","country":"United States","canonicalUrl":"https://foursquare.com/hookaconnection","categoryId":"4bf58dd8d48988d119941735","category":"Hookah Bar","checkinsCount":362,"usersCount":179,"tipCount":12,"visitsCount":369,"url":"http://www.hookah-connection.com","tier":"","message":"","currency":"","rating":8.6},{"name":"Parkwood Inn","phone":"7248342332","address":"1002 Cribbs St","lat":40.287298564232074,"lng":-79.5476856289529,"city_fetched":"Greensburg,US","state":"PA","country":"United States","canonicalUrl":"https://foursquare.com/v/parkwood-inn/4bc8d9c33740b71331865d65","categoryId":"4bf58dd8d48988d116941735","category":"Bar","checkinsCount":921,"usersCount":470,"tipCount":16,"visitsCount":1205,"url":"http://parkwoodinnrestaurant.com","tier":"","message":"","currency":"","rating":8.4},{"name":"Primanti Bros.","phone":"7246891300","twitter":"primantibros","address":"830 East Pittsburgh Street","lat":40.301758,"lng":-79.5225727558136,"city_fetched":"Greensburg,US","state":"PA","country":"United States","canonicalUrl":"https://foursquare.com/v/primanti-bros/4b38f6aef964a520285325e3","categoryId":"4bf58dd8d48988d11d941735","category":"Sports Bar","checkinsCount":4383,"usersCount":1816,"tipCount":31,"visitsCount":5098,"url":"http://t.co/PoYRL50T3L","tier":1,"message":"Cheap","currency":"$","rating":8.4},{"name":"Oliver's Pourhouse","phone":"7248367687","address":"8 N Pennsylvania Ave","lat":40.3025,"lng":-79.54540883,"city_fetched":"Greensburg,US","state":"PA","country":"United States","canonicalUrl":"https://foursquare.com/v/olivers-pourhouse/4de1b376fa7651589eee3762","categoryId":"4bf58dd8d48988d116941735","category":"Bar","checkinsCount":1233,"usersCount":530,"tipCount":18,"visitsCount":1462,"url":"http://oliverspourhouse.com","tier":"","message":"","currency":"","rating":8.2},{"name":"The ASH Club","phone":"7248378430","address":"119 Harrison Ave","lat":40.303618081236856,"lng":-79.54638004302979,"city_fetched":"Greensburg,US","state":"PA","country":"United States","canonicalUrl":"https://foursquare.com/v/the-ash-club/4b7f84d4f964a5209b3230e3","categoryId":"4bf58dd8d48988d116941735","category":"Bar","checkinsCount":746,"usersCount":158,"tipCount":4,"visitsCount":779,"tier":"","message":"","currency":"","rating":7.9},{"name":"Burky's Tavern","phone":"7248381850","address":"625 W Otterman St","lat":40.30334248352073,"lng":-79.5571967079576,"city_fetched":"Greensburg,US","state":"PA","country":"United States","canonicalUrl":"https://foursquare.com/v/burkys-tavern/4cba0897035d236ad1dbd74e","categoryId":"4bf58dd8d48988d116941735","category":"Bar","checkinsCount":544,"usersCount":58,"tipCount":1,"visitsCount":614,"tier":1,"message":"Cheap","currency":"$","rating":7.9},{"name":"All Saints Brewing Company","phone":"7243964968","twitter":"allsaintscraft","address":"Route 119 and Roseytown Road","lat":40.31182404821661,"lng":-79.52625599154865,"city_fetched":"Greensburg,US","state":"PA","country":"United States","canonicalUrl":"https://foursquare.com/v/all-saints-brewing-company/4f242f52e4b0b2f98f2a78b4","categoryId":"50327c8591d4c4b30a586d5d","category":"Brewery","checkinsCount":364,"usersCount":234,"tipCount":7,"visitsCount":480,"url":"http://www.allsaintscraftbrewing.com","tier":"","message":"","currency":"","rating":7.8},{"name":"The Great Escape","address":"827 E Pittsburgh St","lat":40.302265497977714,"lng":-79.52261069535035,"city_fetched":"Greensburg,US","state":"PA","country":"United States","canonicalUrl":"https://foursquare.com/v/the-great-escape/4ba422eff964a520288538e3","categoryId":"4bf58dd8d48988d116941735","category":"Bar","checkinsCount":980,"usersCount":225,"tipCount":7,"visitsCount":996,"tier":"","message":"","currency":"","rating":7.2},{"name":"Callahan's","phone":"5347624678","address":"534 S Main St","lat":40.297256818929974,"lng":-79.54303125921393,"city_fetched":"Greensburg,US","state":"PA","country":"United States","canonicalUrl":"https://foursquare.com/v/callahans/4aecb901f964a5209fca21e3","categoryId":"4bf58dd8d48988d118941735","category":"Dive Bar","checkinsCount":614,"usersCount":194,"tipCount":8,"visitsCount":616,"tier":"","message":"","currency":"","rating":6.6},{"name":"Mr. Toads","phone":"7248348623","address":"10 E Otterman St, Greensburg, PA 15601","lat":40.30348593662083,"lng":-79.54431562557797,"city_fetched":"Greensburg,US","state":"PA","country":"United States","canonicalUrl":"https://foursquare.com/v/mr-toads/4eb5dea8823131626f76a0df","categoryId":"4bf58dd8d48988d116941735","category":"Bar","checkinsCount":937,"usersCount":214,"tipCount":4,"visitsCount":962,"tier":"","message":"","currency":"","rating":6.2},{"name":"Scooby's Pub","phone":"7248349827","address":"414 New Alexandria Rd","lat":40.3073490181992,"lng":-79.53856945037842,"city_fetched":"Greensburg,US","state":"PA","country":"United States","canonicalUrl":"https://foursquare.com/v/scoobys-pub/50e8e1f329a67936830f6f35","categoryId":"4bf58dd8d48988d120941735","category":"Karaoke Bar","checkinsCount":297,"usersCount":69,"tipCount":1,"visitsCount":311,"tier":"","message":"","currency":"","rating":6.1}]