[{"name":"The Blind Tiger","phone":"2282200162","address":"119 N Beach Blvd","lat":30.310838,"lng":-89.32498,"city_fetched":"Gulfport,US","state":"MS","country":"United States","canonicalUrl":"https://foursquare.com/v/the-blind-tiger/51a01554498eeb0fadaeb261","categoryId":"4bf58dd8d48988d116941735","category":"Bar","checkinsCount":646,"usersCount":571,"tipCount":18,"visitsCount":1032,"url":"http://www.blindtiger.biz","tier":1,"message":"Cheap","currency":"$","rating":8.5},{"name":"Government Street Grocery","phone":"2288189410","address":"1210 Government St","lat":30.413520565223944,"lng":-88.82523536682129,"city_fetched":"Gulfport,US","state":"MS","country":"United States","canonicalUrl":"https://foursquare.com/v/government-street-grocery/4b7f5f9af964a520cf2a30e3","categoryId":"4bf58dd8d48988d116941735","category":"Bar","checkinsCount":971,"usersCount":485,"tipCount":23,"visitsCount":1042,"tier":1,"message":"Cheap","currency":"$","rating":8.3},{"name":"Mississippi Juke Joint","phone":"2282150506","twitter":"msjukejointbar","address":"1911 Government St","lat":30.413890663975703,"lng":-88.81643772125244,"city_fetched":"Gulfport,US","state":"MS","country":"United States","canonicalUrl":"https://foursquare.com/v/mississippi-juke-joint/4c280e5bfe6e2d7fe7ca523c","categoryId":"4bf58dd8d48988d116941735","category":"Bar","checkinsCount":1153,"usersCount":420,"tipCount":8,"visitsCount":1357,"url":"http://msjukejoint.com","tier":"","message":"","currency":"","rating":8.2},{"name":"The Project Lounge","phone":"2284353030","address":"2081 Iberville Drive","lat":30.39849121,"lng":-88.9342349767685,"neighborhood":"West Biloxi","city_fetched":"Gulfport,US","state":"MS","country":"United States","canonicalUrl":"https://foursquare.com/v/the-project-lounge/4b9aedd4f964a5200de435e3","categoryId":"4bf58dd8d48988d116941735","category":"Bar","checkinsCount":600,"usersCount":266,"tipCount":12,"visitsCount":724,"tier":"","message":"","currency":"","rating":8.2},{"name":"Crooked Letter Brewing Co","phone":"2282381414","address":"1805 Government St","lat":30.414220044674845,"lng":-88.81771116023175,"city_fetched":"Gulfport,US","state":"MS","country":"United States","canonicalUrl":"https://foursquare.com/v/crooked-letter-brewing-co/50c23708e4b02a8da2d0063e","categoryId":"50327c8591d4c4b30a586d5d","category":"Brewery","checkinsCount":122,"usersCount":106,"tipCount":4,"visitsCount":123,"url":"http://crookedletterbrewing.com","tier":"","message":"","currency":"","rating":8.2},{"name":"Big Mike's Speak Easy","lat":30.36797279,"lng":-89.08762514591217,"city_fetched":"Gulfport,US","state":"Mississippi","country":"United States","canonicalUrl":"https://foursquare.com/v/big-mikes-speak-easy/4d9cdde37509b1f7162d34a0","categoryId":"4bf58dd8d48988d116941735","category":"Bar","checkinsCount":581,"usersCount":345,"tipCount":14,"visitsCount":653,"tier":"","message":"","currency":"","rating":8},{"name":"Orangutangs/Prop Stop","lat":30.456483228667054,"lng":-89.01013972799812,"neighborhood":"Woolmarket","city_fetched":"Gulfport,US","state":"MS","country":"United States","canonicalUrl":"https://foursquare.com/v/orangutangsprop-stop/4c705668fa49a1cd5edea5e3","categoryId":"4bf58dd8d48988d116941735","category":"Bar","checkinsCount":142,"usersCount":94,"tipCount":3,"visitsCount":182,"tier":"","message":"","currency":"","rating":8},{"name":"Adventures Pub & Spirits","phone":"2282076364","address":"132 Lameuse St","lat":30.3947509230177,"lng":-88.8870689561666,"neighborhood":"Downtown Biloxi","city_fetched":"Gulfport,US","state":"MS","country":"United States","canonicalUrl":"https://foursquare.com/v/adventures-pub--spirits/4f07b984e4b0332118f8b8bf","categoryId":"4bf58dd8d48988d116941735","category":"Bar","checkinsCount":658,"usersCount":308,"tipCount":8,"visitsCount":698,"url":"http://www.adventurespub.com","tier":"","message":"","currency":"","rating":8},{"name":"blu - 9th floor @ Treasure Bay","phone":"2283856000","address":"1980 Beach Blvd","lat":30.39382928866299,"lng":-88.9551830291748,"neighborhood":"West Biloxi","city_fetched":"Gulfport,US","state":"MS","country":"United States","canonicalUrl":"https://foursquare.com/v/blu--9th-floor--treasure-bay/4d042ce230a58cfa4ae89de7","categoryId":"4bf58dd8d48988d116941735","category":"Bar","checkinsCount":208,"usersCount":85,"tipCount":9,"visitsCount":208,"url":"http://www.treasurebay.com/html/blu.htm","tier":"","message":"","currency":"","rating":8},{"name":"Shaggy's Biloxi Beach","phone":"2284325005","twitter":"shaggys_","address":"1763 Beach Blvd","lat":30.39294719696045,"lng":-88.943017,"neighborhood":"West Biloxi","city_fetched":"Gulfport,US","state":"MS","country":"United States","canonicalUrl":"https://foursquare.com/v/shaggys-biloxi-beach/4e29eb43d4c0e5c89ab37f22","categoryId":"4bf58dd8d48988d116941735","category":"Bar","checkinsCount":2412,"usersCount":2213,"tipCount":47,"visitsCount":2982,"url":"http://www.shaggys.biz","tier":2,"message":"Moderate","currency":"$","rating":8},{"name":"The Office","phone":"2288754321","address":"1000 Government St","lat":30.413520750058378,"lng":-88.82771907119907,"city_fetched":"Gulfport,US","state":"MS","country":"United States","canonicalUrl":"https://foursquare.com/v/the-office/4bc15fe7b492d13a8613a660","categoryId":"4bf58dd8d48988d116941735","category":"Bar","checkinsCount":505,"usersCount":237,"tipCount":3,"visitsCount":516,"tier":"","message":"","currency":"","rating":8},{"name":"Irish Coast Pub","phone":"2288677022","address":"1307 25th Ave","lat":30.36749609496866,"lng":-89.09320322369365,"city_fetched":"Gulfport,US","state":"MS","country":"United States","canonicalUrl":"https://foursquare.com/v/irish-coast-pub/4f9c772fe4b06144930999ea","categoryId":"4bf58dd8d48988d11b941735","category":"Pub","checkinsCount":526,"usersCount":229,"tipCount":12,"visitsCount":549,"url":"http://irishcoastpub.com","tier":2,"message":"Moderate","currency":"$","rating":7.9},{"name":"Kwitzky's Sports Bar","lat":30.41362762880042,"lng":-88.82645766255753,"city_fetched":"Gulfport,US","state":"MS","country":"United States","canonicalUrl":"https://foursquare.com/v/kwitzkys-sports-bar/4bfdbf488992a5939ca1acb0","categoryId":"4bf58dd8d48988d11d941735","category":"Sports Bar","checkinsCount":203,"usersCount":108,"tipCount":4,"visitsCount":204,"tier":"","message":"","currency":"","rating":7.8},{"name":"Chill Ultra Lounge","address":"850 Bayview Ave","lat":30.412355243929948,"lng":-88.89088132788052,"neighborhood":"East Biloxi","city_fetched":"Gulfport,US","state":"MS","country":"United States","canonicalUrl":"https://foursquare.com/v/chill-ultra-lounge/4d5de5e1e4fe548185de619e","categoryId":"4bf58dd8d48988d11e941735","category":"Cocktail Bar","checkinsCount":595,"usersCount":266,"tipCount":5,"visitsCount":603,"url":"http://ipbiloxi.com","tier":"","message":"","currency":"","rating":7.8},{"name":"Orangutang's Daiquiris & Bar","phone":"2288965216","address":"226 Courthouse Rd","lat":30.381263494491577,"lng":-89.043717,"city_fetched":"Gulfport,US","state":"MS","country":"United States","canonicalUrl":"https://foursquare.com/v/orangutangs-daiquiris--bar/4bfafa4eab180f47d339b3ce","categoryId":"4bf58dd8d48988d11d941735","category":"Sports Bar","checkinsCount":248,"usersCount":147,"tipCount":4,"visitsCount":252,"tier":"","message":"","currency":"","rating":7.7},{"name":"Ugly Pirate","address":"Demontluzin St.","lat":30.31239,"lng":-89.32821,"city_fetched":"Gulfport,US","state":"MS","country":"United States","canonicalUrl":"https://foursquare.com/v/ugly-pirate/4e90c067d3e3187fc30d42f1","categoryId":"4bf58dd8d48988d118941735","category":"Dive Bar","checkinsCount":251,"usersCount":138,"tipCount":15,"visitsCount":321,"tier":"","message":"","currency":"","rating":7.7},{"name":"Voodoo Cantina","address":"131 Lameuse St","lat":30.394919,"lng":-88.887449,"neighborhood":"Downtown Biloxi","city_fetched":"Gulfport,US","state":"MS","country":"United States","canonicalUrl":"https://foursquare.com/v/voodoo-cantina/52635ce2498e826e9cb716b2","categoryId":"4bf58dd8d48988d116941735","category":"Bar","checkinsCount":73,"usersCount":56,"tipCount":5,"visitsCount":74,"tier":"","message":"","currency":"","rating":7.5},{"name":"Skeeter's","phone":"2288971234","address":"Teagarden","lat":30.383755766666667,"lng":-89.035812,"city_fetched":"Gulfport,US","state":"MS","country":"United States","canonicalUrl":"https://foursquare.com/v/skeeters/4cae6b73cbab236ab6699073","categoryId":"4bf58dd8d48988d116941735","category":"Bar","checkinsCount":402,"usersCount":212,"tipCount":7,"visitsCount":465,"tier":"","message":"","currency":"","rating":7.5},{"name":"Buoy's Bar","phone":"2283443224","address":"115 S Beach Blvd","lat":30.309707291294004,"lng":-89.32592200395653,"city_fetched":"Gulfport,US","state":"MS","country":"United States","canonicalUrl":"https://foursquare.com/v/buoys-bar/5442cb44498eaaa9f123354d","categoryId":"4bf58dd8d48988d116941735","category":"Bar","checkinsCount":116,"usersCount":114,"tipCount":1,"visitsCount":201,"tier":"","message":"","currency":"","rating":7.4},{"name":"Just Us Lounge","address":"906 Division St","lat":30.403299472204477,"lng":-88.8928711608357,"neighborhood":"East Biloxi","city_fetched":"Gulfport,US","state":"MS","country":"United States","canonicalUrl":"https://foursquare.com/v/just-us-lounge/4b8a0be9f964a520515d32e3","categoryId":"4bf58dd8d48988d1d8941735","category":"Gay Bar","checkinsCount":3179,"usersCount":452,"tipCount":16,"visitsCount":3319,"tier":"","message":"","currency":"","rating":7.3},{"name":"EO Club II","phone":"2288630380","address":"1309 25th Ave","lat":30.367608282596514,"lng":-89.09316595050782,"city_fetched":"Gulfport,US","state":"MS","country":"United States","canonicalUrl":"https://foursquare.com/v/eo-club-ii/4bb59255f562ef3b96202f97","categoryId":"4bf58dd8d48988d116941735","category":"Bar","checkinsCount":631,"usersCount":271,"tipCount":5,"visitsCount":638,"tier":"","message":"","currency":"","rating":7.2},{"name":"Rooney's Irish Pub","address":"1314 27th Ave","lat":30.367861564187407,"lng":-89.09456833072294,"city_fetched":"Gulfport,US","state":"MS","country":"United States","canonicalUrl":"https://foursquare.com/v/rooneys-irish-pub/4da11cacc6e96ea83881ba5d","categoryId":"4bf58dd8d48988d116941735","category":"Bar","checkinsCount":395,"usersCount":135,"tipCount":3,"visitsCount":398,"tier":"","message":"","currency":"","rating":7.2},{"name":"Kelly's Sports Pub","phone":"2282480083","address":"1301 26th Ave","lat":30.367264088904655,"lng":-89.09428879033095,"city_fetched":"Gulfport,US","state":"MS","country":"United States","canonicalUrl":"https://foursquare.com/v/kellys-sports-pub/4f613671e4b0b984bd7e87b4","categoryId":"4bf58dd8d48988d11b941735","category":"Pub","checkinsCount":753,"usersCount":295,"tipCount":9,"visitsCount":848,"url":"http://kellyssportspub.com","tier":"","message":"","currency":"","rating":7.1},{"name":"Castaways Bar & Grill","address":"2114 Bienville Blvd","lat":30.415847897529602,"lng":-88.806326,"city_fetched":"Gulfport,US","state":"MS","country":"United States","canonicalUrl":"https://foursquare.com/v/castaways-bar--grill/4d5872307a7eba7a3017ddce","categoryId":"4bf58dd8d48988d116941735","category":"Bar","checkinsCount":285,"usersCount":203,"tipCount":11,"visitsCount":369,"tier":"","message":"","currency":"","rating":6.7},{"name":"Club Veaux","address":"834 Howard Ave","lat":30.396719666666666,"lng":-88.890003,"neighborhood":"Downtown Biloxi","city_fetched":"Gulfport,US","state":"MS","country":"United States","canonicalUrl":"https://foursquare.com/v/club-veaux/4d687a0fb6f46dcb046e14b2","categoryId":"4bf58dd8d48988d1d8941735","category":"Gay Bar","checkinsCount":1171,"usersCount":262,"tipCount":8,"visitsCount":1218,"tier":"","message":"","currency":"","rating":6.6},{"name":"Fat Tuesday","lat":30.393972519517373,"lng":-88.89139167059895,"neighborhood":"Downtown Biloxi","city_fetched":"Gulfport,US","state":"MS","country":"United States","canonicalUrl":"https://foursquare.com/v/fat-tuesday/54d66437498ee1bc7e4770a2","categoryId":"4bf58dd8d48988d116941735","category":"Bar","checkinsCount":65,"usersCount":51,"tipCount":0,"visitsCount":69,"tier":"","message":"","currency":"","rating":6.3},{"name":"Lazy Magnolia","address":"14035 Airport Rd","lat":30.412835978313588,"lng":-89.07259995352246,"city_fetched":"Gulfport,US","state":"MS","country":"United States","canonicalUrl":"https://foursquare.com/v/lazy-magnolia/4dc31ce4b0fb5556ccb6398c","categoryId":"4bf58dd8d48988d116941735","category":"Bar","checkinsCount":296,"usersCount":224,"tipCount":13,"visitsCount":297,"url":"http://lazymagnolia.com","tier":"","message":"","currency":"","rating":6.2},{"name":"Firefly Tavern","address":"Government","lat":30.413641984377055,"lng":-88.82674371023879,"city_fetched":"Gulfport,US","state":"MS","country":"United States","canonicalUrl":"https://foursquare.com/v/firefly-tavern/50ad780be4b042e77f9ecf9d","categoryId":"4bf58dd8d48988d116941735","category":"Bar","checkinsCount":118,"usersCount":57,"tipCount":6,"visitsCount":120,"tier":"","message":"","currency":"","rating":6.1},{"name":"SOS Daiquiri Bar & Grill","phone":"2288753434","address":"1212 Government St","lat":30.41354,"lng":-88.82507303,"city_fetched":"Gulfport,US","state":"MS","country":"United States","canonicalUrl":"https://foursquare.com/v/sos-daiquiri-bar--grill/4d703fc3c7f8224b7e7cadfb","categoryId":"4bf58dd8d48988d116941735","category":"Bar","checkinsCount":377,"usersCount":180,"tipCount":9,"visitsCount":377,"tier":"","message":"","currency":"","rating":5.5}]