[{"name":"Broad Axe","phone":"3017338454","address":"28 W Franklin St","lat":39.643941283126864,"lng":-77.72023976044137,"neighborhood":"City Square","city_fetched":"Hagerstown","state":"MD","country":"United States","canonicalUrl":"https://foursquare.com/v/broad-axe/4b4413a4f964a52025f125e3","category":"Bar","checkinsCount":1053,"usersCount":366,"tipCount":13,"visitsCount":1239,"tier":"","message":"","currency":"","rating":8.9},{"name":"Barefoot Bernie's Bar & Grille","phone":"3017974424","address":"901 Dual Hwy","lat":39.63373016,"lng":-77.70405646886387,"city_fetched":"Hagerstown","state":"MD","country":"United States","canonicalUrl":"https://foursquare.com/v/barefoot-bernies-bar--grille/4b7cb97df964a52013a32fe3","category":"Hotel Bar","checkinsCount":3714,"usersCount":1021,"tipCount":24,"visitsCount":4180,"url":"http://www.barefootberniesmd.com","tier":2,"message":"Moderate","currency":"$","rating":8.4},{"name":"Creekside Inn","phone":"3017916307","address":"1225 Security Rd","lat":39.64952246297334,"lng":-77.68740772272189,"city_fetched":"Hagerstown","state":"MD","country":"United States","canonicalUrl":"https://foursquare.com/v/creekside-inn/4bdb863f63c5c9b698852868","category":"Bar","checkinsCount":209,"usersCount":126,"tipCount":6,"visitsCount":357,"url":"http://creeksidedeckbar.com","tier":"","message":"","currency":"","rating":8.2},{"name":"Stadium Grill And Tavern","phone":"3017140849","address":"401 S Cannon Ave","lat":39.63410484546475,"lng":-77.7127272038451,"city_fetched":"Hagerstown","state":"MD","country":"United States","canonicalUrl":"https://foursquare.com/v/stadium-grill-and-tavern/4ba01553f964a520a45837e3","category":"Seafood Restaurant","checkinsCount":530,"usersCount":336,"tipCount":11,"visitsCount":759,"url":"http://www.stadiumgrillandtavern.com","tier":2,"message":"Moderate","currency":"$","rating":7.9},{"name":"Ava Lounge","phone":"3017456648","address":"28 S Potomac St","lat":39.64100818279024,"lng":-77.72029995918274,"neighborhood":"City Square","city_fetched":"Hagerstown","state":"MD","country":"United States","canonicalUrl":"https://foursquare.com/v/ava-lounge/4b930e58f964a520e83134e3","category":"Lounge","checkinsCount":379,"usersCount":155,"tipCount":5,"visitsCount":387,"url":"http://avaloungehagerstown.com","tier":"","message":"","currency":"","rating":7.8},{"name":"The Corner Pub","phone":"3017973532","address":"158 S Mulberry St","lat":39.63732331584483,"lng":-77.718186378479,"city_fetched":"Hagerstown","state":"MD","country":"United States","canonicalUrl":"https://foursquare.com/v/the-corner-pub/4b455e3df964a5207b0b26e3","category":"Pub","checkinsCount":1052,"usersCount":390,"tipCount":13,"visitsCount":1218,"url":"http://cornerpub.net","tier":"","message":"","currency":"","rating":7.6},{"name":"Always Ron's Restaurants","phone":"3017977887","address":"29 N Burhans Blvd","lat":39.646121,"lng":-77.72667825222015,"city_fetched":"Hagerstown","state":"MD","country":"United States","canonicalUrl":"https://foursquare.com/v/always-rons-restaurants/4d5aeb7323e0a093155f5449","category":"American Restaurant","checkinsCount":2939,"usersCount":617,"tipCount":38,"visitsCount":3311,"url":"http://www.alwaysrons.com","tier":2,"message":"Moderate","currency":"$","rating":7.5},{"name":"Benny's Pub","phone":"3017915915","address":"49 Eastern Blvd N","lat":39.63370916302363,"lng":-77.69972436426326,"city_fetched":"Hagerstown","state":"MD","country":"United States","canonicalUrl":"https://foursquare.com/v/bennys-pub/4c2a46eec758e21e9e643a3f","category":"Pub","checkinsCount":1577,"usersCount":556,"tipCount":19,"visitsCount":1828,"url":"http://www.bennyspub.com","tier":"","message":"","currency":"","rating":7.4},{"name":"Tilted Kilt Hagerstown","phone":"3015825300","twitter":"tiltedkiltpub","address":"17301 Valley Mall Rd","lat":39.62541429322255,"lng":-77.76937186868501,"city_fetched":"Hagerstown","state":"MD","country":"United States","canonicalUrl":"https://foursquare.com/v/tilted-kilt-hagerstown/51859877498e3441765189d6","category":"Pub","checkinsCount":943,"usersCount":618,"tipCount":10,"visitsCount":1248,"url":"http://www.tiltedkilt.com","tier":2,"message":"Moderate","currency":"$","rating":7.3},{"name":"Bulls & Bears","phone":"3017910370","address":"38 S Potomac St","lat":39.641020575509245,"lng":-77.72097587585449,"neighborhood":"City Square","city_fetched":"Hagerstown","state":"MD","country":"United States","canonicalUrl":"https://foursquare.com/v/bulls--bears/4b6b03aef964a520abec2be3","category":"American Restaurant","checkinsCount":938,"usersCount":554,"tipCount":15,"visitsCount":978,"url":"http://bullsandbears.biz","tier":"","message":"","currency":"","rating":7.3},{"name":"The Greene Turtle","phone":"3017458800","address":"12818 Shank Farm Way","lat":39.665948,"lng":-77.69930899143219,"city_fetched":"Hagerstown","state":"MD","country":"United States","canonicalUrl":"https://foursquare.com/v/the-greene-turtle/4b76380ef964a520c3432ee3","category":"Sports Bar","checkinsCount":2216,"usersCount":819,"tipCount":14,"visitsCount":2582,"url":"http://www.greeneturtle.com","tier":2,"message":"Moderate","currency":"$","rating":7},{"name":"TGI Fridays","phone":"3017332009","twitter":"tgifridays","address":"17840 Garland Groh Blvd","lat":39.65583404,"lng":-77.74874261,"city_fetched":"Hagerstown","state":"MD","country":"United States","canonicalUrl":"https://foursquare.com/v/tgi-fridays/4c2557e0c11dc9b6d01e2724","category":"American Restaurant","checkinsCount":1822,"usersCount":998,"tipCount":15,"visitsCount":2254,"url":"http://tgifridays.com","tier":2,"message":"Moderate","currency":"$","rating":6.4},{"name":"Cancun Cantina West","phone":"3017974422","address":"901 Dual Hwy","lat":39.63338070684511,"lng":-77.70368239696944,"city_fetched":"Hagerstown","state":"MD","country":"United States","canonicalUrl":"https://foursquare.com/v/cancun-cantina-west/4be4b5c22468c928dc35ff42","category":"Bar","checkinsCount":1279,"usersCount":543,"tipCount":8,"visitsCount":1303,"url":"http://www.cancuncantinawest.com","tier":"","message":"","currency":"","rating":6.1}]