[{"name":"Rock Island Public House","phone":"7083885513","twitter":"theriph","address":"13328 Olde Western Ave","lat":41.65076,"lng":-87.681343,"city_fetched":"Hammond,US","state":"IL","country":"United States","canonicalUrl":"https://foursquare.com/v/rock-island-public-house/50de5705e4b07dd5d3a0baff","categoryId":"4bf58dd8d48988d116941735","category":"Bar","checkinsCount":1211,"usersCount":398,"tipCount":20,"visitsCount":1721,"url":"http://www.rockislandpublichouse.com","tier":2,"message":"Moderate","currency":"$","rating":9.2},{"name":"Three Floyds Brewery & Pub","phone":"2199224425","twitter":"3floyds","address":"9750 Indiana Pkwy","lat":41.53537437012513,"lng":-87.51645416021347,"city_fetched":"Hammond,US","state":"IN","country":"United States","canonicalUrl":"https://foursquare.com/v/three-floyds-brewery--pub/4acf3441f964a520b8d220e3","categoryId":"50327c8591d4c4b30a586d5d","category":"Brewery","checkinsCount":21587,"usersCount":10695,"tipCount":218,"visitsCount":24640,"url":"http://www.3floyds.com","tier":2,"message":"Moderate","currency":"$","rating":9},{"name":"Lassen's Sports Bar & Grill","phone":"7089572220","address":"2131 183rd St","lat":41.557133004443195,"lng":-87.66916830569072,"city_fetched":"Hammond,US","state":"IL","country":"United States","canonicalUrl":"https://foursquare.com/v/lassens-sports-bar--grill/4ad69a8cf964a520f50721e3","categoryId":"4bf58dd8d48988d116941735","category":"Bar","checkinsCount":3440,"usersCount":735,"tipCount":14,"visitsCount":3857,"url":"http://www.lassenstap.com","tier":2,"message":"Moderate","currency":"$","rating":8.9},{"name":"Flossmoor Station Restaurant & Brewery","phone":"7089572739","twitter":"flossmoorbrewco","address":"1035 Sterling Ave","lat":41.54341748030238,"lng":-87.67874048675108,"city_fetched":"Hammond,US","state":"IL","country":"United States","canonicalUrl":"https://foursquare.com/v/flossmoor-station-restaurant--brewery/4b512c6df964a520ec4527e3","categoryId":"50327c8591d4c4b30a586d5d","category":"Brewery","checkinsCount":4404,"usersCount":2269,"tipCount":45,"visitsCount":5133,"url":"http://flossmoorstation.blogspot.com","tier":2,"message":"Moderate","currency":"$","rating":8.7},{"name":"Grape & Grain Co.","phone":"7089917341","address":"18031 Dixie Highways","lat":41.56182620992711,"lng":-87.66528204245542,"city_fetched":"Hammond,US","state":"IL","country":"United States","canonicalUrl":"https://foursquare.com/v/grape--grain-co/50454fd9e4b0157b827a25d1","categoryId":"4bf58dd8d48988d116941735","category":"Bar","checkinsCount":776,"usersCount":248,"tipCount":10,"visitsCount":851,"tier":2,"message":"Moderate","currency":"$","rating":8.6},{"name":"One Trick Pony","phone":"7082137995","address":"17933 Chappel Ave","lat":41.57105330637434,"lng":-87.57201373337807,"city_fetched":"Hammond,US","state":"IL","country":"United States","canonicalUrl":"https://foursquare.com/v/one-trick-pony/4fc98464e4b039144a52acf5","categoryId":"50327c8591d4c4b30a586d5d","category":"Brewery","checkinsCount":652,"usersCount":351,"tipCount":11,"visitsCount":764,"url":"http://www.onetrickponybrewery.com","tier":"","message":"","currency":"","rating":8.6},{"name":"D And d's","phone":"7083850171","address":"14400-14498 Sherman Ave","lat":41.631771271448464,"lng":-87.68008370529094,"city_fetched":"Hammond,US","state":"IL","country":"United States","canonicalUrl":"https://foursquare.com/v/d-and-ds/4d2957b7849f37042cef7d41","categoryId":"4bf58dd8d48988d116941735","category":"Bar","checkinsCount":621,"usersCount":127,"tipCount":5,"visitsCount":744,"tier":"","message":"","currency":"","rating":8.3},{"name":"Odyssey East","address":"9942 S Torrence Ave","lat":41.714116955577204,"lng":-87.56025192757528,"city_fetched":"Hammond,US","state":"IL","country":"United States","canonicalUrl":"https://foursquare.com/v/odyssey-east/4e5ab748d22dfba6f48552be","categoryId":"4bf58dd8d48988d121941735","category":"Lounge","checkinsCount":377,"usersCount":125,"tipCount":7,"visitsCount":483,"tier":"","message":"","currency":"","rating":8.2},{"name":"Bulldog Brewing Company","phone":"2196555284","address":"1409 119th St","lat":41.67948140167709,"lng":-87.49519157309712,"city_fetched":"Hammond,US","state":"IN","country":"United States","canonicalUrl":"https://foursquare.com/v/bulldog-brewing-company/4e9087f829c2117fa3dcf017","categoryId":"50327c8591d4c4b30a586d5d","category":"Brewery","checkinsCount":828,"usersCount":532,"tipCount":11,"visitsCount":1151,"url":"http://www.bulldogbrewingco.com","tier":"","message":"","currency":"","rating":8.2},{"name":"Beer Geeks Pub","phone":"2195139795","twitter":"beergeekspub","address":"3030 45th St","lat":41.53711180158176,"lng":-87.45544558096631,"city_fetched":"Hammond,US","state":"IN","country":"United States","canonicalUrl":"https://foursquare.com/v/beer-geeks-pub/4c9f983819e4236aec5e5a89","categoryId":"4bf58dd8d48988d11b941735","category":"Pub","checkinsCount":2661,"usersCount":943,"tipCount":21,"visitsCount":3234,"url":"http://beergeekspub.com","tier":2,"message":"Moderate","currency":"$","rating":8.2},{"name":"18th Street Brewery","phone":"2199398802","address":"5417 Oakley Ave","lat":41.615323635608696,"lng":-87.51739265442983,"city_fetched":"Hammond,US","state":"IN","country":"United States","canonicalUrl":"https://foursquare.com/v/18th-street-brewery/56b64e60498e5b273dc140e2","categoryId":"50327c8591d4c4b30a586d5d","category":"Brewery","checkinsCount":291,"usersCount":322,"tipCount":3,"visitsCount":515,"url":"http://www.18thstreetbrewery.com","tier":"","message":"","currency":"","rating":8.1},{"name":"Argus Brewery","phone":"7739414050","address":"11314 S Front Ave","lat":41.68856133993479,"lng":-87.61190032532907,"neighborhood":"Roseland","city_fetched":"Hammond,US","state":"IL","country":"United States","canonicalUrl":"https://foursquare.com/v/argus-brewery/4dcff128c65bdac713866978","categoryId":"50327c8591d4c4b30a586d5d","category":"Brewery","checkinsCount":245,"usersCount":197,"tipCount":12,"visitsCount":288,"url":"http://www.argusbrewery.com","tier":"","message":"","currency":"","rating":8.1},{"name":"Family Den Lounge","phone":"7737348545","address":"8940 S Stony Island Ave","lat":41.73209442,"lng":-87.58569695,"city_fetched":"Hammond,US","state":"IL","country":"United States","canonicalUrl":"https://foursquare.com/v/family-den-lounge/4bfd3d03f7c82d7fb9d88d04","categoryId":"4bf58dd8d48988d121941735","category":"Lounge","checkinsCount":1206,"usersCount":671,"tipCount":23,"visitsCount":1820,"tier":2,"message":"Moderate","currency":"$","rating":8.1},{"name":"Smittys lounge","phone":"7083314472","address":"15101 Halsted St","lat":41.61542628251311,"lng":-87.63648033142088,"city_fetched":"Hammond,US","state":"IL","country":"United States","canonicalUrl":"https://foursquare.com/v/smittys-lounge/4ec0a265b8f7963bce17a647","categoryId":"4bf58dd8d48988d121941735","category":"Lounge","checkinsCount":301,"usersCount":82,"tipCount":4,"visitsCount":348,"url":"http://www.smittystreeservice.com","tier":2,"message":"Moderate","currency":"$","rating":8.1},{"name":"Bridges Scoreboard Restaurant & Sports Bar","phone":"2199242206","twitter":"scoreboard121","address":"121 N Griffith Blvd","lat":41.52359556666667,"lng":-87.428546,"city_fetched":"Hammond,US","state":"IN","country":"United States","canonicalUrl":"https://foursquare.com/scoreboard121","categoryId":"4bf58dd8d48988d11d941735","category":"Sports Bar","checkinsCount":2831,"usersCount":637,"tipCount":18,"visitsCount":3238,"url":"http://www.bridgesscoreboard.com","tier":1,"message":"Cheap","currency":"$","rating":8},{"name":"Lucille's","phone":"2195950819","address":"343 N Broad St","lat":41.52798054743213,"lng":-87.42741572724881,"city_fetched":"Hammond,US","state":"IN","country":"United States","canonicalUrl":"https://foursquare.com/v/lucilles/4c368d8bdfb0e21e4b5eaba8","categoryId":"4bf58dd8d48988d116941735","category":"Bar","checkinsCount":1241,"usersCount":181,"tipCount":9,"visitsCount":1321,"tier":"","message":"","currency":"","rating":7.9},{"name":"New Oberpfalz Brewing","lat":41.52261089660536,"lng":-87.42687838742525,"city_fetched":"Hammond,US","state":"IN","country":"United States","canonicalUrl":"https://foursquare.com/v/new-oberpfalz-brewing/54c2d368498edf6cf2599fc3","categoryId":"50327c8591d4c4b30a586d5d","category":"Brewery","checkinsCount":173,"usersCount":140,"tipCount":1,"visitsCount":300,"tier":"","message":"","currency":"","rating":7.8},{"name":"Sugababyyy's Sport's Bar & Grill","phone":"7734434544","address":"15414 Park Ave","lat":41.609275195404884,"lng":-87.64381735376482,"city_fetched":"Hammond,US","state":"IL","country":"United States","canonicalUrl":"https://foursquare.com/v/sugababyyys-sports-bar--grill/52eeeea1498edcd45e72b235","categoryId":"4bf58dd8d48988d121941735","category":"Lounge","checkinsCount":82,"usersCount":68,"tipCount":2,"visitsCount":109,"tier":"","message":"","currency":"","rating":7.8},{"name":"Skybox Gentlemen's Club","phone":"7083391787","twitter":"skyboxchi","address":"16700 S. Halsted Street","lat":41.58653888724216,"lng":-87.63727863701612,"city_fetched":"Hammond,US","state":"IL","country":"United States","canonicalUrl":"https://foursquare.com/v/skybox-gentlemens-club/4b64fabdf964a5207add2ae3","categoryId":"4bf58dd8d48988d1d6941735","category":"Strip Club","checkinsCount":719,"usersCount":448,"tipCount":7,"visitsCount":886,"url":"http://www.skyboxchicago.com","tier":1,"message":"Cheap","currency":"$","rating":7.6},{"name":"New Dating Game","phone":"7733748883","address":"8926 S Stony Island Ave","lat":41.73254516728469,"lng":-87.58575735559322,"city_fetched":"Hammond,US","state":"IL","country":"United States","canonicalUrl":"https://foursquare.com/v/new-dating-game/40b28c80f964a5207dfc1ee3","categoryId":"4bf58dd8d48988d11f941735","category":"Nightclub","checkinsCount":539,"usersCount":321,"tipCount":5,"visitsCount":625,"tier":"","message":"","currency":"","rating":7.6},{"name":"Raven's Place","phone":"7083712357","address":"13031 Western Ave","lat":41.656326899144375,"lng":-87.67984298803734,"city_fetched":"Hammond,US","state":"IL","country":"United States","canonicalUrl":"https://foursquare.com/v/ravens-place/4e991dc161af89f39e14962c","categoryId":"4bf58dd8d48988d116941735","category":"Bar","checkinsCount":692,"usersCount":605,"tipCount":13,"visitsCount":1163,"url":"http://ravensplacellc.com","tier":1,"message":"Cheap","currency":"$","rating":7.5},{"name":"Jason's Bar And Grill","phone":"2199331976","address":"3949 Hohman Ave","lat":41.6413112285914,"lng":-87.51700613581885,"city_fetched":"Hammond,US","state":"IN","country":"United States","canonicalUrl":"https://foursquare.com/v/jasons-bar-and-grill/4cfb1c0f0df3236acf2df8a9","categoryId":"4bf58dd8d48988d116941735","category":"Bar","checkinsCount":284,"usersCount":153,"tipCount":4,"visitsCount":501,"url":"http://jasonsbar.com","tier":"","message":"","currency":"","rating":7.4},{"name":"Island Sports Bar and Grill","phone":"7083714400","twitter":"islandbar_grill","address":"13414 Olde Western Ave","lat":41.6492065288981,"lng":-87.68111877497697,"city_fetched":"Hammond,US","state":"IL","country":"United States","canonicalUrl":"https://foursquare.com/islandbar_grill","categoryId":"4bf58dd8d48988d11d941735","category":"Sports Bar","checkinsCount":669,"usersCount":520,"tipCount":14,"visitsCount":977,"url":"http://islandsportsbarandgrill.com","tier":"","message":"","currency":"","rating":7.4},{"name":"Shades Of Time Cocktails On 45th","address":"1815 W Glen Park Ave","lat":41.53718600027066,"lng":-87.44871551031454,"city_fetched":"Hammond,US","state":"IN","country":"United States","canonicalUrl":"https://foursquare.com/v/shades-of-time-cocktails-on-45th/4f4edcbee4b0dff6f9fcb415","categoryId":"4bf58dd8d48988d121941735","category":"Lounge","checkinsCount":763,"usersCount":194,"tipCount":6,"visitsCount":901,"tier":"","message":"","currency":"","rating":7.3},{"name":"Finnegan's","phone":"2198659896","address":"1074 Joliet St","lat":41.491661480201984,"lng":-87.50286699065119,"city_fetched":"Hammond,US","state":"IN","country":"United States","canonicalUrl":"https://foursquare.com/v/finnegans/4b9d81d6f964a520d1b036e3","categoryId":"4bf58dd8d48988d11b941735","category":"Pub","checkinsCount":898,"usersCount":237,"tipCount":12,"visitsCount":928,"url":"http://finneganspub.net","tier":"","message":"","currency":"","rating":7.3},{"name":"Atlantis Gentlemens Club","phone":"8669928526","twitter":"atlantischicago","address":"1897 E Lincoln Hwy","lat":41.50680971437448,"lng":-87.57163524627686,"city_fetched":"Hammond,US","state":"IL","country":"United States","canonicalUrl":"https://foursquare.com/v/atlantis-gentlemens-club/4beaaeb64f5576b05d2db396","categoryId":"4bf58dd8d48988d1d6941735","category":"Strip Club","checkinsCount":1620,"usersCount":582,"tipCount":12,"visitsCount":1889,"url":"http://www.atlantischicago.com","tier":"","message":"","currency":"","rating":7.2},{"name":"Club Krave","phone":"7085978379","twitter":"clubkrave","address":"13126 Western Ave","lat":41.654617251253576,"lng":-87.68018962047928,"city_fetched":"Hammond,US","state":"IL","country":"United States","canonicalUrl":"https://foursquare.com/clubkrave","categoryId":"4bf58dd8d48988d1d8941735","category":"Gay Bar","checkinsCount":1070,"usersCount":353,"tipCount":29,"visitsCount":1257,"url":"http://www.clubkrave.com","tier":1,"message":"Cheap","currency":"$","rating":7.2},{"name":"Jack's","phone":"7084180800","address":"3325 Ridge Rd","lat":41.56455438586699,"lng":-87.5356664518313,"city_fetched":"Hammond,US","state":"IL","country":"United States","canonicalUrl":"https://foursquare.com/v/jacks/4d744494d238a1cdc9b7d40e","categoryId":"4bf58dd8d48988d116941735","category":"Bar","checkinsCount":1089,"usersCount":199,"tipCount":4,"visitsCount":1286,"url":"http://jackssportsbar.net","tier":"","message":"","currency":"","rating":7.2},{"name":"The Pines Lounge","phone":"2199311583","address":"7349 Calumet Ave","lat":41.579112635574376,"lng":-87.50893592834473,"city_fetched":"Hammond,US","state":"IN","country":"United States","canonicalUrl":"https://foursquare.com/v/the-pines-lounge/4b6e10e3f964a520efa72ce3","categoryId":"4bf58dd8d48988d121941735","category":"Lounge","checkinsCount":460,"usersCount":141,"tipCount":3,"visitsCount":477,"tier":"","message":"","currency":"","rating":7.1},{"name":"The Quest","lat":41.491016149520874,"lng":-87.48078346252441,"city_fetched":"Hammond,US","state":"Indiana","country":"United States","canonicalUrl":"https://foursquare.com/v/the-quest/4ba6b2fff964a520d96939e3","categoryId":"4bf58dd8d48988d116941735","category":"Bar","checkinsCount":645,"usersCount":264,"tipCount":17,"visitsCount":757,"tier":"","message":"","currency":"","rating":7.1},{"name":"Push @ Horseshoe Casino","address":"777 Casino Center Dr","lat":41.694424,"lng":-87.506533,"city_fetched":"Hammond,US","state":"IN","country":"United States","canonicalUrl":"https://foursquare.com/v/push--horseshoe-casino/4ce8a4aee1eeb60cfad4a4ae","categoryId":"4bf58dd8d48988d116941735","category":"Bar","checkinsCount":262,"usersCount":142,"tipCount":1,"visitsCount":262,"tier":"","message":"","currency":"","rating":7.1},{"name":"Flat Rock Tap","phone":"2198525262","address":"6732 Calumet Ave","lat":41.59088360513264,"lng":-87.50919293357293,"city_fetched":"Hammond,US","state":"IN","country":"United States","canonicalUrl":"https://foursquare.com/v/flat-rock-tap/4b8ab21bf964a5206c7a32e3","categoryId":"4bf58dd8d48988d116941735","category":"Bar","checkinsCount":1183,"usersCount":430,"tipCount":15,"visitsCount":1471,"tier":"","message":"","currency":"","rating":7.1},{"name":"Bottoms Up Bar & Grill","phone":"7084183877","address":"1696 Thornton Lansing Rd","lat":41.57026170538347,"lng":-87.57883198063274,"city_fetched":"Hammond,US","state":"IL","country":"United States","canonicalUrl":"https://foursquare.com/v/bottoms-up-bar--grill/4c2eb985213c2d7f13cd2f5d","categoryId":"4bf58dd8d48988d116941735","category":"Bar","checkinsCount":3918,"usersCount":691,"tipCount":20,"visitsCount":4595,"url":"http://bottomsuponline.com","tier":1,"message":"Cheap","currency":"$","rating":7.1},{"name":"Franco's Pizzeria Sports Bar & More","address":"2712 Condit St","lat":41.55679761551602,"lng":-87.46232986450195,"city_fetched":"Hammond,US","state":"IN","country":"United States","canonicalUrl":"https://foursquare.com/v/francos-pizzeria-sports-bar--more/4cac17c3d250bfb75db4ca63","categoryId":"4bf58dd8d48988d116941735","category":"Bar","checkinsCount":1318,"usersCount":321,"tipCount":11,"visitsCount":1376,"tier":2,"message":"Moderate","currency":"$","rating":7.1},{"name":"What's Up Bar & Grill","phone":"7088912303","address":"735 Torrence Ave","lat":41.614307928335286,"lng":-87.5587989883393,"city_fetched":"Hammond,US","state":"IL","country":"United States","canonicalUrl":"https://foursquare.com/v/whats-up-bar--grill/4c81d5b8d8086dcbd9507152","categoryId":"4bf58dd8d48988d116941735","category":"Bar","checkinsCount":208,"usersCount":146,"tipCount":2,"visitsCount":248,"tier":"","message":"","currency":"","rating":7},{"name":"Klubb Karma","address":"15200 Dixie Hwy","lat":41.61342,"lng":-87.6723886,"city_fetched":"Hammond,US","state":"IL","country":"United States","canonicalUrl":"https://foursquare.com/v/klubb-karma/4ca6993444a8224b1d3d0540","categoryId":"4bf58dd8d48988d121941735","category":"Lounge","checkinsCount":143,"usersCount":131,"tipCount":3,"visitsCount":186,"tier":"","message":"","currency":"","rating":7},{"name":"Dick's R U Crazee?","phone":"2198520222","address":"1221 150th St","lat":41.62308605926265,"lng":-87.49896660736012,"city_fetched":"Hammond,US","state":"IN","country":"United States","canonicalUrl":"https://foursquare.com/v/dicks-r-u-crazee/4c4a54baf7cc1b8df8ef393e","categoryId":"4bf58dd8d48988d116941735","category":"Bar","checkinsCount":341,"usersCount":152,"tipCount":3,"visitsCount":402,"tier":"","message":"","currency":"","rating":6.9},{"name":"Pioneer Tap","address":"6826 Kennedy Ave","lat":41.5896373569486,"lng":-87.46185057730882,"city_fetched":"Hammond,US","state":"IN","country":"United States","canonicalUrl":"https://foursquare.com/v/pioneer-tap/4b8d3b3ef964a520c7ee32e3","categoryId":"4bf58dd8d48988d116941735","category":"Bar","checkinsCount":220,"usersCount":96,"tipCount":4,"visitsCount":227,"tier":"","message":"","currency":"","rating":6.9},{"name":"Will's Sports Bar","address":"2454 E State St","lat":41.63012991598656,"lng":-87.56154070897087,"city_fetched":"Hammond,US","state":"IL","country":"United States","canonicalUrl":"https://foursquare.com/v/wills-sports-bar/4d0dc703257d6dcb1f8e9e67","categoryId":"4bf58dd8d48988d11d941735","category":"Sports Bar","checkinsCount":465,"usersCount":250,"tipCount":3,"visitsCount":597,"tier":"","message":"","currency":"","rating":6.9},{"name":"BullPen Luxury Bar & Grill","address":"1013 W US Highway 30","lat":41.490381,"lng":-87.47629880905151,"city_fetched":"Hammond,US","state":"IN","country":"United States","canonicalUrl":"https://foursquare.com/v/bullpen-luxury-bar--grill/4e214e8145dd950bb023c403","categoryId":"4bf58dd8d48988d116941735","category":"Bar","checkinsCount":1981,"usersCount":917,"tipCount":15,"visitsCount":2361,"tier":2,"message":"Moderate","currency":"$","rating":6.8},{"name":"J.J. Kelley's","phone":"7084749977","address":"2455 Bernice Rd","lat":41.57885581588437,"lng":-87.55674362182617,"city_fetched":"Hammond,US","state":"IL","country":"United States","canonicalUrl":"https://foursquare.com/v/jj-kelleys/4b5296ebf964a520408327e3","categoryId":"4bf58dd8d48988d118941735","category":"Dive Bar","checkinsCount":1228,"usersCount":492,"tipCount":10,"visitsCount":1444,"url":"http://www.jjkelleyslansing.com","tier":1,"message":"Cheap","currency":"$","rating":6.8},{"name":"DJ's Sports Bar & Grill","phone":"7088417870","address":"14202 Cottage Grove Ave.","lat":41.63686279236191,"lng":-87.59820030893553,"city_fetched":"Hammond,US","state":"IL","country":"United States","canonicalUrl":"https://foursquare.com/v/djs-sports-bar--grill/4da1368ebf22a143536297f8","categoryId":"4bf58dd8d48988d11d941735","category":"Sports Bar","checkinsCount":249,"usersCount":214,"tipCount":6,"visitsCount":298,"tier":"","message":"","currency":"","rating":6.7},{"name":"Coaches Corner","phone":"2198441111","address":"6208 Kennedy Ave","lat":41.60080104622062,"lng":-87.4617054588048,"city_fetched":"Hammond,US","state":"IN","country":"United States","canonicalUrl":"https://foursquare.com/v/coaches-corner/4c83245d47cc224be9338d9f","categoryId":"4bf58dd8d48988d11d941735","category":"Sports Bar","checkinsCount":726,"usersCount":226,"tipCount":6,"visitsCount":896,"tier":"","message":"","currency":"","rating":6.7},{"name":"Social 219","phone":"2193223060","address":"2350 Cline Ave","lat":41.479265071420386,"lng":-87.43221762309074,"city_fetched":"Hammond,US","state":"IN","country":"United States","canonicalUrl":"https://foursquare.com/v/social-219/4f90b3fde4b0a11ed07bf417","categoryId":"4bf58dd8d48988d116941735","category":"Bar","checkinsCount":490,"usersCount":255,"tipCount":8,"visitsCount":662,"url":"http://socialtwoonenine.com","tier":"","message":"","currency":"","rating":6.7},{"name":"Hustle & Joe's","lat":41.585822533185166,"lng":-87.35656402306181,"neighborhood":"Tolleston","city_fetched":"Hammond,US","state":"Indiana","country":"United States","canonicalUrl":"https://foursquare.com/v/hustle--joes/4f650fafe4b0e78c0135cb57","categoryId":"4bf58dd8d48988d11d941735","category":"Sports Bar","checkinsCount":225,"usersCount":86,"tipCount":3,"visitsCount":263,"tier":"","message":"","currency":"","rating":6.6},{"name":"Kilroy's","phone":"7088959722","address":"3502 Ridge Rd","lat":41.56444545,"lng":-87.53202974796295,"city_fetched":"Hammond,US","state":"IL","country":"United States","canonicalUrl":"https://foursquare.com/v/kilroys/4b21bc7bf964a520d24024e3","categoryId":"4bf58dd8d48988d116941735","category":"Bar","checkinsCount":2337,"usersCount":581,"tipCount":12,"visitsCount":2490,"url":"http://kilroyspub.com","tier":"","message":"","currency":"","rating":6.5},{"name":"Beer Belly's","address":"Cleveland","lat":41.53799668633151,"lng":-87.36078180794401,"city_fetched":"Hammond,US","state":"IN","country":"United States","canonicalUrl":"https://foursquare.com/v/beer-bellys/4c4a572e46240f478e62aaf1","categoryId":"4bf58dd8d48988d118941735","category":"Dive Bar","checkinsCount":202,"usersCount":69,"tipCount":8,"visitsCount":229,"tier":"","message":"","currency":"","rating":6.4},{"name":"Adriana's","address":"16300 S Dixie Hwy","lat":41.59433929695036,"lng":-87.66626929066611,"city_fetched":"Hammond,US","state":"IL","country":"United States","canonicalUrl":"https://foursquare.com/v/adrianas/4c130748f1e0b713c99534bc","categoryId":"4bf58dd8d48988d11f941735","category":"Nightclub","checkinsCount":641,"usersCount":481,"tipCount":13,"visitsCount":816,"tier":"","message":"","currency":"","rating":6.4},{"name":"Game time 2","address":"2062 Indianapolis Blvd","lat":41.676095482637116,"lng":-87.49603747829038,"city_fetched":"Hammond,US","state":"IN","country":"United States","canonicalUrl":"https://foursquare.com/v/game-time-2/4dbb9b836e810768bf49c714","categoryId":"4bf58dd8d48988d11d941735","category":"Sports Bar","checkinsCount":486,"usersCount":174,"tipCount":8,"visitsCount":634,"tier":"","message":"","currency":"","rating":6.4},{"name":"Kenwood Tap","address":"Kennedy","lat":41.59958002926466,"lng":-87.46125558855088,"city_fetched":"Hammond,US","state":"IN","country":"United States","canonicalUrl":"https://foursquare.com/v/kenwood-tap/4c3a6e2e1e06d13af3627b3e","categoryId":"4bf58dd8d48988d116941735","category":"Bar","checkinsCount":351,"usersCount":121,"tipCount":4,"visitsCount":383,"tier":"","message":"","currency":"","rating":6.3},{"name":"Platnium 144","address":"200 W 144th St","lat":41.63330888173509,"lng":-87.62714003611393,"city_fetched":"Hammond,US","state":"IL","country":"United States","canonicalUrl":"https://foursquare.com/v/platnium-144/4ebf5a8d0aaf6450ba841105","categoryId":"4bf58dd8d48988d11f941735","category":"Nightclub","checkinsCount":211,"usersCount":141,"tipCount":7,"visitsCount":211,"tier":"","message":"","currency":"","rating":6.2},{"name":"Blue 82","phone":"2193651525","address":"8209 Wicker Ave","lat":41.470282756060556,"lng":-87.4697298289008,"city_fetched":"Hammond,US","state":"IN","country":"United States","canonicalUrl":"https://foursquare.com/v/blue-82/4f5b8dd4e4b053fd67cc253c","categoryId":"4bf58dd8d48988d11d941735","category":"Sports Bar","checkinsCount":1171,"usersCount":481,"tipCount":13,"visitsCount":1482,"url":"http://www.blue82.net","tier":"","message":"","currency":"","rating":6.2},{"name":"Aquavor Nightclub","address":"5260 Hohman Ave","lat":41.617278213849566,"lng":-87.52222386356124,"city_fetched":"Hammond,US","state":"IN","country":"United States","canonicalUrl":"https://foursquare.com/v/aquavor-nightclub/4ef431eb30f87cc5179d8540","categoryId":"4bf58dd8d48988d11f941735","category":"Nightclub","checkinsCount":387,"usersCount":162,"tipCount":7,"visitsCount":388,"url":"http://aquavornightclub.com","tier":"","message":"","currency":"","rating":6.1},{"name":"Buddy & Pal's Place","phone":"2198658377","address":"340 E US 30","lat":41.48453202387344,"lng":-87.44296967983246,"city_fetched":"Hammond,US","state":"IN","country":"United States","canonicalUrl":"https://foursquare.com/v/buddy--pals-place/4bc27a7c74a9a5936d71d3f6","categoryId":"4bf58dd8d48988d116941735","category":"Bar","checkinsCount":3422,"usersCount":922,"tipCount":10,"visitsCount":3822,"tier":"","message":"","currency":"","rating":6.1},{"name":"Deja Vu","phone":"2195541821","address":"3850 179th St","lat":41.57015426543631,"lng":-87.43263389307037,"city_fetched":"Hammond,US","state":"IN","country":"United States","canonicalUrl":"https://foursquare.com/v/deja-vu/4c58eb1267ac0f47dd30034c","categoryId":"4bf58dd8d48988d1d6941735","category":"Strip Club","checkinsCount":485,"usersCount":237,"tipCount":2,"visitsCount":504,"url":"http://dejavu-tacoma.com","tier":"","message":"","currency":"","rating":6},{"name":"Billboard Live","phone":"7083396600","twitter":"billboard_live","address":"16300 Dixie Highway","lat":41.593589193877584,"lng":-87.66600608825684,"city_fetched":"Hammond,US","state":"IL","country":"United States","canonicalUrl":"https://foursquare.com/v/billboard-live/50a8a583e4b089c951333bee","categoryId":"4bf58dd8d48988d11f941735","category":"Nightclub","checkinsCount":174,"usersCount":107,"tipCount":5,"visitsCount":177,"tier":"","message":"","currency":"","rating":5.9},{"name":"Abe's Hideaway / Posen Pub","address":"14346 S Western Ave","lat":41.63220158844722,"lng":-87.67766203171428,"city_fetched":"Hammond,US","state":"IL","country":"United States","canonicalUrl":"https://foursquare.com/v/abes-hideaway--posen-pub/4d688b82eea6236a06b055c6","categoryId":"4bf58dd8d48988d11f941735","category":"Nightclub","checkinsCount":167,"usersCount":67,"tipCount":3,"visitsCount":174,"tier":"","message":"","currency":"","rating":5.9},{"name":"Byway Brewing Company","address":"2825 Carlson Dr","lat":41.5711690122334,"lng":-87.46074282787585,"city_fetched":"Hammond,US","state":"IN","country":"United States","canonicalUrl":"https://foursquare.com/v/byway-brewing-company/56b7894c498e16a730df98a2","categoryId":"50327c8591d4c4b30a586d5d","category":"Brewery","checkinsCount":214,"usersCount":158,"tipCount":0,"visitsCount":312,"tier":"","message":"","currency":"","rating":5.9},{"name":"Arnie's Idle Hour","phone":"7083318000","address":"85 W 147th St","lat":41.62255683518032,"lng":-87.66097642709502,"city_fetched":"Hammond,US","state":"IL","country":"United States","canonicalUrl":"https://foursquare.com/v/arnies-idle-hour/4d4e6ca59a2a6ea85b73226f","categoryId":"4bf58dd8d48988d1d6941735","category":"Strip Club","checkinsCount":361,"usersCount":324,"tipCount":3,"visitsCount":620,"tier":"","message":"","currency":"","rating":5.9},{"name":"Club O","phone":"7083338770","address":"17038 Halsted St","lat":41.579176019977794,"lng":-87.63882064427344,"city_fetched":"Hammond,US","state":"IL","country":"United States","canonicalUrl":"https://foursquare.com/v/club-o/4b6bc4d6f964a520e6172ce3","categoryId":"4bf58dd8d48988d1d6941735","category":"Strip Club","checkinsCount":637,"usersCount":390,"tipCount":7,"visitsCount":680,"tier":"","message":"","currency":"","rating":5.8},{"name":"Ridgewood Tap","phone":"7087981414","address":"2059 Ridge Rd","lat":41.5617228376484,"lng":-87.66766584916779,"city_fetched":"Hammond,US","state":"IL","country":"United States","canonicalUrl":"https://foursquare.com/v/ridgewood-tap/4bca842068f976b0afad5f83","categoryId":"4bf58dd8d48988d116941735","category":"Bar","checkinsCount":613,"usersCount":183,"tipCount":5,"visitsCount":614,"tier":"","message":"","currency":"","rating":5.5},{"name":"King Of diamonds","address":"Strip Club","lat":41.62174269356633,"lng":-87.64181295353907,"city_fetched":"Hammond,US","state":"IL","country":"United States","canonicalUrl":"https://foursquare.com/v/king-of-diamonds/5039a758e4b096b4917a20b7","categoryId":"4bf58dd8d48988d1d6941735","category":"Strip Club","checkinsCount":284,"usersCount":233,"tipCount":12,"visitsCount":319,"tier":"","message":"","currency":"","rating":5.5},{"name":"Bar 41","phone":"2198385909","address":"8355 Indianapolis Blvd","lat":41.55940300979947,"lng":-87.46907206671877,"city_fetched":"Hammond,US","state":"IN","country":"United States","canonicalUrl":"https://foursquare.com/v/bar-41/4e278fef7d8b6133618474fa","categoryId":"4bf58dd8d48988d116941735","category":"Bar","checkinsCount":669,"usersCount":264,"tipCount":8,"visitsCount":674,"tier":"","message":"","currency":"","rating":5.3}]