[{"name":"The Craftsman Ale House","phone":"9146307484","twitter":"thecraftsman","address":"235 Harrison Ave","lat":40.96829400712525,"lng":-73.71266006679414,"city_fetched":"Harrison,US","state":"NY","country":"United States","canonicalUrl":"https://foursquare.com/thecraftsman","categoryId":"4bf58dd8d48988d116941735","category":"Bar","checkinsCount":2861,"usersCount":776,"tipCount":30,"visitsCount":3282,"url":"http://craftsmanalehouse.com","tier":2,"message":"Moderate","currency":"$","rating":9.2},{"name":"Captain Lawrence Brewing Company","phone":"9147412337","twitter":"cptlawrencebeer","address":"444 Saw Mill River Rd","lat":41.070343762044274,"lng":-73.81383393555876,"city_fetched":"Harrison,US","state":"NY","country":"United States","canonicalUrl":"https://foursquare.com/v/captain-lawrence-brewing-company/4ae31336f964a5204a9021e3","categoryId":"50327c8591d4c4b30a586d5d","category":"Brewery","checkinsCount":5476,"usersCount":3363,"tipCount":52,"visitsCount":6787,"url":"http://captainlawrencebrewing.com","tier":2,"message":"Moderate","currency":"$","rating":9.1},{"name":"Piper's Kilt","phone":"9147795772","twitter":"piperskilteast","address":"433 White Plains Rd","lat":40.95653461669315,"lng":-73.81413459777832,"city_fetched":"Harrison,US","state":"NY","country":"United States","canonicalUrl":"https://foursquare.com/v/pipers-kilt/4bb5311ff562ef3b26a52e97","categoryId":"4bf58dd8d48988d116941735","category":"Bar","checkinsCount":2691,"usersCount":1166,"tipCount":40,"visitsCount":2912,"url":"http://www.piperskilt.com","tier":1,"message":"Cheap","currency":"$","rating":8.9},{"name":"Lazy Boy Saloon & Ale House","phone":"9147610272","twitter":"lzbsaloon","address":"154 Mamaroneck Ave","lat":41.028684913196564,"lng":-73.76522698535364,"city_fetched":"Harrison,US","state":"NY","country":"United States","canonicalUrl":"https://foursquare.com/lzbsaloon","categoryId":"4bf58dd8d48988d116941735","category":"Bar","checkinsCount":4354,"usersCount":1958,"tipCount":38,"visitsCount":4511,"url":"http://www.lazyboysaloon.com","tier":2,"message":"Moderate","currency":"$","rating":8.8},{"name":"Rory Dolan's","phone":"9147762946","twitter":"rorydolans","address":"890 McLean Ave","lat":40.904921564572675,"lng":-73.86880328164514,"neighborhood":"Southeast Yonkers","city_fetched":"Harrison,US","state":"NY","country":"United States","canonicalUrl":"https://foursquare.com/v/rory-dolans/4ac7e99bf964a5208cba20e3","categoryId":"4bf58dd8d48988d116941735","category":"Bar","checkinsCount":4518,"usersCount":2697,"tipCount":28,"visitsCount":5782,"url":"http://rorydolans.com","tier":2,"message":"Moderate","currency":"$","rating":8.6},{"name":"Dunne's Pub","phone":"9144211451","address":"15 Shapham Pl","lat":41.02226052280691,"lng":-73.75930900943361,"city_fetched":"Harrison,US","state":"NY","country":"United States","canonicalUrl":"https://foursquare.com/v/dunnes-pub/4bf4759394af2d7f32a53a72","categoryId":"4bf58dd8d48988d11b941735","category":"Pub","checkinsCount":1195,"usersCount":368,"tipCount":12,"visitsCount":1400,"url":"http://dunnespubandrestaurant.net","tier":"","message":"","currency":"","rating":8.6},{"name":"Kelly's Sea Level","phone":"9149670868","address":"413 Midland Ave","lat":40.98036410302527,"lng":-73.6777726321318,"city_fetched":"Harrison,US","state":"NY","country":"United States","canonicalUrl":"https://foursquare.com/v/kellys-sea-level/4ba64a56f964a520e74239e3","categoryId":"4bf58dd8d48988d11b941735","category":"Pub","checkinsCount":571,"usersCount":352,"tipCount":11,"visitsCount":1002,"tier":"","message":"","currency":"","rating":8.5},{"name":"Rambling House","phone":"7187984510","address":"4292 Katonah Ave","lat":40.89841079878203,"lng":-73.86717239864431,"neighborhood":"Woodlawn Heights","city_fetched":"Harrison,US","state":"NY","country":"United States","canonicalUrl":"https://foursquare.com/v/rambling-house/46212cb5f964a5208d451fe3","categoryId":"4bf58dd8d48988d11b941735","category":"Pub","checkinsCount":4093,"usersCount":1699,"tipCount":32,"visitsCount":4772,"url":"http://ramblinghouse.com","tier":2,"message":"Moderate","currency":"$","rating":8.4},{"name":"Oak Room Tavern","phone":"5162772350","address":"242 Sea Cliff Ave","lat":40.849332218437155,"lng":-73.6456387189552,"city_fetched":"Harrison,US","state":"NY","country":"United States","canonicalUrl":"https://foursquare.com/v/oak-room-tavern/4f48336fe4b0d125f600c385","categoryId":"4bf58dd8d48988d11b941735","category":"Pub","checkinsCount":370,"usersCount":262,"tipCount":11,"visitsCount":612,"url":"http://oakroomtavernseacliff.com","tier":"","message":"","currency":"","rating":8.4},{"name":"Growlers Beer Bistro","phone":"9147930608","twitter":"growlers_beer","address":"25 Main St","lat":40.95144184784589,"lng":-73.82807884562379,"city_fetched":"Harrison,US","state":"NY","country":"United States","canonicalUrl":"https://foursquare.com/v/growlers-beer-bistro/4e4c473efa769ce595aed205","categoryId":"4bf58dd8d48988d116941735","category":"Bar","checkinsCount":3358,"usersCount":1256,"tipCount":29,"visitsCount":4116,"url":"http://www.growlersbeerbistro.com","tier":2,"message":"Moderate","currency":"$","rating":8.4},{"name":"The Ginger Man","phone":"2038616400","twitter":"gmangreenwich","address":"64 Greenwich Ave","lat":41.029954,"lng":-73.626648,"city_fetched":"Harrison,US","state":"CT","country":"United States","canonicalUrl":"https://foursquare.com/v/the-ginger-man/4ad32736f964a5203ae320e3","categoryId":"4bf58dd8d48988d116941735","category":"Bar","checkinsCount":3727,"usersCount":2138,"tipCount":29,"visitsCount":4240,"url":"http://gingermangreenwich.com","tier":2,"message":"Moderate","currency":"$","rating":8.3},{"name":"Uncle Henry's","phone":"9148350804","address":"309 Halstead Ave","lat":40.96915494121536,"lng":-73.7110968703278,"city_fetched":"Harrison,US","state":"NY","country":"United States","canonicalUrl":"https://foursquare.com/v/uncle-henrys/4bbfa463461576b0d8e97832","categoryId":"4bf58dd8d48988d116941735","category":"Bar","checkinsCount":1637,"usersCount":333,"tipCount":16,"visitsCount":1722,"url":"http://unclehenrysbarandgrill.com","tier":"","message":"","currency":"","rating":8.3},{"name":"Garcia's at The Capitol Theatre","phone":"9143051628","twitter":"garciasatthecap","address":"145 Westchester Ave","lat":41.001302030532074,"lng":-73.66533930424629,"city_fetched":"Harrison,US","state":"NY","country":"United States","canonicalUrl":"https://foursquare.com/v/garcias-at-the-capitol-theatre/5196a90c498ee2ba6077dbd9","categoryId":"4bf58dd8d48988d116941735","category":"Bar","checkinsCount":656,"usersCount":343,"tipCount":9,"visitsCount":691,"url":"http://www.thecapitoltheatre.com/garciasatthecap/","tier":"","message":"","currency":"","rating":8.3},{"name":"Broken Bow Brewery","phone":"9142680900","twitter":"brokenbowbrew","address":"173 Marbledale Rd","lat":40.9550310562617,"lng":-73.81894613804,"city_fetched":"Harrison,US","state":"NY","country":"United States","canonicalUrl":"https://foursquare.com/v/broken-bow-brewery/520fdf27498e083a3a17b7fb","categoryId":"50327c8591d4c4b30a586d5d","category":"Brewery","checkinsCount":326,"usersCount":285,"tipCount":10,"visitsCount":428,"url":"http://www.brokenbowbrewery.com","tier":"","message":"","currency":"","rating":8.1},{"name":"The Heritage","phone":"9147767532","address":"960 McLean Ave","lat":40.90335705,"lng":-73.865926,"neighborhood":"Southeast Yonkers","city_fetched":"Harrison,US","state":"NY","country":"United States","canonicalUrl":"https://foursquare.com/v/the-heritage/4bb24ac935f0c9b6a913bb83","categoryId":"4bf58dd8d48988d11b941735","category":"Pub","checkinsCount":1121,"usersCount":532,"tipCount":15,"visitsCount":1260,"url":"http://heritagebarandrestaurant.com","tier":"","message":"","currency":"","rating":8.1},{"name":"Bar'Lees Wine & Whisky Bar","phone":"9146307512","twitter":"barleesww","address":"157 Mamaroneck Ave","lat":40.95003078539159,"lng":-73.73319888520587,"city_fetched":"Harrison,US","state":"NY","country":"United States","canonicalUrl":"https://foursquare.com/v/barlees-wine--whisky-bar/50c2b93be4b0e77d2963c8ae","categoryId":"4bf58dd8d48988d123941735","category":"Wine Bar","checkinsCount":275,"usersCount":141,"tipCount":7,"visitsCount":290,"url":"http://barlees.us","tier":"","message":"","currency":"","rating":8},{"name":"Garth Road Inn","phone":"9147229472","address":"97 Garth Rd","lat":40.98603646326243,"lng":-73.81018064048239,"city_fetched":"Harrison,US","state":"NY","country":"United States","canonicalUrl":"https://foursquare.com/v/garth-road-inn/4b5265b0f964a520467b27e3","categoryId":"4bf58dd8d48988d11b941735","category":"Pub","checkinsCount":566,"usersCount":265,"tipCount":5,"visitsCount":633,"url":"http://garthroadinn.com","tier":"","message":"","currency":"","rating":8},{"name":"Pete's Park Place Tavern","phone":"9143379887","address":"18-20 Park Pl","lat":40.939748,"lng":-73.834043,"city_fetched":"Harrison,US","state":"NY","country":"United States","canonicalUrl":"https://foursquare.com/v/petes-park-place-tavern/4b7d65ddf964a5203cbc2fe3","categoryId":"4bf58dd8d48988d116941735","category":"Bar","checkinsCount":1542,"usersCount":551,"tipCount":19,"visitsCount":1589,"url":"http://petesofbronxville.com","tier":"","message":"","currency":"","rating":7.9},{"name":"PourHouse Bar & Grill","phone":"9146939707","address":"468 Ashford Ave","lat":41.012237548828125,"lng":-73.84846496582031,"city_fetched":"Harrison,US","state":"NY","country":"United States","canonicalUrl":"https://foursquare.com/v/pourhouse-bar--grill/533b5a29498eb123b9102530","categoryId":"4bf58dd8d48988d116941735","category":"Bar","checkinsCount":94,"usersCount":33,"tipCount":5,"visitsCount":139,"url":"http://ardsleypourhouse.com","tier":"","message":"","currency":"","rating":7.9},{"name":"Gnarly Vine Wine Bar","phone":"9143552541","twitter":"gvwinebar","address":"501 Main St","lat":40.908966,"lng":-73.78171,"neighborhood":"Downtown New Rochelle","city_fetched":"Harrison,US","state":"NY","country":"United States","canonicalUrl":"https://foursquare.com/v/gnarly-vine-wine-bar/4b6cd947f964a520ee582ce3","categoryId":"4bf58dd8d48988d123941735","category":"Wine Bar","checkinsCount":1030,"usersCount":431,"tipCount":15,"visitsCount":1146,"tier":2,"message":"Moderate","currency":"$","rating":7.9},{"name":"Eastchester Inn","phone":"9147717491","address":"220 Main St","lat":40.950001676514994,"lng":-73.81862447525337,"city_fetched":"Harrison,US","state":"NY","country":"United States","canonicalUrl":"https://foursquare.com/v/eastchester-inn/4c4268b3af052d7f6e007f79","categoryId":"4bf58dd8d48988d116941735","category":"Bar","checkinsCount":519,"usersCount":131,"tipCount":1,"visitsCount":638,"url":"http://eastchesterinn.com","tier":"","message":"","currency":"","rating":7.8},{"name":"Pete's Saloon and Restaurant","phone":"9145929849","address":"8 W Main St","lat":41.05496716287515,"lng":-73.82020175457001,"city_fetched":"Harrison,US","state":"NY","country":"United States","canonicalUrl":"https://foursquare.com/v/petes-saloon-and-restaurant/4b64a0c1f964a5208fc32ae3","categoryId":"4bf58dd8d48988d11b941735","category":"Pub","checkinsCount":1462,"usersCount":975,"tipCount":16,"visitsCount":1717,"url":"http://petessaloon.com","tier":2,"message":"Moderate","currency":"$","rating":7.8},{"name":"Sam's Bar & Grill","phone":"9149392001","address":"1 Mill St","lat":41.004092,"lng":-73.65884291233651,"city_fetched":"Harrison,US","state":"NY","country":"United States","canonicalUrl":"https://foursquare.com/v/sams-bar--grill/4bdb6a6c63c5c9b696e32768","categoryId":"4bf58dd8d48988d118941735","category":"Dive Bar","checkinsCount":1526,"usersCount":615,"tipCount":17,"visitsCount":1841,"url":"http://samspcny.com","tier":"","message":"","currency":"","rating":7.8},{"name":"MacDuff's Public House","phone":"2034220563","twitter":"macduffsct","address":"99 Railroad Ave","lat":41.02184,"lng":-73.624878,"city_fetched":"Harrison,US","state":"CT","country":"United States","canonicalUrl":"https://foursquare.com/v/macduffs-public-house/4ba66534f964a520d74d39e3","categoryId":"4bf58dd8d48988d11b941735","category":"Pub","checkinsCount":945,"usersCount":414,"tipCount":9,"visitsCount":952,"url":"http://macduffspub-hub.com","tier":"","message":"","currency":"","rating":7.8},{"name":"K. C. Gallagher's","phone":"5166769548","address":"325 Sea Cliff Avenue","lat":40.84935241767259,"lng":-73.64849016118235,"city_fetched":"Harrison,US","state":"NY","country":"United States","canonicalUrl":"https://foursquare.com/v/k-c-gallaghers/4b93ea21f964a520815934e3","categoryId":"4bf58dd8d48988d116941735","category":"Bar","checkinsCount":730,"usersCount":309,"tipCount":11,"visitsCount":958,"tier":1,"message":"Cheap","currency":"$","rating":7.8},{"name":"Tighe's Tavern","phone":"9146849405","address":"174 Martine Ave","lat":41.031219447754864,"lng":-73.7671804535828,"city_fetched":"Harrison,US","state":"NY","country":"United States","canonicalUrl":"https://foursquare.com/v/tighes-tavern/4c80540574d7b60cb5f46cd8","categoryId":"4bf58dd8d48988d118941735","category":"Dive Bar","checkinsCount":753,"usersCount":133,"tipCount":5,"visitsCount":783,"tier":"","message":"","currency":"","rating":7.7},{"name":"Tuck'd Away","lat":40.95134735107422,"lng":-73.82929992675781,"city_fetched":"Harrison,US","state":"NY","country":"United States","canonicalUrl":"https://foursquare.com/v/tuckd-away/533354da11d21277c5c7eb0f","categoryId":"4bf58dd8d48988d121941735","category":"Lounge","checkinsCount":180,"usersCount":79,"tipCount":8,"visitsCount":241,"tier":"","message":"","currency":"","rating":7.7},{"name":"Ron Blacks","phone":"9143585811","address":"181 Mamaroneck Ave","lat":41.028384,"lng":-73.76455168333334,"city_fetched":"Harrison,US","state":"NY","country":"United States","canonicalUrl":"https://foursquare.com/v/ron-blacks/4b52cf5ef964a520758827e3","categoryId":"4bf58dd8d48988d116941735","category":"Bar","checkinsCount":5545,"usersCount":2177,"tipCount":39,"visitsCount":5817,"url":"http://ronblacks.com","tier":2,"message":"Moderate","currency":"$","rating":7.7},{"name":"Davy Byrnes","phone":"9149372106","twitter":"davybyrnes","address":"538 Willett Ave","lat":41.012723359895475,"lng":-73.65994152112013,"city_fetched":"Harrison,US","state":"NY","country":"United States","canonicalUrl":"https://foursquare.com/v/davy-byrnes/4b6e6a2bf964a5208cbc2ce3","categoryId":"4bf58dd8d48988d118941735","category":"Dive Bar","checkinsCount":2585,"usersCount":614,"tipCount":10,"visitsCount":2965,"tier":2,"message":"Moderate","currency":"$","rating":7.7},{"name":"Bob Hyland's Sports Page Pub","phone":"9144378721","twitter":"sportspagepub","address":"200 Hamilton Ave","lat":41.03353282538234,"lng":-73.76930626499411,"city_fetched":"Harrison,US","state":"NY","country":"United States","canonicalUrl":"https://foursquare.com/v/bob-hylands-sports-page-pub/4aad6932f964a520256020e3","categoryId":"4bf58dd8d48988d11d941735","category":"Sports Bar","checkinsCount":2530,"usersCount":732,"tipCount":11,"visitsCount":2646,"url":"http://sportspagepub.com","tier":"","message":"","currency":"","rating":7.7},{"name":"McKiernan's Bar","phone":"9145764724","address":"47 Lawton St","lat":40.910319,"lng":-73.782561,"neighborhood":"Downtown New Rochelle","city_fetched":"Harrison,US","state":"NY","country":"United States","canonicalUrl":"https://foursquare.com/v/mckiernans-bar/4cca25da177c3704e97b1434","categoryId":"4bf58dd8d48988d116941735","category":"Bar","checkinsCount":378,"usersCount":182,"tipCount":4,"visitsCount":408,"tier":"","message":"","currency":"","rating":7.6},{"name":"Larchmont Tavern","phone":"9148349821","address":"104 Chatsworth Ave","lat":40.932527362444205,"lng":-73.75802771590568,"city_fetched":"Harrison,US","state":"NY","country":"United States","canonicalUrl":"https://foursquare.com/v/larchmont-tavern/4b5bade4f964a520930f29e3","categoryId":"4bf58dd8d48988d11b941735","category":"Pub","checkinsCount":1535,"usersCount":765,"tipCount":25,"visitsCount":1912,"url":"http://larchmonttavern.com","tier":"","message":"","currency":"","rating":7.6},{"name":"Bruce Park Grill","phone":"2038698006","address":"231 Bruce Park Ave","lat":41.02244683567507,"lng":-73.620617914428,"city_fetched":"Harrison,US","state":"CT","country":"United States","canonicalUrl":"https://foursquare.com/v/bruce-park-grill/4b9c04d7f964a520654136e3","categoryId":"4bf58dd8d48988d118941735","category":"Dive Bar","checkinsCount":722,"usersCount":231,"tipCount":5,"visitsCount":752,"tier":"","message":"","currency":"","rating":7.6},{"name":"Maxwell's Pub","phone":"9143471646","address":"38 Main St","lat":41.05413,"lng":-73.81783604621887,"city_fetched":"Harrison,US","state":"NY","country":"United States","canonicalUrl":"https://foursquare.com/v/maxwells-pub/4b89f66cf964a520f95832e3","categoryId":"4bf58dd8d48988d11b941735","category":"Pub","checkinsCount":830,"usersCount":147,"tipCount":6,"visitsCount":934,"tier":"","message":"","currency":"","rating":7.6},{"name":"Still Partners","address":"225 Sea Cliff Ave","lat":40.8491071223855,"lng":-73.64478212876332,"city_fetched":"Harrison,US","state":"NY","country":"United States","canonicalUrl":"https://foursquare.com/v/still-partners/51d0ae87498e6594bffb2567","categoryId":"4bf58dd8d48988d116941735","category":"Bar","checkinsCount":437,"usersCount":179,"tipCount":2,"visitsCount":577,"url":"http://stillpartners.com","tier":"","message":"","currency":"","rating":7.5},{"name":"Demeter's","phone":"9146319679","address":"51 Old White Plains Rd","lat":41.06447158333334,"lng":-73.841706,"city_fetched":"Harrison,US","state":"NY","country":"United States","canonicalUrl":"https://foursquare.com/v/demeters/4b4faef4f964a520c01027e3","categoryId":"4bf58dd8d48988d116941735","category":"Bar","checkinsCount":1139,"usersCount":495,"tipCount":10,"visitsCount":1377,"url":"http://demeterssportsbar.com","tier":"","message":"","currency":"","rating":7.5},{"name":"The Old Greenwich Social Club","address":"148 Sound Beach Ave","lat":41.033785447747306,"lng":-73.56813451192856,"city_fetched":"Harrison,US","state":"CT","country":"United States","canonicalUrl":"https://foursquare.com/v/the-old-greenwich-social-club/56394783cd1067db1a212c74","categoryId":"4bf58dd8d48988d116941735","category":"Bar","checkinsCount":100,"usersCount":68,"tipCount":2,"visitsCount":137,"tier":"","message":"","currency":"","rating":7.5},{"name":"The Pub","phone":"9149679636","address":"3 Elm Pl","lat":40.983418,"lng":-73.685091,"city_fetched":"Harrison,US","state":"NY","country":"United States","canonicalUrl":"https://foursquare.com/v/the-pub/4bef3bcf2ff520a16453e8a2","categoryId":"4bf58dd8d48988d116941735","category":"Bar","checkinsCount":571,"usersCount":169,"tipCount":6,"visitsCount":611,"tier":1,"message":"Cheap","currency":"$","rating":7.5},{"name":"Tiki Bar @ NYAC Travers Island","address":"Lane","lat":40.884471,"lng":-73.789591,"city_fetched":"Harrison,US","state":"NY","country":"United States","canonicalUrl":"https://foursquare.com/v/tiki-bar--nyac-travers-island/4fcbb964e4b088c92e53b507","categoryId":"4bf58dd8d48988d116941735","category":"Bar","checkinsCount":186,"usersCount":52,"tipCount":3,"visitsCount":187,"tier":"","message":"","currency":"","rating":7.4},{"name":"SpotLite Cafe","phone":"9144720004","twitter":"spotlite+cafe","address":"1109 Central Park Ave","lat":40.98615204024232,"lng":-73.82597663705357,"city_fetched":"Harrison,US","state":"NY","country":"United States","canonicalUrl":"https://foursquare.com/v/spotlite-cafe/4c5365a806901b8d9b8d024a","categoryId":"4bf58dd8d48988d11e941735","category":"Cocktail Bar","checkinsCount":285,"usersCount":125,"tipCount":6,"visitsCount":301,"url":"http://www.spotlitecafe.com","tier":"","message":"","currency":"","rating":7.3},{"name":"J. C. Fogarty's","phone":"9143371122","address":"60 Kraft Ave","lat":40.93926999894013,"lng":-73.83462131023407,"city_fetched":"Harrison,US","state":"NY","country":"United States","canonicalUrl":"https://foursquare.com/v/j-c-fogartys/4af8c5bef964a520cf0f22e3","categoryId":"4bf58dd8d48988d116941735","category":"Bar","checkinsCount":2426,"usersCount":1025,"tipCount":21,"visitsCount":2562,"url":"http://jcfogartys.com","tier":"","message":"","currency":"","rating":7.3},{"name":"Barney McNabbs","phone":"9149618960","twitter":"barneymcnabbs","address":"600 Tuckahoe Rd","lat":40.95352042058797,"lng":-73.84589195251465,"neighborhood":"Northeast Yonkers","city_fetched":"Harrison,US","state":"NY","country":"United States","canonicalUrl":"https://foursquare.com/v/barney-mcnabbs/4b722b7cf964a5205f722de3","categoryId":"4bf58dd8d48988d116941735","category":"Bar","checkinsCount":1002,"usersCount":354,"tipCount":5,"visitsCount":1089,"url":"http://www.barneymcnabbs.com","tier":"","message":"","currency":"","rating":7.3},{"name":"Danny Mac's","phone":"9142372320","address":"869 McLean Ave","lat":40.90516945727734,"lng":-73.87010108731002,"neighborhood":"Southeast Yonkers","city_fetched":"Harrison,US","state":"NY","country":"United States","canonicalUrl":"https://foursquare.com/v/danny-macs/4b78439ff964a520a9c02ee3","categoryId":"4bf58dd8d48988d116941735","category":"Bar","checkinsCount":476,"usersCount":182,"tipCount":2,"visitsCount":531,"tier":"","message":"","currency":"","rating":7.3},{"name":"The Garage","address":"2260 Tilloton Ave","lat":40.88205567870728,"lng":-73.82760786094562,"neighborhood":"Co-Op City","city_fetched":"Harrison,US","state":"NY","country":"United States","canonicalUrl":"https://foursquare.com/v/the-garage/4eaccfbc775bad292f2d50a5","categoryId":"4bf58dd8d48988d11f941735","category":"Nightclub","checkinsCount":194,"usersCount":195,"tipCount":4,"visitsCount":268,"tier":"","message":"","currency":"","rating":7.3},{"name":"Gazebo Bar at The Hyatt","address":"1800 E Putnam Ave","lat":41.046977676835155,"lng":-73.56724309372113,"city_fetched":"Harrison,US","state":"CT","country":"United States","canonicalUrl":"https://foursquare.com/v/gazebo-bar-at-the-hyatt/4bac10b2f964a520cfe13ae3","categoryId":"4bf58dd8d48988d1d5941735","category":"Hotel Bar","checkinsCount":375,"usersCount":253,"tipCount":4,"visitsCount":377,"tier":"","message":"","currency":"","rating":7.2},{"name":"Molly Spillanes","phone":"9144131860","twitter":"mollyspillanes","address":"211 Mamaroneck Ave","lat":40.950084,"lng":-73.733286,"city_fetched":"Harrison,US","state":"NY","country":"United States","canonicalUrl":"https://foursquare.com/v/molly-spillanes/4a90ae05f964a5201f1920e3","categoryId":"4bf58dd8d48988d11b941735","category":"Pub","checkinsCount":3208,"usersCount":1680,"tipCount":17,"visitsCount":3704,"url":"http://mollyspillanes.com","tier":2,"message":"Moderate","currency":"$","rating":7.2},{"name":"Moriarty's Bar & Restaurant","phone":"9142379840","twitter":"mcleanmoriartys","address":"986 McLean Ave","lat":40.90298586666667,"lng":-73.865032,"neighborhood":"Southeast Yonkers","city_fetched":"Harrison,US","state":"NY","country":"United States","canonicalUrl":"https://foursquare.com/mcleanmoriartys","categoryId":"4bf58dd8d48988d11b941735","category":"Pub","checkinsCount":248,"usersCount":136,"tipCount":3,"visitsCount":253,"url":"http://www.moriartysmclean.com","tier":2,"message":"Moderate","currency":"$","rating":7.2},{"name":"Alehouse City Island","phone":"7188851813","twitter":"alehousepooch","address":"288 City Island Ave","lat":40.8468980375719,"lng":-73.78615379333496,"neighborhood":"City Island","city_fetched":"Harrison,US","state":"NY","country":"United States","canonicalUrl":"https://foursquare.com/v/alehouse-city-island/4f737c8cbb3dcf63c7e44655","categoryId":"4bf58dd8d48988d11b941735","category":"Pub","checkinsCount":499,"usersCount":246,"tipCount":5,"visitsCount":525,"url":"http://alehousecityisland.com","tier":"","message":"","currency":"","rating":7.2},{"name":"Cellar Bar","phone":"9148348723","address":"8 Railroad Way","lat":40.933828,"lng":-73.758802,"city_fetched":"Harrison,US","state":"NY","country":"United States","canonicalUrl":"https://foursquare.com/v/cellar-bar/4b5a2697f964a52070b028e3","categoryId":"4bf58dd8d48988d116941735","category":"Bar","checkinsCount":920,"usersCount":296,"tipCount":5,"visitsCount":976,"tier":"","message":"","currency":"","rating":7.2},{"name":"Rye House","address":"116 N Main St","lat":41.00267128754364,"lng":-73.66182127647593,"city_fetched":"Harrison,US","state":"NY","country":"United States","canonicalUrl":"https://foursquare.com/v/rye-house/54a75569498eb4b58daa1e39","categoryId":"4bf58dd8d48988d11e941735","category":"Cocktail Bar","checkinsCount":307,"usersCount":280,"tipCount":7,"visitsCount":394,"url":"http://ryehousepc.com","tier":"","message":"","currency":"","rating":7.1},{"name":"The Shore Thing Lounge","phone":"5163045442","address":"144 Shore Rd","lat":40.842094,"lng":-73.70746,"city_fetched":"Harrison,US","state":"NY","country":"United States","canonicalUrl":"https://foursquare.com/v/the-shore-thing-lounge/4b9338f2f964a520ea3b34e3","categoryId":"4bf58dd8d48988d121941735","category":"Lounge","checkinsCount":460,"usersCount":61,"tipCount":2,"visitsCount":465,"tier":"","message":"","currency":"","rating":7.1},{"name":"Hudson Grille","phone":"9149972000","twitter":"hudsongrillewp","address":"165 Mamaroneck Ave","lat":41.02873274644719,"lng":-73.76446857490522,"city_fetched":"Harrison,US","state":"NY","country":"United States","canonicalUrl":"https://foursquare.com/v/hudson-grille/4c37b6712c8020a14c918900","categoryId":"4bf58dd8d48988d116941735","category":"Bar","checkinsCount":5380,"usersCount":2780,"tipCount":29,"visitsCount":5528,"url":"http://hudsongrilleny.com","tier":3,"message":"Expensive","currency":"$","rating":7.1},{"name":"Maggie Spillane's Ale House","phone":"9146998900","address":"579 Gramatan Ave","lat":40.925950443821726,"lng":-73.8357178307075,"neighborhood":"North Side","city_fetched":"Harrison,US","state":"NY","country":"United States","canonicalUrl":"https://foursquare.com/v/maggie-spillanes-ale-house/4d9648c29079b1f73231f609","categoryId":"4bf58dd8d48988d11b941735","category":"Pub","checkinsCount":3531,"usersCount":1356,"tipCount":37,"visitsCount":3917,"url":"http://maggiespillanes.com","tier":2,"message":"Moderate","currency":"$","rating":7.1},{"name":"Mickey Spillane's","phone":"9143953838","address":"431 White Plains Rd","lat":40.95657737054094,"lng":-73.81372479721513,"city_fetched":"Harrison,US","state":"NY","country":"United States","canonicalUrl":"https://foursquare.com/v/mickey-spillanes/4b219bd9f964a520e33e24e3","categoryId":"4bf58dd8d48988d11b941735","category":"Pub","checkinsCount":1563,"usersCount":784,"tipCount":11,"visitsCount":1595,"url":"http://mickeyspillanes.com","tier":"","message":"","currency":"","rating":6.9},{"name":"Executive billiards","phone":"9149481070","address":"109 Mamaroneck Ave","lat":41.02963,"lng":-73.765301,"city_fetched":"Harrison,US","state":"NY","country":"United States","canonicalUrl":"https://foursquare.com/v/executive-billiards/4c6c5d2299b9236acd63e2c9","categoryId":"4bf58dd8d48988d11a941735","category":"Other Nightlife","checkinsCount":504,"usersCount":363,"tipCount":6,"visitsCount":562,"tier":"","message":"","currency":"","rating":6.9},{"name":"Selah lounge","address":"182 E Post Rd","lat":41.02989684828715,"lng":-73.76447432044972,"city_fetched":"Harrison,US","state":"NY","country":"United States","canonicalUrl":"https://foursquare.com/v/selah-lounge/4b11f537f964a520838723e3","categoryId":"4bf58dd8d48988d121941735","category":"Lounge","checkinsCount":301,"usersCount":73,"tipCount":6,"visitsCount":302,"tier":"","message":"","currency":"","rating":6.8},{"name":"B Lounge","phone":"9144375093","address":"4 Broadway","lat":41.073150807980745,"lng":-73.77170208483751,"city_fetched":"Harrison,US","state":"NY","country":"United States","canonicalUrl":"https://foursquare.com/v/b-lounge/4dcdd5f552b1f8915b882421","categoryId":"4bf58dd8d48988d1d8941735","category":"Gay Bar","checkinsCount":765,"usersCount":238,"tipCount":6,"visitsCount":818,"url":"http://bloungeny.com","tier":"","message":"","currency":"","rating":6.7},{"name":"Rudy's Sports & Entertainment","phone":"9143589051","twitter":"therudysny","address":"156 S Central Ave","lat":41.01413600767234,"lng":-73.80385614528349,"city_fetched":"Harrison,US","state":"NY","country":"United States","canonicalUrl":"https://foursquare.com/v/rudys-sports--entertainment/50550967e4b0719d681e5a62","categoryId":"4bf58dd8d48988d11d941735","category":"Sports Bar","checkinsCount":1184,"usersCount":679,"tipCount":24,"visitsCount":1713,"url":"http://rudysny.com","tier":2,"message":"Moderate","currency":"$","rating":6.7},{"name":"Off The Grid","address":"73 Crotona Ave","lat":40.971069137370776,"lng":-73.71943569413563,"city_fetched":"Harrison,US","state":"NY","country":"United States","canonicalUrl":"https://foursquare.com/v/off-the-grid/4dc5c8c61f6ef43b8a1f9e9b","categoryId":"4bf58dd8d48988d11b941735","category":"Pub","checkinsCount":181,"usersCount":88,"tipCount":4,"visitsCount":191,"tier":"","message":"","currency":"","rating":6.7},{"name":"Public House","phone":"9147385972","address":"5th Ave.","lat":40.91350141388632,"lng":-73.80866990289775,"city_fetched":"Harrison,US","state":"NY","country":"United States","canonicalUrl":"https://foursquare.com/v/public-house/4ba18dd5f964a5202ac037e3","categoryId":"4bf58dd8d48988d116941735","category":"Bar","checkinsCount":616,"usersCount":169,"tipCount":5,"visitsCount":680,"url":"http://www.thepublichouse.com","tier":"","message":"","currency":"","rating":6.5},{"name":"Sundown Saloon","phone":"2036298212","twitter":"sundown_saloon","address":"403 Greenwich Ave","lat":41.02232644526341,"lng":-73.62459897994995,"city_fetched":"Harrison,US","state":"CT","country":"United States","canonicalUrl":"https://foursquare.com/v/sundown-saloon/4abc3448f964a520bd8620e3","categoryId":"4bf58dd8d48988d116941735","category":"Bar","checkinsCount":3304,"usersCount":1390,"tipCount":12,"visitsCount":3566,"url":"http://www.sundownsaloon.com","tier":2,"message":"Moderate","currency":"$","rating":6.4},{"name":"Glenrowan","address":"840 Midland Ave","lat":40.93499823561152,"lng":-73.8623945226065,"neighborhood":"Dunwoodie","city_fetched":"Harrison,US","state":"NY","country":"United States","canonicalUrl":"https://foursquare.com/v/glenrowan/4e1918c5d4c062b044ef2827","categoryId":"4bf58dd8d48988d11b941735","category":"Pub","checkinsCount":570,"usersCount":240,"tipCount":3,"visitsCount":645,"tier":"","message":"","currency":"","rating":6.4},{"name":"Mingles","phone":"7183209505","address":"4012 Boston Rd","lat":40.884086249696495,"lng":-73.83266227209691,"neighborhood":"Eastchester","city_fetched":"Harrison,US","state":"NY","country":"United States","canonicalUrl":"https://foursquare.com/v/mingles/4ba2a899f964a5206b0d38e3","categoryId":"4bf58dd8d48988d11e941735","category":"Cocktail Bar","checkinsCount":525,"usersCount":273,"tipCount":10,"visitsCount":607,"url":"http://ticketsus.at/yahooinc/343493.html","tier":"","message":"","currency":"","rating":6.3},{"name":"97 Lake Sports Caf√© and Restaurant","phone":"9143281414","twitter":"97lake","address":"97 Lake St","lat":41.04320195950333,"lng":-73.74726567643563,"city_fetched":"Harrison,US","state":"NY","country":"United States","canonicalUrl":"https://foursquare.com/97lake","categoryId":"4bf58dd8d48988d11d941735","category":"Sports Bar","checkinsCount":486,"usersCount":196,"tipCount":17,"visitsCount":505,"url":"http://www.97lake.com","tier":"","message":"","currency":"","rating":6.3},{"name":"Dan Rooney's Bar and Grill","phone":"9149684200","address":"810 Yonkers Ave","lat":40.91979074320156,"lng":-73.86420921036374,"neighborhood":"Southeast Yonkers","city_fetched":"Harrison,US","state":"NY","country":"United States","canonicalUrl":"https://foursquare.com/v/dan-rooneys-bar-and-grill/5137b53ce4b08fbb2ef5fdec","categoryId":"4bf58dd8d48988d11b941735","category":"Pub","checkinsCount":439,"usersCount":181,"tipCount":15,"visitsCount":445,"tier":"","message":"","currency":"","rating":6.3},{"name":"Behan's Pub","address":"4299 Katonah Ave","lat":40.89855830894588,"lng":-73.86753418019754,"neighborhood":"Woodlawn Heights","city_fetched":"Harrison,US","state":"NY","country":"United States","canonicalUrl":"https://foursquare.com/v/behans-pub/4b79d41ef964a520b9142fe3","categoryId":"4bf58dd8d48988d116941735","category":"Bar","checkinsCount":302,"usersCount":136,"tipCount":2,"visitsCount":307,"tier":"","message":"","currency":"","rating":6.3},{"name":"Bar Pelham","phone":"7186643129","address":"3229 Westchester Ave","lat":40.852296773751526,"lng":-73.8291873783067,"neighborhood":"Pelham Bay","city_fetched":"Harrison,US","state":"NY","country":"United States","canonicalUrl":"https://foursquare.com/v/bar-pelham/50e23eeae4b0e03a3cfffeae","categoryId":"4bf58dd8d48988d116941735","category":"Bar","checkinsCount":171,"usersCount":68,"tipCount":16,"visitsCount":171,"tier":"","message":"","currency":"","rating":6.3},{"name":"Duo Tapas Bar & Lounge","phone":"9142940034","address":"748 Yonkers Ave","lat":40.923307078623566,"lng":-73.86513377584595,"neighborhood":"Lincoln Park","city_fetched":"Harrison,US","state":"NY","country":"United States","canonicalUrl":"https://foursquare.com/v/duo-tapas-bar--lounge/4eaf333ebe7b409f8bc568eb","categoryId":"4bf58dd8d48988d121941735","category":"Lounge","checkinsCount":335,"usersCount":236,"tipCount":11,"visitsCount":446,"url":"http://duotapasbar.com","tier":"","message":"","currency":"","rating":6.3},{"name":"Key Club Cabaret","address":"4139 Boston Rd, Bronx, NY 10466","lat":40.88676071166992,"lng":-73.82686614990234,"neighborhood":"Eastchester","city_fetched":"Harrison,US","state":"NY","country":"United States","canonicalUrl":"https://foursquare.com/v/key-club-cabaret/4efd3f0a722e0f076f8f02ed","categoryId":"4bf58dd8d48988d1d6941735","category":"Strip Club","checkinsCount":156,"usersCount":86,"tipCount":4,"visitsCount":162,"tier":"","message":"","currency":"","rating":6.2},{"name":"Black Bear Saloon","phone":"9144223270","twitter":"blackbearwp","address":"166 Mamaroneck Ave","lat":41.02859761167592,"lng":-73.7653476412965,"city_fetched":"Harrison,US","state":"NY","country":"United States","canonicalUrl":"https://foursquare.com/v/black-bear-saloon/4af70248f964a520c80422e3","categoryId":"4bf58dd8d48988d116941735","category":"Bar","checkinsCount":4036,"usersCount":1931,"tipCount":23,"visitsCount":4059,"url":"http://www.blackbearwp.com","tier":2,"message":"Moderate","currency":"$","rating":6.2},{"name":"O'Connor's Public House","phone":"9143589145","address":"93 Mamaroneck Ave","lat":41.030172923859254,"lng":-73.76565215359095,"city_fetched":"Harrison,US","state":"NY","country":"United States","canonicalUrl":"https://foursquare.com/v/oconnors-public-house/4c264e72136d20a1191be561","categoryId":"4bf58dd8d48988d11b941735","category":"Pub","checkinsCount":2831,"usersCount":893,"tipCount":17,"visitsCount":2920,"url":"http://o-connors-pub.com","tier":"","message":"","currency":"","rating":6.1},{"name":"Sue's Rendezvous","phone":"9146645747","twitter":"nysues","address":"96 Gramatan Ave","lat":40.91394058382628,"lng":-73.83737769142229,"neighborhood":"North Side","city_fetched":"Harrison,US","state":"NY","country":"United States","canonicalUrl":"https://foursquare.com/v/sues-rendezvous/4c2af1fa8ef52d7f95a930ba","categoryId":"4bf58dd8d48988d1d6941735","category":"Strip Club","checkinsCount":1268,"usersCount":779,"tipCount":16,"visitsCount":1564,"url":"http://theworldofsues.com","tier":"","message":"","currency":"","rating":6.1},{"name":"Mackenzie's Grill Room","phone":"2036980223","address":"148 Sound Beach Ave","lat":41.03385113580457,"lng":-73.56818052050664,"city_fetched":"Harrison,US","state":"CT","country":"United States","canonicalUrl":"https://foursquare.com/v/mackenzies-grill-room/4b368727f964a5205d3725e3","categoryId":"4bf58dd8d48988d11b941735","category":"Pub","checkinsCount":1087,"usersCount":561,"tipCount":19,"visitsCount":1228,"url":"http://www.mackenziesgrillroom.com","tier":2,"message":"Moderate","currency":"$","rating":6},{"name":"Katie's Cottage","address":"512 central park ave","lat":40.92083518870103,"lng":-73.86558744303153,"neighborhood":"Lincoln Park","city_fetched":"Harrison,US","state":"NY","country":"United States","canonicalUrl":"https://foursquare.com/v/katies-cottage/4c804223d92ea093d1703672","categoryId":"4bf58dd8d48988d11b941735","category":"Pub","checkinsCount":377,"usersCount":155,"tipCount":6,"visitsCount":398,"tier":"","message":"","currency":"","rating":6},{"name":"River Roadhouse","phone":"9144785227","address":"533 Warburton Ave","lat":40.994524002431184,"lng":-73.88245278130321,"city_fetched":"Harrison,US","state":"NY","country":"United States","canonicalUrl":"https://foursquare.com/v/river-roadhouse/4b53d65cf964a520caac27e3","categoryId":"4bf58dd8d48988d118941735","category":"Dive Bar","checkinsCount":476,"usersCount":176,"tipCount":6,"visitsCount":486,"tier":"","message":"","currency":"","rating":6},{"name":"Stephen's Green Pub","address":"12 Fisher Ave","lat":40.95855896950933,"lng":-73.82041658984427,"city_fetched":"Harrison,US","state":"NY","country":"United States","canonicalUrl":"https://foursquare.com/v/stephens-green-pub/4be9ee624f5576b05114b396","categoryId":"4bf58dd8d48988d11b941735","category":"Pub","checkinsCount":979,"usersCount":274,"tipCount":4,"visitsCount":1031,"tier":"","message":"","currency":"","rating":5.9},{"name":"The Pub","phone":"9149395500","twitter":"doralarrowwood","address":"975 Anderson Hill Rd","lat":41.044785438930596,"lng":-73.68969365872114,"city_fetched":"Harrison,US","state":"NY","country":"United States","canonicalUrl":"https://foursquare.com/v/the-pub/4b80300ff964a520885a30e3","categoryId":"4bf58dd8d48988d11b941735","category":"Pub","checkinsCount":488,"usersCount":277,"tipCount":4,"visitsCount":491,"url":"http://www.doralarrowwood.com/dining/the-pub","tier":"","message":"","currency":"","rating":5.9},{"name":"Spectators Sports Pub","phone":"9146360437","address":"219 North Ave","lat":40.91051694491668,"lng":-73.78107825476464,"neighborhood":"Downtown New Rochelle","city_fetched":"Harrison,US","state":"NY","country":"United States","canonicalUrl":"https://foursquare.com/v/spectators-sports-pub/4ba58cf9f964a520991139e3","categoryId":"4bf58dd8d48988d11d941735","category":"Sports Bar","checkinsCount":681,"usersCount":339,"tipCount":3,"visitsCount":749,"tier":"","message":"","currency":"","rating":5.8},{"name":"City Lights Strip Club","lat":40.92266176972756,"lng":-73.86401395995392,"neighborhood":"Lincoln Park","city_fetched":"Harrison,US","state":"NY","country":"United States","canonicalUrl":"https://foursquare.com/v/city-lights-strip-club/4bb421cff187a593efee13f8","categoryId":"4bf58dd8d48988d1d6941735","category":"Strip Club","checkinsCount":394,"usersCount":213,"tipCount":7,"visitsCount":394,"tier":"","message":"","currency":"","rating":5.5}]