[{"name":"Pale Fire Brewing Co.","phone":"5402175452","twitter":"palefirebrewing","address":"217 S Liberty St #105","lat":38.44707325118437,"lng":-78.87199367647173,"city_fetched":"Harrisonburg,US","state":"VA","country":"United States","canonicalUrl":"https://foursquare.com/v/pale-fire-brewing-co/551d652d498ebf31865585c3","categoryId":"50327c8591d4c4b30a586d5d","category":"Brewery","checkinsCount":380,"usersCount":252,"tipCount":4,"visitsCount":547,"url":"http://palefirebrewing.com","tier":"","message":"","currency":"","rating":9},{"name":"Billy Jack's Shack","phone":"5404331793","address":"92 S Main St","lat":38.448431,"lng":-78.86873756,"city_fetched":"Harrisonburg,US","state":"VA","country":"United States","canonicalUrl":"https://foursquare.com/v/billy-jacks-shack/4e15f056b61c42e7c54fe9f3","categoryId":"4bf58dd8d48988d116941735","category":"Bar","checkinsCount":5126,"usersCount":1471,"tipCount":42,"visitsCount":5502,"url":"http://billyjacksshack.com","tier":2,"message":"Moderate","currency":"$","rating":8.9},{"name":"Boston Beanery","phone":"5404331870","address":"1625 E Market St","lat":38.43404670308246,"lng":-78.84789972312441,"city_fetched":"Harrisonburg,US","state":"VA","country":"United States","canonicalUrl":"https://foursquare.com/v/boston-beanery/4b7b7b17f964a5200f652fe3","categoryId":"4bf58dd8d48988d11b941735","category":"Pub","checkinsCount":1494,"usersCount":525,"tipCount":7,"visitsCount":1636,"url":"http://bostonbeanery.com","tier":2,"message":"Moderate","currency":"$","rating":8.5},{"name":"Food.Bar.Food","phone":"5404333663","address":"126 W Bruce St Ste 101","lat":38.44797,"lng":-78.871511,"city_fetched":"Harrisonburg,US","state":"VA","country":"United States","canonicalUrl":"https://foursquare.com/v/foodbarfood/53c1c916498e4815fa6d71e1","categoryId":"4bf58dd8d48988d116941735","category":"Bar","checkinsCount":140,"usersCount":116,"tipCount":6,"visitsCount":179,"url":"http://www.foodbarfood.com","tier":"","message":"","currency":"","rating":8.5},{"name":"Corgans' Publick House","phone":"5405642674","address":"865 Port Republic Rd","lat":38.423622209467965,"lng":-78.87333696907797,"city_fetched":"Harrisonburg,US","state":"VA","country":"United States","canonicalUrl":"https://foursquare.com/v/corgans-publick-house/4f0f80fbe4b0804e88664578","categoryId":"4bf58dd8d48988d11b941735","category":"Pub","checkinsCount":853,"usersCount":515,"tipCount":10,"visitsCount":1052,"url":"http://corganspublickhouse.com","tier":2,"message":"Moderate","currency":"$","rating":8.4},{"name":"The Golden pony","address":"181 N Main St","lat":38.45122471473099,"lng":-78.86825115481707,"city_fetched":"Harrisonburg,US","state":"VA","country":"United States","canonicalUrl":"https://foursquare.com/v/the-golden-pony/551c7ddf498e26378b63f09e","categoryId":"4bf58dd8d48988d116941735","category":"Bar","checkinsCount":117,"usersCount":118,"tipCount":1,"visitsCount":231,"tier":"","message":"","currency":"","rating":8.4},{"name":"Vibe","address":"S Main St, Harrisonburg, VA","lat":38.429616115732806,"lng":-78.88458010111853,"city_fetched":"Harrisonburg,US","state":"VA","country":"United States","canonicalUrl":"https://foursquare.com/v/vibe/4f2219dfe4b0502588d238b8","categoryId":"4bf58dd8d48988d119941735","category":"Hookah Bar","checkinsCount":286,"usersCount":111,"tipCount":6,"visitsCount":310,"tier":"","message":"","currency":"","rating":8.3},{"name":"Brothers Craft Brewing","twitter":"broscraftbrew","address":"800 N Main St","lat":38.457292407086044,"lng":-78.8610255267118,"city_fetched":"Harrisonburg,US","state":"VA","country":"United States","canonicalUrl":"https://foursquare.com/v/brothers-craft-brewing/50df0c168302512645ae49c3","categoryId":"50327c8591d4c4b30a586d5d","category":"Brewery","checkinsCount":1179,"usersCount":555,"tipCount":8,"visitsCount":1591,"url":"https://brotherscraftbrewing.com","tier":"","message":"","currency":"","rating":8.3},{"name":"Clementine Cafe","phone":"5408018881","address":"153 S Main St","lat":38.44782138717491,"lng":-78.86922411367237,"city_fetched":"Harrisonburg,US","state":"VA","country":"United States","canonicalUrl":"https://foursquare.com/v/clementine-cafe/4b62022ff964a52047302ae3","categoryId":"4bf58dd8d48988d116941735","category":"Bar","checkinsCount":3171,"usersCount":1510,"tipCount":39,"visitsCount":3301,"url":"http://www.clementinecafe.com","tier":2,"message":"Moderate","currency":"$","rating":8.3},{"name":"Three Notch'd Brewing Company","phone":"4349610959","twitter":"threenotchdbeer","address":"241 E Market St","lat":38.44883239193572,"lng":-78.86534327687737,"city_fetched":"Harrisonburg,US","state":"VA","country":"United States","canonicalUrl":"https://foursquare.com/v/three-notchd-brewing-company/5376cabe498ec49179da6bfb","categoryId":"50327c8591d4c4b30a586d5d","category":"Brewery","checkinsCount":252,"usersCount":213,"tipCount":2,"visitsCount":427,"url":"http://threenotchdbrewing.com","tier":"","message":"","currency":"","rating":7.5},{"name":"Tilted Kilt Harrisonburg","phone":"5404388458","twitter":"tiltedkiltpub","address":"1925 E Market St Ste 208","lat":38.42914414101918,"lng":-78.8438853307738,"city_fetched":"Harrisonburg,US","state":"VA","country":"United States","canonicalUrl":"https://foursquare.com/v/tilted-kilt-harrisonburg/5173f9ec498ebf7fcf531f56","categoryId":"4bf58dd8d48988d11b941735","category":"Pub","checkinsCount":302,"usersCount":188,"tipCount":3,"visitsCount":309,"url":"http://www.tiltedkilt.com","tier":"","message":"","currency":"","rating":6.6},{"name":"Ruby's Lady Luck","phone":"5408018881","address":"153 S Main St","lat":38.448,"lng":-78.869226,"city_fetched":"Harrisonburg,US","state":"VA","country":"United States","canonicalUrl":"https://foursquare.com/v/rubys-lady-luck/4e41d6bdc65b782238e96af9","categoryId":"4bf58dd8d48988d116941735","category":"Bar","checkinsCount":719,"usersCount":275,"tipCount":8,"visitsCount":745,"url":"http://clementinecafe.com/rubys.html","tier":"","message":"","currency":"","rating":6.6},{"name":"Encounters Lounge (massanutten)","address":"Massanutten Dr","lat":38.403579892632294,"lng":-78.75464719832465,"city_fetched":"Harrisonburg,US","state":"VA","country":"United States","canonicalUrl":"https://foursquare.com/v/encounters-lounge-massanutten/4d1bfc161356224b68ef0bbe","categoryId":"4bf58dd8d48988d11d941735","category":"Sports Bar","checkinsCount":386,"usersCount":207,"tipCount":1,"visitsCount":389,"tier":"","message":"","currency":"","rating":5.6}]