[{"name":"The Sturges Speakeasy","phone":"7174120931","address":"400 Forster St","lat":40.26705054356217,"lng":-76.88553214073181,"neighborhood":"Fox Ridge Historic District","city_fetched":"Harrisburg,US","state":"PA","country":"United States","canonicalUrl":"https://foursquare.com/v/the-sturges-speakeasy/4fd907d3e4b0cc0ff40de8ae","categoryId":"4bf58dd8d48988d1d4941735","category":"Speakeasy","checkinsCount":4742,"usersCount":1258,"tipCount":40,"visitsCount":5764,"url":"http://www.sturgesspeakeasy.com","tier":2,"message":"Moderate","currency":"$","rating":9.1},{"name":"Zeroday Brewing Company","phone":"7177456218","twitter":"zerodaybrewing","address":"250 Reily St Ste 103","lat":40.27172404130637,"lng":-76.8914538686358,"neighborhood":"Midtown","city_fetched":"Harrisburg,US","state":"PA","country":"United States","canonicalUrl":"https://foursquare.com/zerodaybrewing","categoryId":"50327c8591d4c4b30a586d5d","category":"Brewery","checkinsCount":1527,"usersCount":408,"tipCount":10,"visitsCount":1874,"url":"http://www.zerodaybrewing.com","tier":"","message":"","currency":"","rating":8.8},{"name":"The Abbey Bar at ABC","phone":"7172211083","twitter":"abbeybar","address":"50 N Cameron St","lat":40.265931098412274,"lng":-76.87544879792921,"city_fetched":"Harrisburg,US","state":"PA","country":"United States","canonicalUrl":"https://foursquare.com/v/the-abbey-bar-at-abc/4cb50330b315a09338b39176","categoryId":"4bf58dd8d48988d116941735","category":"Bar","checkinsCount":2266,"usersCount":823,"tipCount":12,"visitsCount":2300,"url":"http://www.abcbrew.com/abbey","tier":"","message":"","currency":"","rating":8.7},{"name":"Flinchy's","phone":"7177619000","address":"1833 Hummel Ave","lat":40.23447637,"lng":-76.91154956817404,"city_fetched":"Harrisburg,US","state":"PA","country":"United States","canonicalUrl":"https://foursquare.com/v/flinchys/4b6c9163f964a520ba432ce3","categoryId":"4bf58dd8d48988d116941735","category":"Bar","checkinsCount":2203,"usersCount":920,"tipCount":24,"visitsCount":2832,"url":"http://www.flinchys.com","tier":2,"message":"Moderate","currency":"$","rating":8.6},{"name":"Mr Gs Place","phone":"7172330456","address":"3745 N 6th St","lat":40.310870857834466,"lng":-76.89422344124299,"neighborhood":"Uptown","city_fetched":"Harrisburg,US","state":"PA","country":"United States","canonicalUrl":"https://foursquare.com/v/mr-gs-place/4b99c87af964a520919135e3","categoryId":"4bf58dd8d48988d11d941735","category":"Sports Bar","checkinsCount":821,"usersCount":318,"tipCount":5,"visitsCount":945,"url":"http://mrgssportsbar.com","tier":"","message":"","currency":"","rating":8.4},{"name":"Lancaster Brewing Company","phone":"7175644448","twitter":"lancasterbrew","address":"469 Eisenhower Blvd","lat":40.250341,"lng":-76.81388138333334,"neighborhood":"South Harrisburg","city_fetched":"Harrisburg,US","state":"PA","country":"United States","canonicalUrl":"https://foursquare.com/v/lancaster-brewing-company/4be4b4922457a59331a7aa15","categoryId":"50327c8591d4c4b30a586d5d","category":"Brewery","checkinsCount":4744,"usersCount":3031,"tipCount":62,"visitsCount":5665,"url":"http://lbcharrisburg.com","tier":2,"message":"Moderate","currency":"$","rating":8.3},{"name":"Appalachian Brewing Company","phone":"7172211080","address":"50 N Cameron St","lat":40.26579799245383,"lng":-76.87552213668823,"city_fetched":"Harrisburg,US","state":"PA","country":"United States","canonicalUrl":"https://foursquare.com/v/appalachian-brewing-company/4ae37846f964a5207f9521e3","categoryId":"50327c8591d4c4b30a586d5d","category":"Brewery","checkinsCount":7601,"usersCount":3852,"tipCount":85,"visitsCount":8116,"url":"http://www.abcbrew.com/harrisburg/index.htm","tier":2,"message":"Moderate","currency":"$","rating":8.1},{"name":"Brewhouse Grille","phone":"7177370030","address":"2087 State Rd","lat":40.23191301023754,"lng":-76.91733241081238,"city_fetched":"Harrisburg,US","state":"PA","country":"United States","canonicalUrl":"https://foursquare.com/v/brewhouse-grille/4b17fdacf964a520feca23e3","categoryId":"4bf58dd8d48988d116941735","category":"Bar","checkinsCount":5098,"usersCount":1858,"tipCount":41,"visitsCount":6441,"url":"http://brewhousegrille.com","tier":"","message":"","currency":"","rating":8},{"name":"Shady McGrady's","phone":"7172344070","address":"204 Verbeke St","lat":40.268855,"lng":-76.89130368333333,"neighborhood":"Midtown","city_fetched":"Harrisburg,US","state":"PA","country":"United States","canonicalUrl":"https://foursquare.com/v/shady-mcgradys/4b63954ef964a520ef842ae3","categoryId":"4bf58dd8d48988d11b941735","category":"Pub","checkinsCount":4083,"usersCount":548,"tipCount":19,"visitsCount":4460,"tier":2,"message":"Moderate","currency":"$","rating":8},{"name":"Der Harrisburg Maennerchor","phone":"7172333011","address":"221 North St","lat":40.2642000615209,"lng":-76.88725435721042,"neighborhood":"Capital District","city_fetched":"Harrisburg,US","state":"PA","country":"United States","canonicalUrl":"https://foursquare.com/v/der-harrisburg-maennerchor/4b59b546f964a520f59328e3","categoryId":"4bf58dd8d48988d116941735","category":"Bar","checkinsCount":1141,"usersCount":182,"tipCount":8,"visitsCount":1178,"url":"http://hbgmaennerchor.com","tier":"","message":"","currency":"","rating":8},{"name":"McGrath's Pub","phone":"7172329914","twitter":"mcgrathspub202","address":"202 Locust St","lat":40.26130052335611,"lng":-76.88375840810193,"neighborhood":"Central Business District","city_fetched":"Harrisburg,US","state":"PA","country":"United States","canonicalUrl":"https://foursquare.com/v/mcgraths-pub/4adc1f98f964a520882b21e3","categoryId":"4bf58dd8d48988d11b941735","category":"Pub","checkinsCount":7413,"usersCount":1920,"tipCount":47,"visitsCount":7847,"url":"http://mcgrathspub.net","tier":1,"message":"Cheap","currency":"$","rating":8},{"name":"The Wharf Bar and Grill","phone":"7175649920","address":"6852 Derry St","lat":40.265064946910414,"lng":-76.76826908089478,"city_fetched":"Harrisburg,US","state":"PA","country":"United States","canonicalUrl":"https://foursquare.com/v/the-wharf-bar-and-grill/4b50e33cf964a520113727e3","categoryId":"4bf58dd8d48988d11b941735","category":"Pub","checkinsCount":1419,"usersCount":621,"tipCount":19,"visitsCount":1828,"url":"http://www.thewharfbarandgrill.com","tier":"","message":"","currency":"","rating":7.9},{"name":"The Waterfront Bar & Grill","phone":"7179574227","address":"13 S Main St","lat":40.3428538986615,"lng":-76.92756037208173,"city_fetched":"Harrisburg,US","state":"PA","country":"United States","canonicalUrl":"https://foursquare.com/v/the-waterfront-bar--grill/4eee91bed3e3246bdca19240","categoryId":"4bf58dd8d48988d116941735","category":"Bar","checkinsCount":266,"usersCount":202,"tipCount":4,"visitsCount":328,"url":"http://www.thewaterfrontbarandgrill.com","tier":"","message":"","currency":"","rating":7.7},{"name":"Stadium Club Sports Tavern","phone":"7179399193","address":"59 2nd St","lat":40.21090846894784,"lng":-76.79539801174093,"city_fetched":"Harrisburg,US","state":"PA","country":"United States","canonicalUrl":"https://foursquare.com/v/stadium-club-sports-tavern/4c350c6216adc9285c38c69c","categoryId":"4bf58dd8d48988d116941735","category":"Bar","checkinsCount":1290,"usersCount":239,"tipCount":6,"visitsCount":1515,"tier":"","message":"","currency":"","rating":7.7},{"name":"Federal Taphouse","phone":"7175258077","twitter":"fedtaphbg","address":"234 N 2nd St","lat":40.26157000860086,"lng":-76.8851489182555,"neighborhood":"Downtown Harrisburg","city_fetched":"Harrisburg,US","state":"PA","country":"United States","canonicalUrl":"https://foursquare.com/v/federal-taphouse/504405d3e4b0dd909cc79781","categoryId":"4bf58dd8d48988d116941735","category":"Bar","checkinsCount":3609,"usersCount":1832,"tipCount":51,"visitsCount":4102,"url":"http://federaltaphouse.com","tier":2,"message":"Moderate","currency":"$","rating":7.7},{"name":"Brownstone Lounge","phone":"7172347009","address":"412 Forster St","lat":40.267022133156296,"lng":-76.88518832519728,"neighborhood":"Fox Ridge Historic District","city_fetched":"Harrisburg,US","state":"PA","country":"United States","canonicalUrl":"https://foursquare.com/v/brownstone-lounge/4b561c8df964a520e80028e3","categoryId":"4bf58dd8d48988d1d8941735","category":"Gay Bar","checkinsCount":3944,"usersCount":381,"tipCount":8,"visitsCount":4065,"tier":"","message":"","currency":"","rating":7.6},{"name":"Rookie's Sports Bar & Grille","phone":"7175610030","address":"2238 Derry St","lat":40.260488168804116,"lng":-76.84899619423354,"city_fetched":"Harrisburg,US","state":"PA","country":"United States","canonicalUrl":"https://foursquare.com/v/rookies-sports-bar--grille/4caba1f114c33704b038ec3b","categoryId":"4bf58dd8d48988d11d941735","category":"Sports Bar","checkinsCount":586,"usersCount":369,"tipCount":6,"visitsCount":917,"url":"http://www.rookiesbarandgrille.com","tier":"","message":"","currency":"","rating":7.5},{"name":"Brick Haus","phone":"7172334287","address":"229 N 2nd St","lat":40.261780725,"lng":-76.88466915000001,"neighborhood":"Central Business District","city_fetched":"Harrisburg,US","state":"PA","country":"United States","canonicalUrl":"https://foursquare.com/v/brick-haus/4adc2026f964a520892b21e3","categoryId":"4bf58dd8d48988d116941735","category":"Bar","checkinsCount":2538,"usersCount":696,"tipCount":10,"visitsCount":2576,"url":"http://www.guidespot.com/business/0096021756_cragins_brick_haus","tier":1,"message":"Cheap","currency":"$","rating":7.3},{"name":"Progress Fire Company Home Association","address":"38 Short St","lat":40.2863136014998,"lng":-76.83907923347081,"city_fetched":"Harrisburg,US","state":"PA","country":"United States","canonicalUrl":"https://foursquare.com/v/progress-fire-company-home-association/4c6b123a99b9236a0155e0c9","categoryId":"4bf58dd8d48988d116941735","category":"Bar","checkinsCount":1235,"usersCount":156,"tipCount":4,"visitsCount":1518,"url":"http://pfcha.com","tier":"","message":"","currency":"","rating":7.3},{"name":"Level 2","phone":"7172366600","twitter":"level2hbg","address":"215 N 2nd St","lat":40.261507697176526,"lng":-76.88421440708731,"neighborhood":"Central Business District","city_fetched":"Harrisburg,US","state":"PA","country":"United States","canonicalUrl":"https://foursquare.com/v/level-2/4b52ab5af964a520898527e3","categoryId":"4bf58dd8d48988d11f941735","category":"Nightclub","checkinsCount":1115,"usersCount":519,"tipCount":5,"visitsCount":1123,"tier":"","message":"","currency":"","rating":7.3},{"name":"Savannah's on Hanna","phone":"7172331100","address":"1000 Hanna St","lat":40.25385369752829,"lng":-76.86918807159375,"city_fetched":"Harrisburg,US","state":"PA","country":"United States","canonicalUrl":"https://foursquare.com/v/savannahs-on-hanna/4b41242af964a520f5c125e3","categoryId":"4bf58dd8d48988d1d6941735","category":"Strip Club","checkinsCount":1319,"usersCount":536,"tipCount":8,"visitsCount":1520,"url":"http://www.sohclub.com","tier":"","message":"","currency":"","rating":7.2},{"name":"Double K Tavern","phone":"7176521091","address":"7495 Jonestown Rd","lat":40.339730638105685,"lng":-76.73713258240677,"city_fetched":"Harrisburg,US","state":"PA","country":"United States","canonicalUrl":"https://foursquare.com/v/double-k-tavern/4b7795e7f964a520caa22ee3","categoryId":"4bf58dd8d48988d116941735","category":"Bar","checkinsCount":380,"usersCount":178,"tipCount":7,"visitsCount":441,"url":"http://www.doublektavern.com","tier":"","message":"","currency":"","rating":7.2},{"name":"Arooga's Rt 39","phone":"7179099464","twitter":"aroogas","address":"4301 Linglestown Rd","lat":40.335853,"lng":-76.82537421,"city_fetched":"Harrisburg,US","state":"PA","country":"United States","canonicalUrl":"https://foursquare.com/v/aroogas-rt-39/4b5f824ff964a5208ebe29e3","categoryId":"4bf58dd8d48988d11d941735","category":"Sports Bar","checkinsCount":4421,"usersCount":1475,"tipCount":23,"visitsCount":5199,"url":"http://www.aroogas.com","tier":2,"message":"Moderate","currency":"$","rating":7.2},{"name":"Sons Of Italy - Lodge #2857","phone":"7176529976","address":"4701 Fritchey St","lat":40.301034,"lng":-76.812425,"city_fetched":"Harrisburg,US","state":"PA","country":"United States","canonicalUrl":"https://foursquare.com/v/sons-of-italy--lodge-2857/4c36107818e72d7f462e14f5","categoryId":"4bf58dd8d48988d116941735","category":"Bar","checkinsCount":1199,"usersCount":147,"tipCount":2,"visitsCount":1269,"tier":"","message":"","currency":"","rating":7.1},{"name":"Gilligan's Bar & Grill","phone":"7176522611","address":"10 N Houcks Rd","lat":40.303508899978425,"lng":-76.81175703221598,"city_fetched":"Harrisburg,US","state":"PA","country":"United States","canonicalUrl":"https://foursquare.com/v/gilligans-bar--grill/4b788ae1f964a5208fd52ee3","categoryId":"4bf58dd8d48988d116941735","category":"Bar","checkinsCount":1830,"usersCount":826,"tipCount":15,"visitsCount":2065,"url":"http://gilligansbarandgrill.net","tier":2,"message":"Moderate","currency":"$","rating":7.1},{"name":"Bar 704","phone":"7172344228","address":"704 N 3rd St","lat":40.26526585587802,"lng":-76.88596665859222,"neighborhood":"Capital District","city_fetched":"Harrisburg,US","state":"PA","country":"United States","canonicalUrl":"https://foursquare.com/v/bar-704/4c1453dfb7b9c9281846ab37","categoryId":"4bf58dd8d48988d1d8941735","category":"Gay Bar","checkinsCount":2038,"usersCount":356,"tipCount":8,"visitsCount":2067,"url":"http://704pa.com","tier":2,"message":"Moderate","currency":"$","rating":7.1},{"name":"Pints Bar & Grill","phone":"7172330975","address":"25 S 4th St","lat":40.26141520561519,"lng":-76.87845518493793,"neighborhood":"Downtown Harrisburg","city_fetched":"Harrisburg,US","state":"PA","country":"United States","canonicalUrl":"https://foursquare.com/v/pints-bar--grill/4bf8865ab182c9b634b3775a","categoryId":"4bf58dd8d48988d118941735","category":"Dive Bar","checkinsCount":1994,"usersCount":256,"tipCount":12,"visitsCount":2080,"url":"http://pintsbar.com","tier":1,"message":"Cheap","currency":"$","rating":6.9},{"name":"Bourbon Street Saloon","phone":"7172331501","address":"37 N 2nd St","lat":40.26049348868962,"lng":-76.8832967777813,"neighborhood":"Downtown Harrisburg","city_fetched":"Harrisburg,US","state":"PA","country":"United States","canonicalUrl":"https://foursquare.com/v/bourbon-street-saloon/4b358ce2f964a520dd2d25e3","categoryId":"4bf58dd8d48988d116941735","category":"Bar","checkinsCount":3469,"usersCount":1307,"tipCount":10,"visitsCount":3582,"url":"http://www.downtownafterdark.com/property/BourbonStreetSaloon","tier":"","message":"","currency":"","rating":6.8},{"name":"Moe's Bar and Grill","phone":"7177370845","address":"4709 Gettysburg Rd","lat":40.212290589924,"lng":-76.95788387111426,"city_fetched":"Harrisburg,US","state":"PA","country":"United States","canonicalUrl":"https://foursquare.com/v/moes-bar-and-grill/4b5281bbf964a520588027e3","categoryId":"4bf58dd8d48988d11b941735","category":"Pub","checkinsCount":1594,"usersCount":665,"tipCount":17,"visitsCount":2176,"tier":2,"message":"Moderate","currency":"$","rating":6.8},{"name":"Beer Zoo","phone":"7175612217","address":"6301 Grayson Rd","lat":40.2608128,"lng":-76.77674639,"city_fetched":"Harrisburg,US","state":"PA","country":"United States","canonicalUrl":"https://foursquare.com/v/beer-zoo/4c029c35f423a593bc01cf16","categoryId":"4bf58dd8d48988d11a941735","category":"Other Nightlife","checkinsCount":516,"usersCount":262,"tipCount":4,"visitsCount":517,"tier":"","message":"","currency":"","rating":6.8},{"name":"T. Brendan O'Reilly's Tap Room & Kitchen","phone":"7175642700","address":"800 E Park Dr","lat":40.274070214025556,"lng":-76.81523248386308,"city_fetched":"Harrisburg,US","state":"PA","country":"United States","canonicalUrl":"https://foursquare.com/v/t-brendan-oreillys-tap-room--kitchen/4bf459ce2d629521671c6058","categoryId":"4bf58dd8d48988d11b941735","category":"Pub","checkinsCount":1013,"usersCount":616,"tipCount":11,"visitsCount":1170,"url":"http://www.oreillystaproom.com","tier":1,"message":"Cheap","currency":"$","rating":6.6},{"name":"Sierra Madre Saloon","phone":"7177309140","address":"4035 Market St","lat":40.23798237,"lng":-76.95183634757996,"city_fetched":"Harrisburg,US","state":"PA","country":"United States","canonicalUrl":"https://foursquare.com/v/sierra-madre-saloon/4baffce3f964a52058303ce3","categoryId":"4bf58dd8d48988d116941735","category":"Bar","checkinsCount":705,"usersCount":401,"tipCount":9,"visitsCount":766,"url":"http://www.sierramadresaloon.com","tier":"","message":"","currency":"","rating":6.6},{"name":"Zembie's Sports Tavern","phone":"7172325020","twitter":"zembiestavern","address":"226 N 2nd St","lat":40.26150834024684,"lng":-76.8847886256323,"neighborhood":"Downtown Harrisburg","city_fetched":"Harrisburg,US","state":"PA","country":"United States","canonicalUrl":"https://foursquare.com/v/zembies-sports-tavern/4b133615f964a520939523e3","categoryId":"4bf58dd8d48988d11d941735","category":"Sports Bar","checkinsCount":3537,"usersCount":822,"tipCount":17,"visitsCount":3618,"url":"http://zembiessportstavern.com","tier":1,"message":"Cheap","currency":"$","rating":6.6},{"name":"Arooga's Rt 22","phone":"7179209464","twitter":"aroogas","address":"7025 Allentown Blvd","lat":40.329662594560396,"lng":-76.75417548997449,"city_fetched":"Harrisburg,US","state":"PA","country":"United States","canonicalUrl":"https://foursquare.com/v/aroogas-rt-22/4b5a4046f964a5208cb728e3","categoryId":"4bf58dd8d48988d11d941735","category":"Sports Bar","checkinsCount":5821,"usersCount":2075,"tipCount":46,"visitsCount":6674,"url":"http://www.aroogas.com","tier":2,"message":"Moderate","currency":"$","rating":6.5},{"name":"Blarney's Twisted Irish Pub","address":"5401 Carlisle Pike","lat":40.24042269589337,"lng":-76.98157361420319,"city_fetched":"Harrisburg,US","state":"PA","country":"United States","canonicalUrl":"https://foursquare.com/v/blarneys-twisted-irish-pub/54582120498e6d73508f7910","categoryId":"4bf58dd8d48988d11b941735","category":"Pub","checkinsCount":205,"usersCount":119,"tipCount":3,"visitsCount":224,"tier":"","message":"","currency":"","rating":6.5},{"name":"Sawyers","phone":"7172324499","address":"210 N 2nd St","lat":40.261153,"lng":-76.8843181,"neighborhood":"Downtown Harrisburg","city_fetched":"Harrisburg,US","state":"PA","country":"United States","canonicalUrl":"https://foursquare.com/v/sawyers/4b99d6aff964a520059435e3","categoryId":"4bf58dd8d48988d116941735","category":"Bar","checkinsCount":3453,"usersCount":1320,"tipCount":13,"visitsCount":3500,"url":"http://www.downtownafterdark.com/sawyers","tier":2,"message":"Moderate","currency":"$","rating":6.4},{"name":"ليالي الشرق  Hookah Lounge","phone":"7175651150","address":"2810 Paxton St","lat":40.256237,"lng":-76.840444,"neighborhood":"South Harrisburg","city_fetched":"Harrisburg,US","state":"PA","country":"United States","canonicalUrl":"https://foursquare.com/v/%D9%84%D9%8A%D8%A7%D9%84%D9%8A-%D8%A7%D9%84%D8%B4%D8%B1%D9%82--hookah-lounge/51c253d9498ef962cc540e4d","categoryId":"4bf58dd8d48988d119941735","category":"Hookah Bar","checkinsCount":42,"usersCount":31,"tipCount":4,"visitsCount":42,"tier":"","message":"","currency":"","rating":6.4},{"name":"Arooga's Rt 2","phone":"7179018277","twitter":"aroogas","address":"201 N 2nd St","lat":40.26111504691707,"lng":-76.88390672206879,"neighborhood":"Central Business District","city_fetched":"Harrisburg,US","state":"PA","country":"United States","canonicalUrl":"https://foursquare.com/v/aroogas-rt-2/4ec722c6c2eec7ea95add730","categoryId":"4bf58dd8d48988d11d941735","category":"Sports Bar","checkinsCount":3747,"usersCount":1602,"tipCount":28,"visitsCount":4022,"url":"http://www.aroogas.com","tier":2,"message":"Moderate","currency":"$","rating":6.4},{"name":"Dog & Pony","address":"4650 Lindle Rd","lat":40.24374127963974,"lng":-76.80336935933857,"city_fetched":"Harrisburg,US","state":"PA","country":"United States","canonicalUrl":"https://foursquare.com/v/dog--pony/4bbd048c078095210315da91","categoryId":"4bf58dd8d48988d1d5941735","category":"Hotel Bar","checkinsCount":575,"usersCount":301,"tipCount":10,"visitsCount":579,"tier":"","message":"","currency":"","rating":6.3},{"name":"Susquehanna Ale House 22","phone":"7175450749","twitter":"ssqhnalehouse22","address":"4920 Jonestown Rd","lat":40.30614919450002,"lng":-76.80634369618699,"city_fetched":"Harrisburg,US","state":"PA","country":"United States","canonicalUrl":"https://foursquare.com/ssqhnalehouse22","categoryId":"4bf58dd8d48988d11b941735","category":"Pub","checkinsCount":665,"usersCount":248,"tipCount":27,"visitsCount":724,"url":"http://www.susquehannaalehouse.com/harrisburg","tier":"","message":"","currency":"","rating":6.2},{"name":"Stallions","phone":"7172323060","address":"706 N 3rd St","lat":40.2654011840078,"lng":-76.88591453658277,"neighborhood":"Capital District","city_fetched":"Harrisburg,US","state":"PA","country":"United States","canonicalUrl":"https://foursquare.com/v/stallions/4b80adccf964a520a58530e3","categoryId":"4bf58dd8d48988d1d8941735","category":"Gay Bar","checkinsCount":2765,"usersCount":596,"tipCount":11,"visitsCount":2843,"url":"http://stallionsclub.com","tier":2,"message":"Moderate","currency":"$","rating":6.2},{"name":"Hardware Bar","phone":"7173334324","twitter":"hbg_hardwarebar","address":"236 N 2nd St","lat":40.261759988821176,"lng":-76.88518832519728,"neighborhood":"Downtown Harrisburg","city_fetched":"Harrisburg,US","state":"PA","country":"United States","canonicalUrl":"https://foursquare.com/v/hardware-bar/4b92ce6df964a5209f1d34e3","categoryId":"4bf58dd8d48988d116941735","category":"Bar","checkinsCount":1252,"usersCount":540,"tipCount":6,"visitsCount":1252,"tier":"","message":"","currency":"","rating":6.2},{"name":"Gingerbread Man Downtown","phone":"7172218400","twitter":"gmandowntown","address":"312 Market St","lat":40.26139826163751,"lng":-76.8805213297851,"neighborhood":"Downtown Harrisburg","city_fetched":"Harrisburg,US","state":"PA","country":"United States","canonicalUrl":"https://foursquare.com/gmandowntown","categoryId":"4bf58dd8d48988d116941735","category":"Bar","checkinsCount":1349,"usersCount":525,"tipCount":24,"visitsCount":1351,"tier":"","message":"","currency":"","rating":6.2},{"name":"Mount Hill Tavern","phone":"7175406840","address":"2120 Colonial Rd","lat":40.33348,"lng":-76.82608,"city_fetched":"Harrisburg,US","state":"PA","country":"United States","canonicalUrl":"https://foursquare.com/v/mount-hill-tavern/4bd635594e32d13a1959c280","categoryId":"4bf58dd8d48988d11e941735","category":"Cocktail Bar","checkinsCount":595,"usersCount":331,"tipCount":6,"visitsCount":665,"url":"http://mounthilltavern.com","tier":"","message":"","currency":"","rating":6.1},{"name":"Double D Bar & Grille","phone":"2343353","address":"564 S 19th St.","lat":40.2596922048081,"lng":-76.85719496695313,"city_fetched":"Harrisburg,US","state":"PA","country":"United States","canonicalUrl":"https://foursquare.com/v/double-d-bar--grille/4d61757c29ef236a9435b159","categoryId":"4bf58dd8d48988d116941735","category":"Bar","checkinsCount":200,"usersCount":61,"tipCount":8,"visitsCount":250,"tier":"","message":"","currency":"","rating":6},{"name":"The Pour House","phone":"7175580818","address":"6200 Derry St","lat":40.26413311158942,"lng":-76.78031584227604,"neighborhood":"Rutherford Heights","city_fetched":"Harrisburg,US","state":"PA","country":"United States","canonicalUrl":"https://foursquare.com/v/the-pour-house/4efb99710aafc586942e364f","categoryId":"4bf58dd8d48988d116941735","category":"Bar","checkinsCount":587,"usersCount":323,"tipCount":5,"visitsCount":732,"url":"http://thepourhouseonderry.com","tier":"","message":"","currency":"","rating":6},{"name":"Nathan's","phone":"7177287526","address":"205 N Enola Rd","lat":40.29405294,"lng":-76.93013311666667,"city_fetched":"Harrisburg,US","state":"PA","country":"United States","canonicalUrl":"https://foursquare.com/v/nathans/4bcbd67b0687ef3b2981decc","categoryId":"4bf58dd8d48988d118941735","category":"Dive Bar","checkinsCount":836,"usersCount":217,"tipCount":9,"visitsCount":961,"url":"http://www.nathanscafe.com","tier":"","message":"","currency":"","rating":6},{"name":"Angie's Bar & Grill","phone":"7179390417","address":"1360 Eisenhower Blvd","lat":40.225873448597994,"lng":-76.79583743499172,"city_fetched":"Harrisburg,US","state":"PA","country":"United States","canonicalUrl":"https://foursquare.com/v/angies-bar--grill/4b2b828af964a520feb624e3","categoryId":"4bf58dd8d48988d116941735","category":"Bar","checkinsCount":651,"usersCount":327,"tipCount":1,"visitsCount":875,"tier":"","message":"","currency":"","rating":5.9},{"name":"Ceoltas Irish Pub","phone":"7172333202","twitter":"ceoltasirishpub","address":"310 N 2nd St","lat":40.262106181903924,"lng":-76.8857569096689,"neighborhood":"Downtown Harrisburg","city_fetched":"Harrisburg,US","state":"PA","country":"United States","canonicalUrl":"https://foursquare.com/v/ceoltas-irish-pub/4b92cc79f964a520d81c34e3","categoryId":"4bf58dd8d48988d116941735","category":"Bar","checkinsCount":4393,"usersCount":1643,"tipCount":20,"visitsCount":4498,"url":"http://www.ceoltasirishpub.com","tier":2,"message":"Moderate","currency":"$","rating":5.8},{"name":"Susquehanna Ale House","phone":"7173334324","address":"236 N 2nd St","lat":40.26179701873271,"lng":-76.88535158239321,"neighborhood":"Downtown Harrisburg","city_fetched":"Harrisburg,US","state":"PA","country":"United States","canonicalUrl":"https://foursquare.com/v/susquehanna-ale-house/5126eaa3e4b0b2427beaade2","categoryId":"4bf58dd8d48988d117941735","category":"Beer Garden","checkinsCount":677,"usersCount":302,"tipCount":5,"visitsCount":735,"url":"http://www.susquehannaalehouse.com/downtownharrisburg","tier":"","message":"","currency":"","rating":5.6},{"name":"Rods Roadhouse","address":"1031 Eisenhower Blvd","lat":40.23489455,"lng":-76.80321,"city_fetched":"Harrisburg,US","state":"PA","country":"United States","canonicalUrl":"https://foursquare.com/v/rods-roadhouse/4c37b8b5dfb0e21e175aada8","categoryId":"4bf58dd8d48988d116941735","category":"Bar","checkinsCount":336,"usersCount":158,"tipCount":4,"visitsCount":364,"tier":"","message":"","currency":"","rating":5.3}]