[{"name":"The Half Door","phone":"8602327827","twitter":"the_halfdoor","address":"270 Sisson Ave","lat":41.76637018156617,"lng":-72.70724244827213,"neighborhood":"West End","city_fetched":"Hartford,US","state":"CT","country":"United States","canonicalUrl":"https://foursquare.com/v/the-half-door/4b5c9759f964a520843829e3","categoryId":"4bf58dd8d48988d11b941735","category":"Pub","checkinsCount":6856,"usersCount":2058,"tipCount":39,"visitsCount":7591,"url":"http://www.thehalfdoorhfd.com","tier":2,"message":"Moderate","currency":"$","rating":9},{"name":"The Corner Pug","phone":"8602310241","twitter":"cornerpug","address":"1046 New Britain Ave","lat":41.730534383333335,"lng":-72.72554075,"city_fetched":"Hartford,US","state":"CT","country":"United States","canonicalUrl":"https://foursquare.com/cornerpug","categoryId":"4bf58dd8d48988d11b941735","category":"Pub","checkinsCount":2925,"usersCount":1682,"tipCount":37,"visitsCount":3434,"url":"http://www.cornerpug.com","tier":2,"message":"Moderate","currency":"$","rating":8.8},{"name":"Vaughan's Public House","phone":"8608821560","twitter":"vaughanspub","address":"59 Pratt St","lat":41.76757,"lng":-72.674386,"neighborhood":"Downtown Hartford","city_fetched":"Hartford,US","state":"CT","country":"United States","canonicalUrl":"https://foursquare.com/v/vaughans-public-house/4b535106f964a520069727e3","categoryId":"4bf58dd8d48988d11b941735","category":"Pub","checkinsCount":3676,"usersCount":1422,"tipCount":28,"visitsCount":3867,"url":"http://irishpublichouse.com","tier":2,"message":"Moderate","currency":"$","rating":8.7},{"name":"Little River Restoratives","phone":"8604030340","address":"405 Capitol Ave","lat":41.763705,"lng":-72.689025,"city_fetched":"Hartford,US","state":"CT","country":"United States","canonicalUrl":"https://foursquare.com/v/little-river-restoratives/5642673e498ee124a7098a40","categoryId":"4bf58dd8d48988d1d4941735","category":"Speakeasy","checkinsCount":197,"usersCount":145,"tipCount":8,"visitsCount":388,"url":"http://lrrhartford.com","tier":"","message":"","currency":"","rating":8.7},{"name":"Brew & Wine Hobby","phone":"8605280592","twitter":"brewwinehobby","address":"12 Cedar St","lat":41.77469806727786,"lng":-72.65546615138514,"city_fetched":"Hartford,US","state":"CT","country":"United States","canonicalUrl":"https://foursquare.com/v/brew--wine-hobby/512fdd35e4b01507d8c9ccfd","categoryId":"50327c8591d4c4b30a586d5d","category":"Brewery","checkinsCount":82,"usersCount":105,"tipCount":5,"visitsCount":231,"url":"http://brew-wine.com","tier":"","message":"","currency":"","rating":8.5},{"name":"City Steam Brewery","phone":"8605251600","twitter":"citysteam","address":"942 Main St","lat":41.767828792025725,"lng":-72.67313987258986,"neighborhood":"Downtown Hartford","city_fetched":"Hartford,US","state":"CT","country":"United States","canonicalUrl":"https://foursquare.com/v/city-steam-brewery/4acbf927f964a5207dc820e3","categoryId":"50327c8591d4c4b30a586d5d","category":"Brewery","checkinsCount":8462,"usersCount":5097,"tipCount":96,"visitsCount":9223,"url":"http://www.citysteambrewerycafe.com","tier":2,"message":"Moderate","currency":"$","rating":8.1},{"name":"Sliders Grill & Bar","phone":"8608299292","address":"197 Episcopal Rd","lat":41.646486,"lng":-72.73655298333334,"city_fetched":"Hartford,US","state":"CT","country":"United States","canonicalUrl":"https://foursquare.com/v/sliders-grill--bar/4b636e8cf964a5205a792ae3","categoryId":"4bf58dd8d48988d11d941735","category":"Sports Bar","checkinsCount":2759,"usersCount":1236,"tipCount":33,"visitsCount":3398,"url":"http://www.slidersgrillbar.com","tier":"","message":"","currency":"","rating":8.1},{"name":"Nutshell Cafe","phone":"8609562836","address":"229 White St","lat":41.734461,"lng":-72.696709,"city_fetched":"Hartford,US","state":"CT","country":"United States","canonicalUrl":"https://foursquare.com/v/nutshell-cafe/4c37a2a918e72d7f77e916f5","categoryId":"4bf58dd8d48988d11b941735","category":"Pub","checkinsCount":141,"usersCount":133,"tipCount":4,"visitsCount":252,"url":"http://nutshellcafe.net","tier":"","message":"","currency":"","rating":8.1},{"name":"Spigot Cafe","address":"468 Prospect Ave","lat":41.760902,"lng":-72.715308,"city_fetched":"Hartford,US","state":"CT","country":"United States","canonicalUrl":"https://foursquare.com/v/spigot-cafe/4b36ba71f964a520723b25e3","categoryId":"4bf58dd8d48988d11d941735","category":"Sports Bar","checkinsCount":1464,"usersCount":679,"tipCount":12,"visitsCount":1609,"tier":1,"message":"Cheap","currency":"$","rating":8},{"name":"Thomas Hooker Brewery","phone":"8602423111","twitter":"hookerbeer","address":"16 Tobey Rd","lat":41.8089226,"lng":-72.710528,"city_fetched":"Hartford,US","state":"CT","country":"United States","canonicalUrl":"https://foursquare.com/v/thomas-hooker-brewery/4b91a808f964a52077cd33e3","categoryId":"50327c8591d4c4b30a586d5d","category":"Brewery","checkinsCount":1806,"usersCount":1401,"tipCount":16,"visitsCount":2054,"url":"http://www.hookerbeer.com","tier":2,"message":"Moderate","currency":"$","rating":7.9},{"name":"Dish Bar & Grill","phone":"8602493474","twitter":"dishbg","address":"900 Main St","lat":41.76760964101983,"lng":-72.67324379804893,"neighborhood":"Downtown Hartford","city_fetched":"Hartford,US","state":"CT","country":"United States","canonicalUrl":"https://foursquare.com/v/dish-bar--grill/4b17182df964a52036c223e3","categoryId":"4bf58dd8d48988d116941735","category":"Bar","checkinsCount":2377,"usersCount":1258,"tipCount":18,"visitsCount":2411,"url":"http://www.dishbarandgrill.com","tier":2,"message":"Moderate","currency":"$","rating":7.8},{"name":"Roma Sports Bar & Grill","phone":"8602257947","twitter":"romasportsbar","address":"382 Allen St","lat":41.68307758,"lng":-72.773706,"city_fetched":"Hartford,US","state":"CT","country":"United States","canonicalUrl":"https://foursquare.com/romasportsbar","categoryId":"4bf58dd8d48988d11d941735","category":"Sports Bar","checkinsCount":2087,"usersCount":325,"tipCount":12,"visitsCount":2323,"url":"http://www.romanewbritain.com","tier":2,"message":"Moderate","currency":"$","rating":7.8},{"name":"Sidewalk Cafe","phone":"8609568192","address":"236 South St","lat":41.73454658925195,"lng":-72.6815519230401,"neighborhood":"South End","city_fetched":"Hartford,US","state":"CT","country":"United States","canonicalUrl":"https://foursquare.com/v/sidewalk-cafe/4be4ce5fd4f7c9b65ec02420","categoryId":"4bf58dd8d48988d116941735","category":"Bar","checkinsCount":762,"usersCount":379,"tipCount":7,"visitsCount":914,"url":"http://sidewalkbar.com","tier":"","message":"","currency":"","rating":7.8},{"name":"Vibz Uptown","address":"3155 Main St","lat":41.7948753162167,"lng":-72.66532802022384,"neighborhood":"North End","city_fetched":"Hartford,US","state":"CT","country":"United States","canonicalUrl":"https://foursquare.com/v/vibz-uptown/4c784e87794e224b59d06128","categoryId":"4bf58dd8d48988d121941735","category":"Lounge","checkinsCount":114,"usersCount":91,"tipCount":1,"visitsCount":135,"tier":"","message":"","currency":"","rating":7.7},{"name":"Sliders Grill & Bar","phone":"8602339000","address":"176 Newington Rd","lat":41.72508962700527,"lng":-72.73150459246202,"city_fetched":"Hartford,US","state":"CT","country":"United States","canonicalUrl":"https://foursquare.com/v/sliders-grill--bar/51d311f8498e780b2916f726","categoryId":"4bf58dd8d48988d116941735","category":"Bar","checkinsCount":1079,"usersCount":451,"tipCount":19,"visitsCount":1286,"url":"https://www.slidersgrillbar.com","tier":2,"message":"Moderate","currency":"$","rating":7.7},{"name":"Back East Brewery","phone":"8602421793","address":"1296 Blue Hills Ave Ste A","lat":41.855116583289885,"lng":-72.7050141155523,"city_fetched":"Hartford,US","state":"CT","country":"United States","canonicalUrl":"https://foursquare.com/v/back-east-brewery/4fcbc4efe4b01f9ce4191dee","categoryId":"50327c8591d4c4b30a586d5d","category":"Brewery","checkinsCount":423,"usersCount":303,"tipCount":3,"visitsCount":496,"url":"http://backeastbrewing.com","tier":"","message":"","currency":"","rating":7.7},{"name":"Brickhouse","phone":"8606672112","address":"80 Market Sq","lat":41.69681341059158,"lng":-72.72142595719814,"city_fetched":"Hartford,US","state":"CT","country":"United States","canonicalUrl":"https://foursquare.com/v/brickhouse/4b8df946f964a520fa1433e3","categoryId":"4bf58dd8d48988d116941735","category":"Bar","checkinsCount":566,"usersCount":234,"tipCount":5,"visitsCount":613,"url":"http://thebrickhousect.com","tier":"","message":"","currency":"","rating":7.7},{"name":"Koji","phone":"8602475654","address":"17 Asylum St","lat":41.76683534986349,"lng":-72.67355557417018,"neighborhood":"Downtown Hartford","city_fetched":"Hartford,US","state":"CT","country":"United States","canonicalUrl":"https://foursquare.com/v/koji/4b359437f964a520f92d25e3","categoryId":"4bf58dd8d48988d11c941735","category":"Sake Bar","checkinsCount":2006,"usersCount":698,"tipCount":26,"visitsCount":2020,"tier":2,"message":"Moderate","currency":"$","rating":7.6},{"name":"Hartford Road Cafe","phone":"8606461044","address":"378 Hartford Rd","lat":41.764293831866674,"lng":-72.53787517547607,"city_fetched":"Hartford,US","state":"CT","country":"United States","canonicalUrl":"https://foursquare.com/v/hartford-road-cafe/4b893d77f964a5204c2532e3","categoryId":"4bf58dd8d48988d11b941735","category":"Pub","checkinsCount":1108,"usersCount":368,"tipCount":9,"visitsCount":1401,"url":"http://www.hartfordroadcafe.com","tier":2,"message":"Moderate","currency":"$","rating":7.6},{"name":"Piggy's Cafe","phone":"8609538660","address":"69 Hawthorn St","lat":41.76389770467923,"lng":-72.69680678844452,"neighborhood":"Asylum Hill","city_fetched":"Hartford,US","state":"CT","country":"United States","canonicalUrl":"https://foursquare.com/v/piggys-cafe/4bbf536c30c99c74fdf65411","categoryId":"4bf58dd8d48988d116941735","category":"Bar","checkinsCount":366,"usersCount":128,"tipCount":9,"visitsCount":452,"tier":"","message":"","currency":"","rating":7.6},{"name":"Cloud 9 Lounge","phone":"8605256839","address":"7 Congress St","lat":41.75512489278965,"lng":-72.67651165460946,"city_fetched":"Hartford,US","state":"CT","country":"United States","canonicalUrl":"https://foursquare.com/v/cloud-9-lounge/4b91a10cf964a5202ecb33e3","categoryId":"4bf58dd8d48988d116941735","category":"Bar","checkinsCount":220,"usersCount":202,"tipCount":3,"visitsCount":303,"url":"http://thecloudct.com","tier":"","message":"","currency":"","rating":7.5},{"name":"Bin 228","phone":"8602449463","twitter":"bin2281","address":"228 Pearl St","lat":41.76665871682071,"lng":-72.67772987302372,"neighborhood":"Downtown Hartford","city_fetched":"Hartford,US","state":"CT","country":"United States","canonicalUrl":"https://foursquare.com/v/bin-228/4b6c8f7ef964a5202c432ce3","categoryId":"4bf58dd8d48988d123941735","category":"Wine Bar","checkinsCount":985,"usersCount":510,"tipCount":16,"visitsCount":1052,"url":"http://www.bin228winebar.com","tier":2,"message":"Moderate","currency":"$","rating":7.5},{"name":"Red Rock Tavern","phone":"8602464527","address":"369 Capitol Ave","lat":41.76387306666667,"lng":-72.687884,"city_fetched":"Hartford,US","state":"CT","country":"United States","canonicalUrl":"https://foursquare.com/v/red-rock-tavern/4ba80e94f964a520a1c939e3","categoryId":"4bf58dd8d48988d116941735","category":"Bar","checkinsCount":620,"usersCount":290,"tipCount":10,"visitsCount":632,"url":"http://redrocktavern.com","tier":"","message":"","currency":"","rating":7.5},{"name":"Still Hill Brewery","address":"1275 Cromwell Ave","lat":41.63531930900624,"lng":-72.67678878538028,"city_fetched":"Hartford,US","state":"CT","country":"United States","canonicalUrl":"https://foursquare.com/v/still-hill-brewery/56b3aa81498e295f01df02b9","categoryId":"50327c8591d4c4b30a586d5d","category":"Brewery","checkinsCount":79,"usersCount":119,"tipCount":4,"visitsCount":223,"tier":"","message":"","currency":"","rating":7.4},{"name":"Hog River Brewing Co.","address":"1429 Park St.","lat":41.757011,"lng":-72.701799,"neighborhood":"Parkville","city_fetched":"Hartford,US","state":"CT","country":"United States","canonicalUrl":"https://foursquare.com/v/hog-river-brewing-co/57b89165498e5f6a80046c0d","categoryId":"50327c8591d4c4b30a586d5d","category":"Brewery","checkinsCount":33,"usersCount":20,"tipCount":1,"visitsCount":35,"tier":"","message":"","currency":"","rating":7.2},{"name":"Elmer's Place","phone":"8602257881","twitter":"elmers_place","address":"1427 East St","lat":41.69149308558677,"lng":-72.75957369580826,"city_fetched":"Hartford,US","state":"CT","country":"United States","canonicalUrl":"https://foursquare.com/v/elmers-place/4b4bbab7f964a5208ca526e3","categoryId":"4bf58dd8d48988d116941735","category":"Bar","checkinsCount":1924,"usersCount":658,"tipCount":14,"visitsCount":2467,"tier":1,"message":"Cheap","currency":"$","rating":7.2},{"name":"Arch Street Tavern","phone":"8602467610","address":"85 Arch St","lat":41.761834,"lng":-72.670958,"neighborhood":"Downtown Hartford","city_fetched":"Hartford,US","state":"CT","country":"United States","canonicalUrl":"https://foursquare.com/v/arch-street-tavern/4b636fd2f964a520be792ae3","categoryId":"4bf58dd8d48988d116941735","category":"Bar","checkinsCount":2564,"usersCount":1453,"tipCount":25,"visitsCount":2629,"url":"http://archstreettavern.com","tier":"","message":"","currency":"","rating":7.1},{"name":"1001 Arabian Nights","phone":"8605237900","address":"134 Park Rd","lat":41.75795845,"lng":-72.72066671666667,"city_fetched":"Hartford,US","state":"CT","country":"United States","canonicalUrl":"https://foursquare.com/v/1001-arabian-nights/4c0b0185009a0f47aa80eabf","categoryId":"4bf58dd8d48988d119941735","category":"Hookah Bar","checkinsCount":958,"usersCount":404,"tipCount":9,"visitsCount":961,"tier":"","message":"","currency":"","rating":7.1},{"name":"La Casona Restaurant & Night Club","phone":"8602969929","address":"681 Wethersfield Ave","lat":41.73720476503463,"lng":-72.67150592782163,"neighborhood":"South End","city_fetched":"Hartford,US","state":"CT","country":"United States","canonicalUrl":"https://foursquare.com/v/la-casona-restaurant--night-club/4c617544cd522d7f0d89d03f","categoryId":"4bf58dd8d48988d11f941735","category":"Nightclub","checkinsCount":327,"usersCount":261,"tipCount":7,"visitsCount":478,"tier":"","message":"","currency":"","rating":7.1},{"name":"Federal Cafe","phone":"8605270394","address":"84 Union Pl","lat":41.76968774110951,"lng":-72.68104385929867,"neighborhood":"Downtown Hartford","city_fetched":"Hartford,US","state":"CT","country":"United States","canonicalUrl":"https://foursquare.com/v/federal-cafe/4b9bca90f964a520882536e3","categoryId":"4bf58dd8d48988d116941735","category":"Bar","checkinsCount":872,"usersCount":315,"tipCount":2,"visitsCount":1126,"url":"http://federalcafe.com","tier":"","message":"","currency":"","rating":7},{"name":"Lyme Bar & Grill","phone":"8606741700","twitter":"lymegrill","address":"136 Simsbury Rd","lat":41.818829,"lng":-72.828567,"city_fetched":"Hartford,US","state":"CT","country":"United States","canonicalUrl":"https://foursquare.com/v/lyme-bar--grill/4e4029c7b0fb875af884fe12","categoryId":"4bf58dd8d48988d116941735","category":"Bar","checkinsCount":722,"usersCount":344,"tipCount":9,"visitsCount":805,"url":"http://www.lymegrill.com","tier":2,"message":"Moderate","currency":"$","rating":7},{"name":"Pigs Eye Pub","phone":"8602784747","address":"356 Asylum St","lat":41.76767727018597,"lng":-72.67949079448407,"neighborhood":"Downtown Hartford","city_fetched":"Hartford,US","state":"CT","country":"United States","canonicalUrl":"https://foursquare.com/v/pigs-eye-pub/4b7f1581f964a520451530e3","categoryId":"4bf58dd8d48988d116941735","category":"Bar","checkinsCount":6072,"usersCount":2164,"tipCount":25,"visitsCount":6233,"url":"http://pigseyepub.com","tier":2,"message":"Moderate","currency":"$","rating":6.9},{"name":"Butterfly Karaoke","address":"831 Farmington Ave","lat":41.763957,"lng":-72.73115371666667,"city_fetched":"Hartford,US","state":"CT","country":"United States","canonicalUrl":"https://foursquare.com/v/butterfly-karaoke/4b76309ff964a52083422ee3","categoryId":"4bf58dd8d48988d120941735","category":"Karaoke Bar","checkinsCount":681,"usersCount":375,"tipCount":4,"visitsCount":729,"tier":"","message":"","currency":"","rating":6.8},{"name":"The Russian Lady","phone":"8602476257","address":"191 Ann St","lat":41.76792987284876,"lng":-72.67788575836897,"neighborhood":"Downtown Hartford","city_fetched":"Hartford,US","state":"CT","country":"United States","canonicalUrl":"https://foursquare.com/v/the-russian-lady/4e9cad50be7beb6fef9e6c8c","categoryId":"4bf58dd8d48988d116941735","category":"Bar","checkinsCount":4789,"usersCount":2314,"tipCount":22,"visitsCount":4972,"url":"http://therussianladyhartford.com","tier":2,"message":"Moderate","currency":"$","rating":6.7},{"name":"Chez Est","phone":"8605253243","address":"Wethersfield Ave","lat":41.74337321508485,"lng":-72.67262024465478,"neighborhood":"South End","city_fetched":"Hartford,US","state":"CT","country":"United States","canonicalUrl":"https://foursquare.com/v/chez-est/4bee2cd250669c74277548fb","categoryId":"4bf58dd8d48988d1d8941735","category":"Gay Bar","checkinsCount":899,"usersCount":360,"tipCount":10,"visitsCount":1189,"url":"http://chezest.com","tier":2,"message":"Moderate","currency":"$","rating":6.7},{"name":"Tilted Kilt Wethersfield","phone":"8602578458","twitter":"tiltedkiltpub","address":"1151 Silas Deane Hwy","lat":41.69004598858937,"lng":-72.65634957796165,"city_fetched":"Hartford,US","state":"CT","country":"United States","canonicalUrl":"https://foursquare.com/v/tilted-kilt-wethersfield/4ec09fb72c5b252c1a045ecc","categoryId":"4bf58dd8d48988d11b941735","category":"Pub","checkinsCount":2396,"usersCount":1484,"tipCount":27,"visitsCount":2906,"url":"http://www.tiltedkilt.com","tier":2,"message":"Moderate","currency":"$","rating":6.7},{"name":"Pool Factory","phone":"8606436944","address":"1131 Tolland Tpke","lat":41.797076323168874,"lng":-72.55292179544223,"city_fetched":"Hartford,US","state":"CT","country":"United States","canonicalUrl":"https://foursquare.com/v/pool-factory/4b611f8cf964a520730a2ae3","categoryId":"4bf58dd8d48988d11d941735","category":"Sports Bar","checkinsCount":1102,"usersCount":495,"tipCount":4,"visitsCount":1271,"tier":"","message":"","currency":"","rating":6.6},{"name":"Black Bear Saloon","phone":"8605248888","twitter":"bbhartford","address":"187 Allyn St","lat":41.76871059626636,"lng":-72.68069167815126,"neighborhood":"Downtown Hartford","city_fetched":"Hartford,US","state":"CT","country":"United States","canonicalUrl":"https://foursquare.com/v/black-bear-saloon/4b32ba14f964a520b71225e3","categoryId":"4bf58dd8d48988d116941735","category":"Bar","checkinsCount":6253,"usersCount":2944,"tipCount":40,"visitsCount":6622,"url":"http://www.blackbearhartford.com","tier":2,"message":"Moderate","currency":"$","rating":6.6},{"name":"Top Shelf Brewery","phone":"8606804105","address":"640 Hilliard St","lat":41.7848239048305,"lng":-72.55140261358201,"city_fetched":"Hartford,US","state":"CT","country":"United States","canonicalUrl":"https://foursquare.com/v/top-shelf-brewery/51ca0d6c498e7d5d5351f450","categoryId":"50327c8591d4c4b30a586d5d","category":"Brewery","checkinsCount":184,"usersCount":103,"tipCount":4,"visitsCount":217,"url":"http://www.topshelfbrewery.com","tier":"","message":"","currency":"","rating":6.5},{"name":"Gold Club","phone":"8602475510","address":"145 W Service Rd","lat":41.81708126216506,"lng":-72.67540312849079,"city_fetched":"Hartford,US","state":"CT","country":"United States","canonicalUrl":"https://foursquare.com/v/gold-club/4bd3c617b221c9b615a0dad0","categoryId":"4bf58dd8d48988d1d6941735","category":"Strip Club","checkinsCount":1471,"usersCount":670,"tipCount":13,"visitsCount":1726,"url":"http://goldclubgirls.com","tier":"","message":"","currency":"","rating":6.5},{"name":"The Polo Club","phone":"8602783333","address":"678 Maple Ave","lat":41.741839,"lng":-72.683225,"neighborhood":"South End","city_fetched":"Hartford,US","state":"CT","country":"United States","canonicalUrl":"https://foursquare.com/v/the-polo-club/4b809867f964a520bf7f30e3","categoryId":"4bf58dd8d48988d1d8941735","category":"Gay Bar","checkinsCount":589,"usersCount":337,"tipCount":5,"visitsCount":627,"tier":"","message":"","currency":"","rating":6.5},{"name":"Red's Tavern","phone":"8602827337","twitter":"redstavernct","address":"100 Bidwell Rd","lat":41.82999455060254,"lng":-72.60899822244374,"city_fetched":"Hartford,US","state":"CT","country":"United States","canonicalUrl":"https://foursquare.com/v/reds-tavern/4cddeb12f8a4a1436c7fd3bc","categoryId":"4bf58dd8d48988d11d941735","category":"Sports Bar","checkinsCount":622,"usersCount":203,"tipCount":13,"visitsCount":622,"url":"http://www.redstavernct.com","tier":"","message":"","currency":"","rating":6.5},{"name":"Arch II Sports Bar & Grill","phone":"8605630197","address":"632 Cromwell Ave","lat":41.65323015597315,"lng":-72.67879797438904,"city_fetched":"Hartford,US","state":"CT","country":"United States","canonicalUrl":"https://foursquare.com/v/arch-ii-sports-bar--grill/4bfb3939633d9c74f83a0843","categoryId":"4bf58dd8d48988d11d941735","category":"Sports Bar","checkinsCount":628,"usersCount":357,"tipCount":4,"visitsCount":674,"url":"http://arch2sportsbarandgrill.com","tier":"","message":"","currency":"","rating":6.4},{"name":"7 Sins Lounge & Bar","phone":"8609045783","address":"76 Union Pl","lat":41.76924721584188,"lng":-72.68131971359253,"neighborhood":"Downtown Hartford","city_fetched":"Hartford,US","state":"CT","country":"United States","canonicalUrl":"https://foursquare.com/v/7-sins-lounge--bar/51928f577dd2e97f4528b345","categoryId":"4bf58dd8d48988d121941735","category":"Lounge","checkinsCount":84,"usersCount":46,"tipCount":1,"visitsCount":86,"tier":"","message":"","currency":"","rating":6.3},{"name":"The Tavern Downtown","phone":"8605249990","twitter":"hiltonhotels","address":"201 Ann St","lat":41.76830504860296,"lng":-72.67789153189844,"neighborhood":"Downtown Hartford","city_fetched":"Hartford,US","state":"CT","country":"United States","canonicalUrl":"https://foursquare.com/v/the-tavern-downtown/50ca02bd245f2d4aa8c2a8a6","categoryId":"4bf58dd8d48988d116941735","category":"Bar","checkinsCount":3473,"usersCount":1554,"tipCount":21,"visitsCount":3634,"url":"http://www.thetaverndowntown.com","tier":2,"message":"Moderate","currency":"$","rating":6.3},{"name":"McKinnon's Irish Pub","phone":"8605248174","address":"114 Asylum St","lat":41.767087367148044,"lng":-72.67523569443615,"neighborhood":"Downtown Hartford","city_fetched":"Hartford,US","state":"CT","country":"United States","canonicalUrl":"https://foursquare.com/v/mckinnons-irish-pub/4b74c630f964a52050f12de3","categoryId":"4bf58dd8d48988d11b941735","category":"Pub","checkinsCount":1720,"usersCount":1088,"tipCount":14,"visitsCount":1772,"url":"http://mckinnonsirishpub.com","tier":"","message":"","currency":"","rating":6.1},{"name":"AllStars Rock Bar","phone":"8604321982","address":"119 Spencer St","lat":41.767789,"lng":-72.56576741,"city_fetched":"Hartford,US","state":"CT","country":"United States","canonicalUrl":"https://foursquare.com/v/allstars-rock-bar/4b723400f964a520bc732de3","categoryId":"4bf58dd8d48988d118941735","category":"Dive Bar","checkinsCount":988,"usersCount":408,"tipCount":7,"visitsCount":1044,"url":"http://allstarssportsbargrill.com","tier":"","message":"","currency":"","rating":6.1},{"name":"Beachland Tavern","phone":"8602637167","address":"1128 New Britain Ave","lat":41.73282943762284,"lng":-72.73242815840956,"city_fetched":"Hartford,US","state":"CT","country":"United States","canonicalUrl":"https://foursquare.com/v/beachland-tavern/4e2620b4a809510950d4b734","categoryId":"4bf58dd8d48988d11b941735","category":"Pub","checkinsCount":1149,"usersCount":558,"tipCount":14,"visitsCount":1318,"url":"http://www.beachlandtavern.com","tier":2,"message":"Moderate","currency":"$","rating":6},{"name":"Rocking Horse Saloon","address":"181 Ann St","lat":41.76773888610533,"lng":-72.67812824649285,"neighborhood":"Downtown Hartford","city_fetched":"Hartford,US","state":"CT","country":"United States","canonicalUrl":"https://foursquare.com/v/rocking-horse-saloon/5080bda2e4b0354c585e741c","categoryId":"4bf58dd8d48988d116941735","category":"Bar","checkinsCount":1019,"usersCount":604,"tipCount":4,"visitsCount":1073,"tier":"","message":"","currency":"","rating":5.8},{"name":"Pyur","lat":41.76843067217215,"lng":-72.67889612401791,"neighborhood":"Downtown Hartford","city_fetched":"Hartford,US","state":"CT","country":"United States","canonicalUrl":"https://foursquare.com/v/pyur/50b6d409e4b06f5c00d53edc","categoryId":"4bf58dd8d48988d11f941735","category":"Nightclub","checkinsCount":152,"usersCount":104,"tipCount":2,"visitsCount":152,"tier":"","message":"","currency":"","rating":5.8},{"name":"Club NV","phone":"8605480488","address":"410 Asylum St","lat":41.768883505118694,"lng":-72.68025866787123,"neighborhood":"Downtown Hartford","city_fetched":"Hartford,US","state":"CT","country":"United States","canonicalUrl":"https://foursquare.com/v/club-nv/4baef4d4f964a520f1e33be3","categoryId":"4bf58dd8d48988d11f941735","category":"Nightclub","checkinsCount":333,"usersCount":105,"tipCount":3,"visitsCount":338,"tier":"","message":"","currency":"","rating":5.6},{"name":"Electric Company","address":"111 Allyn St","lat":41.76834203735399,"lng":-72.67864786311824,"neighborhood":"Downtown Hartford","city_fetched":"Hartford,US","state":"CT","country":"United States","canonicalUrl":"https://foursquare.com/v/electric-company/50aff79de4b0029e74b9668a","categoryId":"4bf58dd8d48988d116941735","category":"Bar","checkinsCount":198,"usersCount":119,"tipCount":4,"visitsCount":200,"tier":"","message":"","currency":"","rating":5.3},{"name":"Hartford Room","lat":41.76742782943928,"lng":-72.67805896419546,"neighborhood":"Downtown Hartford","city_fetched":"Hartford,US","state":"CT","country":"United States","canonicalUrl":"https://foursquare.com/v/hartford-room/50e79b76e4b037d24638e557","categoryId":"4bf58dd8d48988d116941735","category":"Bar","checkinsCount":170,"usersCount":125,"tipCount":4,"visitsCount":170,"tier":"","message":"","currency":"","rating":5.2}]