[{"name":"Keg and Barrel","phone":"6015827148","twitter":"kegnbarrel","address":"1315 Hardy St","lat":31.3249159,"lng":-89.31115094034838,"neighborhood":"The Heights - Avenues","city_fetched":"Hattiesburg","state":"MS","country":"United States","canonicalUrl":"https://foursquare.com/v/keg-and-barrel/4b5507fff964a5208ad827e3","category":"Bar","checkinsCount":3846,"usersCount":1091,"tipCount":36,"visitsCount":4700,"url":"http://www.kegandbarrel.com","tier":2,"message":"Moderate","currency":"$","rating":9.1},{"name":"The End Zone","phone":"6015838154","address":"2505 W 4th St","lat":31.33184204252456,"lng":-89.32814553352075,"city_fetched":"Hattiesburg","state":"MS","country":"United States","canonicalUrl":"https://foursquare.com/v/the-end-zone/4b6a7ab5f964a52061d62be3","category":"Sports Bar","checkinsCount":1302,"usersCount":335,"tipCount":14,"visitsCount":1517,"tier":"","message":"","currency":"","rating":8.6},{"name":"Sully's Tavern","lat":31.25542387888056,"lng":-89.33857131934653,"city_fetched":"Hattiesburg","state":"MS","country":"United States","canonicalUrl":"https://foursquare.com/v/sullys-tavern/4effd35ab8f787cad121ef5c","category":"Bar","checkinsCount":187,"usersCount":82,"tipCount":3,"visitsCount":245,"tier":"","message":"","currency":"","rating":8.2},{"name":"Mahogany Bar","phone":"6012640656","twitter":"mahoganybar","address":"3810 Hardy St","lat":31.324753484178892,"lng":-89.3463134765625,"neighborhood":"University Heights","city_fetched":"Hattiesburg","state":"MS","country":"United States","canonicalUrl":"https://foursquare.com/v/mahogany-bar/4b592a45f964a520c87f28e3","category":"Bar","checkinsCount":1959,"usersCount":541,"tipCount":12,"visitsCount":1998,"url":"http://mahoganybar.net","tier":"","message":"","currency":"","rating":8.2},{"name":"Chesterfields","phone":"6013367134","twitter":"chesterfieldsbg","address":"4646 Hardy St","lat":31.323323671322147,"lng":-89.35973877336222,"city_fetched":"Hattiesburg","state":"MS","country":"United States","canonicalUrl":"https://foursquare.com/v/chesterfields/4e63fb59ae60e9edf66bad57","category":"Steakhouse","checkinsCount":769,"usersCount":442,"tipCount":8,"visitsCount":1016,"url":"http://chesterfieldsbarandgrill.com","tier":1,"message":"Cheap","currency":"$","rating":8},{"name":"Branch","phone":"6012640656","twitter":"branch_bar","address":"3810 Hardy St","lat":31.324648222851142,"lng":-89.34652199852108,"neighborhood":"University Heights","city_fetched":"Hattiesburg","state":"MS","country":"United States","canonicalUrl":"https://foursquare.com/v/branch/51bd2dde498e616982e6cd44","category":"Cocktail Bar","checkinsCount":141,"usersCount":60,"tipCount":4,"visitsCount":144,"url":"http://www.branchcocktailbar.com","tier":"","message":"","currency":"","rating":7.9},{"name":"Bennie's Boom Boom Room","phone":"6015457757","address":"142 E Front St","lat":31.327265084428834,"lng":-89.28897490134158,"neighborhood":"Downtown Hattiesburg","city_fetched":"Hattiesburg","state":"MS","country":"United States","canonicalUrl":"https://foursquare.com/v/bennies-boom-boom-room/4b6268d0f964a52064462ae3","category":"Music Venue","checkinsCount":413,"usersCount":190,"tipCount":5,"visitsCount":416,"url":"http://bennysboomboomroom.com","tier":"","message":"","currency":"","rating":7.9},{"name":"The Thirsty Hippo","phone":"6015839188","twitter":"thethirstyhippo","address":"309 McLeod St","lat":31.325301308251802,"lng":-89.29435315601268,"neighborhood":"Downtown Hattiesburg","city_fetched":"Hattiesburg","state":"MS","country":"United States","canonicalUrl":"https://foursquare.com/v/the-thirsty-hippo/4bece2a891380f4735419f18","category":"Gastropub","checkinsCount":780,"usersCount":308,"tipCount":8,"visitsCount":976,"url":"http://www.hattiesburglivemusic.com","tier":2,"message":"Moderate","currency":"$","rating":7.8},{"name":"Petra Cafe & Hookah","phone":"6012688850","address":"2902 Hardy St","lat":31.323953031529577,"lng":-89.33309707705968,"neighborhood":"University Heights","city_fetched":"Hattiesburg","state":"MS","country":"United States","canonicalUrl":"https://foursquare.com/v/petra-cafe--hookah/4cf050bbc9af6dcb59f4917f","category":"Mediterranean Restaurant","checkinsCount":540,"usersCount":230,"tipCount":15,"visitsCount":565,"url":"http://petracafe.net","tier":"","message":"","currency":"","rating":7.6},{"name":"Donanelles","phone":"6015453860","address":"4321 U S Highway 49","lat":31.210716,"lng":-89.261894,"city_fetched":"Hattiesburg","state":"MS","country":"United States","canonicalUrl":"https://foursquare.com/v/donanelles/4b64b611f964a52049ca2ae3","category":"Seafood Restaurant","checkinsCount":108,"usersCount":78,"tipCount":5,"visitsCount":125,"url":"http://www.donanelles.com","tier":"","message":"","currency":"","rating":7.4},{"name":"Shenanigans Bar & Grill","phone":"6012610730","address":"2100 W Pine St","lat":31.304295116412753,"lng":-89.31408405303955,"city_fetched":"Hattiesburg","state":"MS","country":"United States","canonicalUrl":"https://foursquare.com/v/shenanigans-bar--grill/4bf6bbacb1a7a593ec9ed65b","category":"Pub","checkinsCount":367,"usersCount":141,"tipCount":1,"visitsCount":410,"tier":"","message":"","currency":"","rating":6.7},{"name":"The Porter - Public House","phone":"6013369373","twitter":"theporterpub","address":"201 W Pine St","lat":31.326306928656354,"lng":-89.29138720035553,"neighborhood":"Downtown Hattiesburg","city_fetched":"Hattiesburg","state":"MS","country":"United States","canonicalUrl":"https://foursquare.com/theporterpub","category":"Pub","checkinsCount":40,"usersCount":44,"tipCount":1,"visitsCount":71,"url":"http://theporterpub.com","tier":"","message":"","currency":"","rating":6.7},{"name":"The Skylight Lounge","phone":"6015838001","address":"213 E Front St","lat":31.327123641967773,"lng":-89.28871154785156,"neighborhood":"Downtown Hattiesburg","city_fetched":"Hattiesburg","state":"MS","country":"United States","canonicalUrl":"https://foursquare.com/v/the-skylight-lounge/4e90d09ddab46521c13daa0f","category":"Bar","checkinsCount":180,"usersCount":72,"tipCount":5,"visitsCount":182,"tier":"","message":"","currency":"","rating":6.7},{"name":"TGI Fridays","phone":"6012646892","twitter":"tgifridays","address":"6153 U S Highway 98","lat":31.32168506285355,"lng":-89.38576145670957,"city_fetched":"Hattiesburg","state":"MS","country":"United States","canonicalUrl":"https://foursquare.com/v/tgi-fridays/4b68bdfef964a520508a2be3","category":"American Restaurant","checkinsCount":688,"usersCount":409,"tipCount":9,"visitsCount":734,"url":"http://tgifridays.com","tier":2,"message":"Moderate","currency":"$","rating":6.6},{"name":"Sidelines Sports Cafe","phone":"6015994263","address":"2763 Oak Grove Rd","lat":31.302626757172252,"lng":-89.37668967791325,"city_fetched":"Hattiesburg","state":"MS","country":"United States","canonicalUrl":"https://foursquare.com/v/sidelines-sports-cafe/4bd2659da8b3a593a2f1675f","category":"Sports Bar","checkinsCount":429,"usersCount":153,"tipCount":5,"visitsCount":505,"url":"http://sidelinessportscafe.com","tier":"","message":"","currency":"","rating":6.5},{"name":"Ropers Rockin Country","phone":"6015430987","twitter":"ropersrcountry","address":"6428 U S Highway 49","lat":31.345610575934618,"lng":-89.3303918838501,"city_fetched":"Hattiesburg","state":"MS","country":"United States","canonicalUrl":"https://foursquare.com/v/ropers-rockin-country/4e57ab90cc3f4af0a62068f6","category":"Nightclub","checkinsCount":757,"usersCount":354,"tipCount":3,"visitsCount":939,"tier":"","message":"","currency":"","rating":6.1},{"name":"The Tavern","phone":"6015430659","address":"1825 Hardy St","lat":31.325006,"lng":-89.318495,"neighborhood":"The Heights - Avenues","city_fetched":"Hattiesburg","state":"MS","country":"United States","canonicalUrl":"https://foursquare.com/v/the-tavern/4bdb738e63c5c9b63e192868","category":"Bar","checkinsCount":413,"usersCount":156,"tipCount":6,"visitsCount":433,"tier":"","message":"","currency":"","rating":5.9},{"name":"Brewsky's","phone":"6015449136","address":"3818 W 4th St","lat":31.33547649602701,"lng":-89.34749893896802,"city_fetched":"Hattiesburg","state":"MS","country":"United States","canonicalUrl":"https://foursquare.com/v/brewskys/50d515baf470bd211d467535","category":"Music Venue","checkinsCount":237,"usersCount":165,"tipCount":1,"visitsCount":279,"tier":"","message":"","currency":"","rating":5.8}]