[{"name":"Black Market Bar","phone":"2059678787","address":"3411 Colonnade Pkwy #800","lat":33.43820503126673,"lng":-86.72921818080489,"city_fetched":"Helena,US","state":"AL","country":"United States","canonicalUrl":"https://foursquare.com/v/black-market-bar/4b63874bf964a52017812ae3","categoryId":"4bf58dd8d48988d116941735","category":"Bar","checkinsCount":4417,"usersCount":1600,"tipCount":22,"visitsCount":4978,"tier":2,"message":"Moderate","currency":"$","rating":8.5},{"name":"Overtime Bar","phone":"2052025674","twitter":"overtimebaral","address":"100 Frankfurt Cir","lat":33.43837666501572,"lng":-86.86605021468462,"city_fetched":"Helena,US","state":"AL","country":"United States","canonicalUrl":"https://foursquare.com/v/overtime-bar/4b6a247ef964a52000ca2be3","categoryId":"4bf58dd8d48988d116941735","category":"Bar","checkinsCount":748,"usersCount":354,"tipCount":4,"visitsCount":828,"url":"http://www.theovertimebar.com","tier":"","message":"","currency":"","rating":8.1},{"name":"Bar 31","phone":"2058243160","address":"1485 Montgomery Hwy","lat":33.41552549844164,"lng":-86.80308283681987,"city_fetched":"Helena,US","state":"AL","country":"United States","canonicalUrl":"https://foursquare.com/v/bar-31/50384df4e4b06ff87709ebb4","categoryId":"4bf58dd8d48988d116941735","category":"Bar","checkinsCount":260,"usersCount":163,"tipCount":2,"visitsCount":384,"url":"http://bar31vestavia.com","tier":"","message":"","currency":"","rating":8.1},{"name":"Cigars & More Patton Creek (Hoover)","phone":"2058241644","twitter":"cigarsandmore","address":"160 Main St Ste 100","lat":33.37419716972363,"lng":-86.81454911315845,"city_fetched":"Helena,US","state":"AL","country":"United States","canonicalUrl":"https://foursquare.com/v/cigars--more-patton-creek-hoover/4f5bc835e4b07bddee9afb0f","categoryId":"4bf58dd8d48988d121941735","category":"Lounge","checkinsCount":136,"usersCount":54,"tipCount":2,"visitsCount":139,"url":"http://www.birminghamcigars.com","tier":"","message":"","currency":"","rating":8.1},{"name":"Cajun Steamer Patton Creek","phone":"2059857785","address":"180 Main St","lat":33.374251190884415,"lng":-86.81513265375484,"city_fetched":"Helena,US","state":"AL","country":"United States","canonicalUrl":"https://foursquare.com/v/cajun-steamer-patton-creek/4b34cb0df964a520942825e3","categoryId":"4bf58dd8d48988d116941735","category":"Bar","checkinsCount":2526,"usersCount":1438,"tipCount":45,"visitsCount":2832,"url":"http://cajunsteamer.com","tier":2,"message":"Moderate","currency":"$","rating":8},{"name":"On Tap Sports Cafe - Galleria","phone":"2059883203","twitter":"ontapsportscafe","address":"3440 Galleria Cir","lat":33.37696627022663,"lng":-86.80590797010919,"city_fetched":"Helena,US","state":"AL","country":"United States","canonicalUrl":"https://foursquare.com/v/on-tap-sports-cafe--galleria/4bfd7f07f7c82d7ff4458e04","categoryId":"4bf58dd8d48988d11b941735","category":"Pub","checkinsCount":3978,"usersCount":1574,"tipCount":43,"visitsCount":4371,"url":"http://www.ontapsportscafe.com","tier":2,"message":"Moderate","currency":"$","rating":7.9},{"name":"Twin Peaks","address":"4330 Creekside Ave, Hoover, AL 35244","lat":33.37681117779607,"lng":-86.81540235502598,"city_fetched":"Helena,US","state":"AL","country":"United States","canonicalUrl":"https://foursquare.com/v/twin-peaks/54640bfd498e5154619929ba","categoryId":"4bf58dd8d48988d116941735","category":"Bar","checkinsCount":723,"usersCount":607,"tipCount":10,"visitsCount":1544,"tier":"","message":"","currency":"","rating":7.7},{"name":"Rio's Bar & Grill","lat":33.26838668723426,"lng":-86.83240032308595,"city_fetched":"Helena,US","state":"AL","country":"United States","canonicalUrl":"https://foursquare.com/v/rios-bar--grill/4fef7956e4b0ff692bf85d66","categoryId":"4bf58dd8d48988d116941735","category":"Bar","checkinsCount":148,"usersCount":56,"tipCount":1,"visitsCount":160,"tier":"","message":"","currency":"","rating":7.6},{"name":"The Neighborhood Brew","twitter":"thebrew22","address":"5184 Caldwell Mill Rd","lat":33.38630064190119,"lng":-86.74001916918635,"city_fetched":"Helena,US","state":"AL","country":"United States","canonicalUrl":"https://foursquare.com/v/the-neighborhood-brew/528b79a611d2a7e293bcffaf","categoryId":"4bf58dd8d48988d117941735","category":"Beer Garden","checkinsCount":215,"usersCount":59,"tipCount":2,"visitsCount":230,"url":"http://www.theneighborhoodbrew.com","tier":"","message":"","currency":"","rating":7.5},{"name":"Courtyard Alabaster","lat":33.257392,"lng":-86.813963,"city_fetched":"Helena,US","state":"AL","country":"United States","canonicalUrl":"https://foursquare.com/v/courtyard-alabaster/51fef36e498e0a61510a96a5","categoryId":"4bf58dd8d48988d11d941735","category":"Sports Bar","checkinsCount":172,"usersCount":101,"tipCount":5,"visitsCount":265,"tier":"","message":"","currency":"","rating":7.4},{"name":"Papa Saia's","phone":"2056216161","address":"4300 Helena Rd","lat":33.29758396417987,"lng":-86.84264427850131,"city_fetched":"Helena,US","state":"AL","country":"United States","canonicalUrl":"https://foursquare.com/v/papa-saias/4f55519ce4b07120a6806076","categoryId":"4bf58dd8d48988d11d941735","category":"Sports Bar","checkinsCount":908,"usersCount":423,"tipCount":16,"visitsCount":1148,"url":"http://papasaias.com","tier":1,"message":"Cheap","currency":"$","rating":7.3},{"name":"Beef O'Brady's","phone":"2059879464","twitter":"beefobrady","address":"5519 Grove Blvd","lat":33.36178493933832,"lng":-86.84995472431183,"neighborhood":"The Grove","city_fetched":"Helena,US","state":"AL","country":"United States","canonicalUrl":"https://foursquare.com/v/beef-obradys/4beddd94e24d20a1ba227214","categoryId":"4bf58dd8d48988d116941735","category":"Bar","checkinsCount":1736,"usersCount":728,"tipCount":25,"visitsCount":2059,"url":"http://beefobradys.com","tier":1,"message":"Cheap","currency":"$","rating":7.2},{"name":"Gabriel's","phone":"2059850983","address":"3706 Lorna Rd","lat":33.37982328324149,"lng":-86.80054203872163,"city_fetched":"Helena,US","state":"AL","country":"United States","canonicalUrl":"https://foursquare.com/v/gabriels/4b74cc12f964a5208ff22de3","categoryId":"4bf58dd8d48988d116941735","category":"Bar","checkinsCount":2123,"usersCount":586,"tipCount":12,"visitsCount":2531,"url":"http://gabrielscafe.net","tier":"","message":"","currency":"","rating":7.1},{"name":"Tilted Kilt Birmingham","phone":"2059720204","twitter":"tiltedkiltpub","address":"14 Perimeter Park S","lat":33.43623214342915,"lng":-86.72176071904202,"city_fetched":"Helena,US","state":"AL","country":"United States","canonicalUrl":"https://foursquare.com/v/tilted-kilt-birmingham/4ca9082b97c8a1cd2afa8aa5","categoryId":"4bf58dd8d48988d11b941735","category":"Pub","checkinsCount":1136,"usersCount":719,"tipCount":11,"visitsCount":1276,"url":"http://www.tiltedkilt.com","tier":2,"message":"Moderate","currency":"$","rating":6.9},{"name":"Shelby's","lat":33.344942291876,"lng":-86.79763320166437,"city_fetched":"Helena,US","state":"AL","country":"United States","canonicalUrl":"https://foursquare.com/v/shelbys/4ed5527d8231c75ede1c2630","categoryId":"4bf58dd8d48988d11b941735","category":"Pub","checkinsCount":562,"usersCount":205,"tipCount":9,"visitsCount":623,"tier":1,"message":"Cheap","currency":"$","rating":6.8},{"name":"Tilted Kilt","lat":33.436157684876584,"lng":-86.72159858769602,"city_fetched":"Helena,US","state":"AL","country":"United States","canonicalUrl":"https://foursquare.com/v/tilted-kilt/4b5a602bf964a5200dc128e3","categoryId":"4bf58dd8d48988d11b941735","category":"Pub","checkinsCount":1370,"usersCount":578,"tipCount":17,"visitsCount":1370,"tier":"","message":"","currency":"","rating":6.7},{"name":"Courtyard Oyster Bar","phone":"2059809891","address":"4683 U.S. 280","lat":33.42695468235134,"lng":-86.70402135147769,"city_fetched":"Helena,US","state":"AL","country":"United States","canonicalUrl":"https://foursquare.com/v/courtyard-oyster-bar/4b5b76daf964a520160029e3","categoryId":"4bf58dd8d48988d116941735","category":"Bar","checkinsCount":2890,"usersCount":771,"tipCount":25,"visitsCount":3280,"tier":2,"message":"Moderate","currency":"$","rating":6.2},{"name":"Pub 261","phone":"2054440261","address":"9430 Helena Rd","lat":33.344807215182385,"lng":-86.79793733778759,"city_fetched":"Helena,US","state":"AL","country":"United States","canonicalUrl":"https://foursquare.com/v/pub-261/4b80cf6ef964a5203b8d30e3","categoryId":"4bf58dd8d48988d11b941735","category":"Pub","checkinsCount":960,"usersCount":415,"tipCount":9,"visitsCount":1109,"url":"http://www.myspace.com/pub261","tier":"","message":"","currency":"","rating":5.9},{"name":"Barrister's Bar","phone":"2059786970","twitter":"barristertavern","address":"1535 Montgomery Hwy","lat":33.41072447067379,"lng":-86.80602014064789,"city_fetched":"Helena,US","state":"AL","country":"United States","canonicalUrl":"https://foursquare.com/v/barristers-bar/4cafd72239458cfae415fe9f","categoryId":"4bf58dd8d48988d11b941735","category":"Pub","checkinsCount":350,"usersCount":189,"tipCount":6,"visitsCount":354,"url":"http://www.barristersinhoover.com","tier":"","message":"","currency":"","rating":5.9},{"name":"Charlie's Tap House","phone":"2059885558","twitter":"hoovertap","address":"1845 Montgomery Hwy S","lat":33.3698000800564,"lng":-86.79718494415283,"city_fetched":"Helena,US","state":"AL","country":"United States","canonicalUrl":"https://foursquare.com/v/charlies-tap-house/4c45053df05e9521f740e4b3","categoryId":"4bf58dd8d48988d11d941735","category":"Sports Bar","checkinsCount":1312,"usersCount":267,"tipCount":5,"visitsCount":1414,"tier":1,"message":"Cheap","currency":"$","rating":5.9},{"name":"Tyler Navarre's Bar & Grill","phone":"2053587905","address":"3221 Highway 52 W","lat":33.285474350252066,"lng":-86.81434805973461,"city_fetched":"Helena,US","state":"AL","country":"United States","canonicalUrl":"https://foursquare.com/v/tyler-navarres-bar--grill/4d1aa8a6eab1224bde2dcce2","categoryId":"4bf58dd8d48988d116941735","category":"Bar","checkinsCount":278,"usersCount":98,"tipCount":7,"visitsCount":284,"tier":"","message":"","currency":"","rating":5.9}]