[{"name":"Encore Beach Club","phone":"7027707300","twitter":"encorebeachclub","address":"3121 Las Vegas Blvd S","lat":36.12940027183192,"lng":-115.16608357429504,"neighborhood":"The Strip","city_fetched":"Henderson,US","state":"NV","country":"United States","canonicalUrl":"https://foursquare.com/encorebeachclub","categoryId":"4bf58dd8d48988d11f941735","category":"Nightclub","checkinsCount":18253,"usersCount":12286,"tipCount":79,"visitsCount":18952,"url":"http://encorebeachclub.com","tier":4,"message":"Very Expensive","currency":"$","rating":9.6},{"name":"The View","phone":"7029426832","twitter":"theviewlv","address":"4321 W Flamingo Rd","lat":36.11432233468018,"lng":-115.19459260704316,"city_fetched":"Henderson,US","state":"NV","country":"United States","canonicalUrl":"https://foursquare.com/theviewlv","categoryId":"4bf58dd8d48988d121941735","category":"Lounge","checkinsCount":293,"usersCount":203,"tipCount":3,"visitsCount":294,"url":"http://theviewlv.com","tier":"","message":"","currency":"","rating":9.3},{"name":"Mandarin Bar at Mandarin Oriental, Las Vegas","phone":"8888819367","twitter":"mo_hotels","address":"3752 Las Vegas Blvd S","lat":36.10628585795433,"lng":-115.17418384552002,"neighborhood":"The Strip","city_fetched":"Henderson,US","state":"NV","country":"United States","canonicalUrl":"https://foursquare.com/v/mandarin-bar-at-mandarin-oriental-las-vegas/4b3c6637f964a5203c8425e3","categoryId":"4bf58dd8d48988d1d5941735","category":"Hotel Bar","checkinsCount":3822,"usersCount":2911,"tipCount":77,"visitsCount":3887,"url":"http://www.mandarinoriental.com","tier":3,"message":"Expensive","currency":"$","rating":9.3},{"name":"Larry Flynt's Hustler Club","phone":"7027953131","twitter":"hustlervegas","address":"6007 Dean Martin Dr","lat":36.08026919956453,"lng":-115.18252705925288,"city_fetched":"Henderson,US","state":"NV","country":"United States","canonicalUrl":"https://foursquare.com/hustlervegas","categoryId":"4bf58dd8d48988d1d6941735","category":"Strip Club","checkinsCount":5065,"usersCount":2980,"tipCount":44,"visitsCount":6278,"url":"http://www.vegashustlerclub.com","tier":"","message":"","currency":"","rating":9.2},{"name":"The Chandelier","phone":"7026987000","twitter":"cosmopolitan_lv","address":"3708 Las Vegas Blvd S","lat":36.10955366271496,"lng":-115.1737117767334,"neighborhood":"The Strip","city_fetched":"Henderson,US","state":"NV","country":"United States","canonicalUrl":"https://foursquare.com/v/the-chandelier/4d0144ba6212721ea500e011","categoryId":"4bf58dd8d48988d121941735","category":"Lounge","checkinsCount":31128,"usersCount":22399,"tipCount":278,"visitsCount":31412,"url":"http://www.cosmopolitanlasvegas.com","tier":2,"message":"Moderate","currency":"$","rating":9.1},{"name":"Born and Raised","phone":"7029850258","twitter":"bornandraisedlv","address":"10050 S Eastern Ave","lat":36.006446463396976,"lng":-115.11157194481694,"city_fetched":"Henderson,US","state":"NV","country":"United States","canonicalUrl":"https://foursquare.com/v/born-and-raised/55da6a44498e1e1123fe8908","categoryId":"4bf58dd8d48988d116941735","category":"Bar","checkinsCount":278,"usersCount":338,"tipCount":3,"visitsCount":686,"url":"http://bornandraisedlv.com","tier":"","message":"","currency":"","rating":8.9},{"name":"CraftHaus Brewery","phone":"7024625934","twitter":"crafthausbrew","address":"7350 Eastgate Rd Ste 110","lat":36.05401274139569,"lng":-115.0184683126115,"city_fetched":"Henderson,US","state":"NV","country":"United States","canonicalUrl":"https://foursquare.com/v/crafthaus-brewery/5414757e498ec124d5d40977","categoryId":"50327c8591d4c4b30a586d5d","category":"Brewery","checkinsCount":700,"usersCount":300,"tipCount":3,"visitsCount":916,"url":"http://www.crafthausbrewery.com","tier":1,"message":"Cheap","currency":"$","rating":8.9},{"name":"Crown & Anchor Pub","phone":"7027398676","twitter":"thecrownvegas","address":"1350 E Tropicana Ave","lat":36.101324103126906,"lng":-115.13457877798332,"city_fetched":"Henderson,US","state":"NV","country":"United States","canonicalUrl":"https://foursquare.com/v/crown--anchor-pub/41326e00f964a52008141fe3","categoryId":"4bf58dd8d48988d116941735","category":"Bar","checkinsCount":7401,"usersCount":2558,"tipCount":77,"visitsCount":8033,"url":"http://crownandanchor-hub.com","tier":2,"message":"Moderate","currency":"$","rating":8.9},{"name":"The Garage","phone":"7024406333","twitter":"thegaragelv","address":"1487 E Flamingo Rd Ste C","lat":36.113915291717994,"lng":-115.13402867151011,"city_fetched":"Henderson,US","state":"NV","country":"United States","canonicalUrl":"https://foursquare.com/v/the-garage/4d713a8cad9cb60c19c922d3","categoryId":"4bf58dd8d48988d1d8941735","category":"Gay Bar","checkinsCount":9243,"usersCount":2232,"tipCount":41,"visitsCount":10851,"url":"http://thegaragelv.com","tier":1,"message":"Cheap","currency":"$","rating":8.8},{"name":"Frankie's Tiki Room","phone":"7023853110","twitter":"frankiestiki","address":"1712 W Charleston Blvd","lat":36.15909863897869,"lng":-115.16467684987879,"city_fetched":"Henderson,US","state":"NV","country":"United States","canonicalUrl":"https://foursquare.com/v/frankies-tiki-room/4a9a20f6f964a520953120e3","categoryId":"56aa371be4b08b9a8d57354d","category":"Tiki Bar","checkinsCount":6973,"usersCount":4006,"tipCount":108,"visitsCount":8155,"url":"http://frankiestikiroom.com","tier":2,"message":"Moderate","currency":"$","rating":8.8},{"name":"Thunder From Down Under","address":"3850 Las Vegas Blvd S","lat":36.09927212783496,"lng":-115.17560247808457,"neighborhood":"The Strip","city_fetched":"Henderson,US","state":"NV","country":"United States","canonicalUrl":"https://foursquare.com/v/thunder-from-down-under/4b7cc2f0f964a5207da42fe3","categoryId":"4bf58dd8d48988d1d6941735","category":"Strip Club","checkinsCount":3977,"usersCount":3532,"tipCount":36,"visitsCount":3983,"url":"http://thunderfromdownunder.com","tier":"","message":"","currency":"","rating":8.7},{"name":"Blue Martini","phone":"7029492583","twitter":"blue_martini_lv","address":"6593 Las Vegas Blvd S","lat":36.068335041711656,"lng":-115.17743599963273,"city_fetched":"Henderson,US","state":"NV","country":"United States","canonicalUrl":"https://foursquare.com/v/blue-martini/49de84a3f964a52064601fe3","categoryId":"4bf58dd8d48988d121941735","category":"Lounge","checkinsCount":15392,"usersCount":6913,"tipCount":137,"visitsCount":15633,"url":"http://lasvegas.bluemartinilounge.com","tier":2,"message":"Moderate","currency":"$","rating":8.7},{"name":"Sapphire Gentlemen's Club Las Vegas","phone":"7028690003","twitter":"sapphirelv","address":"3025 Sammy Davis Jr Drive","lat":36.13484271102735,"lng":-115.17131796268767,"city_fetched":"Henderson,US","state":"NV","country":"United States","canonicalUrl":"https://foursquare.com/sapphirelv","categoryId":"4bf58dd8d48988d1d6941735","category":"Strip Club","checkinsCount":7537,"usersCount":6498,"tipCount":69,"visitsCount":9549,"url":"http://www.sapphirelasvegas.com","tier":"","message":"","currency":"","rating":8.7},{"name":"Spearmint Rhino","phone":"7027963600","twitter":"therhinolv","address":"3340 S Highland Dr","lat":36.12844705596655,"lng":-115.1781964302063,"city_fetched":"Henderson,US","state":"NV","country":"United States","canonicalUrl":"https://foursquare.com/v/spearmint-rhino/41326e00f964a52014151fe3","categoryId":"4bf58dd8d48988d1d6941735","category":"Strip Club","checkinsCount":8842,"usersCount":8516,"tipCount":73,"visitsCount":13027,"url":"http://www.spearmintrhinolv.com","tier":"","message":"","currency":"","rating":8.7},{"name":"Indigo Lounge","phone":"8776034390","twitter":"ballysvegas","address":"3645 Las Vegas Blvd S","lat":36.11412497308961,"lng":-115.16959835042196,"neighborhood":"The Strip","city_fetched":"Henderson,US","state":"NV","country":"United States","canonicalUrl":"https://foursquare.com/v/indigo-lounge/4e421d83b61ca5ba3b22c99c","categoryId":"4bf58dd8d48988d121941735","category":"Lounge","checkinsCount":1319,"usersCount":1090,"tipCount":11,"visitsCount":1320,"url":"http://www.ballyslasvegas.com","tier":"","message":"","currency":"","rating":8.7},{"name":"Caesars Palace  Diamond VIP Lounge","twitter":"caesarspalace","address":"3570 Las Vegas Blvd S","lat":36.11550860994792,"lng":-115.17506402188779,"neighborhood":"The Strip","city_fetched":"Henderson,US","state":"NV","country":"United States","canonicalUrl":"https://foursquare.com/v/caesars-palace--diamond-vip-lounge/4b662a7df964a52029172be3","categoryId":"4bf58dd8d48988d121941735","category":"Lounge","checkinsCount":2518,"usersCount":1373,"tipCount":26,"visitsCount":2549,"url":"http://caesarspalace.com","tier":"","message":"","currency":"","rating":8.6},{"name":"Fun Hog Ranch","phone":"7027917001","twitter":"funhogranch","address":"495 E Twain Ave","lat":36.12088801462019,"lng":-115.15226275134656,"city_fetched":"Henderson,US","state":"NV","country":"United States","canonicalUrl":"https://foursquare.com/v/fun-hog-ranch/41326e00f964a52095141fe3","categoryId":"4bf58dd8d48988d1d8941735","category":"Gay Bar","checkinsCount":8477,"usersCount":1653,"tipCount":30,"visitsCount":9461,"url":"http://www.funhogranchlv.com","tier":1,"message":"Cheap","currency":"$","rating":8.6},{"name":"Drop Bar","phone":"7026177777","twitter":"stationcasinos","address":"2300 Paseo Verde Pkwy","lat":36.020917049486094,"lng":-115.08925844525733,"neighborhood":"Green Valley Ranch","city_fetched":"Henderson,US","state":"NV","country":"United States","canonicalUrl":"https://foursquare.com/v/drop-bar/4ba46acef964a520119c38e3","categoryId":"4bf58dd8d48988d116941735","category":"Bar","checkinsCount":1836,"usersCount":734,"tipCount":7,"visitsCount":1841,"url":"https://www.sclv.com","tier":"","message":"","currency":"","rating":8.5},{"name":"Crazy Horse III","phone":"7026731700","address":"3525 W Russell Rd","lat":36.085090273370795,"lng":-115.18740775604596,"city_fetched":"Henderson,US","state":"NV","country":"United States","canonicalUrl":"https://foursquare.com/v/crazy-horse-iii/4b497e6bf964a520907026e3","categoryId":"4bf58dd8d48988d1d6941735","category":"Strip Club","checkinsCount":7059,"usersCount":3275,"tipCount":47,"visitsCount":9167,"url":"http://crazyhorseiii.com","tier":4,"message":"Very Expensive","currency":"$","rating":8.5},{"name":"Petrossian Bar & Lounge","phone":"8889876667","twitter":"bellagio","address":"Bellagio Hotel & Casino","lat":36.11207282255319,"lng":-115.17600197725417,"neighborhood":"The Strip","city_fetched":"Henderson,US","state":"NV","country":"United States","canonicalUrl":"https://foursquare.com/v/petrossian-bar--lounge/46f7d99bf964a520044b1fe3","categoryId":"4bf58dd8d48988d1d5941735","category":"Hotel Bar","checkinsCount":2472,"usersCount":1743,"tipCount":31,"visitsCount":2474,"url":"http://bit.ly/VisitBellagio","tier":"","message":"","currency":"","rating":8.5},{"name":"Village Pub & Poker","phone":"7022160810","twitter":"villagepublv","address":"7575 S Rainbow Blvd","lat":36.05106452000644,"lng":-115.24402526606212,"city_fetched":"Henderson,US","state":"NV","country":"United States","canonicalUrl":"https://foursquare.com/v/village-pub--poker/4b5a64d5f964a52036c228e3","categoryId":"4bf58dd8d48988d116941735","category":"Bar","checkinsCount":1359,"usersCount":338,"tipCount":18,"visitsCount":1446,"url":"http://www.villagepubcasino.com","tier":"","message":"","currency":"","rating":8.5},{"name":"Vesper","phone":"7026987000","twitter":"cosmopolitan_lv","address":"3708 Las Vegas Blvd S","lat":36.10952616051365,"lng":-115.17575880390635,"neighborhood":"The Strip","city_fetched":"Henderson,US","state":"NV","country":"United States","canonicalUrl":"https://foursquare.com/v/vesper/4d0124267c563704f375b4f0","categoryId":"4bf58dd8d48988d11e941735","category":"Cocktail Bar","checkinsCount":9596,"usersCount":5858,"tipCount":103,"visitsCount":9610,"url":"http://www.cosmopolitanlasvegas.com","tier":2,"message":"Moderate","currency":"$","rating":8.5},{"name":"RHUMBAR","phone":"7027927615","twitter":"themiragelv","address":"3400 Las Vegas Blvd S","lat":36.12023158855028,"lng":-115.17306804656982,"neighborhood":"The Strip","city_fetched":"Henderson,US","state":"NV","country":"United States","canonicalUrl":"https://foursquare.com/v/rhumbar/4a1a445df964a5208d7a1fe3","categoryId":"4bf58dd8d48988d11e941735","category":"Cocktail Bar","checkinsCount":8874,"usersCount":6419,"tipCount":99,"visitsCount":8922,"url":"http://mirage.com","tier":2,"message":"Moderate","currency":"$","rating":8.4},{"name":"BOND","phone":"7026987000","twitter":"cosmopolitan_lv","address":"3708 Las Vegas Blvd S","lat":36.11024707860085,"lng":-115.1731538772583,"neighborhood":"The Strip","city_fetched":"Henderson,US","state":"NV","country":"United States","canonicalUrl":"https://foursquare.com/v/bond/4d014765c8bda0936dfe74af","categoryId":"4bf58dd8d48988d11e941735","category":"Cocktail Bar","checkinsCount":6887,"usersCount":4934,"tipCount":50,"visitsCount":6896,"url":"http://www.cosmopolitanlasvegas.com","tier":2,"message":"Moderate","currency":"$","rating":8.4},{"name":"Charlie's Las Vegas","phone":"7028761844","address":"5012 Arville St","lat":36.09884604630197,"lng":-115.19867996758684,"city_fetched":"Henderson,US","state":"NV","country":"United States","canonicalUrl":"https://foursquare.com/v/charlies-las-vegas/4b35a1c5f964a520522e25e3","categoryId":"4bf58dd8d48988d1d8941735","category":"Gay Bar","checkinsCount":11095,"usersCount":2202,"tipCount":35,"visitsCount":12540,"url":"http://www.charlieslasvegas.com","tier":1,"message":"Cheap","currency":"$","rating":8.4},{"name":"Golden Tiki","phone":"7022223196","twitter":"goldentikivegas","address":"3939 Spring Mountain Rd","lat":36.12602064955523,"lng":-115.19230574629603,"city_fetched":"Henderson,US","state":"NV","country":"United States","canonicalUrl":"https://foursquare.com/v/golden-tiki/55b2e6d0498e486e5231ae17","categoryId":"56aa371be4b08b9a8d57354d","category":"Tiki Bar","checkinsCount":809,"usersCount":725,"tipCount":21,"visitsCount":1082,"url":"http://thegoldentiki.com","tier":"","message":"","currency":"","rating":8.4},{"name":"Bad Beat Brewing","phone":"7024634199","twitter":"badbeatbrewing","address":"7380 Eastgate Rd Ste 110","lat":36.05321314715579,"lng":-115.01930245259732,"city_fetched":"Henderson,US","state":"NV","country":"United States","canonicalUrl":"https://foursquare.com/v/bad-beat-brewing/534cad94498e2a0a5895f1cd","categoryId":"50327c8591d4c4b30a586d5d","category":"Brewery","checkinsCount":572,"usersCount":314,"tipCount":3,"visitsCount":781,"url":"http://badbeatbrewing.com","tier":1,"message":"Cheap","currency":"$","rating":8.4},{"name":"Piranha Nightclub","phone":"7023799500","twitter":"piranhavegas","address":"4633 Paradise Rd","lat":36.10555084481843,"lng":-115.15181690022042,"neighborhood":"The Strip","city_fetched":"Henderson,US","state":"NV","country":"United States","canonicalUrl":"https://foursquare.com/piranhavegas","categoryId":"4bf58dd8d48988d1d8941735","category":"Gay Bar","checkinsCount":8302,"usersCount":4917,"tipCount":50,"visitsCount":10158,"url":"http://www.piranhavegas.com","tier":2,"message":"Moderate","currency":"$","rating":8.4},{"name":"Hostile Grape (M Resort)","phone":"7027971000","twitter":"mresort","address":"12300 Las Vegas Blvd S","lat":35.96465245957357,"lng":-115.17031630414705,"city_fetched":"Henderson,US","state":"NV","country":"United States","canonicalUrl":"https://foursquare.com/v/hostile-grape-m-resort/4b4577c5f964a520090d26e3","categoryId":"4bf58dd8d48988d123941735","category":"Wine Bar","checkinsCount":790,"usersCount":588,"tipCount":11,"visitsCount":799,"url":"http://www.themresort.com/blog","tier":"","message":"","currency":"","rating":8.3},{"name":"Todd English Pub","phone":"7024898080","twitter":"toddenglishpub","address":"3720 Las Vegas Blvd S","lat":36.10785128649243,"lng":-115.17534193487742,"neighborhood":"The Strip","city_fetched":"Henderson,US","state":"NV","country":"United States","canonicalUrl":"https://foursquare.com/v/todd-english-pub/4b832932f964a5200ffb30e3","categoryId":"4bf58dd8d48988d11b941735","category":"Pub","checkinsCount":18628,"usersCount":12896,"tipCount":231,"visitsCount":18687,"url":"http://www.toddenglishpub.com","tier":3,"message":"Expensive","currency":"$","rating":8.3},{"name":"Rebel Republic","phone":"7025389050","twitter":"rebelrepubliclv","address":"3540 W Sahara Ave","lat":36.145857702532844,"lng":-115.188368833392,"city_fetched":"Henderson,US","state":"NV","country":"United States","canonicalUrl":"https://foursquare.com/v/rebel-republic/53e6e7bc498e1e97150fb650","categoryId":"4bf58dd8d48988d11b941735","category":"Pub","checkinsCount":415,"usersCount":289,"tipCount":11,"visitsCount":697,"url":"http://rebelrepubliclv.com","tier":"","message":"","currency":"","rating":8.3},{"name":"Monkey Bar","address":"2535 Las Vegas Blvd S","lat":36.14216897416786,"lng":-115.15602061472104,"neighborhood":"The Strip","city_fetched":"Henderson,US","state":"NV","country":"United States","canonicalUrl":"https://foursquare.com/v/monkey-bar/53fd2aee498ea719e0b9e120","categoryId":"4bf58dd8d48988d1d5941735","category":"Hotel Bar","checkinsCount":344,"usersCount":248,"tipCount":6,"visitsCount":345,"tier":"","message":"","currency":"","rating":8.2},{"name":"Steiner's","phone":"7023048084","address":"1750 N Buffalo Dr","lat":36.19050309903696,"lng":-115.2588842194563,"neighborhood":"Summerlin","city_fetched":"Henderson,US","state":"NV","country":"United States","canonicalUrl":"https://foursquare.com/v/steiners/4af8efe0f964a5209c1022e3","categoryId":"4bf58dd8d48988d11b941735","category":"Pub","checkinsCount":2595,"usersCount":669,"tipCount":27,"visitsCount":2824,"url":"http://www.steinerspub.com","tier":2,"message":"Moderate","currency":"$","rating":8.2},{"name":"The Pub at Monte Carlo","phone":"7027307777","twitter":"montecarlovegas","address":"3770 Las Vegas Blvd S","lat":36.105628813420786,"lng":-115.17650127410889,"neighborhood":"The Strip","city_fetched":"Henderson,US","state":"NV","country":"United States","canonicalUrl":"https://foursquare.com/v/the-pub-at-monte-carlo/41326e00f964a520a1141fe3","categoryId":"4bf58dd8d48988d11b941735","category":"Pub","checkinsCount":14931,"usersCount":11002,"tipCount":165,"visitsCount":15852,"url":"http://montecarlo.com","tier":2,"message":"Moderate","currency":"$","rating":8.2},{"name":"Azuza Hookah Lounge & Cafe","phone":"7023319500","twitter":"azuzahookah","address":"4480 Paradise Rd Ste 450","lat":36.10930431575986,"lng":-115.15138841933216,"city_fetched":"Henderson,US","state":"NV","country":"United States","canonicalUrl":"https://foursquare.com/v/azuza-hookah-lounge--cafe/4cf4618e1d18a14340c765ec","categoryId":"4bf58dd8d48988d119941735","category":"Hookah Bar","checkinsCount":1040,"usersCount":686,"tipCount":29,"visitsCount":1086,"url":"http://azuzahookahlounge.com","tier":"","message":"","currency":"","rating":8.2},{"name":"Alligator Bar","phone":"7023657111","address":"4500 W Tropicana Ave","lat":36.10271656293797,"lng":-115.20119256808029,"city_fetched":"Henderson,US","state":"NV","country":"United States","canonicalUrl":"https://foursquare.com/v/alligator-bar/4abd7e18f964a520a48a20e3","categoryId":"4bf58dd8d48988d1d5941735","category":"Hotel Bar","checkinsCount":803,"usersCount":412,"tipCount":1,"visitsCount":807,"url":"http://www.theborgata.com","tier":"","message":"","currency":"","rating":8.1},{"name":"Grill 55","phone":"7027845700","twitter":"renaissancelv","address":"3400 Paradise Rd","lat":36.12769556621234,"lng":-115.15443409535332,"city_fetched":"Henderson,US","state":"NV","country":"United States","canonicalUrl":"https://foursquare.com/renaissancelv","categoryId":"4bf58dd8d48988d1d5941735","category":"Hotel Bar","checkinsCount":483,"usersCount":302,"tipCount":8,"visitsCount":486,"url":"http://renaissancelasvegas.com","tier":"","message":"","currency":"","rating":8.1},{"name":"Eastside Lounge at Encore Las Vegas","phone":"8883207110","twitter":"wynnlasvegas","address":"3121 Las Vegas Blvd S","lat":36.12893098978227,"lng":-115.16478686072121,"neighborhood":"The Strip","city_fetched":"Henderson,US","state":"NV","country":"United States","canonicalUrl":"https://foursquare.com/v/eastside-lounge-at-encore-las-vegas/4b482a25f964a520544926e3","categoryId":"4bf58dd8d48988d1d5941735","category":"Hotel Bar","checkinsCount":1577,"usersCount":1213,"tipCount":12,"visitsCount":1578,"url":"http://www.wynnlasvegas.com","tier":"","message":"","currency":"","rating":8.1},{"name":"Deja Vu Showgirls","phone":"7028944167","twitter":"showgirlslv","address":"3247 Industrial Rd","lat":36.1305176985041,"lng":-115.17432291939475,"city_fetched":"Henderson,US","state":"NV","country":"United States","canonicalUrl":"https://foursquare.com/v/deja-vu-showgirls/4b03d838f964a520565022e3","categoryId":"4bf58dd8d48988d1d6941735","category":"Strip Club","checkinsCount":1426,"usersCount":689,"tipCount":40,"visitsCount":1458,"url":"http://www.dejavushowgirlslasvegas.com","tier":"","message":"","currency":"","rating":8.1},{"name":"Diamond Lounge","twitter":"riovegas","address":"3700 W Flamingo Rd","lat":36.117180091525235,"lng":-115.18744828346279,"city_fetched":"Henderson,US","state":"NV","country":"United States","canonicalUrl":"https://foursquare.com/v/diamond-lounge/4c424089520fa593d2f7caac","categoryId":"4bf58dd8d48988d121941735","category":"Lounge","checkinsCount":689,"usersCount":337,"tipCount":2,"visitsCount":691,"url":"http://www.riolasvegas.com","tier":"","message":"","currency":"","rating":8.1},{"name":"Money Plays","phone":"7023681828","twitter":"moneyplayslv","address":"4755 W Flamingo Rd","lat":36.11528022118026,"lng":-115.2057719336603,"city_fetched":"Henderson,US","state":"NV","country":"United States","canonicalUrl":"https://foursquare.com/v/money-plays/4b2b3d35f964a52051b524e3","categoryId":"4bf58dd8d48988d116941735","category":"Bar","checkinsCount":2117,"usersCount":796,"tipCount":29,"visitsCount":2640,"url":"http://www.moneyplayslv.com","tier":1,"message":"Cheap","currency":"$","rating":8.1},{"name":"Lobby Bar & Cafe at Encore","phone":"8883207110","twitter":"wynnlasvegas","address":"3121 Las Vegas Blvd.","lat":36.128969120153855,"lng":-115.165047412565,"neighborhood":"The Strip","city_fetched":"Henderson,US","state":"NV","country":"United States","canonicalUrl":"https://foursquare.com/v/lobby-bar--cafe-at-encore/4b3d4a68f964a520b69125e3","categoryId":"4bf58dd8d48988d1d5941735","category":"Hotel Bar","checkinsCount":2202,"usersCount":1592,"tipCount":23,"visitsCount":2204,"url":"http://www.wynnlasvegas.com","tier":"","message":"","currency":"","rating":8},{"name":"Steiner's Pub","phone":"7023958777","twitter":"steinerspublv","address":"8410 W Cheyenne Ave","lat":36.21925164036199,"lng":-115.27682662010193,"neighborhood":"Centennial Hills","city_fetched":"Henderson,US","state":"NV","country":"United States","canonicalUrl":"https://foursquare.com/v/steiners-pub/41326e00f964a5201f151fe3","categoryId":"4bf58dd8d48988d11b941735","category":"Pub","checkinsCount":1980,"usersCount":668,"tipCount":28,"visitsCount":2329,"url":"http://steinerspub.com","tier":2,"message":"Moderate","currency":"$","rating":7.9},{"name":"The Olive Hookah Lounge","phone":"7024518805","twitter":"theolivehookah","address":"3850 E Sunset Rd","lat":36.0719000685644,"lng":-115.09045726291164,"city_fetched":"Henderson,US","state":"NV","country":"United States","canonicalUrl":"https://foursquare.com/v/the-olive-hookah-lounge/4c3bc3e0a9509c74f5df385b","categoryId":"4bf58dd8d48988d119941735","category":"Hookah Bar","checkinsCount":2334,"usersCount":966,"tipCount":29,"visitsCount":2679,"url":"http://www.olivemediterraneangrill.com","tier":1,"message":"Cheap","currency":"$","rating":7.9},{"name":"LONGBAR at the D Casino Hotel","address":"301 Fremont St","lat":36.16978154787144,"lng":-115.14294028044918,"neighborhood":"Downtown Las Vegas","city_fetched":"Henderson,US","state":"NV","country":"United States","canonicalUrl":"https://foursquare.com/v/longbar-at-the-d-casino-hotel/5161e951e4b02bf7dc414bb1","categoryId":"4bf58dd8d48988d1d5941735","category":"Hotel Bar","checkinsCount":612,"usersCount":229,"tipCount":5,"visitsCount":613,"tier":"","message":"","currency":"","rating":7.9},{"name":"Lobby Bar","phone":"7025907111","twitter":"arialv","address":"3730 Las Vegas Blvd S","lat":36.107650169286394,"lng":-115.17600776709352,"neighborhood":"The Strip","city_fetched":"Henderson,US","state":"NV","country":"United States","canonicalUrl":"https://foursquare.com/v/lobby-bar/4b396e0df964a520795c25e3","categoryId":"4bf58dd8d48988d121941735","category":"Lounge","checkinsCount":3144,"usersCount":2055,"tipCount":28,"visitsCount":3151,"url":"http://www.arialasvegas.com","tier":"","message":"","currency":"","rating":7.9},{"name":"Black Mountain Grill","phone":"7029900990","address":"11021 South Eastern Avenue","lat":35.99202456781151,"lng":-115.10279417037964,"city_fetched":"Henderson,US","state":"NV","country":"United States","canonicalUrl":"https://foursquare.com/v/black-mountain-grill/4b089efbf964a520a20f23e3","categoryId":"4bf58dd8d48988d116941735","category":"Bar","checkinsCount":1446,"usersCount":448,"tipCount":18,"visitsCount":1492,"url":"http://www.blackmountaingrill.com","tier":2,"message":"Moderate","currency":"$","rating":7.9},{"name":"The Phoenix Bar","phone":"7028262422","address":"4213 W Sahara Ave","lat":36.144182794456114,"lng":-115.19764365879661,"city_fetched":"Henderson,US","state":"NV","country":"United States","canonicalUrl":"https://foursquare.com/v/the-phoenix-bar/52c8e6fc11d21cad1a151a9a","categoryId":"4bf58dd8d48988d1d8941735","category":"Gay Bar","checkinsCount":647,"usersCount":393,"tipCount":6,"visitsCount":1115,"url":"http://thephoenixlv.com","tier":1,"message":"Cheap","currency":"$","rating":7.9},{"name":"Steiner's","phone":"8883648556","twitter":"steinerspublv","address":"8168 Las Vegas Blvd S","lat":36.0407878373639,"lng":-115.17164798822176,"city_fetched":"Henderson,US","state":"NV","country":"United States","canonicalUrl":"https://foursquare.com/v/steiners/4ae3a2cbf964a520859721e3","categoryId":"4bf58dd8d48988d116941735","category":"Bar","checkinsCount":3625,"usersCount":1798,"tipCount":51,"visitsCount":4288,"url":"http://www.steinerspub.com","tier":2,"message":"Moderate","currency":"$","rating":7.8},{"name":"Shakespeares Grille & Pub","phone":"7028377900","twitter":"shakespearesgp","address":"790 Coronado Center Dr #130","lat":36.00301886572356,"lng":-115.10756454636918,"city_fetched":"Henderson,US","state":"NV","country":"United States","canonicalUrl":"https://foursquare.com/v/shakespeares-grille--pub/4c9013245fdf6dcb61d72d91","categoryId":"4bf58dd8d48988d11b941735","category":"Pub","checkinsCount":2602,"usersCount":928,"tipCount":16,"visitsCount":3285,"url":"http://www.shakespeares-pub.com","tier":2,"message":"Moderate","currency":"$","rating":7.7},{"name":"American Storm at Planet Hollywood","phone":"7027017778","twitter":"americanstormlv","address":"Planet Hollywood Resort & Casino   3663 S Las Vegas Blvd, Las Vegas, NV","lat":36.049752831459045,"lng":-115.13211759,"city_fetched":"Henderson,US","state":"NV","country":"United States","canonicalUrl":"https://foursquare.com/americanstormlv","categoryId":"4bf58dd8d48988d1d6941735","category":"Strip Club","checkinsCount":53,"usersCount":13,"tipCount":1,"visitsCount":53,"url":"http://american-storm.com","tier":"","message":"","currency":"","rating":7.7},{"name":"Hi Scores Bar-Arcade","phone":"7025227766","twitter":"hiscoreslv","address":"65 S. Stephanie St.","lat":36.026014850041456,"lng":-115.047829935453,"neighborhood":"Green Valley Ranch","city_fetched":"Henderson,US","state":"NV","country":"United States","canonicalUrl":"https://foursquare.com/hiscoreslv","categoryId":"4bf58dd8d48988d116941735","category":"Bar","checkinsCount":2436,"usersCount":1051,"tipCount":21,"visitsCount":2918,"url":"http://www.hiscoreslv.com","tier":2,"message":"Moderate","currency":"$","rating":7.7},{"name":"Remedy's Tavern","phone":"7029823026","twitter":"remedystavern","address":"3265 Saint Rose Pkwy","lat":35.99772579,"lng":-115.126226,"neighborhood":"Seven Hills","city_fetched":"Henderson,US","state":"NV","country":"United States","canonicalUrl":"https://foursquare.com/v/remedys-tavern/4b42d157f964a5202ada25e3","categoryId":"4bf58dd8d48988d116941735","category":"Bar","checkinsCount":2374,"usersCount":1203,"tipCount":29,"visitsCount":2847,"url":"http://remedystavern.com","tier":2,"message":"Moderate","currency":"$","rating":7.7},{"name":"Artisan After Hours","phone":"7022144000","address":"1501 W Sahara Ave","lat":36.14364870700952,"lng":-115.16999785713004,"city_fetched":"Henderson,US","state":"NV","country":"United States","canonicalUrl":"https://foursquare.com/v/artisan-after-hours/4f5dd63be4b070e0490dcd77","categoryId":"4bf58dd8d48988d121941735","category":"Lounge","checkinsCount":1259,"usersCount":755,"tipCount":13,"visitsCount":1367,"url":"http://artisanhotel.com","tier":"","message":"","currency":"","rating":7.7},{"name":"Cheetahs","phone":"7023840074","twitter":"cheetahs_vegas","address":"2112 Western Ave","lat":36.14785869164734,"lng":-115.1659622373526,"city_fetched":"Henderson,US","state":"NV","country":"United States","canonicalUrl":"https://foursquare.com/v/cheetahs/41326e00f964a52053151fe3","categoryId":"4bf58dd8d48988d1d6941735","category":"Strip Club","checkinsCount":1139,"usersCount":987,"tipCount":15,"visitsCount":1656,"url":"http://www.cheetahslasvegas.com","tier":"","message":"","currency":"","rating":7.7},{"name":"Layla Grill & Hookah","phone":"7022024930","address":"8665 W Flamingo Rd","lat":36.1143591538987,"lng":-115.28119736194071,"city_fetched":"Henderson,US","state":"NV","country":"United States","canonicalUrl":"https://foursquare.com/v/layla-grill--hookah/510b1742e4b0f110f63f3a1b","categoryId":"4bf58dd8d48988d119941735","category":"Hookah Bar","checkinsCount":156,"usersCount":92,"tipCount":5,"visitsCount":162,"url":"http://www.laylalv.com","tier":"","message":"","currency":"","rating":7.7},{"name":"Inn Zone","address":"2990 Saint Rose Pkwy","lat":36.00509039,"lng":-115.11834676,"neighborhood":"Silverado Ranch","city_fetched":"Henderson,US","state":"NV","country":"United States","canonicalUrl":"https://foursquare.com/v/inn-zone/4b526118f964a520607a27e3","categoryId":"4bf58dd8d48988d116941735","category":"Bar","checkinsCount":787,"usersCount":218,"tipCount":17,"visitsCount":850,"tier":"","message":"","currency":"","rating":7.7},{"name":"Little Crown & Anchor","phone":"7028764733","address":"4755 Spring Mountain Rd","lat":36.12610038655026,"lng":-115.20599771608411,"city_fetched":"Henderson,US","state":"NV","country":"United States","canonicalUrl":"https://foursquare.com/v/little-crown--anchor/4b99d73af964a5201c9435e3","categoryId":"4bf58dd8d48988d116941735","category":"Bar","checkinsCount":1853,"usersCount":901,"tipCount":26,"visitsCount":2090,"url":"http://crownandanchorlv.com","tier":"","message":"","currency":"","rating":7.7},{"name":"Ravello Lounge","phone":"7027971000","twitter":"mresort","address":"12300 Las Vegas Blvd S","lat":35.96520424009756,"lng":-115.16966782988546,"city_fetched":"Henderson,US","state":"NV","country":"United States","canonicalUrl":"https://foursquare.com/v/ravello-lounge/4ba04aecf964a520be6637e3","categoryId":"4bf58dd8d48988d121941735","category":"Lounge","checkinsCount":376,"usersCount":284,"tipCount":4,"visitsCount":377,"url":"http://www.themresort.com/blog","tier":"","message":"","currency":"","rating":7.7},{"name":"Las Vegas Pride: Freemont Street Experience","twitter":"verizoninsider","address":"500 S Grand Central Pkwy","lat":36.16382959658915,"lng":-115.15598773956297,"city_fetched":"Henderson,US","state":"NV","country":"United States","canonicalUrl":"https://foursquare.com/v/las-vegas-pride-freemont-street-experience/5049138a72da348524547dd2","categoryId":"4bf58dd8d48988d1d8941735","category":"Gay Bar","checkinsCount":225,"usersCount":219,"tipCount":5,"visitsCount":226,"tier":"","message":"","currency":"","rating":7.6},{"name":"Planet Hollywood Diamond Lounge","phone":"8669197472","twitter":"phvegas","address":"3663 Las Vegas Blvd S","lat":36.10964233518847,"lng":-115.17297387683047,"neighborhood":"The Strip","city_fetched":"Henderson,US","state":"NV","country":"United States","canonicalUrl":"https://foursquare.com/v/planet-hollywood-diamond-lounge/4c479a3f76d72d7f2dd43d4d","categoryId":"4bf58dd8d48988d1d5941735","category":"Hotel Bar","checkinsCount":1195,"usersCount":813,"tipCount":9,"visitsCount":1196,"url":"http://www.planethollywoodresort.com","tier":"","message":"","currency":"","rating":7.6},{"name":"Vince Neil's Girls Girls Girls","phone":"7027678118","twitter":"vinceneilsggg","address":"4740 Arville St","lat":36.10394880963864,"lng":-115.19899838580619,"city_fetched":"Henderson,US","state":"NV","country":"United States","canonicalUrl":"https://foursquare.com/vinceneilsggg","categoryId":"4bf58dd8d48988d1d6941735","category":"Strip Club","checkinsCount":263,"usersCount":116,"tipCount":5,"visitsCount":263,"url":"http://www.girlsgirlsgirlsvegas.com","tier":"","message":"","currency":"","rating":7.6},{"name":"Las Vegas","lat":36.100772514644525,"lng":-115.17409711438567,"neighborhood":"The Strip","city_fetched":"Henderson,US","state":"NV","country":"United States","canonicalUrl":"https://foursquare.com/v/las-vegas/53ed7411498eb717d225d5e3","categoryId":"4bf58dd8d48988d1d5941735","category":"Hotel Bar","checkinsCount":331,"usersCount":318,"tipCount":2,"visitsCount":333,"tier":"","message":"","currency":"","rating":7.6},{"name":"Pt's Pub - Silverado Ranch","phone":"7029683013","address":"1383 E Silverado Ranch Blvd","lat":36.01339171954454,"lng":-115.15069358424019,"neighborhood":"Silverado Ranch","city_fetched":"Henderson,US","state":"NV","country":"United States","canonicalUrl":"https://foursquare.com/v/pts-pub--silverado-ranch/4aefaaaaf964a520d3d921e3","categoryId":"4bf58dd8d48988d11b941735","category":"Pub","checkinsCount":481,"usersCount":200,"tipCount":4,"visitsCount":553,"url":"http://www.pteglv.com","tier":"","message":"","currency":"","rating":7.5},{"name":"Hookah MASTER's Lounge â„¢","phone":"7027768000","twitter":"hookahmasterlv","address":"5900 W Charleston Blvd #8","lat":36.159377334071415,"lng":-115.22263526916504,"city_fetched":"Henderson,US","state":"NV","country":"United States","canonicalUrl":"https://foursquare.com/v/hookah-masters-lounge-/4f7d4dace5e8894bb8465a36","categoryId":"4bf58dd8d48988d119941735","category":"Hookah Bar","checkinsCount":2581,"usersCount":370,"tipCount":13,"visitsCount":2887,"url":"http://www.hookahmasterslounge.com","tier":"","message":"","currency":"","rating":7.5},{"name":"Centra","twitter":"luxorlv","address":"3900 Las Vegas Blvd S","lat":36.09557137768721,"lng":-115.17552142022078,"neighborhood":"The Strip","city_fetched":"Henderson,US","state":"NV","country":"United States","canonicalUrl":"https://foursquare.com/v/centra/4ff87188e4b0d61584a1824a","categoryId":"4bf58dd8d48988d1d5941735","category":"Hotel Bar","checkinsCount":1047,"usersCount":866,"tipCount":4,"visitsCount":1049,"url":"http://luxor.com","tier":2,"message":"Moderate","currency":"$","rating":7.5},{"name":"The D Bar","phone":"7023882400","twitter":"thedlasvegas","address":"301 Fremont St","lat":36.170035027241624,"lng":-115.14279551944692,"neighborhood":"Downtown Las Vegas","city_fetched":"Henderson,US","state":"NV","country":"United States","canonicalUrl":"https://foursquare.com/v/the-d-bar/4f647d3be4b045fbd3bc31a7","categoryId":"4bf58dd8d48988d116941735","category":"Bar","checkinsCount":1264,"usersCount":722,"tipCount":12,"visitsCount":1267,"url":"http://www.thed.com","tier":"","message":"","currency":"","rating":7.5},{"name":"Due & Proper","phone":"7057987000","twitter":"dueandproperbar","address":"2240 Village Walk Dr","lat":36.021114349365234,"lng":-115.08633422851562,"neighborhood":"Green Valley Ranch","city_fetched":"Henderson,US","state":"NV","country":"United States","canonicalUrl":"https://foursquare.com/v/due--proper/5427b64d498eabdbcf971e0e","categoryId":"4bf58dd8d48988d11b941735","category":"Pub","checkinsCount":246,"usersCount":172,"tipCount":2,"visitsCount":266,"url":"http://dueandproperbar.com","tier":"","message":"","currency":"","rating":7.5},{"name":"The Bar","phone":"7022693177","twitter":"thebarlv","address":"11624 S Bermuda Rd","lat":35.978769,"lng":-115.155071,"city_fetched":"Henderson,US","state":"NV","country":"United States","canonicalUrl":"https://foursquare.com/v/the-bar/4b91fac5f964a5200ae233e3","categoryId":"4bf58dd8d48988d116941735","category":"Bar","checkinsCount":2609,"usersCount":641,"tipCount":14,"visitsCount":2972,"tier":2,"message":"Moderate","currency":"$","rating":7.5},{"name":"QuadZ","phone":"7027330383","address":"4640 Paradise Rd","lat":36.10540884132345,"lng":-115.15090782522103,"city_fetched":"Henderson,US","state":"NV","country":"United States","canonicalUrl":"https://foursquare.com/v/quadz/53221702498e89e0a72ce5d1","categoryId":"4bf58dd8d48988d1d8941735","category":"Gay Bar","checkinsCount":489,"usersCount":253,"tipCount":0,"visitsCount":625,"url":"http://quadzbar.com","tier":1,"message":"Cheap","currency":"$","rating":7.5},{"name":"Wine and Canvas","phone":"7025514251","twitter":"wineandcanvaslv","address":"730 W Sunset Rd","lat":36.06453622121815,"lng":-115.02415084981195,"city_fetched":"Henderson,US","state":"NV","country":"United States","canonicalUrl":"https://foursquare.com/v/wine-and-canvas/521645ef11d299f75eccdf18","categoryId":"4bf58dd8d48988d123941735","category":"Wine Bar","checkinsCount":260,"usersCount":96,"tipCount":5,"visitsCount":280,"url":"http://www.wineandcanvas.com","tier":3,"message":"Expensive","currency":"$","rating":7.5},{"name":"Remedy's Tavern","phone":"7024788300","twitter":"remedystavern","address":"530 Conestoga Way","lat":35.993420645384134,"lng":-114.9331433665365,"neighborhood":"Mission Hills","city_fetched":"Henderson,US","state":"NV","country":"United States","canonicalUrl":"https://foursquare.com/v/remedys-tavern/4bd282f4b221c9b61ef4d7d0","categoryId":"4bf58dd8d48988d11b941735","category":"Pub","checkinsCount":876,"usersCount":469,"tipCount":13,"visitsCount":1159,"url":"http://remedystavern.com","tier":"","message":"","currency":"","rating":7.4},{"name":"Arabesque Lounge","address":"101 Montelago Blvd","lat":36.11410081802672,"lng":-114.92231978989959,"neighborhood":"Lake Las Vegas","city_fetched":"Henderson,US","state":"NV","country":"United States","canonicalUrl":"https://foursquare.com/v/arabesque-lounge/4ce079cb70bba1cd029c6cc4","categoryId":"4bf58dd8d48988d1d5941735","category":"Hotel Bar","checkinsCount":318,"usersCount":168,"tipCount":7,"visitsCount":318,"tier":"","message":"","currency":"","rating":7.4},{"name":"Cabo Wabo Cantina","phone":"7023852226","address":"3663 Las Vegas Blvd S","lat":36.11103721622203,"lng":-115.17268438197249,"neighborhood":"The Strip","city_fetched":"Henderson,US","state":"NV","country":"United States","canonicalUrl":"https://foursquare.com/v/cabo-wabo-cantina/4b19c9edf964a52031e423e3","categoryId":"4bf58dd8d48988d116941735","category":"Bar","checkinsCount":18711,"usersCount":15325,"tipCount":234,"visitsCount":19071,"url":"http://www.cabowabocantina.com/vegas","tier":2,"message":"Moderate","currency":"$","rating":7.4},{"name":"Hunk Mansion Male Strip Club","phone":"7029328625","twitter":"hunkmansion","address":"6007 Dean Martin Dr","lat":36.08026406137092,"lng":-115.18296707770244,"city_fetched":"Henderson,US","state":"NV","country":"United States","canonicalUrl":"https://foursquare.com/v/hunk-mansion-male-strip-club/51c9cb5c2fc6872f7cf1e9a0","categoryId":"4bf58dd8d48988d1d6941735","category":"Strip Club","checkinsCount":47,"usersCount":46,"tipCount":4,"visitsCount":47,"url":"http://www.hunkmansion.com","tier":"","message":"","currency":"","rating":7.4},{"name":"PT's Pub And Poker","phone":"7023683744","address":"4424 Spring Mountain Rd","lat":36.1267124119199,"lng":-115.19950785428942,"city_fetched":"Henderson,US","state":"NV","country":"United States","canonicalUrl":"https://foursquare.com/v/pts-pub-and-poker/4b652c74f964a52087e72ae3","categoryId":"4bf58dd8d48988d11b941735","category":"Pub","checkinsCount":1769,"usersCount":1015,"tipCount":14,"visitsCount":2044,"url":"http://www.pteglv.com","tier":"","message":"","currency":"","rating":7.4},{"name":"Jackson's Bar and Grill","phone":"7023622116","twitter":"beststeakdeal","address":"6020 W Flamingo Rd","lat":36.115248,"lng":-115.224049,"city_fetched":"Henderson,US","state":"NV","country":"United States","canonicalUrl":"https://foursquare.com/v/jacksons-bar-and-grill/4bbbc2f1afe1b7130ba72f4b","categoryId":"4bf58dd8d48988d116941735","category":"Bar","checkinsCount":1005,"usersCount":483,"tipCount":12,"visitsCount":1190,"url":"http://www.jacksonsbarandgrill.com","tier":"","message":"","currency":"","rating":7.3},{"name":"Mardi Gras Bar","phone":"7023657111","address":"4500 W Tropicana Ave","lat":36.10210993259903,"lng":-115.20141835378149,"city_fetched":"Henderson,US","state":"NV","country":"United States","canonicalUrl":"https://foursquare.com/v/mardi-gras-bar/4c85c7cee602b1f791daba7a","categoryId":"4bf58dd8d48988d1d5941735","category":"Hotel Bar","checkinsCount":563,"usersCount":303,"tipCount":1,"visitsCount":565,"url":"http://www.theborgata.com","tier":"","message":"","currency":"","rating":7.3},{"name":"Caesars Palace Lobby Bar","twitter":"caesarspalace","address":"3570 Las Vegas Blvd S","lat":36.11914679029217,"lng":-115.17313020394427,"neighborhood":"The Strip","city_fetched":"Henderson,US","state":"NV","country":"United States","canonicalUrl":"https://foursquare.com/v/caesars-palace-lobby-bar/4b8329d3f964a52031fb30e3","categoryId":"4bf58dd8d48988d1d5941735","category":"Hotel Bar","checkinsCount":1231,"usersCount":1126,"tipCount":1,"visitsCount":1231,"url":"https://caesars.com","tier":"","message":"","currency":"","rating":7.3},{"name":"Strip Clubs Las Vegas","phone":"7027585151","address":"5030 Paradise Rd","lat":36.100922075180144,"lng":-115.17284649912541,"neighborhood":"The Strip","city_fetched":"Henderson,US","state":"NV","country":"United States","canonicalUrl":"https://foursquare.com/v/strip-clubs-las-vegas/516b26f1f2e749cb1f2af67f","categoryId":"4bf58dd8d48988d1d6941735","category":"Strip Club","checkinsCount":254,"usersCount":106,"tipCount":8,"visitsCount":254,"url":"http://stripclubslasvegas.co","tier":"","message":"","currency":"","rating":7.3},{"name":"Blue Hawk Tavern","phone":"7026140065","address":"11997 Las Vegas Blvd S","lat":35.97261163918195,"lng":-115.17343127816925,"city_fetched":"Henderson,US","state":"NV","country":"United States","canonicalUrl":"https://foursquare.com/v/blue-hawk-tavern/4b7e09b1f964a5203be02fe3","categoryId":"4bf58dd8d48988d116941735","category":"Bar","checkinsCount":653,"usersCount":206,"tipCount":6,"visitsCount":784,"tier":"","message":"","currency":"","rating":7.3},{"name":"M Bar","phone":"7027971000","twitter":"mresort","address":"12300 Las Vegas Blvd S","lat":35.96487811113451,"lng":-115.16934938221999,"city_fetched":"Henderson,US","state":"NV","country":"United States","canonicalUrl":"https://foursquare.com/v/m-bar/4b7e83cbf964a52071f02fe3","categoryId":"4bf58dd8d48988d11e941735","category":"Cocktail Bar","checkinsCount":483,"usersCount":321,"tipCount":5,"visitsCount":484,"url":"http://www.themresort.com/blog","tier":"","message":"","currency":"","rating":7.3},{"name":"Luna Lounge Las Vegas","phone":"7024629991","twitter":"lunalasvegas","address":"3057 Las Vegas Blvd S","lat":36.131213,"lng":-115.16392,"neighborhood":"The Strip","city_fetched":"Henderson,US","state":"NV","country":"United States","canonicalUrl":"https://foursquare.com/v/luna-lounge-las-vegas/51a04feb498e7d4b46159bdd","categoryId":"4bf58dd8d48988d119941735","category":"Hookah Bar","checkinsCount":461,"usersCount":515,"tipCount":12,"visitsCount":661,"url":"http://lunalasvegas.com","tier":2,"message":"Moderate","currency":"$","rating":7.3},{"name":"Rush Hour Bar","phone":"7023077168","address":"Sunset/Annie Oakley","lat":36.070668616666666,"lng":-115.08768,"neighborhood":"Green Valley North","city_fetched":"Henderson,US","state":"NV","country":"United States","canonicalUrl":"https://foursquare.com/v/rush-hour-bar/4b62a81df964a520134e2ae3","categoryId":"4bf58dd8d48988d116941735","category":"Bar","checkinsCount":808,"usersCount":259,"tipCount":9,"visitsCount":868,"tier":"","message":"","currency":"","rating":7.3},{"name":"Barley's Casino & Brewing Company","phone":"7024582739","address":"4500 E Sunset Rd Ste 30","lat":36.072357476646836,"lng":-115.07517345569869,"neighborhood":"Green Valley North","city_fetched":"Henderson,US","state":"NV","country":"United States","canonicalUrl":"https://foursquare.com/v/barleys-casino--brewing-company/4b27f2b4f964a520c38c24e3","categoryId":"50327c8591d4c4b30a586d5d","category":"Brewery","checkinsCount":2162,"usersCount":1109,"tipCount":25,"visitsCount":2823,"tier":1,"message":"Cheap","currency":"$","rating":7.3},{"name":"Public House Las Vegas","phone":"2155685200","twitter":"luxorlv","address":"3900 Las Vegas Blvd S","lat":36.09549333538566,"lng":-115.17523527145386,"neighborhood":"The Strip","city_fetched":"Henderson,US","state":"NV","country":"United States","canonicalUrl":"https://foursquare.com/v/public-house-las-vegas/4fc52e2b0cd6374e63b79dd9","categoryId":"4bf58dd8d48988d11b941735","category":"Pub","checkinsCount":2627,"usersCount":2189,"tipCount":46,"visitsCount":2631,"url":"http://luxor.com","tier":2,"message":"Moderate","currency":"$","rating":7.2},{"name":"Gustav's Bar","twitter":"parisvegas","address":"3555 Las Vegas Blvd S","lat":36.112473004310836,"lng":-115.17205328226915,"neighborhood":"The Strip","city_fetched":"Henderson,US","state":"NV","country":"United States","canonicalUrl":"https://foursquare.com/v/gustavs-bar/4b765dcaf964a520a4492ee3","categoryId":"4bf58dd8d48988d1d5941735","category":"Hotel Bar","checkinsCount":2044,"usersCount":877,"tipCount":8,"visitsCount":2062,"tier":"","message":"","currency":"","rating":7.2},{"name":"Palomino Club","phone":"7023277258","address":"1848 Las Vegas Blvd N","lat":36.19324462789901,"lng":-115.13122021854151,"neighborhood":"Downtown North Las Vegas","city_fetched":"Henderson,US","state":"NV","country":"United States","canonicalUrl":"https://foursquare.com/v/palomino-club/41326e00f964a520c8141fe3","categoryId":"4bf58dd8d48988d11f941735","category":"Nightclub","checkinsCount":1972,"usersCount":1314,"tipCount":18,"visitsCount":2785,"url":"http://www.palominolv.com","tier":"","message":"","currency":"","rating":7.2},{"name":"Flamingo Garden Bar","twitter":"flamingovegas","address":"3555 Las Vegas Blvd S","lat":36.116509551278085,"lng":-115.17093003749963,"neighborhood":"The Strip","city_fetched":"Henderson,US","state":"NV","country":"United States","canonicalUrl":"https://foursquare.com/v/flamingo-garden-bar/4c0568aed3842d7f1925be41","categoryId":"4bf58dd8d48988d1d5941735","category":"Hotel Bar","checkinsCount":1104,"usersCount":930,"tipCount":4,"visitsCount":1105,"url":"http://www.flamingolasvegas.com","tier":"","message":"","currency":"","rating":7.2},{"name":"Elixir - A Local Lounge","phone":"7022720000","twitter":"elixirnv","address":"2920 N Green Valley Pkwy","lat":36.07583177669093,"lng":-115.08155000034593,"neighborhood":"Green Valley North","city_fetched":"Henderson,US","state":"NV","country":"United States","canonicalUrl":"https://foursquare.com/v/elixir--a-local-lounge/523909d411d2d61bf6389168","categoryId":"4bf58dd8d48988d116941735","category":"Bar","checkinsCount":314,"usersCount":207,"tipCount":6,"visitsCount":457,"url":"http://www.elixirlounge.net","tier":2,"message":"Moderate","currency":"$","rating":7.1},{"name":"Bar Vdara","phone":"7025902111","twitter":"arialv","address":"2600 W Harmon Ave","lat":36.10820444635988,"lng":-115.17744943380855,"neighborhood":"The Strip","city_fetched":"Henderson,US","state":"NV","country":"United States","canonicalUrl":"https://foursquare.com/v/bar-vdara/4b94899ff964a520c87c34e3","categoryId":"4bf58dd8d48988d116941735","category":"Bar","checkinsCount":2372,"usersCount":1388,"tipCount":20,"visitsCount":2378,"url":"http://www.arialasvegas.com","tier":"","message":"","currency":"","rating":7.1},{"name":"Kahunaville","phone":"7028947390","twitter":"kahunavillelv","address":"Treasure Island Hotel & Casino","lat":36.124818981807124,"lng":-115.1725396344447,"neighborhood":"The Strip","city_fetched":"Henderson,US","state":"NV","country":"United States","canonicalUrl":"https://foursquare.com/v/kahunaville/49dc07e0f964a5204c5f1fe3","categoryId":"4bf58dd8d48988d1d5941735","category":"Hotel Bar","checkinsCount":9840,"usersCount":7612,"tipCount":152,"visitsCount":9852,"url":"http://www.kahunaville.com","tier":2,"message":"Moderate","currency":"$","rating":7.1},{"name":"32 Degrees","phone":"7028911111","address":"3799 Las Vegas Blvd S","lat":36.10335143538084,"lng":-115.16823770787401,"neighborhood":"The Strip","city_fetched":"Henderson,US","state":"NV","country":"United States","canonicalUrl":"https://foursquare.com/v/32-degrees/510c8aade4b0769187ebc1e6","categoryId":"4bf58dd8d48988d1d5941735","category":"Hotel Bar","checkinsCount":131,"usersCount":125,"tipCount":2,"visitsCount":131,"tier":"","message":"","currency":"","rating":7.1},{"name":"Chilly Palmer's Grille","phone":"7024562520","address":"1640 W Warm Springs Rd","lat":36.05689287185669,"lng":-115.05619035,"neighborhood":"Whitney Ranch","city_fetched":"Henderson,US","state":"NV","country":"United States","canonicalUrl":"https://foursquare.com/v/chilly-palmers-grille/4b46a6a3f964a520412626e3","categoryId":"4bf58dd8d48988d116941735","category":"Bar","checkinsCount":670,"usersCount":248,"tipCount":8,"visitsCount":714,"tier":"","message":"","currency":"","rating":7.1},{"name":"Tahiti Joe's At Tahiti Village","address":"7200 Las Vegas Blvd S","lat":36.05924542229934,"lng":-115.1716190386272,"city_fetched":"Henderson,US","state":"NV","country":"United States","canonicalUrl":"https://foursquare.com/v/tahiti-joes-at-tahiti-village/46f7d413f964a520fe4a1fe3","categoryId":"4bf58dd8d48988d1d5941735","category":"Hotel Bar","checkinsCount":853,"usersCount":509,"tipCount":9,"visitsCount":854,"tier":"","message":"","currency":"","rating":7.1},{"name":"Spotlight Lounge Las Vegas","phone":"7026960202","address":"957 E Sahara Ave","lat":36.14374092891787,"lng":-115.14216436071385,"city_fetched":"Henderson,US","state":"NV","country":"United States","canonicalUrl":"https://foursquare.com/v/spotlight-lounge-las-vegas/4b538b85f964a52072a127e3","categoryId":"4bf58dd8d48988d1d8941735","category":"Gay Bar","checkinsCount":757,"usersCount":260,"tipCount":7,"visitsCount":810,"url":"http://spotlightlounge.com","tier":"","message":"","currency":"","rating":7.1},{"name":"Club Paradise Gentlemen's Club","phone":"7027347990","twitter":"club_paradiselv","address":"4416 Paradise Rd","lat":36.109481,"lng":-115.152029,"city_fetched":"Henderson,US","state":"NV","country":"United States","canonicalUrl":"https://foursquare.com/v/club-paradise-gentlemens-club/41326e00f964a520ff131fe3","categoryId":"4bf58dd8d48988d1d6941735","category":"Strip Club","checkinsCount":763,"usersCount":447,"tipCount":19,"visitsCount":785,"url":"http://www.clubparadise.net","tier":"","message":"","currency":"","rating":7.1},{"name":"Elara Lobby Lounge","twitter":"hiltongrandvac","address":"80 E Harmon Ave","lat":36.10879089816986,"lng":-115.16849756240845,"neighborhood":"The Strip","city_fetched":"Henderson,US","state":"NV","country":"United States","canonicalUrl":"https://foursquare.com/v/elara-lobby-lounge/5019d6eae4b004b505599b36","categoryId":"4bf58dd8d48988d1d5941735","category":"Hotel Bar","checkinsCount":294,"usersCount":179,"tipCount":1,"visitsCount":294,"url":"http://www.stayhgv.com","tier":"","message":"","currency":"","rating":7},{"name":"Gold Mine Tavern","address":"23 S Water St","lat":36.03536834979616,"lng":-114.98548373579979,"city_fetched":"Henderson,US","state":"NV","country":"United States","canonicalUrl":"https://foursquare.com/v/gold-mine-tavern/41326e00f964a52047141fe3","categoryId":"4bf58dd8d48988d116941735","category":"Bar","checkinsCount":981,"usersCount":327,"tipCount":4,"visitsCount":1119,"tier":"","message":"","currency":"","rating":7},{"name":"Goodtimes Bar & Nightclub","phone":"7027369494","address":"1775 E Tropicana Ave","lat":36.100645770522064,"lng":-115.12886341539003,"city_fetched":"Henderson,US","state":"NV","country":"United States","canonicalUrl":"https://foursquare.com/v/goodtimes-bar--nightclub/4bdd38a7f219c9b6bf3b1210","categoryId":"4bf58dd8d48988d1d8941735","category":"Gay Bar","checkinsCount":1067,"usersCount":348,"tipCount":9,"visitsCount":1087,"tier":"","message":"","currency":"","rating":7},{"name":"the 052","phone":"7024855609","twitter":"the052","address":"11261 S Eastern Ave #100","lat":35.987177898303074,"lng":-115.10126958779604,"city_fetched":"Henderson,US","state":"NV","country":"United States","canonicalUrl":"https://foursquare.com/the052","categoryId":"4bf58dd8d48988d116941735","category":"Bar","checkinsCount":1225,"usersCount":239,"tipCount":4,"visitsCount":1594,"url":"http://www.the052.com","tier":"","message":"","currency":"","rating":6.9},{"name":"32 Degree Draft Bar @ M Resort","phone":"7027971000","twitter":"mresort","address":"12300 Las Vegas Blvd S","lat":35.96510333139721,"lng":-115.1686692237854,"city_fetched":"Henderson,US","state":"NV","country":"United States","canonicalUrl":"https://foursquare.com/v/32-degree-draft-bar--m-resort/4ba95b73f964a520a1213ae3","categoryId":"4bf58dd8d48988d116941735","category":"Bar","checkinsCount":968,"usersCount":516,"tipCount":6,"visitsCount":968,"url":"http://www.themresort.com/blog","tier":2,"message":"Moderate","currency":"$","rating":6.9},{"name":"Little Darlings Totally Nude 18+","phone":"7023661141","twitter":"littledslv","address":"1514 Western Ave","lat":36.153667838557595,"lng":-115.16159074078736,"city_fetched":"Henderson,US","state":"NV","country":"United States","canonicalUrl":"https://foursquare.com/v/little-darlings-totally-nude-18/4afd0415f964a520c72622e3","categoryId":"4bf58dd8d48988d1d6941735","category":"Strip Club","checkinsCount":3149,"usersCount":1403,"tipCount":47,"visitsCount":3777,"url":"http://www.littledarlingsvegas.com","tier":"","message":"","currency":"","rating":6.9},{"name":"Timber's Bar & Grill","phone":"7024920027","address":"1450 W Horizon Ridge Pkwy","lat":36.02324360361426,"lng":-115.04787048037738,"neighborhood":"Green Valley Ranch","city_fetched":"Henderson,US","state":"NV","country":"United States","canonicalUrl":"https://foursquare.com/v/timbers-bar--grill/4c1338bf77cea593e28ace60","categoryId":"4bf58dd8d48988d118941735","category":"Dive Bar","checkinsCount":1268,"usersCount":472,"tipCount":12,"visitsCount":1439,"url":"http://timbersgaming.com","tier":"","message":"","currency":"","rating":6.9},{"name":"Harrah's Sport Book","twitter":"harrahsvegas","address":"6671 Las Vegas Blvd S","lat":36.11903512676422,"lng":-115.17196064367523,"neighborhood":"The Strip","city_fetched":"Henderson,US","state":"NV","country":"United States","canonicalUrl":"https://foursquare.com/v/harrahs-sport-book/4ba42cc9f964a5201a8938e3","categoryId":"4bf58dd8d48988d1d5941735","category":"Hotel Bar","checkinsCount":751,"usersCount":498,"tipCount":2,"visitsCount":752,"url":"http://harrahslasvegas.com","tier":"","message":"","currency":"","rating":6.9},{"name":"Sporting Life Bar","phone":"7023314647","twitter":"sportinglifebar","address":"7770 S Jones Blvd","lat":36.04825253724062,"lng":-115.22509021814217,"city_fetched":"Henderson,US","state":"NV","country":"United States","canonicalUrl":"https://foursquare.com/v/sporting-life-bar/532b3504498eb1c4ac627028","categoryId":"4bf58dd8d48988d11b941735","category":"Pub","checkinsCount":305,"usersCount":194,"tipCount":9,"visitsCount":516,"url":"http://sportinglifebar.com","tier":"","message":"","currency":"","rating":6.9},{"name":"Free Zone","phone":"7027942300","address":"610 E Naples Dr","lat":36.10591865233693,"lng":-115.150356,"city_fetched":"Henderson,US","state":"NV","country":"United States","canonicalUrl":"https://foursquare.com/v/free-zone/41326e00f964a52038141fe3","categoryId":"4bf58dd8d48988d1d8941735","category":"Gay Bar","checkinsCount":3827,"usersCount":1843,"tipCount":33,"visitsCount":4019,"url":"http://www.freezonelv.com","tier":1,"message":"Cheap","currency":"$","rating":6.9},{"name":"Vice Versa Patio & Lounge","lat":36.108269335054395,"lng":-115.1774031153009,"neighborhood":"The Strip","city_fetched":"Henderson,US","state":"NV","country":"United States","canonicalUrl":"https://foursquare.com/v/vice-versa-patio--lounge/54fe3ada498e07def4d855d4","categoryId":"4bf58dd8d48988d1d5941735","category":"Hotel Bar","checkinsCount":192,"usersCount":154,"tipCount":1,"visitsCount":192,"tier":"","message":"","currency":"","rating":6.9},{"name":"Tilted Kilt Las Vegas","phone":"7028262100","twitter":"tiltedkiltpub","address":"3545 Las Vegas Blvd. Unit L-26","lat":36.11757017108351,"lng":-115.17064054078259,"neighborhood":"The Strip","city_fetched":"Henderson,US","state":"NV","country":"United States","canonicalUrl":"https://foursquare.com/v/tilted-kilt-las-vegas/53b3191711d296b7f0f09cac","categoryId":"4bf58dd8d48988d11d941735","category":"Sports Bar","checkinsCount":1751,"usersCount":1604,"tipCount":14,"visitsCount":1983,"url":"http://www.tiltedkilt.com","tier":"","message":"","currency":"","rating":6.8},{"name":"Jack'sPlace","lat":35.97737313187099,"lng":-114.83825746912686,"city_fetched":"Henderson,US","state":"NV","country":"United States","canonicalUrl":"https://foursquare.com/v/jacksplace/5081d2eee4b0bf87c01335d7","categoryId":"4bf58dd8d48988d11d941735","category":"Sports Bar","checkinsCount":202,"usersCount":166,"tipCount":8,"visitsCount":207,"tier":"","message":"","currency":"","rating":6.8},{"name":"SHARE Nightclub & Ultra Lounge","phone":"7022582861","twitter":"sharenightclub","address":"4636 Wynn Rd","lat":36.10564841631742,"lng":-115.19422207882923,"city_fetched":"Henderson,US","state":"NV","country":"United States","canonicalUrl":"https://foursquare.com/v/share-nightclub--ultra-lounge/4ec75d3d02d5888e9bbb7f07","categoryId":"4bf58dd8d48988d1d8941735","category":"Gay Bar","checkinsCount":4266,"usersCount":2917,"tipCount":22,"visitsCount":5831,"url":"http://sharenightclub.com","tier":2,"message":"Moderate","currency":"$","rating":6.8},{"name":"Breeze Bar","twitter":"tivegas","address":"Treasure Island Hotel & Casino","lat":36.12390112012157,"lng":-115.17137007200527,"neighborhood":"The Strip","city_fetched":"Henderson,US","state":"NV","country":"United States","canonicalUrl":"https://foursquare.com/v/breeze-bar/4b5dd96ff964a520976f29e3","categoryId":"4bf58dd8d48988d1d5941735","category":"Hotel Bar","checkinsCount":1232,"usersCount":878,"tipCount":8,"visitsCount":1232,"url":"http://www.treasureisland.com","tier":"","message":"","currency":"","rating":6.8},{"name":"Play It Again Sam","phone":"7028761550","twitter":"samscabaret","address":"4120 Spring Mountain Rd","lat":36.126406368400005,"lng":-115.1955941889487,"city_fetched":"Henderson,US","state":"NV","country":"United States","canonicalUrl":"https://foursquare.com/v/play-it-again-sam/41326e00f964a520d1141fe3","categoryId":"4bf58dd8d48988d1d6941735","category":"Strip Club","checkinsCount":1361,"usersCount":166,"tipCount":7,"visitsCount":1399,"url":"http://www.playitagainsams.com","tier":"","message":"","currency":"","rating":6.8},{"name":"Lucky Joe's Saloon","address":"6250 Mountain Vista St","lat":36.075830435823384,"lng":-115.07297841292163,"neighborhood":"Green Valley North","city_fetched":"Henderson,US","state":"NV","country":"United States","canonicalUrl":"https://foursquare.com/v/lucky-joes-saloon/4b82162ef964a5202aca30e3","categoryId":"4bf58dd8d48988d116941735","category":"Bar","checkinsCount":498,"usersCount":191,"tipCount":6,"visitsCount":643,"tier":1,"message":"Cheap","currency":"$","rating":6.8},{"name":"Twin Peaks","address":"9510 S Eastern Suite 100","lat":36.0162467956543,"lng":-115.11824035644531,"neighborhood":"Silverado Ranch","city_fetched":"Henderson,US","state":"NV","country":"United States","canonicalUrl":"https://foursquare.com/v/twin-peaks/52fd4205498e7e782b834533","categoryId":"4bf58dd8d48988d116941735","category":"Bar","checkinsCount":1329,"usersCount":1046,"tipCount":24,"visitsCount":2332,"url":"http://www.twinpeaksrestaurant.com","tier":2,"message":"Moderate","currency":"$","rating":6.8},{"name":"Stripper Bar","phone":"7022607200","twitter":"phvegas","address":"3663 Las Vegas Blvd S","lat":36.11057835714286,"lng":-115.169571,"neighborhood":"The Strip","city_fetched":"Henderson,US","state":"NV","country":"United States","canonicalUrl":"https://foursquare.com/v/stripper-bar/4bb96abe7421a59325cec240","categoryId":"4bf58dd8d48988d116941735","category":"Bar","checkinsCount":1168,"usersCount":1035,"tipCount":6,"visitsCount":1168,"url":"http://www.planethollywoodresort.com","tier":"","message":"","currency":"","rating":6.7},{"name":"Rosalita's Cantina","twitter":"stationcasinos","address":"1301 W Sunset Rd","lat":36.06154392025285,"lng":-115.0397787731758,"neighborhood":"Whitney Ranch","city_fetched":"Henderson,US","state":"NV","country":"United States","canonicalUrl":"https://foursquare.com/v/rosalitas-cantina/4bb6cf566edc76b0f78f311c","categoryId":"4bf58dd8d48988d116941735","category":"Bar","checkinsCount":32,"usersCount":18,"tipCount":0,"visitsCount":32,"url":"https://www.sclv.com","tier":"","message":"","currency":"","rating":6.7},{"name":"Red Hookah","address":"3330 E Tropicana Ave Ste B","lat":36.10044958,"lng":-115.10298106666667,"city_fetched":"Henderson,US","state":"NV","country":"United States","canonicalUrl":"https://foursquare.com/v/red-hookah/4b3ad894f964a520206f25e3","categoryId":"4bf58dd8d48988d119941735","category":"Hookah Bar","checkinsCount":426,"usersCount":153,"tipCount":9,"visitsCount":426,"tier":"","message":"","currency":"","rating":6.7},{"name":"PT's Pub","phone":"7022601877","address":"10940 S Eastern Ave","lat":35.99425792694092,"lng":-115.0998,"city_fetched":"Henderson,US","state":"NV","country":"United States","canonicalUrl":"https://foursquare.com/v/pts-pub/4ba163b5f964a520cdb237e3","categoryId":"4bf58dd8d48988d116941735","category":"Bar","checkinsCount":751,"usersCount":196,"tipCount":7,"visitsCount":801,"url":"http://www.pteglv.com","tier":"","message":"","currency":"","rating":6.7},{"name":"Larrys Villa","phone":"7026472713","twitter":"larrysvillalv","address":"2401 W Bonanza Rd","lat":36.176583820627336,"lng":-115.1740855346373,"city_fetched":"Henderson,US","state":"NV","country":"United States","canonicalUrl":"https://foursquare.com/larrysvillalv","categoryId":"4bf58dd8d48988d1d6941735","category":"Strip Club","checkinsCount":1136,"usersCount":310,"tipCount":8,"visitsCount":1176,"tier":"","message":"","currency":"","rating":6.7},{"name":"Lobby Bar","phone":"7026177777","twitter":"stationcasinos","address":"2300 Paseo Verde Pkwy","lat":36.021319428886116,"lng":-115.09083370232757,"neighborhood":"Green Valley Ranch","city_fetched":"Henderson,US","state":"NV","country":"United States","canonicalUrl":"https://foursquare.com/v/lobby-bar/4c537e7ba724e21e41b7d2f4","categoryId":"4bf58dd8d48988d116941735","category":"Bar","checkinsCount":540,"usersCount":284,"tipCount":2,"visitsCount":543,"url":"https://www.sclv.com","tier":"","message":"","currency":"","rating":6.7},{"name":"CEO Hoohak Lounge","phone":"7027787755","address":"5900 W Flamingo Rd","lat":36.114912903360896,"lng":-115.22194101933887,"city_fetched":"Henderson,US","state":"NV","country":"United States","canonicalUrl":"https://foursquare.com/v/ceo-hoohak-lounge/529fc9d311d2479778b311ac","categoryId":"4bf58dd8d48988d119941735","category":"Hookah Bar","checkinsCount":76,"usersCount":46,"tipCount":1,"visitsCount":87,"url":"http://www.ceohookahlounge.com","tier":"","message":"","currency":"","rating":6.7},{"name":"Sierra Gold","phone":"7025470142","address":"1341 W Warm Springs Rd","lat":36.055773214756634,"lng":-115.04353793741153,"city_fetched":"Henderson,US","state":"NV","country":"United States","canonicalUrl":"https://foursquare.com/v/sierra-gold/4b4d4ba8f964a5204dd026e3","categoryId":"4bf58dd8d48988d11b941735","category":"Pub","checkinsCount":1646,"usersCount":729,"tipCount":14,"visitsCount":1927,"url":"http://www.pteglv.com","tier":"","message":"","currency":"","rating":6.7},{"name":"Las Vegas Eagle","phone":"7024588662","address":"3430 E Tropicana Ave","lat":36.101656957551306,"lng":-115.0993824005127,"city_fetched":"Henderson,US","state":"NV","country":"United States","canonicalUrl":"https://foursquare.com/v/las-vegas-eagle/4b3bec9ef964a5207c7e25e3","categoryId":"4bf58dd8d48988d1d8941735","category":"Gay Bar","checkinsCount":1348,"usersCount":443,"tipCount":14,"visitsCount":1468,"tier":"","message":"","currency":"","rating":6.7},{"name":"ETA Lounge","address":"Aliante Casino + Hotel","lat":36.292437379341095,"lng":-115.17997741699219,"city_fetched":"Henderson,US","state":"NV","country":"United States","canonicalUrl":"https://foursquare.com/v/eta-lounge/4be6086ecf200f471221143c","categoryId":"4bf58dd8d48988d1d5941735","category":"Hotel Bar","checkinsCount":477,"usersCount":221,"tipCount":3,"visitsCount":480,"tier":"","message":"","currency":"","rating":6.7},{"name":"Flex Cocktail Lounge","phone":"7028783355","address":"4371 W Charleston Blvd","lat":36.15877042518942,"lng":-115.199542590747,"city_fetched":"Henderson,US","state":"NV","country":"United States","canonicalUrl":"https://foursquare.com/v/flex-cocktail-lounge/41326e00f964a5205a151fe3","categoryId":"4bf58dd8d48988d1d8941735","category":"Gay Bar","checkinsCount":2747,"usersCount":775,"tipCount":7,"visitsCount":3446,"url":"http://www.flexlasvegas.com","tier":1,"message":"Cheap","currency":"$","rating":6.7},{"name":"Air Bar","phone":"7023807777","twitter":"airbarlasvegas","address":"2000 Las Vegas Blvd S","lat":36.14736222616529,"lng":-115.15548212545318,"neighborhood":"Gateway District","city_fetched":"Henderson,US","state":"NV","country":"United States","canonicalUrl":"https://foursquare.com/v/air-bar/4b759734f964a52097162ee3","categoryId":"4bf58dd8d48988d11a941735","category":"Other Nightlife","checkinsCount":1285,"usersCount":1070,"tipCount":22,"visitsCount":1286,"url":"http://www.stratospherehotel.com","tier":"","message":"","currency":"","rating":6.7},{"name":"iBar","phone":"7027776869","twitter":"riovegas","address":"3700 W Flamingo Rd","lat":36.11665869212176,"lng":-115.18754091753894,"city_fetched":"Henderson,US","state":"NV","country":"United States","canonicalUrl":"https://foursquare.com/v/ibar/49de83f0f964a52060601fe3","categoryId":"4bf58dd8d48988d121941735","category":"Lounge","checkinsCount":1883,"usersCount":1276,"tipCount":15,"visitsCount":1892,"url":"http://www.riolasvegas.com","tier":"","message":"","currency":"","rating":6.7},{"name":"South Padre @ Texas Station","twitter":"stationcasinos","lat":36.19703570610917,"lng":-115.19230574629603,"city_fetched":"Henderson,US","state":"Nevada","country":"United States","canonicalUrl":"https://foursquare.com/v/south-padre--texas-station/4d44ede74e5d370493dff193","categoryId":"4bf58dd8d48988d1d5941735","category":"Hotel Bar","checkinsCount":183,"usersCount":80,"tipCount":4,"visitsCount":186,"url":"https://www.sclv.com","tier":"","message":"","currency":"","rating":6.6},{"name":"Rio Blackjack Tables","twitter":"riovegas","lat":36.116365657006874,"lng":-115.18784776772281,"city_fetched":"Henderson,US","state":"NV","country":"United States","canonicalUrl":"https://foursquare.com/v/rio-blackjack-tables/4e5054cc7d8bd425e49db55e","categoryId":"4bf58dd8d48988d1d5941735","category":"Hotel Bar","checkinsCount":59,"usersCount":33,"tipCount":0,"visitsCount":59,"url":"http://www.riolasvegas.com","tier":"","message":"","currency":"","rating":6.6},{"name":"Fiesta Henderson Sportsbook","twitter":"stationcasinos","lat":36.03238760571925,"lng":-115.00949538291613,"city_fetched":"Henderson,US","state":"NV","country":"United States","canonicalUrl":"https://foursquare.com/v/fiesta-henderson-sportsbook/4c44ff9536d6a59332596ba8","categoryId":"4bf58dd8d48988d11d941735","category":"Sports Bar","checkinsCount":438,"usersCount":101,"tipCount":2,"visitsCount":444,"url":"https://www.sclv.com","tier":"","message":"","currency":"","rating":6.6},{"name":"Sky Bar 38","address":"Marriott's Grand Chateau","lat":36.1076984199925,"lng":-115.169592560466,"neighborhood":"The Strip","city_fetched":"Henderson,US","state":"NV","country":"United States","canonicalUrl":"https://foursquare.com/v/sky-bar-38/4eac98c5e5fad025f7cc0ec5","categoryId":"4bf58dd8d48988d1d5941735","category":"Hotel Bar","checkinsCount":697,"usersCount":295,"tipCount":11,"visitsCount":697,"tier":"","message":"","currency":"","rating":6.6},{"name":"PT's Pub","phone":"7026496162","twitter":"ptslasvegas","address":"812 W Ann Rd","lat":36.26196040222633,"lng":-115.15357714001237,"city_fetched":"Henderson,US","state":"NV","country":"United States","canonicalUrl":"https://foursquare.com/v/pts-pub/4b74bad0f964a520f9ee2de3","categoryId":"4bf58dd8d48988d11b941735","category":"Pub","checkinsCount":931,"usersCount":312,"tipCount":16,"visitsCount":1114,"url":"http://www.pteglv.com","tier":"","message":"","currency":"","rating":6.5},{"name":"Luxor Oasis Pool Bar","phone":"7027305730","address":"Luxor Oasis","lat":36.09592492297469,"lng":-115.1773162680809,"neighborhood":"The Strip","city_fetched":"Henderson,US","state":"NV","country":"United States","canonicalUrl":"https://foursquare.com/v/luxor-oasis-pool-bar/4dfcd4aec65b31579b2f9fb3","categoryId":"4bf58dd8d48988d1d5941735","category":"Hotel Bar","checkinsCount":951,"usersCount":804,"tipCount":5,"visitsCount":957,"url":"http://luxor.com","tier":"","message":"","currency":"","rating":6.5},{"name":"The Great American Pub","phone":"7022208427","twitter":"gaplv","address":"4145 S Grand Canyon Dr Ste 109","lat":36.11431510103982,"lng":-115.30735175269405,"city_fetched":"Henderson,US","state":"NV","country":"United States","canonicalUrl":"https://foursquare.com/v/the-great-american-pub/5359717b498e79495b8ab7e6","categoryId":"4bf58dd8d48988d11b941735","category":"Pub","checkinsCount":155,"usersCount":71,"tipCount":4,"visitsCount":166,"url":"http://gaplv.com","tier":"","message":"","currency":"","rating":6.5},{"name":"Hammers","phone":"7025641866","lat":36.013133743723834,"lng":-114.96061215199093,"neighborhood":"Black Mountain","city_fetched":"Henderson,US","state":"NV","country":"United States","canonicalUrl":"https://foursquare.com/v/hammers/4bbec15298f4952141c4d163","categoryId":"4bf58dd8d48988d116941735","category":"Bar","checkinsCount":469,"usersCount":215,"tipCount":14,"visitsCount":556,"tier":"","message":"","currency":"","rating":6.5},{"name":"GhostBar Day Club","address":"4321 W Flamingo Rd","lat":36.114922413818235,"lng":-115.19394418238387,"city_fetched":"Henderson,US","state":"NV","country":"United States","canonicalUrl":"https://foursquare.com/v/ghostbar-day-club/4ea3491f2c5b5cb4f46023f6","categoryId":"4bf58dd8d48988d1d5941735","category":"Hotel Bar","checkinsCount":422,"usersCount":216,"tipCount":5,"visitsCount":435,"tier":"","message":"","currency":"","rating":6.5},{"name":"Gaudi Bar","twitter":"stationcasinos","address":"1301 W Sunset Rd","lat":36.06128432999565,"lng":-115.04090826461471,"neighborhood":"Whitney Ranch","city_fetched":"Henderson,US","state":"NV","country":"United States","canonicalUrl":"https://foursquare.com/v/gaudi-bar/4d0705268620224bc53cb640","categoryId":"4bf58dd8d48988d11e941735","category":"Cocktail Bar","checkinsCount":94,"usersCount":49,"tipCount":1,"visitsCount":94,"url":"https://www.sclv.com","tier":"","message":"","currency":"","rating":6.4},{"name":"starbuzz hookah lounge las vegas","phone":"7029121953","address":"384 E Tropicana Ave #120","lat":36.102768097232186,"lng":-115.15591639106258,"neighborhood":"The Strip","city_fetched":"Henderson,US","state":"NV","country":"United States","canonicalUrl":"https://foursquare.com/v/starbuzz-hookah-lounge-las-vegas/5337a346498e705317fc83fd","categoryId":"4bf58dd8d48988d119941735","category":"Hookah Bar","checkinsCount":121,"usersCount":99,"tipCount":7,"visitsCount":152,"url":"http://starbuzzvegas.com","tier":"","message":"","currency":"","rating":6.4},{"name":"Olympic Garden","phone":"7023869200","twitter":"oglasvegas","address":"1531 Las Vegas Blvd S","lat":36.15222572205908,"lng":-115.15140579019013,"neighborhood":"John S. Park","city_fetched":"Henderson,US","state":"NV","country":"United States","canonicalUrl":"https://foursquare.com/v/olympic-garden/41326e00f964a520c4141fe3","categoryId":"4bf58dd8d48988d1d6941735","category":"Strip Club","checkinsCount":3032,"usersCount":2123,"tipCount":27,"visitsCount":3357,"url":"http://ogvegas.com","tier":"","message":"","currency":"","rating":6.4},{"name":"The Center Bar","address":"4475 Paradise Rd","lat":36.10876329506907,"lng":-115.15384928148427,"neighborhood":"The Strip","city_fetched":"Henderson,US","state":"NV","country":"United States","canonicalUrl":"https://foursquare.com/v/the-center-bar/4dc107acd16455f8321f762c","categoryId":"4bf58dd8d48988d1d5941735","category":"Hotel Bar","checkinsCount":1583,"usersCount":1085,"tipCount":9,"visitsCount":1586,"tier":"","message":"","currency":"","rating":6.3},{"name":"Babes Cabaret","phone":"7024357545","twitter":"babesvegas","address":"5901 Emerald Ave","lat":36.08653818802428,"lng":-115.04335258671101,"city_fetched":"Henderson,US","state":"NV","country":"United States","canonicalUrl":"https://foursquare.com/babesvegas","categoryId":"4bf58dd8d48988d1d6941735","category":"Strip Club","checkinsCount":442,"usersCount":186,"tipCount":10,"visitsCount":529,"url":"http://www.babescabaretlasvegas.com","tier":1,"message":"Cheap","currency":"$","rating":6.3},{"name":"Mermaid Lounge","address":"3333 Blue Diamond Rd","lat":36.04136948896042,"lng":-115.18385290246712,"city_fetched":"Henderson,US","state":"NV","country":"United States","canonicalUrl":"https://foursquare.com/v/mermaid-lounge/4c8c5a4af0ce236a06d117ef","categoryId":"4bf58dd8d48988d1d5941735","category":"Hotel Bar","checkinsCount":640,"usersCount":355,"tipCount":5,"visitsCount":642,"url":"http://silvertoncasino.com/dine/best-bars-las-vegas","tier":"","message":"","currency":"","rating":6.3},{"name":"E String Grill & Poker Bar","phone":"7024378764","twitter":"estringvegas","address":"2031 W Sunset Rd","lat":36.06909330663205,"lng":-115.06985088591352,"neighborhood":"Green Valley North","city_fetched":"Henderson,US","state":"NV","country":"United States","canonicalUrl":"https://foursquare.com/v/e-string-grill--poker-bar/4bf0b170f45ec928b827943c","categoryId":"4bf58dd8d48988d116941735","category":"Bar","checkinsCount":1369,"usersCount":615,"tipCount":21,"visitsCount":1599,"url":"http://www.estringvegas.com","tier":"","message":"","currency":"","rating":6.3},{"name":"PT's Gold - Horizon Ridge","phone":"7025669025","address":"61 W Horizon Ridge Pkwy","lat":36.01286,"lng":-114.993675,"city_fetched":"Henderson,US","state":"NV","country":"United States","canonicalUrl":"https://foursquare.com/v/pts-gold--horizon-ridge/4bebaf2c61aca59390578500","categoryId":"4bf58dd8d48988d116941735","category":"Bar","checkinsCount":735,"usersCount":333,"tipCount":7,"visitsCount":796,"tier":"","message":"","currency":"","rating":6.3},{"name":"The Gin Mill","phone":"7029140080","address":"2561 Windmill Pkwy","lat":36.04143235,"lng":-115.0983364,"neighborhood":"Green Valley North","city_fetched":"Henderson,US","state":"NV","country":"United States","canonicalUrl":"https://foursquare.com/v/the-gin-mill/4ba08166f964a520347037e3","categoryId":"4bf58dd8d48988d116941735","category":"Bar","checkinsCount":470,"usersCount":228,"tipCount":8,"visitsCount":569,"tier":"","message":"","currency":"","rating":6.3},{"name":"The Parlour at El Cortez","lat":36.169486688601914,"lng":-115.13913593962245,"neighborhood":"Downtown Las Vegas","city_fetched":"Henderson,US","state":"NV","country":"United States","canonicalUrl":"https://foursquare.com/v/the-parlour-at-el-cortez/4f7f84eee4b04cf787f55e92","categoryId":"4bf58dd8d48988d1d5941735","category":"Hotel Bar","checkinsCount":453,"usersCount":254,"tipCount":12,"visitsCount":453,"tier":"","message":"","currency":"","rating":6.2},{"name":"Mizuya Lounge","phone":"7026326112","address":"3950 Las Vegas Blvd S","lat":36.09196914050045,"lng":-115.17612356385833,"neighborhood":"The Strip","city_fetched":"Henderson,US","state":"NV","country":"United States","canonicalUrl":"https://foursquare.com/v/mizuya-lounge/4f9f7823e4b0410091b97b2e","categoryId":"4bf58dd8d48988d121941735","category":"Lounge","checkinsCount":758,"usersCount":537,"tipCount":7,"visitsCount":762,"tier":"","message":"","currency":"","rating":6.2},{"name":"Kopper Keg","phone":"7022700801","address":"3051 St Rose Pkwy","lat":36.000371591639585,"lng":-115.12262677942675,"city_fetched":"Henderson,US","state":"NV","country":"United States","canonicalUrl":"https://foursquare.com/v/kopper-keg/4b5cd2a8f964a520c94529e3","categoryId":"4bf58dd8d48988d116941735","category":"Bar","checkinsCount":830,"usersCount":330,"tipCount":7,"visitsCount":945,"tier":"","message":"","currency":"","rating":6.2},{"name":"PT's W. Sahara","phone":"7022580224","address":"4604 W Sahara Ave","lat":36.144854747122636,"lng":-115.20442302504223,"city_fetched":"Henderson,US","state":"NV","country":"United States","canonicalUrl":"https://foursquare.com/v/pts-w-sahara/4c89f59b1eafb1f71bf87535","categoryId":"4bf58dd8d48988d1d5941735","category":"Hotel Bar","checkinsCount":644,"usersCount":247,"tipCount":8,"visitsCount":726,"tier":1,"message":"Cheap","currency":"$","rating":6.1},{"name":"Badlands Saloon","phone":"7027929262","address":"953 E Sahara Ave","lat":36.143388809514015,"lng":-115.1406298870577,"city_fetched":"Henderson,US","state":"NV","country":"United States","canonicalUrl":"https://foursquare.com/v/badlands-saloon/41326e00f964a520b3131fe3","categoryId":"4bf58dd8d48988d1d8941735","category":"Gay Bar","checkinsCount":1328,"usersCount":555,"tipCount":13,"visitsCount":1697,"tier":1,"message":"Cheap","currency":"$","rating":6.1},{"name":"Del Mar Lounge","address":"9777 Las Vegas Blvd S","lat":36.011007873906465,"lng":-115.17431712952474,"city_fetched":"Henderson,US","state":"NV","country":"United States","canonicalUrl":"https://foursquare.com/v/del-mar-lounge/4bf8615d5efe2d7fe6b26a34","categoryId":"4bf58dd8d48988d1d5941735","category":"Hotel Bar","checkinsCount":606,"usersCount":272,"tipCount":1,"visitsCount":606,"tier":"","message":"","currency":"","rating":6},{"name":"Deja Vu Erotic Lounge","phone":"7022275200","address":"4740 Arville St","lat":36.10490112841309,"lng":-115.19918943658368,"city_fetched":"Henderson,US","state":"NV","country":"United States","canonicalUrl":"https://foursquare.com/v/deja-vu-erotic-lounge/4bf7930e5ec320a1b74687d3","categoryId":"4bf58dd8d48988d1d6941735","category":"Strip Club","checkinsCount":296,"usersCount":201,"tipCount":3,"visitsCount":296,"url":"http://dejavu-tacoma.com","tier":"","message":"","currency":"","rating":6},{"name":"La Havana Cigar Bar","phone":"7028712828","address":"25 Via Brianza Ste 100","lat":36.102211475372314,"lng":-114.9307973,"neighborhood":"Lake Las Vegas","city_fetched":"Henderson,US","state":"NV","country":"United States","canonicalUrl":"https://foursquare.com/v/la-havana-cigar-bar/4bef739fc80dc928b40328e3","categoryId":"4bf58dd8d48988d116941735","category":"Bar","checkinsCount":151,"usersCount":98,"tipCount":4,"visitsCount":151,"tier":"","message":"","currency":"","rating":6},{"name":"Lobby Bar @ The Mirage","lat":36.121212526250496,"lng":-115.17404500551467,"neighborhood":"The Strip","city_fetched":"Henderson,US","state":"NV","country":"United States","canonicalUrl":"https://foursquare.com/v/lobby-bar--the-mirage/51a303ef498ec461de345b06","categoryId":"4bf58dd8d48988d1d5941735","category":"Hotel Bar","checkinsCount":250,"usersCount":205,"tipCount":1,"visitsCount":250,"tier":"","message":"","currency":"","rating":6},{"name":"Mulligan's Pub and Grill","address":"6471 Boulder Hwy","lat":36.08408282850829,"lng":-115.03137407726662,"city_fetched":"Henderson,US","state":"NV","country":"United States","canonicalUrl":"https://foursquare.com/v/mulligans-pub-and-grill/4be0a543652b0f47b3227311","categoryId":"4bf58dd8d48988d116941735","category":"Bar","checkinsCount":676,"usersCount":242,"tipCount":7,"visitsCount":697,"tier":"","message":"","currency":"","rating":6},{"name":"The Auld Dubliner Irish Pub","phone":"7025678002","address":"40 Via Bel Canto Ste 100","lat":36.10218,"lng":-114.930113,"neighborhood":"Lake Las Vegas","city_fetched":"Henderson,US","state":"NV","country":"United States","canonicalUrl":"https://foursquare.com/v/the-auld-dubliner-irish-pub/4b6c9721f964a52010452ce3","categoryId":"4bf58dd8d48988d11b941735","category":"Pub","checkinsCount":1023,"usersCount":757,"tipCount":20,"visitsCount":1116,"url":"http://www.aulddubliner.com","tier":"","message":"","currency":"","rating":5.9},{"name":"Cloud Nine","address":"6825 W Russell Rd #160","lat":36.06389880180359,"lng":-115.24161751666666,"city_fetched":"Henderson,US","state":"NV","country":"United States","canonicalUrl":"https://foursquare.com/v/cloud-nine/4bea586e62c0c928fec2e0d4","categoryId":"4bf58dd8d48988d119941735","category":"Hookah Bar","checkinsCount":387,"usersCount":258,"tipCount":7,"visitsCount":387,"tier":"","message":"","currency":"","rating":5.8},{"name":"Foxy Girls","address":"3013 S Highland Dr","lat":36.13516568036945,"lng":-115.17479189851677,"city_fetched":"Henderson,US","state":"NV","country":"United States","canonicalUrl":"https://foursquare.com/v/foxy-girls/41326e00f964a52036141fe3","categoryId":"4bf58dd8d48988d1d6941735","category":"Strip Club","checkinsCount":258,"usersCount":124,"tipCount":6,"visitsCount":264,"tier":"","message":"","currency":"","rating":5.7},{"name":"PT's Bermuda","phone":"7029330496","address":"582 E. Silverado Blvd","lat":36.01352302431673,"lng":-115.15095414757639,"neighborhood":"Silverado Ranch","city_fetched":"Henderson,US","state":"NV","country":"United States","canonicalUrl":"https://foursquare.com/v/pts-bermuda/4b5150f7f964a520b44a27e3","categoryId":"4bf58dd8d48988d11b941735","category":"Pub","checkinsCount":1430,"usersCount":538,"tipCount":13,"visitsCount":1530,"tier":"","message":"","currency":"","rating":5.7},{"name":"The Horse Gentlemen's Club","phone":"7024634000","address":"2476 Industrial Rd.","lat":36.14436952112958,"lng":-115.1648563412337,"city_fetched":"Henderson,US","state":"NV","country":"United States","canonicalUrl":"https://foursquare.com/v/the-horse-gentlemens-club/51718bd1582f632207d96473","categoryId":"4bf58dd8d48988d1d6941735","category":"Strip Club","checkinsCount":456,"usersCount":198,"tipCount":6,"visitsCount":535,"tier":"","message":"","currency":"","rating":5.7},{"name":"Kaizad's Smoke and Hookah Lounge","address":"4669 W Ann Rd Ste 103","lat":36.2616507024585,"lng":-115.20652454111082,"city_fetched":"Henderson,US","state":"NV","country":"United States","canonicalUrl":"https://foursquare.com/v/kaizads-smoke-and-hookah-lounge/4bff389268c7a5930c6a4044","categoryId":"4bf58dd8d48988d119941735","category":"Hookah Bar","checkinsCount":187,"usersCount":64,"tipCount":7,"visitsCount":187,"tier":"","message":"","currency":"","rating":5.7},{"name":"Brewske's Pub","phone":"7022428554","address":"3645 S Durango Dr","lat":36.12335,"lng":-115.279299,"city_fetched":"Henderson,US","state":"NV","country":"United States","canonicalUrl":"https://foursquare.com/v/brewskes-pub/41326e00f964a520d5131fe3","categoryId":"4bf58dd8d48988d11b941735","category":"Pub","checkinsCount":715,"usersCount":349,"tipCount":11,"visitsCount":858,"tier":"","message":"","currency":"","rating":5.6},{"name":"Corcoran's Irish Pub","twitter":"hmshost","address":"Concourse C","lat":36.081551653309994,"lng":-115.14698198125664,"city_fetched":"Henderson,US","state":"NV","country":"United States","canonicalUrl":"https://foursquare.com/v/corcorans-irish-pub/4b32d9caf964a520041525e3","categoryId":"4bf58dd8d48988d11b941735","category":"Pub","checkinsCount":911,"usersCount":781,"tipCount":13,"visitsCount":912,"tier":"","message":"","currency":"","rating":5.5},{"name":"Krave Massive","address":"450 Fremont St","lat":36.16999976242556,"lng":-115.14086150619279,"neighborhood":"Downtown Las Vegas","city_fetched":"Henderson,US","state":"NV","country":"United States","canonicalUrl":"https://foursquare.com/v/krave-massive/509605bce4b0d8a7b3dc9a27","categoryId":"4bf58dd8d48988d1d8941735","category":"Gay Bar","checkinsCount":222,"usersCount":185,"tipCount":4,"visitsCount":222,"tier":"","message":"","currency":"","rating":5.5},{"name":"Hookah Palace","address":"1030 E Flamingo Rd","lat":36.1156055,"lng":-115.14145825,"city_fetched":"Henderson,US","state":"NV","country":"United States","canonicalUrl":"https://foursquare.com/v/hookah-palace/4c3559dd16adc9283ac3c69c","categoryId":"4bf58dd8d48988d119941735","category":"Hookah Bar","checkinsCount":248,"usersCount":182,"tipCount":4,"visitsCount":252,"tier":"","message":"","currency":"","rating":5.5},{"name":"Girls of Glitter Gulch","phone":"7023854774","twitter":"glittergulch_lv","address":"20 Fremont St","lat":36.17158381541281,"lng":-115.1455865000596,"neighborhood":"Downtown Las Vegas","city_fetched":"Henderson,US","state":"NV","country":"United States","canonicalUrl":"https://foursquare.com/v/girls-of-glitter-gulch/4ab60c1bf964a520497620e3","categoryId":"4bf58dd8d48988d1d6941735","category":"Strip Club","checkinsCount":1557,"usersCount":1215,"tipCount":11,"visitsCount":1559,"tier":"","message":"","currency":"","rating":5.5},{"name":"Krave Nightclub","lat":36.105111,"lng":-115.1714,"neighborhood":"The Strip","city_fetched":"Henderson,US","state":"NV","country":"United States","canonicalUrl":"https://foursquare.com/v/krave-nightclub/5274903f11d2c721097a5c81","categoryId":"4bf58dd8d48988d1d8941735","category":"Gay Bar","checkinsCount":181,"usersCount":159,"tipCount":6,"visitsCount":183,"tier":2,"message":"Moderate","currency":"$","rating":5.1}]