[{"name":"Alessio's Lounge","phone":"8283277775","address":"1383 N Center St","lat":35.75083110010923,"lng":-81.3384078409885,"neighborhood":"Viewmont","city_fetched":"Hickory,US","state":"NC","country":"United States","canonicalUrl":"https://foursquare.com/v/alessios-lounge/4bb54e8146d4a593f3e7c4c0","categoryId":"4bf58dd8d48988d116941735","category":"Bar","checkinsCount":1113,"usersCount":186,"tipCount":15,"visitsCount":1128,"url":"http://alessioslounge.net","tier":"","message":"","currency":"","rating":8.1},{"name":"American Honor Ale House","lat":35.735440840676205,"lng":-81.32567055826125,"city_fetched":"Hickory,US","state":"NC","country":"United States","canonicalUrl":"https://foursquare.com/v/american-honor-ale-house/5543f0af498e6e7dfba74ca0","categoryId":"4bf58dd8d48988d117941735","category":"Beer Garden","checkinsCount":107,"usersCount":73,"tipCount":3,"visitsCount":138,"tier":"","message":"","currency":"","rating":8},{"name":"Iron Thunder Saloon","phone":"8283225080","address":"2002 13th Avenue Dr SE","lat":35.709156492929225,"lng":-81.30156397819519,"city_fetched":"Hickory,US","state":"NC","country":"United States","canonicalUrl":"https://foursquare.com/v/iron-thunder-saloon/4bf292e455c7c9b6ad3a6204","categoryId":"4bf58dd8d48988d116941735","category":"Bar","checkinsCount":1410,"usersCount":485,"tipCount":8,"visitsCount":1622,"url":"http://ironthundersaloonandgrill.com","tier":2,"message":"Moderate","currency":"$","rating":7.4},{"name":"Club Cabaret","phone":"8283228103","address":"101 N Center St","lat":35.73342811678723,"lng":-81.33801570827137,"neighborhood":"Downtown Hickory","city_fetched":"Hickory,US","state":"NC","country":"United States","canonicalUrl":"https://foursquare.com/v/club-cabaret/4c4ceddca34b2d7fc42e7a98","categoryId":"4bf58dd8d48988d1d8941735","category":"Gay Bar","checkinsCount":527,"usersCount":194,"tipCount":6,"visitsCount":615,"url":"http://clubcabaret.net","tier":"","message":"","currency":"","rating":7.2},{"name":"Hickory Wine Shoppe","phone":"8283244441","address":"238 Union Sq NW","lat":35.73236,"lng":-81.34105753333333,"neighborhood":"Downtown Hickory","city_fetched":"Hickory,US","state":"NC","country":"United States","canonicalUrl":"https://foursquare.com/v/hickory-wine-shoppe/4be1ba920dddb713fd1312b6","categoryId":"4bf58dd8d48988d123941735","category":"Wine Bar","checkinsCount":674,"usersCount":154,"tipCount":6,"visitsCount":682,"tier":"","message":"","currency":"","rating":6.9},{"name":"Windy City Sundries","phone":"8283269026","address":"1129 2nd St NE","lat":35.74862,"lng":-81.33538,"neighborhood":"Viewmont","city_fetched":"Hickory,US","state":"NC","country":"United States","canonicalUrl":"https://foursquare.com/v/windy-city-sundries/4b70d35cf964a5204d302de3","categoryId":"4bf58dd8d48988d116941735","category":"Bar","checkinsCount":1638,"usersCount":226,"tipCount":7,"visitsCount":1653,"tier":"","message":"","currency":"","rating":6.4},{"name":"Wizard's Restaurant And Saloon","phone":"8283278555","address":"651 21st Street Northeast, Hickory, NC","lat":35.73301012397043,"lng":-81.29938885896821,"city_fetched":"Hickory,US","state":"NC","country":"United States","canonicalUrl":"https://foursquare.com/v/wizards-restaurant-and-saloon/4c0fa11d1281c9b6abd51e1d","categoryId":"4bf58dd8d48988d116941735","category":"Bar","checkinsCount":325,"usersCount":119,"tipCount":3,"visitsCount":363,"tier":"","message":"","currency":"","rating":6.2},{"name":"Main Cellar City Club","phone":"8283456246","address":"312 1st Ave SW","lat":35.73106281760025,"lng":-81.34316699019682,"neighborhood":"Downtown Hickory","city_fetched":"Hickory,US","state":"NC","country":"United States","canonicalUrl":"https://foursquare.com/v/main-cellar-city-club/4e2b074e6284b96d7b8271ac","categoryId":"4bf58dd8d48988d11a941735","category":"Other Nightlife","checkinsCount":316,"usersCount":136,"tipCount":1,"visitsCount":317,"tier":"","message":"","currency":"","rating":6.2},{"name":"Crawdaddy's Pub & Restaurant","lat":35.686053965003744,"lng":-81.3671945577573,"city_fetched":"Hickory,US","state":"NC","country":"United States","canonicalUrl":"https://foursquare.com/v/crawdaddys-pub--restaurant/4e56d8d22271bf58bfe424e6","categoryId":"4bf58dd8d48988d116941735","category":"Bar","checkinsCount":234,"usersCount":93,"tipCount":2,"visitsCount":234,"tier":"","message":"","currency":"","rating":5.8},{"name":"Revolution Ale House","lat":35.76298,"lng":-81.333215,"neighborhood":"Viewmont","city_fetched":"Hickory,US","state":"NC","country":"United States","canonicalUrl":"https://foursquare.com/v/revolution-ale-house/52b4dbbd498e6a86e82b45cc","categoryId":"4bf58dd8d48988d11b941735","category":"Pub","checkinsCount":49,"usersCount":37,"tipCount":4,"visitsCount":50,"tier":"","message":"","currency":"","rating":5.8}]