[{"name":"Davey's Irish Pub & Restaurant","phone":"2013919356","address":"5 Park St","lat":41.03970127733067,"lng":-74.02968232974743,"city_fetched":"Hillsdale,US","state":"NJ","country":"United States","canonicalUrl":"https://foursquare.com/v/daveys-irish-pub--restaurant/4bdb1a2463c5c9b6b5582668","categoryId":"4bf58dd8d48988d11b941735","category":"Pub","checkinsCount":3092,"usersCount":1368,"tipCount":25,"visitsCount":3770,"url":"http://daveyspub.com","tier":2,"message":"Moderate","currency":"$","rating":8.3},{"name":"Nickelby's","phone":"2013913600","twitter":"hiltonhotels","address":"200 Tice Blvd","lat":41.042980936335766,"lng":-74.07969167291768,"city_fetched":"Hillsdale,US","state":"NJ","country":"United States","canonicalUrl":"https://foursquare.com/v/nickelbys/50ca02c6245f2d4aa8c2c6a6","categoryId":"4bf58dd8d48988d1d5941735","category":"Hotel Bar","checkinsCount":449,"usersCount":189,"tipCount":10,"visitsCount":459,"url":"http://www.hilton.com","tier":"","message":"","currency":"","rating":7.8},{"name":"The Dog House Saloon","phone":"2017721820","address":"270 Pascack Rd","lat":40.985231008336264,"lng":-74.06443841506236,"city_fetched":"Hillsdale,US","state":"NJ","country":"United States","canonicalUrl":"https://foursquare.com/v/the-dog-house-saloon/4b7de74df964a52005d92fe3","categoryId":"4bf58dd8d48988d116941735","category":"Bar","checkinsCount":503,"usersCount":309,"tipCount":16,"visitsCount":563,"url":"http://doghouse-saloon.com","tier":"","message":"","currency":"","rating":7.6},{"name":"Peppercorns","phone":"2013912818","address":"176 Colony Ave","lat":41.04490086722895,"lng":-74.05216722603075,"city_fetched":"Hillsdale,US","state":"NJ","country":"United States","canonicalUrl":"https://foursquare.com/v/peppercorns/4bef7deaea570f47a3798fd2","categoryId":"4bf58dd8d48988d116941735","category":"Bar","checkinsCount":1504,"usersCount":735,"tipCount":10,"visitsCount":1997,"url":"http://peppercornsnj.com","tier":2,"message":"Moderate","currency":"$","rating":7.3},{"name":"Lou's Tavern","address":"Broadway","lat":41.00126,"lng":-74.039896,"city_fetched":"Hillsdale,US","state":"NJ","country":"United States","canonicalUrl":"https://foursquare.com/v/lous-tavern/4b10b13bf964a520d27423e3","categoryId":"4bf58dd8d48988d118941735","category":"Dive Bar","checkinsCount":223,"usersCount":120,"tipCount":11,"visitsCount":227,"tier":"","message":"","currency":"","rating":7.2},{"name":"Paulie's Place","lat":41.010713,"lng":-74.004558,"city_fetched":"Hillsdale,US","state":"NJ","country":"United States","canonicalUrl":"https://foursquare.com/v/paulies-place/56da0c82498e2749a5ab868e","categoryId":"4bf58dd8d48988d11b941735","category":"Pub","checkinsCount":3,"usersCount":1,"tipCount":1,"visitsCount":3,"tier":"","message":"","currency":"","rating":6.9},{"name":"Sean O'Casey's Irish Pub","phone":"2013070800","address":"300 Brae Blvd","lat":41.04388419115831,"lng":-74.06325665211592,"city_fetched":"Hillsdale,US","state":"NJ","country":"United States","canonicalUrl":"https://foursquare.com/v/sean-ocaseys-irish-pub/4b70e00df964a5209f322de3","categoryId":"4bf58dd8d48988d11b941735","category":"Pub","checkinsCount":717,"usersCount":285,"tipCount":7,"visitsCount":742,"tier":"","message":"","currency":"","rating":6.5},{"name":"The Orange Lantern","phone":"2016524443","twitter":"orange_lantern","address":"15 E Firehouse Ln","lat":40.969258052006275,"lng":-74.07762661794504,"city_fetched":"Hillsdale,US","state":"NJ","country":"United States","canonicalUrl":"https://foursquare.com/v/the-orange-lantern/4b8e178ef964a520211833e3","categoryId":"4bf58dd8d48988d116941735","category":"Bar","checkinsCount":4457,"usersCount":1713,"tipCount":27,"visitsCount":4801,"url":"http://orangelantern.com","tier":2,"message":"Moderate","currency":"$","rating":6.3}]