[{"name":"Hilo Town Tavern","lat":19.724877,"lng":-155.087336,"city_fetched":"Hilo","state":"HI","country":"United States","canonicalUrl":"https://foursquare.com/v/hilo-town-tavern/4d311eeac6cba35d6823147a","category":"Bar","checkinsCount":390,"usersCount":224,"tipCount":7,"visitsCount":427,"tier":"","message":"","currency":"","rating":7.8},{"name":"Mehana Brewing Company","phone":"8089348211","address":"275 E Kawili St","lat":19.705995830357697,"lng":-155.06929017004987,"city_fetched":"Hilo","state":"HI","country":"United States","canonicalUrl":"https://foursquare.com/v/mehana-brewing-company/4c2e93dc452620a1812a1c0f","category":"Brewery","checkinsCount":249,"usersCount":223,"tipCount":3,"visitsCount":287,"tier":"","message":"","currency":"","rating":7.4},{"name":"Kadota Liquor","phone":"8089351802","address":"194 Hualalai St","lat":19.71685776420275,"lng":-155.0830399773921,"city_fetched":"Hilo","state":"HI","country":"United States","canonicalUrl":"https://foursquare.com/v/kadota-liquor/4ba2c310f964a5200f1738e3","category":"Liquor Store","checkinsCount":201,"usersCount":80,"tipCount":7,"visitsCount":212,"url":"http://kadotas.com","tier":"","message":"","currency":"","rating":7.4},{"name":"Cronies Bar And Grill","phone":"8089355158","address":"11 Waianuenue Ave","lat":19.726608394321453,"lng":-155.08695700629684,"city_fetched":"Hilo","state":"HI","country":"United States","canonicalUrl":"https://foursquare.com/v/cronies-bar-and-grill/4b9c8a64f964a520236f36e3","category":"Burger Joint","checkinsCount":809,"usersCount":796,"tipCount":16,"visitsCount":1075,"url":"http://cronieshawaii.com","tier":3,"message":"Expensive","currency":"$","rating":6.7},{"name":"Coqui's Hideaway Restaurant","phone":"8089384477","address":"1550 Kamehameha Ave","lat":19.72221265389151,"lng":-155.0671405451707,"city_fetched":"Hilo","state":"HI","country":"United States","canonicalUrl":"https://foursquare.com/v/coquis-hideaway-restaurant/4bcac203511f9521cc66b0c7","category":"Karaoke Bar","checkinsCount":312,"usersCount":171,"tipCount":6,"visitsCount":321,"tier":"","message":"","currency":"","rating":6.4},{"name":"Wai ªoli Lounge, Castle Hilo Hawaiian Hotel","phone":"8089619642","address":"71 Banyan Dr","lat":19.72813162292819,"lng":-155.06672336886612,"city_fetched":"Hilo","state":"HI","country":"United States","canonicalUrl":"https://foursquare.com/v/wai%CA%BBoli-lounge-castle-hilo-hawaiian-hotel/4c2eb40ded37a593c42a6603","category":"Lounge","checkinsCount":200,"usersCount":119,"tipCount":4,"visitsCount":201,"tier":"","message":"","currency":"","rating":5.6}]