[{"name":"Skull Creek Boathouse","phone":"8436813663","twitter":"skullcreekbh","address":"397 Squire Pope Rd","lat":32.236424992438785,"lng":-80.7473837797988,"city_fetched":"Hilton Head Island","state":"SC","country":"United States","canonicalUrl":"https://foursquare.com/v/skull-creek-boathouse/4b5ca764f964a520563c29e3","category":"Seafood Restaurant","checkinsCount":6397,"usersCount":4872,"tipCount":123,"visitsCount":7944,"url":"http://skullcreekboathouse.com","tier":2,"message":"Moderate","currency":"$","rating":9},{"name":"Neo","phone":"8438375111","twitter":"neohhi","address":"326 Moss Creek Dr","lat":32.23734976849541,"lng":-80.808567018118,"city_fetched":"Hilton Head Island","state":"SC","country":"United States","canonicalUrl":"https://foursquare.com/v/neo/5055278be4b021c8a838d81e","category":"Gastropub","checkinsCount":750,"usersCount":290,"tipCount":18,"visitsCount":896,"url":"http://neohhi.com","tier":"","message":"","currency":"","rating":8.9},{"name":"The Frosty Frog Pizza & Daiquiri Bar","phone":"8436863764","address":"1 N Forest Beach Dr","lat":32.143864226210596,"lng":-80.75111269133139,"city_fetched":"Hilton Head Island","state":"SC","country":"United States","canonicalUrl":"https://foursquare.com/v/the-frosty-frog-pizza--daiquiri-bar/4c643bd07b241b8db3c5c3ac","category":"Pizza Place","checkinsCount":4650,"usersCount":3219,"tipCount":76,"visitsCount":5253,"url":"http://frostyfrog.com","tier":2,"message":"Moderate","currency":"$","rating":8.7},{"name":"Tiki Hut","phone":"8437855126","address":"1 S Forest Beach Dr.","lat":32.14064399330902,"lng":-80.7518324759312,"city_fetched":"Hilton Head Island","state":"SC","country":"United States","canonicalUrl":"https://foursquare.com/v/tiki-hut/4b841674f964a520022031e3","category":"Bar","checkinsCount":2977,"usersCount":1975,"tipCount":35,"visitsCount":3261,"url":"http://www.tikihuthhi.com","tier":2,"message":"Moderate","currency":"$","rating":8.7},{"name":"Up The Creek Pub","phone":"8436813625","address":"18 Simmons Rd","lat":32.18525441128011,"lng":-80.75703854661742,"city_fetched":"Hilton Head Island","state":"SC","country":"United States","canonicalUrl":"https://foursquare.com/v/up-the-creek-pub/4bf8784c5317a59390ecff7e","category":"Pub","checkinsCount":870,"usersCount":614,"tipCount":18,"visitsCount":1097,"url":"http://www.upthecreekpubandgrill.com","tier":"","message":"","currency":"","rating":8.6},{"name":"Wiseguys","phone":"8438428866","twitter":"wiseguyshhi","address":"1513 Main St","lat":32.21454074575614,"lng":-80.72288450924515,"city_fetched":"Hilton Head Island","state":"SC","country":"United States","canonicalUrl":"https://foursquare.com/v/wiseguys/4b4614b1f964a520bb1526e3","category":"Lounge","checkinsCount":3083,"usersCount":1183,"tipCount":41,"visitsCount":3377,"url":"http://www.wiseguyshhi.com","tier":2,"message":"Moderate","currency":"$","rating":8.6},{"name":"Mellow Mushroom Pizza","phone":"8436862474","address":"33 Office Park Rd","lat":32.15379024695518,"lng":-80.76747132493547,"city_fetched":"Hilton Head Island","state":"SC","country":"United States","canonicalUrl":"https://foursquare.com/v/mellow-mushroom-pizza/4b9d42f9f964a5200a9e36e3","category":"Pizza Place","checkinsCount":2531,"usersCount":1641,"tipCount":40,"visitsCount":2694,"url":"http://www.mellowmushroom.com","tier":2,"message":"Moderate","currency":"$","rating":8.6},{"name":"Pool Bar Jim's","address":"50 S Forest Beach Dr","lat":32.13596663333333,"lng":-80.76276065,"city_fetched":"Hilton Head Island","state":"SC","country":"United States","canonicalUrl":"https://foursquare.com/v/pool-bar-jims/4bb3cd3c42959c742679222c","category":"Cocktail Bar","checkinsCount":1002,"usersCount":605,"tipCount":15,"visitsCount":1115,"url":"http://poolbarjims.com","tier":"","message":"","currency":"","rating":8.6},{"name":"The Salty Dog Cafe","phone":"8436712233","twitter":"thesaltydogcafe","address":"232 S Sea Pines Dr","lat":32.115468790325416,"lng":-80.82474637334992,"city_fetched":"Hilton Head Island","state":"SC","country":"United States","canonicalUrl":"https://foursquare.com/v/the-salty-dog-cafe/4b9e68a1f964a52021e136e3","category":"American Restaurant","checkinsCount":7812,"usersCount":6614,"tipCount":102,"visitsCount":8842,"url":"http://www.saltydog.com/new/cafe-about.html","tier":2,"message":"Moderate","currency":"$","rating":8.5},{"name":"British Open Pub","phone":"8436866736","address":"1000 William Hilton Pkwy","lat":32.15965361666667,"lng":-80.755149,"city_fetched":"Hilton Head Island","state":"SC","country":"United States","canonicalUrl":"https://foursquare.com/v/british-open-pub/4b8964c7f964a520003232e3","category":"Pub","checkinsCount":1271,"usersCount":675,"tipCount":19,"visitsCount":1553,"url":"http://www.britishopenpubhhi.com","tier":"","message":"","currency":"","rating":8.5},{"name":"Beach Club at The Sea Pines Resort","address":"at Sea Pines Dr.","lat":32.124844069501286,"lng":-80.78642427921295,"city_fetched":"Hilton Head Island","state":"SC","country":"United States","canonicalUrl":"https://foursquare.com/v/beach-club-at-the-sea-pines-resort/4bfd78e74cf820a1c385ecf4","category":"Resort","checkinsCount":2332,"usersCount":1526,"tipCount":17,"visitsCount":2966,"tier":"","message":"","currency":"","rating":8.2},{"name":"Salty Dog Cafe-Waterside Deck","lat":32.115509033203125,"lng":-80.82464599609375,"city_fetched":"Hilton Head Island","state":"South Carolina","country":"United States","canonicalUrl":"https://foursquare.com/v/salty-dog-cafewaterside-deck/4e1cfbf252b1944a8285801c","category":"Bar","checkinsCount":651,"usersCount":515,"tipCount":10,"visitsCount":652,"tier":"","message":"","currency":"","rating":8.1},{"name":"Street Meet","phone":"8432902711","address":"95 Mathews Dr","lat":32.21123300009362,"lng":-80.7010855170742,"city_fetched":"Hilton Head Island","state":"SC","country":"United States","canonicalUrl":"https://foursquare.com/v/street-meet/4c103cb4ce640f4706b23952","category":"Pub","checkinsCount":1254,"usersCount":562,"tipCount":29,"visitsCount":1398,"url":"http://streetmeethhi.com","tier":"","message":"","currency":"","rating":8.1},{"name":"Old Oyster Factory","phone":"8436816040","address":"101 Marshland Rd","lat":32.19872157420761,"lng":-80.71910557066357,"city_fetched":"Hilton Head Island","state":"SC","country":"United States","canonicalUrl":"https://foursquare.com/v/old-oyster-factory/4c00166eefa2ef3b703aaa8c","category":"Seafood Restaurant","checkinsCount":2113,"usersCount":2025,"tipCount":53,"visitsCount":2689,"url":"http://www.oldoysterfactory.com","tier":3,"message":"Expensive","currency":"$","rating":8},{"name":"The Lodge Beer and Growler Bar","phone":"8438428966","twitter":"lodgehiltonhead","address":"7B Greenwood Dr #4","lat":32.15450555611661,"lng":-80.76448917388916,"city_fetched":"Hilton Head Island","state":"SC","country":"United States","canonicalUrl":"https://foursquare.com/v/the-lodge-beer-and-growler-bar/4b5ce87af964a520554a29e3","category":"Beer Garden","checkinsCount":2560,"usersCount":1379,"tipCount":33,"visitsCount":2604,"url":"http://hiltonheadlodge.com","tier":2,"message":"Moderate","currency":"$","rating":8},{"name":"Bomboras Grille","phone":"8436892662","address":"101 A/B Pope Ave","lat":32.143394659107535,"lng":-80.75196777307272,"city_fetched":"Hilton Head Island","state":"SC","country":"United States","canonicalUrl":"https://foursquare.com/v/bomboras-grille/4d6a91c5fd7ea35d707ab34a","category":"Cocktail Bar","checkinsCount":1664,"usersCount":673,"tipCount":19,"visitsCount":1715,"url":"http://bomborasgrille.com","tier":"","message":"","currency":"","rating":7.8},{"name":"Reilley's Grill & Bar","phone":"8438424414","twitter":"reilleyshhi","address":"7D Greenwood Dr","lat":32.15483923056456,"lng":-80.76439249684313,"city_fetched":"Hilton Head Island","state":"SC","country":"United States","canonicalUrl":"https://foursquare.com/reilleyshhi","category":"American Restaurant","checkinsCount":2542,"usersCount":1229,"tipCount":25,"visitsCount":2577,"url":"http://www.reilleyshiltonhead.com","tier":2,"message":"Moderate","currency":"$","rating":7.8},{"name":"Corks Neighborhood Wine Bar","phone":"8436717783","address":"11 Palmetto Bay Rd Ste 102","lat":32.15675489338129,"lng":-80.76518791710738,"city_fetched":"Hilton Head Island","state":"SC","country":"United States","canonicalUrl":"https://foursquare.com/v/corks-neighborhood-wine-bar/4bb528aaf562ef3b30962e97","category":"Wine Bar","checkinsCount":530,"usersCount":187,"tipCount":5,"visitsCount":541,"url":"http://corkshiltonhead.com","tier":"","message":"","currency":"","rating":7.8},{"name":"Rita's Italian Ice","phone":"8436862596","address":"1 N Forest Beach Dr","lat":32.14322468886584,"lng":-80.75049572800202,"city_fetched":"Hilton Head Island","state":"SC","country":"United States","canonicalUrl":"https://foursquare.com/v/ritas-italian-ice/4c352b9f213c2d7fc9ce395d","category":"Ice Cream Shop","checkinsCount":569,"usersCount":407,"tipCount":7,"visitsCount":570,"tier":"","message":"","currency":"","rating":7.7},{"name":"Captain Woody's","address":"Arrow Rd","lat":32.158090920745956,"lng":-80.76345096885173,"city_fetched":"Hilton Head Island","state":"SC","country":"United States","canonicalUrl":"https://foursquare.com/v/captain-woodys/5139102ae4b045ca4cd41130","category":"Bar","checkinsCount":466,"usersCount":564,"tipCount":7,"visitsCount":754,"tier":"","message":"","currency":"","rating":7.7},{"name":"Marriott SurfWatch Sea Salts Bar","address":"10 Surf Watch Way","lat":32.19555681666667,"lng":-80.69441835,"city_fetched":"Hilton Head Island","state":"SC","country":"United States","canonicalUrl":"https://foursquare.com/v/marriott-surfwatch-sea-salts-bar/4c80053c2f1c236aa4e72243","category":"Bar","checkinsCount":369,"usersCount":188,"tipCount":6,"visitsCount":411,"tier":"","message":"","currency":"","rating":7.7},{"name":"Reilley's North End Pub","phone":"8436814153","address":"95 Mathews Dr","lat":32.2112665,"lng":-80.701324,"city_fetched":"Hilton Head Island","state":"SC","country":"United States","canonicalUrl":"https://foursquare.com/v/reilleys-north-end-pub/4ba7b233f964a5209aaa39e3","category":"Pub","checkinsCount":576,"usersCount":336,"tipCount":7,"visitsCount":596,"url":"http://www.reilleyshiltonhead.com","tier":"","message":"","currency":"","rating":7.6},{"name":"World of Beer","address":"30 Shelter Cove Ln # 104","lat":32.18463999315342,"lng":-80.72078933153058,"city_fetched":"Hilton Head Island","state":"SC","country":"United States","canonicalUrl":"https://foursquare.com/v/world-of-beer/5714264ecd109e0bc1a22d7f","category":"Beer Bar","checkinsCount":106,"usersCount":114,"tipCount":2,"visitsCount":172,"tier":"","message":"","currency":"","rating":7.5},{"name":"Barmuda Triangle","address":"Greenwood Dr","lat":32.154620582584535,"lng":-80.76464140470704,"city_fetched":"Hilton Head Island","state":"SC","country":"United States","canonicalUrl":"https://foursquare.com/v/barmuda-triangle/4c01a8db1747a59384e65dca","category":"Bar","checkinsCount":1466,"usersCount":631,"tipCount":4,"visitsCount":1485,"tier":2,"message":"Moderate","currency":"$","rating":7.5},{"name":"Callahan's Sports Bar","phone":"8436867665","address":"New Orleans Rd","lat":32.155527213377226,"lng":-80.75884056986266,"city_fetched":"Hilton Head Island","state":"SC","country":"United States","canonicalUrl":"https://foursquare.com/v/callahans-sports-bar/4b9c5834f964a5205a6136e3","category":"Sports Bar","checkinsCount":609,"usersCount":391,"tipCount":8,"visitsCount":650,"url":"http://callahanssportsbar.com","tier":"","message":"","currency":"","rating":7.5},{"name":"HogsHead Kitchen & Wine Bar","phone":"8438374647","address":"Moss Creek Village 1555 Fording Island Rd, Suite D","lat":32.237508965424055,"lng":-80.80680396375878,"city_fetched":"Hilton Head Island","state":"SC","country":"United States","canonicalUrl":"https://foursquare.com/v/hogshead-kitchen--wine-bar/51a8f374498e9e3a5ac736c6","category":"New American Restaurant","checkinsCount":112,"usersCount":69,"tipCount":4,"visitsCount":128,"tier":"","message":"","currency":"","rating":7.4},{"name":"CQ's Restaurant","phone":"8436712779","address":"140 Lighthouse Rd","lat":32.139449,"lng":-80.80912993333334,"city_fetched":"Hilton Head Island","state":"SC","country":"United States","canonicalUrl":"https://foursquare.com/v/cqs-restaurant/4bbb8f4fe436ef3bc67e5564","category":"Bar","checkinsCount":379,"usersCount":287,"tipCount":12,"visitsCount":381,"url":"http://www.cqsrestaurant.com","tier":"","message":"","currency":"","rating":7.3},{"name":"Kelly's Tavern","phone":"8438373353","address":"11 Buckingham Plantation Dr","lat":32.23591853671338,"lng":-80.8101786106739,"city_fetched":"Hilton Head Island","state":"SC","country":"United States","canonicalUrl":"https://foursquare.com/v/kellys-tavern/4b64834cf964a520afb92ae3","category":"Bar","checkinsCount":751,"usersCount":157,"tipCount":6,"visitsCount":795,"url":"http://kellystavern.com","tier":"","message":"","currency":"","rating":7.2},{"name":"Black Marlin Hurricane Bar","phone":"8437854950","address":"86 Helmsman Way","lat":32.17682364892108,"lng":-80.77157263933141,"city_fetched":"Hilton Head Island","state":"SC","country":"United States","canonicalUrl":"https://foursquare.com/v/black-marlin-hurricane-bar/4d28d448849f370480227841","category":"Bar","checkinsCount":1822,"usersCount":852,"tipCount":25,"visitsCount":1837,"tier":"","message":"","currency":"","rating":7.2},{"name":"The DryDock Seafood, Grill and Spirits","phone":"8438429775","address":"21 Office Park Drive, Suite #105C Sapelo Building","lat":32.15255925,"lng":-80.76325923333333,"city_fetched":"Hilton Head Island","state":"SC","country":"United States","canonicalUrl":"https://foursquare.com/v/the-drydock-seafood-grill-and-spirits/4c12cbc9b7b9c928cf7ca837","category":"Sports Bar","checkinsCount":187,"usersCount":164,"tipCount":8,"visitsCount":202,"tier":"","message":"","currency":"","rating":7.2},{"name":"Land's End Tavern","phone":"8436715456","address":"232 S Sea Pines Dr","lat":32.11585811,"lng":-80.824963,"city_fetched":"Hilton Head Island","state":"SC","country":"United States","canonicalUrl":"https://foursquare.com/v/lands-end-tavern/4b5f385af964a52029ae29e3","category":"American Restaurant","checkinsCount":692,"usersCount":573,"tipCount":16,"visitsCount":698,"url":"http://saltydog.com/dining/lands-end-tavern/","tier":"","message":"","currency":"","rating":7.2},{"name":"Coco's on the Beach","address":"663 William Hilton Pkwy","lat":32.18702,"lng":-80.701949,"city_fetched":"Hilton Head Island","state":"SC","country":"United States","canonicalUrl":"https://foursquare.com/v/cocos-on-the-beach/4ba5309ef964a520b3e938e3","category":"Bar","checkinsCount":569,"usersCount":504,"tipCount":10,"visitsCount":802,"tier":"","message":"","currency":"","rating":7.1},{"name":"Cheap Seats","address":"55 Mathews Dr","lat":32.218058304462446,"lng":-80.70295376738692,"city_fetched":"Hilton Head Island","state":"SC","country":"United States","canonicalUrl":"https://foursquare.com/v/cheap-seats/4d33a9e46c7c721e669bbb56","category":"Dive Bar","checkinsCount":278,"usersCount":91,"tipCount":2,"visitsCount":301,"tier":"","message":"","currency":"","rating":7}]