[{"name":"New Holland Brewing Company","phone":"6163556422","twitter":"newhollandbrew","address":"66 E 8th St","lat":42.79012771935476,"lng":-86.10422015190125,"city_fetched":"Holland","state":"MI","country":"United States","canonicalUrl":"https://foursquare.com/v/new-holland-brewing-company/4ad5a86ff964a520380321e3","category":"Brewery","checkinsCount":19736,"usersCount":8731,"tipCount":158,"visitsCount":21441,"url":"http://newhollandbrew.com","tier":2,"message":"Moderate","currency":"$","rating":9},{"name":"Boatwerks Waterfront Restaurant","phone":"6163960600","twitter":"boatwerks","address":"216 Van Raalte Ave","lat":42.78971722930561,"lng":-86.12154104369118,"city_fetched":"Holland","state":"MI","country":"United States","canonicalUrl":"https://foursquare.com/v/boatwerks-waterfront-restaurant/4b7616e9f964a520f73b2ee3","category":"American Restaurant","checkinsCount":4489,"usersCount":2565,"tipCount":35,"visitsCount":5546,"url":"http://www.boatwerksrestaurant.com","tier":2,"message":"Moderate","currency":"$","rating":8.5},{"name":"Our Brewing Co.","phone":"6169948417","address":"76 E 8th St","lat":42.7901690542885,"lng":-86.10385805368422,"city_fetched":"Holland","state":"MI","country":"United States","canonicalUrl":"https://foursquare.com/v/our-brewing-co/50423e3de4b05e5c0faef57c","category":"Brewery","checkinsCount":4482,"usersCount":1470,"tipCount":37,"visitsCount":4725,"url":"http://ourbrewingcompany.com","tier":1,"message":"Cheap","currency":"$","rating":8.4},{"name":"Butch's Dry Dock","phone":"6163968227","twitter":"butchsdrydock","address":"44 E 8th St","lat":42.789904166666666,"lng":-86.105305,"city_fetched":"Holland","state":"MI","country":"United States","canonicalUrl":"https://foursquare.com/v/butchs-dry-dock/4b591025f964a520c67a28e3","category":"Wine Bar","checkinsCount":4410,"usersCount":1043,"tipCount":27,"visitsCount":4477,"url":"http://www.butchs.net","tier":2,"message":"Moderate","currency":"$","rating":8},{"name":"Itty Bitty Bar","phone":"6163995730","twitter":"ittybittybarmi","address":"1136 Ottawa Beach Rd","lat":42.79364432832058,"lng":-86.15627035000593,"city_fetched":"Holland","state":"MI","country":"United States","canonicalUrl":"https://foursquare.com/v/itty-bitty-bar/4b2faf05f964a520f8ed24e3","category":"Bar","checkinsCount":3366,"usersCount":1075,"tipCount":29,"visitsCount":4294,"url":"http://www.ittybittybar.com","tier":2,"message":"Moderate","currency":"$","rating":7.8},{"name":"Hops at 84 East","phone":"6163968484","address":"84 E 8th St","lat":42.79028803550582,"lng":-86.1035831281321,"city_fetched":"Holland","state":"MI","country":"United States","canonicalUrl":"https://foursquare.com/v/hops-at-84-east/53d942c8498e0c69d663fafc","category":"Bar","checkinsCount":1574,"usersCount":628,"tipCount":10,"visitsCount":2025,"url":"http://www.hops84east.com","tier":"","message":"","currency":"","rating":7.7},{"name":"CityVÅ« Bistro","phone":"6167962114","twitter":"cityflatshotel","address":"61 E 7th St","lat":42.79152218116359,"lng":-86.104687340666,"city_fetched":"Holland","state":"MI","country":"United States","canonicalUrl":"https://foursquare.com/v/cityv%C5%AB-bistro/4b43aac0f964a520b1e525e3","category":"Cocktail Bar","checkinsCount":2167,"usersCount":1150,"tipCount":21,"visitsCount":2253,"url":"http://www.cityflatshotel.com","tier":2,"message":"Moderate","currency":"$","rating":7.7},{"name":"CitySen Lounge","phone":"6167962100","address":"61 E 7th St","lat":42.791345820000004,"lng":-86.10483728999999,"city_fetched":"Holland","state":"MI","country":"United States","canonicalUrl":"https://foursquare.com/v/citysen-lounge/4bb0efacf964a520e16b3ce3","category":"Bar","checkinsCount":388,"usersCount":213,"tipCount":3,"visitsCount":389,"tier":"","message":"","currency":"","rating":7.7},{"name":"Skiles Tavern","phone":"6163967836","address":"154 E 8th St","lat":42.79023204080108,"lng":-86.10060721635818,"city_fetched":"Holland","state":"MI","country":"United States","canonicalUrl":"https://foursquare.com/v/skiles-tavern/4b639c4ff964a520d8862ae3","category":"Pizza Place","checkinsCount":2253,"usersCount":900,"tipCount":18,"visitsCount":2555,"tier":2,"message":"Moderate","currency":"$","rating":7},{"name":"Big E's Sports Grill","address":"8th Street","lat":42.790446519613184,"lng":-86.10220531615369,"city_fetched":"Holland","state":"MI","country":"United States","canonicalUrl":"https://foursquare.com/v/big-es-sports-grill/56d38458cd1043e8e971553f","category":"Sports Bar","checkinsCount":163,"usersCount":198,"tipCount":2,"visitsCount":310,"tier":"","message":"","currency":"","rating":6.5},{"name":"Century Lanes","phone":"6163927086","address":"478 E 16th St","lat":42.78117210414936,"lng":-86.08573337577678,"city_fetched":"Holland","state":"MI","country":"United States","canonicalUrl":"https://foursquare.com/v/century-lanes/4b93ff62f964a520056034e3","category":"Bowling Alley","checkinsCount":1729,"usersCount":576,"tipCount":9,"visitsCount":1795,"tier":"","message":"","currency":"","rating":5.8},{"name":"Parrot's","phone":"6163964577","address":"234 S River Ave","lat":42.78887635,"lng":-86.10919,"city_fetched":"Holland","state":"MI","country":"United States","canonicalUrl":"https://foursquare.com/v/parrots/4b651771f964a520c2e32ae3","category":"Dive Bar","checkinsCount":883,"usersCount":425,"tipCount":7,"visitsCount":937,"tier":"","message":"","currency":"","rating":5.6}]