[{"name":"JJ Dolan's","phone":"8085374992","twitter":"jjdolans","address":"1147 Bethel St","lat":21.311182963217934,"lng":-157.86060252926063,"neighborhood":"Downtown Honolulu","city_fetched":"Honolulu","state":"HI","country":"United States","canonicalUrl":"https://foursquare.com/v/jj-dolans/4b05d8a0f964a52043e422e3","category":"Pizza Place","checkinsCount":5505,"usersCount":1977,"tipCount":70,"visitsCount":5917,"url":"http://www.jjdolans.com","tier":2,"message":"Moderate","currency":"$","rating":9.1},{"name":"REAL a gastropub","address":"1020 Auahi St","lat":21.294707619727824,"lng":-157.8544431860986,"neighborhood":"Ala Moana - Kakaako","city_fetched":"Honolulu","state":"HI","country":"United States","canonicalUrl":"https://foursquare.com/v/real-a-gastropub/4fb5e48de4b0861f523b4dbb","category":"Bar","checkinsCount":3501,"usersCount":1424,"tipCount":53,"visitsCount":3599,"url":"http://realgastropub.com","tier":2,"message":"Moderate","currency":"$","rating":9},{"name":"Duke's Waikiki","phone":"8089222268","twitter":"dukeswaikiki","address":"2335 Kalakaua Ave Ste 116","lat":21.27685341495262,"lng":-157.82791979209543,"neighborhood":"Waikiki","city_fetched":"Honolulu","state":"HI","country":"United States","canonicalUrl":"https://foursquare.com/dukeswaikiki","category":"Restaurant","checkinsCount":22759,"usersCount":15449,"tipCount":319,"visitsCount":23168,"url":"http://www.dukeswaikiki.com","tier":2,"message":"Moderate","currency":"$","rating":9},{"name":"Side Street Inn","phone":"8085910253","address":"1225 Hopaka St","lat":21.29464995251598,"lng":-157.8473756818187,"neighborhood":"Ala Moana - Kakaako","city_fetched":"Honolulu","state":"HI","country":"United States","canonicalUrl":"https://foursquare.com/v/side-street-inn/4b05864ff964a5206f5b22e3","category":"Diner","checkinsCount":3724,"usersCount":2912,"tipCount":86,"visitsCount":4172,"url":"http://www.sidestreetinn.com","tier":2,"message":"Moderate","currency":"$","rating":8.9},{"name":"Yard House","phone":"8089239273","twitter":"yardhouse","address":"226 Lewers St","lat":21.27975223,"lng":-157.830593,"neighborhood":"Waikiki","city_fetched":"Honolulu","state":"HI","country":"United States","canonicalUrl":"https://foursquare.com/v/yard-house/4a90dff7f964a520aa1920e3","category":"American Restaurant","checkinsCount":13692,"usersCount":8607,"tipCount":209,"visitsCount":14252,"url":"http://www.yardhouse.com","tier":2,"message":"Moderate","currency":"$","rating":8.9},{"name":"House Without A Key","phone":"8089232311","twitter":"halekulanihotel","address":"2199 Kalia Rd","lat":21.277447827042923,"lng":-157.83188581466675,"neighborhood":"Waikiki","city_fetched":"Honolulu","state":"HI","country":"United States","canonicalUrl":"https://foursquare.com/v/house-without-a-key/4af59a44f964a5202efa21e3","category":"American Restaurant","checkinsCount":3725,"usersCount":2640,"tipCount":84,"visitsCount":3804,"url":"http://www.halekulani.com","tier":3,"message":"Expensive","currency":"$","rating":8.9},{"name":"Manifest","phone":"8085237575","twitter":"themanifest","address":"32 N Hotel St","lat":21.311485359919153,"lng":-157.86242008209229,"neighborhood":"Downtown Honolulu","city_fetched":"Honolulu","state":"HI","country":"United States","canonicalUrl":"https://foursquare.com/v/manifest/4b10ed5ff964a520cd7623e3","category":"Lounge","checkinsCount":3613,"usersCount":1341,"tipCount":30,"visitsCount":3729,"url":"http://manifesthawaii.com","tier":2,"message":"Moderate","currency":"$","rating":8.9},{"name":"Wang Chung's","phone":"8089219176","twitter":"wangchungs","address":"2424 Koa Ave","lat":21.276258120248794,"lng":-157.82446146011353,"neighborhood":"Waikiki","city_fetched":"Honolulu","state":"HI","country":"United States","canonicalUrl":"https://foursquare.com/v/wang-chungs/4bd3e010462cb7133b7ddf07","category":"Karaoke Bar","checkinsCount":3905,"usersCount":1325,"tipCount":40,"visitsCount":4156,"url":"http://wangchungs.com","tier":1,"message":"Cheap","currency":"$","rating":8.9},{"name":"Bevy","phone":"8085947445","twitter":"bevyhi","address":"661 Auahi St","lat":21.298900888018196,"lng":-157.86136329174042,"neighborhood":"Ala Moana - Kakaako","city_fetched":"Honolulu","state":"HI","country":"United States","canonicalUrl":"https://foursquare.com/v/bevy/5210bcb6049356223871698f","category":"Cocktail Bar","checkinsCount":1066,"usersCount":667,"tipCount":21,"visitsCount":1355,"url":"http://www.bevybar.com","tier":2,"message":"Moderate","currency":"$","rating":8.8},{"name":"Cafe Duck Butt","phone":"8085931880","address":"901 Kawaiahao St","lat":21.298487571118567,"lng":-157.8541695672932,"neighborhood":"Ala Moana - Kakaako","city_fetched":"Honolulu","state":"HI","country":"United States","canonicalUrl":"https://foursquare.com/v/cafe-duck-butt/4bbb9e8ee436ef3b8a925564","category":"Karaoke Bar","checkinsCount":2382,"usersCount":1189,"tipCount":23,"visitsCount":2704,"tier":1,"message":"Cheap","currency":"$","rating":8.8},{"name":"Waikīkī Brewing Company","address":"1945 Kalakaua Ave","lat":21.28588490439495,"lng":-157.83349107399215,"neighborhood":"Waikiki","city_fetched":"Honolulu","state":"HI","country":"United States","canonicalUrl":"https://foursquare.com/v/waik%C4%ABk%C4%AB-brewing-company/5513841f498eb487801a7f02","category":"Brewery","checkinsCount":664,"usersCount":533,"tipCount":17,"visitsCount":761,"url":"http://www.waikikibrewing.com","tier":"","message":"","currency":"","rating":8.8},{"name":"Side Street Inn on the Strip","phone":"8087393939","address":"614 Kapahulu Ave","lat":21.278729567126177,"lng":-157.8139829218772,"neighborhood":"Diamond Head - Kapahulu - St. Louis","city_fetched":"Honolulu","state":"HI","country":"United States","canonicalUrl":"https://foursquare.com/v/side-street-inn-on-the-strip/4c4a6bd8c668e21e95f898f8","category":"Restaurant","checkinsCount":5040,"usersCount":2928,"tipCount":69,"visitsCount":5257,"url":"http://sidestreetinn.com","tier":2,"message":"Moderate","currency":"$","rating":8.8},{"name":"Home Bar & Grill","phone":"8089422237","address":"1683 Kalakaua Ave","lat":21.292109,"lng":-157.836984,"neighborhood":"Ala Moana - Kakaako","city_fetched":"Honolulu","state":"HI","country":"United States","canonicalUrl":"https://foursquare.com/v/home-bar--grill/4d25595bbe99b60cd9f8f66e","category":"Sports Bar","checkinsCount":3441,"usersCount":1775,"tipCount":38,"visitsCount":3972,"tier":1,"message":"Cheap","currency":"$","rating":8.7},{"name":"Amuse Wine Bar","phone":"8082375428","twitter":"amusewinebar","address":"1250 Kapiolani Blvd","lat":21.295281694575074,"lng":-157.84671783459325,"neighborhood":"Ala Moana - Kakaako","city_fetched":"Honolulu","state":"HI","country":"United States","canonicalUrl":"https://foursquare.com/v/amuse-wine-bar/4b05864ff964a5205d5b22e3","category":"Wine Bar","checkinsCount":1751,"usersCount":911,"tipCount":17,"visitsCount":1801,"url":"http://www.amusewinebar.com","tier":2,"message":"Moderate","currency":"$","rating":8.7},{"name":"Sheraton Waikiki","phone":"8089224422","twitter":"spg","address":"2255 Kalakaua Ave","lat":21.27767827367495,"lng":-157.83027172116522,"neighborhood":"Waikiki","city_fetched":"Honolulu","state":"HI","country":"United States","canonicalUrl":"https://foursquare.com/v/sheraton-waikiki/4b74ae5df964a52019ec2de3","category":"Hotel","checkinsCount":18193,"usersCount":7933,"tipCount":75,"visitsCount":19767,"url":"http://www.sheraton-waikiki.com","tier":"","message":"","currency":"","rating":8.7},{"name":"Café Anasia","phone":"8089519295","address":"2227 S Beretania St","lat":21.295123,"lng":-157.826372,"neighborhood":"Mccully - Moiliili","city_fetched":"Honolulu","state":"HI","country":"United States","canonicalUrl":"https://foursquare.com/v/caf%C3%A9-anasia/4b29d014f964a5207ea324e3","category":"Sports Bar","checkinsCount":1305,"usersCount":349,"tipCount":11,"visitsCount":1450,"tier":2,"message":"Moderate","currency":"$","rating":8.6},{"name":"Mai Tai Bar","phone":"8089237311","twitter":"maitaibarroyalh","address":"2259 Kalakaua Ave","lat":21.276757998224884,"lng":-157.82883882522583,"neighborhood":"Waikiki","city_fetched":"Honolulu","state":"HI","country":"United States","canonicalUrl":"https://foursquare.com/v/mai-tai-bar/4b05864ff964a5203b5b22e3","category":"Hotel Bar","checkinsCount":4187,"usersCount":2967,"tipCount":69,"visitsCount":4200,"url":"http://www.royal-hawaiian.com/dining/maitaibar","tier":3,"message":"Expensive","currency":"$","rating":8.6},{"name":"Honolulu Beerworks","twitter":"hnlbeerworks","address":"328 Cooke St","lat":21.29716402869027,"lng":-157.8604628086163,"neighborhood":"Ala Moana - Kakaako","city_fetched":"Honolulu","state":"HI","country":"United States","canonicalUrl":"https://foursquare.com/v/honolulu-beerworks/52eed0eb498e6f8c392de564","category":"Brewery","checkinsCount":1373,"usersCount":974,"tipCount":20,"visitsCount":1972,"url":"http://www.honolulubeerworks.com","tier":1,"message":"Cheap","currency":"$","rating":8.6},{"name":"Hula's Bar & Lei Stand","phone":"8089230669","twitter":"hulaswaikiki","address":"134 Kapahulu Ave, 2nd Floor","lat":21.27169671650352,"lng":-157.8217663667608,"neighborhood":"Waikiki","city_fetched":"Honolulu","state":"HI","country":"United States","canonicalUrl":"https://foursquare.com/v/hulas-bar--lei-stand/4b058650f964a5207d5b22e3","category":"Gay Bar","checkinsCount":8857,"usersCount":3029,"tipCount":89,"visitsCount":9234,"url":"http://hulas.com","tier":2,"message":"Moderate","currency":"$","rating":8.5},{"name":"Hard Rock Cafe Honolulu","phone":"8089557383","twitter":"hrchonolulu","address":"280 Beachwalk Ave","lat":21.280939020865823,"lng":-157.83067100178047,"neighborhood":"Waikiki","city_fetched":"Honolulu","state":"HI","country":"United States","canonicalUrl":"https://foursquare.com/v/hard-rock-cafe-honolulu/4ba1657af964a52062b337e3","category":"Theme Restaurant","checkinsCount":8430,"usersCount":6183,"tipCount":107,"visitsCount":8749,"url":"http://www.facebook.com/hardrock","tier":2,"message":"Moderate","currency":"$","rating":8.5},{"name":"Genius Lounge and Sake Bar","phone":"8086265362","address":"346 Lewers St","lat":21.28126557116372,"lng":-157.82887905836105,"neighborhood":"Waikiki","city_fetched":"Honolulu","state":"HI","country":"United States","canonicalUrl":"https://foursquare.com/v/genius-lounge-and-sake-bar/4b80cbc9f964a520818c30e3","category":"Sake Bar","checkinsCount":2036,"usersCount":1050,"tipCount":29,"visitsCount":2070,"url":"http://geniusloungehawaii.com","tier":"","message":"","currency":"","rating":8.5},{"name":"Proof Public House","phone":"8085373080","address":"1154 Fort Street Mall #10","lat":21.31096839904785,"lng":-157.86013793945312,"neighborhood":"Downtown Honolulu","city_fetched":"Honolulu","state":"HI","country":"United States","canonicalUrl":"https://foursquare.com/v/proof-public-house/54923f02498ec92862b67ded","category":"Pizza Place","checkinsCount":210,"usersCount":120,"tipCount":4,"visitsCount":285,"tier":"","message":"","currency":"","rating":8.5},{"name":"Siam Garden Cafe","phone":"8085239338","address":"1130 N Nimitz Hwy Rm A130","lat":21.318862,"lng":-157.876047,"neighborhood":"Kalihi - Palama","city_fetched":"Honolulu","state":"HI","country":"United States","canonicalUrl":"https://foursquare.com/v/siam-garden-cafe/4b43c527f964a5203be925e3","category":"Thai Restaurant","checkinsCount":1387,"usersCount":746,"tipCount":25,"visitsCount":1681,"url":"http://siamgardencafe.com","tier":2,"message":"Moderate","currency":"$","rating":8.5},{"name":"Downbeat Diner & Lounge","phone":"8085332328","twitter":"downbeathawaii","address":"42 N Hotel St","lat":21.310505828914465,"lng":-157.86267757415771,"neighborhood":"Downtown Honolulu","city_fetched":"Honolulu","state":"HI","country":"United States","canonicalUrl":"https://foursquare.com/v/downbeat-diner--lounge/4d1ece0cb69c6dcbd2026295","category":"Diner","checkinsCount":3538,"usersCount":1248,"tipCount":63,"visitsCount":3707,"url":"http://downbeatdiner.com","tier":2,"message":"Moderate","currency":"$","rating":8.5},{"name":"Pint + Jigger","phone":"8087449593","twitter":"pintandjigger","address":"1936 S King St","lat":21.295452476477184,"lng":-157.83089463352476,"neighborhood":"Mccully - Moiliili","city_fetched":"Honolulu","state":"HI","country":"United States","canonicalUrl":"https://foursquare.com/v/pint--jigger/4fc71777e4b0c5a82f1eddd9","category":"Gastropub","checkinsCount":2722,"usersCount":1490,"tipCount":43,"visitsCount":3212,"url":"http://pintandjigger.com","tier":2,"message":"Moderate","currency":"$","rating":8.5},{"name":"Ryan's Grill","phone":"8085919132","twitter":"ryansgrill","address":"1200 Ala Moana Blvd","lat":21.29261824436551,"lng":-157.8527319431305,"neighborhood":"Ala Moana - Kakaako","city_fetched":"Honolulu","state":"HI","country":"United States","canonicalUrl":"https://foursquare.com/ryansgrill","category":"Restaurant","checkinsCount":4054,"usersCount":1831,"tipCount":38,"visitsCount":4193,"url":"http://ryansgrill.com","tier":3,"message":"Expensive","currency":"$","rating":8.5},{"name":"Formaggio Wine Bar","phone":"8087397719","twitter":"formaggio808","address":"2919 Kapiolani Blvd #10","lat":21.288244726113522,"lng":-157.81505227088928,"neighborhood":"Diamond Head - Kapahulu - St. Louis","city_fetched":"Honolulu","state":"HI","country":"United States","canonicalUrl":"https://foursquare.com/v/formaggio-wine-bar/4bfb49e7f214a5930715af0e","category":"Wine Bar","checkinsCount":834,"usersCount":385,"tipCount":14,"visitsCount":846,"url":"http://www.formaggio808.com","tier":"","message":"","currency":"","rating":8.4},{"name":"Anna O'Briens","phone":"8089465190","address":"2440 S Beretania St","lat":21.294276077680532,"lng":-157.82425218534468,"neighborhood":"Mccully - Moiliili","city_fetched":"Honolulu","state":"HI","country":"United States","canonicalUrl":"https://foursquare.com/v/anna-obriens/4c5d1f88d25320a12237c57a","category":"Pub","checkinsCount":1242,"usersCount":316,"tipCount":8,"visitsCount":1279,"url":"http://annaobriens.com","tier":"","message":"","currency":"","rating":8.4},{"name":"Lulu's Surf Club","phone":"8089265222","twitter":"luluswaikiki","address":"2586 Kalakaua Ave","lat":21.271848130116584,"lng":-157.82260467526268,"neighborhood":"Waikiki","city_fetched":"Honolulu","state":"HI","country":"United States","canonicalUrl":"https://foursquare.com/v/lulus-surf-club/4ba151e6f964a5203dac37e3","category":"American Restaurant","checkinsCount":9357,"usersCount":5557,"tipCount":147,"visitsCount":9555,"url":"http://lulushawaii.com","tier":2,"message":"Moderate","currency":"$","rating":8.3},{"name":"Brew'd Craft Pub","twitter":"brewdcraftpub","address":"3441 Waialae Ave","lat":21.28429488703004,"lng":-157.80225250722734,"neighborhood":"Kaimuki","city_fetched":"Honolulu","state":"HI","country":"United States","canonicalUrl":"https://foursquare.com/v/brewd-craft-pub/5312a114498e023e8677fc80","category":"Gastropub","checkinsCount":728,"usersCount":314,"tipCount":13,"visitsCount":811,"url":"http://brewdcraftpub.com","tier":"","message":"","currency":"","rating":8.3},{"name":"Lewers Lounge","phone":"8089232311","twitter":"halekulanihotel","address":"2199 Kalia Rd","lat":21.278058150835907,"lng":-157.8319774535903,"neighborhood":"Waikiki","city_fetched":"Honolulu","state":"HI","country":"United States","canonicalUrl":"https://foursquare.com/v/lewers-lounge/4b05864ff964a520565b22e3","category":"Cocktail Bar","checkinsCount":1906,"usersCount":470,"tipCount":23,"visitsCount":2068,"url":"http://www.halekulani.com","tier":"","message":"","currency":"","rating":8.3},{"name":"Tiki's Grill & Bar","phone":"8089238454","twitter":"tikisgrill","address":"2570 Kalakaua Ave","lat":21.272264034228513,"lng":-157.82298624515533,"neighborhood":"Waikiki","city_fetched":"Honolulu","state":"HI","country":"United States","canonicalUrl":"https://foursquare.com/v/tikis-grill--bar/4b058656f964a520275d22e3","category":"American Restaurant","checkinsCount":11237,"usersCount":6621,"tipCount":138,"visitsCount":11533,"url":"http://tikisgrill.com","tier":2,"message":"Moderate","currency":"$","rating":8.3},{"name":"Sunrise Beach Bar","phone":"8089435800","address":"1775 Ala Moana Blvd","lat":21.284533,"lng":-157.839275,"neighborhood":"Waikiki","city_fetched":"Honolulu","state":"HI","country":"United States","canonicalUrl":"https://foursquare.com/v/sunrise-beach-bar/51abd8b8498e120eb0d53dd5","category":"Hotel Pool","checkinsCount":515,"usersCount":321,"tipCount":3,"visitsCount":517,"tier":"","message":"","currency":"","rating":8.3},{"name":"Imua Lounge","phone":"8089516555","address":"815 Keeaumoku St","lat":21.2968121206153,"lng":-157.84083797028623,"neighborhood":"Ala Moana - Kakaako","city_fetched":"Honolulu","state":"HI","country":"United States","canonicalUrl":"https://foursquare.com/v/imua-lounge/4bc6a33651b376b002ee1b6f","category":"Bar","checkinsCount":794,"usersCount":270,"tipCount":16,"visitsCount":817,"url":"http://www.imualoungeohana.com","tier":"","message":"","currency":"","rating":8.2},{"name":"RumFire","phone":"8089224422","twitter":"spg","address":"2255 Kalakaua Ave","lat":21.27694644287345,"lng":-157.8302135050665,"neighborhood":"Waikiki","city_fetched":"Honolulu","state":"HI","country":"United States","canonicalUrl":"https://foursquare.com/v/rumfire/4ccd0273ee23a143e34823a8","category":"Bar","checkinsCount":9879,"usersCount":6142,"tipCount":113,"visitsCount":10319,"url":"http://www.rumfirewaikiki.com","tier":3,"message":"Expensive","currency":"$","rating":8.2},{"name":"Gordon Biersch Brewery Restaurant","phone":"8085994877","address":"1 Aloha Tower Dr #1123","lat":21.305927934148194,"lng":-157.86628246307373,"neighborhood":"Downtown Honolulu","city_fetched":"Honolulu","state":"HI","country":"United States","canonicalUrl":"https://foursquare.com/v/gordon-biersch-brewery-restaurant/4b05864ef964a5202c5b22e3","category":"Brewery","checkinsCount":4817,"usersCount":2858,"tipCount":64,"visitsCount":5385,"url":"http://gordonbiersch.com","tier":2,"message":"Moderate","currency":"$","rating":8.2},{"name":"Barefoot Bar","phone":"8089550555","address":"193 Paoa Pl","lat":21.280646409762348,"lng":-157.8361806637531,"neighborhood":"Waikiki","city_fetched":"Honolulu","state":"HI","country":"United States","canonicalUrl":"https://foursquare.com/v/barefoot-bar/4bc158fdf8219c74a55cb310","category":"Hotel Bar","checkinsCount":3921,"usersCount":2569,"tipCount":41,"visitsCount":4494,"url":"http://www.halekoa.com","tier":1,"message":"Cheap","currency":"$","rating":8.1},{"name":"Asylum Afterhours","address":"815 Queen St","lat":21.299676807791993,"lng":-157.85581710232955,"neighborhood":"Ala Moana - Kakaako","city_fetched":"Honolulu","state":"HI","country":"United States","canonicalUrl":"https://foursquare.com/v/asylum-afterhours/4bda98ec63c5c9b60a722468","category":"Nightclub","checkinsCount":870,"usersCount":214,"tipCount":5,"visitsCount":934,"url":"http://www.asylumafterhours.com","tier":"","message":"","currency":"","rating":8.1},{"name":"Sheraton Waikiki - The Edge of Waikiki Bar","phone":"8089224422","address":"2255 Kalakaua Ave","lat":21.277212,"lng":-157.830929,"neighborhood":"Waikiki","city_fetched":"Honolulu","state":"HI","country":"United States","canonicalUrl":"https://foursquare.com/v/sheraton-waikiki--the-edge-of-waikiki-bar/4b53e17af964a520dcad27e3","category":"Bar","checkinsCount":2046,"usersCount":1531,"tipCount":31,"visitsCount":2067,"url":"http://sheraton-waikiki.com","tier":"","message":"","currency":"","rating":8.1},{"name":"Chez Sports Bar And Grill","phone":"8084882439","twitter":"chezbarngrill","address":"98-150 Kaonohi St","lat":21.38455752323404,"lng":-157.94564740558735,"city_fetched":"Honolulu","state":"HI","country":"United States","canonicalUrl":"https://foursquare.com/v/chez-sports-bar-and-grill/4bf8c4414a67c9285c0426cf","category":"Sports Bar","checkinsCount":754,"usersCount":278,"tipCount":14,"visitsCount":761,"url":"http://chezsportsbarandgrill.com","tier":"","message":"","currency":"","rating":8.1},{"name":"Safehouse","address":"1349 Kapiolani Blvd","lat":21.293595231030054,"lng":-157.84521584789061,"neighborhood":"Ala Moana - Kakaako","city_fetched":"Honolulu","state":"HI","country":"United States","canonicalUrl":"https://foursquare.com/v/safehouse/504c3f81e4b09ab3b3cb4cb9","category":"Cocktail Bar","checkinsCount":562,"usersCount":113,"tipCount":6,"visitsCount":569,"url":"http://jointherepublik.com/the-safehouse/","tier":"","message":"","currency":"","rating":8},{"name":"Mai Tai Bar","phone":"8089472900","address":"1450 Ala Moana Blvd","lat":21.290613939578158,"lng":-157.84250736236572,"neighborhood":"Ala Moana - Kakaako","city_fetched":"Honolulu","state":"HI","country":"United States","canonicalUrl":"https://foursquare.com/v/mai-tai-bar/4adf9f3af964a5203b7c21e3","category":"Cocktail Bar","checkinsCount":9105,"usersCount":4610,"tipCount":78,"visitsCount":9187,"url":"http://www.maitaibar.com","tier":2,"message":"Moderate","currency":"$","rating":8},{"name":"Bacchus Waikiki","phone":"8089264167","address":"408 Lewers St","lat":21.28171455716946,"lng":-157.82833312596867,"neighborhood":"Waikiki","city_fetched":"Honolulu","state":"HI","country":"United States","canonicalUrl":"https://foursquare.com/v/bacchus-waikiki/4e0cf7dd45ddc2c6d1697790","category":"Gay Bar","checkinsCount":4525,"usersCount":1308,"tipCount":18,"visitsCount":4821,"url":"http://bacchus-waikiki.com","tier":2,"message":"Moderate","currency":"$","rating":8},{"name":"Square Barrels","phone":"8085242747","twitter":"squarebarrels","address":"1001 Bishop St Ste 108","lat":21.309236204359408,"lng":-157.86011350704476,"neighborhood":"Downtown Honolulu","city_fetched":"Honolulu","state":"HI","country":"United States","canonicalUrl":"https://foursquare.com/v/square-barrels/54fe76ba498e3142af1b50b8","category":"Bar","checkinsCount":278,"usersCount":150,"tipCount":2,"visitsCount":295,"url":"http://squarebarrels.com","tier":"","message":"","currency":"","rating":8},{"name":"Mud Hen Water","lat":21.284462347448848,"lng":-157.80210114749633,"neighborhood":"Palolo","city_fetched":"Honolulu","state":"HI","country":"United States","canonicalUrl":"https://foursquare.com/v/mud-hen-water/556fd7dc498e914664ebfa72","category":"Gastropub","checkinsCount":175,"usersCount":126,"tipCount":7,"visitsCount":182,"tier":"","message":"","currency":"","rating":7.9},{"name":"Nocturna Lounge","phone":"8085211555","twitter":"nocturnalounge","address":"500 Ala Moana Blvd Ste 5D","lat":21.300872,"lng":-157.862844,"neighborhood":"Downtown Honolulu","city_fetched":"Honolulu","state":"HI","country":"United States","canonicalUrl":"https://foursquare.com/v/nocturna-lounge/4dc261a5fa7608e86fd7caac","category":"Karaoke Bar","checkinsCount":2774,"usersCount":798,"tipCount":23,"visitsCount":2890,"url":"http://nocturnalounge.com","tier":"","message":"","currency":"","rating":7.9},{"name":"The Old Spaghetti Factory","phone":"8085912513","twitter":"oldspaghfactory","address":"1050 Ala Moana Blvd","lat":21.295182257248186,"lng":-157.8572081011796,"neighborhood":"Ala Moana - Kakaako","city_fetched":"Honolulu","state":"HI","country":"United States","canonicalUrl":"https://foursquare.com/v/the-old-spaghetti-factory/4af5bb79f964a5200cfc21e3","category":"Italian Restaurant","checkinsCount":3305,"usersCount":1878,"tipCount":56,"visitsCount":3613,"url":"http://www.osf.com","tier":1,"message":"Cheap","currency":"$","rating":7.9},{"name":"Vino Italian Tapas and Wine Bar","phone":"8085248466","twitter":"vinoalan","address":"500 Ala Moana Blvd","lat":21.30049681026404,"lng":-157.86225006920304,"neighborhood":"Downtown Honolulu","city_fetched":"Honolulu","state":"HI","country":"United States","canonicalUrl":"https://foursquare.com/v/vino-italian-tapas-and-wine-bar/4f32a41819836c91c7eb8161","category":"Food","checkinsCount":147,"usersCount":87,"tipCount":1,"visitsCount":149,"url":"http://www.dkrestaurants.com","tier":2,"message":"Moderate","currency":"$","rating":7.9},{"name":"Fujioka's Wine Times","phone":"8087399463","address":"2919 Kapiolani Blvd","lat":21.28813271881064,"lng":-157.81505408975798,"neighborhood":"Diamond Head - Kapahulu - St. Louis","city_fetched":"Honolulu","state":"HI","country":"United States","canonicalUrl":"https://foursquare.com/v/fujiokas-wine-times/4b9c7bd3f964a520be6b36e3","category":"Winery","checkinsCount":480,"usersCount":161,"tipCount":2,"visitsCount":484,"url":"http://www.timessupermarkets.com","tier":"","message":"","currency":"","rating":7.9},{"name":"Chart House","phone":"8089416669","twitter":"charthousehi","address":"1765 Ala Moana Blvd","lat":21.285204283092426,"lng":-157.83999383270452,"neighborhood":"Waikiki","city_fetched":"Honolulu","state":"HI","country":"United States","canonicalUrl":"https://foursquare.com/v/chart-house/4b058653f964a5207e5c22e3","category":"American Restaurant","checkinsCount":2022,"usersCount":1389,"tipCount":31,"visitsCount":2234,"url":"http://charthousehonolulu.com","tier":4,"message":"Very Expensive","currency":"$","rating":7.8},{"name":"Dixie Grill","phone":"8084852722","twitter":"dixiegrill","address":"99-016 Kamehameha Hwy, Ste D","lat":21.37823437259847,"lng":-157.93533101404876,"city_fetched":"Honolulu","state":"HI","country":"United States","canonicalUrl":"https://foursquare.com/v/dixie-grill/4b1af2e9f964a52049f523e3","category":"Southern / Soul Food Restaurant","checkinsCount":3301,"usersCount":1531,"tipCount":56,"visitsCount":3544,"url":"http://www.dixiegrill.com","tier":2,"message":"Moderate","currency":"$","rating":7.8},{"name":"Kani Ka Pila Grille","phone":"8089234992","address":"2169 Kalia Rd","lat":21.278508,"lng":-157.832321,"neighborhood":"Waikiki","city_fetched":"Honolulu","state":"HI","country":"United States","canonicalUrl":"https://foursquare.com/v/kani-ka-pila-grille/4b78e8d1f964a5200de62ee3","category":"Hotel Bar","checkinsCount":1102,"usersCount":722,"tipCount":21,"visitsCount":1113,"tier":"","message":"","currency":"","rating":7.8},{"name":"GS Studio","phone":"8089213576","address":"320 Lewers St Fl 2","lat":21.280751504754086,"lng":-157.82927622610515,"neighborhood":"Waikiki","city_fetched":"Honolulu","state":"HI","country":"United States","canonicalUrl":"https://foursquare.com/v/gs-studio/4b0b395bf964a520f72e23e3","category":"Karaoke Bar","checkinsCount":1124,"usersCount":506,"tipCount":9,"visitsCount":1135,"url":"http://karaoke-gs.com","tier":"","message":"","currency":"","rating":7.8},{"name":"The Brewseum","phone":"8087992796","address":"901 Waimanu St","lat":21.299085399519093,"lng":-157.85360486476276,"neighborhood":"Ala Moana - Kakaako","city_fetched":"Honolulu","state":"HI","country":"United States","canonicalUrl":"https://foursquare.com/v/the-brewseum/53f6b8ab498ea7806780ce6c","category":"Beer Garden","checkinsCount":411,"usersCount":189,"tipCount":3,"visitsCount":535,"url":"http://www.brewseums.com","tier":"","message":"","currency":"","rating":7.8},{"name":"Bar 35","phone":"8085373535","twitter":"bar35","address":"35 N Hotel St","lat":21.311515778367447,"lng":-157.86248875883882,"neighborhood":"Downtown Honolulu","city_fetched":"Honolulu","state":"HI","country":"United States","canonicalUrl":"https://foursquare.com/v/bar-35/4aef05eef964a5202ed521e3","category":"Bar","checkinsCount":4262,"usersCount":1635,"tipCount":49,"visitsCount":4322,"url":"http://www.bar35hawaii.com","tier":2,"message":"Moderate","currency":"$","rating":7.8},{"name":"Arnold's Beach Bar & Grill","phone":"8089246887","address":"339 Saratoga Rd","lat":21.281231,"lng":-157.831122,"neighborhood":"Waikiki","city_fetched":"Honolulu","state":"HI","country":"United States","canonicalUrl":"https://foursquare.com/v/arnolds-beach-bar--grill/4b058650f964a5208a5b22e3","category":"Bar","checkinsCount":2561,"usersCount":1174,"tipCount":26,"visitsCount":2594,"url":"http://arnoldswaikiki.com","tier":1,"message":"Cheap","currency":"$","rating":7.8},{"name":"La Mariana Sailing Club","phone":"8088482800","address":"50 Sand Island Access Rd","lat":21.322021043141394,"lng":-157.89321589725932,"neighborhood":"Kalihi - Palama","city_fetched":"Honolulu","state":"HI","country":"United States","canonicalUrl":"https://foursquare.com/v/la-mariana-sailing-club/4be254e51dd22d7f88fc93bd","category":"Lounge","checkinsCount":2139,"usersCount":1577,"tipCount":38,"visitsCount":2601,"url":"http://lamarianasailingclub.com","tier":2,"message":"Moderate","currency":"$","rating":7.8},{"name":"Dave & Buster's","phone":"8085892215","address":"1030 Auahi St","lat":21.294370114324288,"lng":-157.8539952635765,"neighborhood":"Ala Moana - Kakaako","city_fetched":"Honolulu","state":"HI","country":"United States","canonicalUrl":"https://foursquare.com/v/dave--busters/4b058650f964a520845b22e3","category":"American Restaurant","checkinsCount":12108,"usersCount":4672,"tipCount":70,"visitsCount":12359,"url":"http://daveandbusters.com","tier":2,"message":"Moderate","currency":"$","rating":7.7},{"name":"MAC 24/7","phone":"8089215564","twitter":"mac247waikiki","address":"2500 Kuhio Ave","lat":21.27515295573836,"lng":-157.82163247029624,"neighborhood":"Waikiki","city_fetched":"Honolulu","state":"HI","country":"United States","canonicalUrl":"https://foursquare.com/v/mac-247/4b058656f964a520625d22e3","category":"American Restaurant","checkinsCount":5386,"usersCount":3380,"tipCount":107,"visitsCount":5511,"url":"http://mac247waikiki.com","tier":2,"message":"Moderate","currency":"$","rating":7.7},{"name":"Wai'olu","phone":"8086837456","twitter":"trumpwaikiki","address":"223 Saratoga Rd","lat":21.27966481,"lng":-157.832104,"neighborhood":"Waikiki","city_fetched":"Honolulu","state":"HI","country":"United States","canonicalUrl":"https://foursquare.com/v/waiolu/4b351cb3f964a520812a25e3","category":"Hotel Bar","checkinsCount":540,"usersCount":359,"tipCount":8,"visitsCount":542,"url":"http://www.trumphotelcollection.com/waikiki/honolu","tier":"","message":"","currency":"","rating":7.7},{"name":"The Beach Bar","phone":"8089214600","address":"2365 Kalakaua Ave","lat":21.276349827727305,"lng":-157.82693011978148,"neighborhood":"Waikiki","city_fetched":"Honolulu","state":"HI","country":"United States","canonicalUrl":"https://foursquare.com/v/the-beach-bar/4c83651e74d7b60c1e7f89d8","category":"Beach Bar","checkinsCount":3775,"usersCount":2512,"tipCount":46,"visitsCount":3807,"url":"http://www.beachhousewaikiki.com","tier":3,"message":"Expensive","currency":"$","rating":7.7},{"name":"Tsukuneya Robata Grill","phone":"8089430390","address":"1442 University Ave","lat":21.29673349157578,"lng":-157.8213646773937,"neighborhood":"Manoa","city_fetched":"Honolulu","state":"HI","country":"United States","canonicalUrl":"https://foursquare.com/v/tsukuneya-robata-grill/4b05864ff964a520655b22e3","category":"Japanese Restaurant","checkinsCount":401,"usersCount":280,"tipCount":18,"visitsCount":429,"url":"http://www.tsukuneyarobatagrill.com","tier":2,"message":"Moderate","currency":"$","rating":7.6},{"name":"The New Otani Kaimana Beach Hotel","phone":"8089231555","address":"2863 Kalakaua Ave","lat":21.263403085234312,"lng":-157.82109688452672,"neighborhood":"Diamond Head - Kapahulu - St. Louis","city_fetched":"Honolulu","state":"HI","country":"United States","canonicalUrl":"https://foursquare.com/v/the-new-otani-kaimana-beach-hotel/4b05864df964a520d05a22e3","category":"Hotel","checkinsCount":1536,"usersCount":620,"tipCount":9,"visitsCount":1619,"url":"http://www.kaimana.com","tier":"","message":"","currency":"","rating":7.6},{"name":"Row Bar","phone":"8085282345","address":"500 Ala Moana Blvd","lat":21.301363706588745,"lng":-157.862652,"neighborhood":"Downtown Honolulu","city_fetched":"Honolulu","state":"HI","country":"United States","canonicalUrl":"https://foursquare.com/v/row-bar/4cc6457938aaa09373b31d62","category":"Bar","checkinsCount":701,"usersCount":285,"tipCount":7,"visitsCount":732,"tier":"","message":"","currency":"","rating":7.6},{"name":"Chibo Okonomiyaki","phone":"8089229722","address":"2201 Kalakaua Ave, Suite A305","lat":21.27940576323232,"lng":-157.82945087432628,"neighborhood":"Waikiki","city_fetched":"Honolulu","state":"HI","country":"United States","canonicalUrl":"https://foursquare.com/v/chibo-okonomiyaki/4c2d831de307d13a5b090eda","category":"Japanese Restaurant","checkinsCount":1399,"usersCount":912,"tipCount":21,"visitsCount":1407,"url":"http://chibohawaii.com","tier":3,"message":"Expensive","currency":"$","rating":7.6},{"name":"Underdogs Sports Bar And Grill","lat":21.323392103125194,"lng":-157.87699065825103,"neighborhood":"Kalihi - Palama","city_fetched":"Honolulu","state":"HI","country":"United States","canonicalUrl":"https://foursquare.com/v/underdogs-sports-bar-and-grill/5102489de4b06b4b12ceb2b4","category":"Sports Bar","checkinsCount":451,"usersCount":198,"tipCount":13,"visitsCount":502,"tier":"","message":"","currency":"","rating":7.6},{"name":"8 Fat Fat 8","address":"1327 S Beretania St","lat":21.300537718967572,"lng":-157.84057599651746,"neighborhood":"Makiki - Lower Punchbowl - Tantalu","city_fetched":"Honolulu","state":"HI","country":"United States","canonicalUrl":"https://foursquare.com/v/8-fat-fat-8/4b09104af964a520181423e3","category":"Bar","checkinsCount":854,"usersCount":410,"tipCount":12,"visitsCount":939,"url":"http://8fatfat8hawaii.com","tier":"","message":"","currency":"","rating":7.6},{"name":"In Between","phone":"8089267060","address":"2155 Lauula St","lat":21.280896897028416,"lng":-157.82977688437896,"neighborhood":"Waikiki","city_fetched":"Honolulu","state":"HI","country":"United States","canonicalUrl":"https://foursquare.com/v/in-between/4b058650f964a5208c5b22e3","category":"Cocktail Bar","checkinsCount":3536,"usersCount":607,"tipCount":15,"visitsCount":3608,"tier":"","message":"","currency":"","rating":7.5},{"name":"Giovanni Pastrami","phone":"8089232100","twitter":"giopastrami","address":"227 Lewers St","lat":21.279268346067028,"lng":-157.8309761360905,"neighborhood":"Waikiki","city_fetched":"Honolulu","state":"HI","country":"United States","canonicalUrl":"https://foursquare.com/v/giovanni-pastrami/4b05864ff964a520705b22e3","category":"Sports Bar","checkinsCount":3763,"usersCount":2434,"tipCount":44,"visitsCount":3796,"url":"http://www.giovannipastrami.com","tier":2,"message":"Moderate","currency":"$","rating":7.5},{"name":"The Banyan Court","address":"The Moana Surfrider Hotel","lat":21.276367,"lng":-157.82699,"neighborhood":"Waikiki","city_fetched":"Honolulu","state":"HI","country":"United States","canonicalUrl":"https://foursquare.com/v/the-banyan-court/4b11fe9ef964a520f88723e3","category":"Hotel Bar","checkinsCount":479,"usersCount":314,"tipCount":11,"visitsCount":479,"tier":"","message":"","currency":"","rating":7.5},{"name":"Cuckoo Coconuts Waikiki","address":"333 Royal Hawaiian Ave","lat":21.279999,"lng":-157.828277,"neighborhood":"Waikiki","city_fetched":"Honolulu","state":"HI","country":"United States","canonicalUrl":"https://foursquare.com/v/cuckoo-coconuts-waikiki/54979213498e68f248aa2241","category":"Bar","checkinsCount":303,"usersCount":267,"tipCount":10,"visitsCount":319,"tier":"","message":"","currency":"","rating":7.5},{"name":"Blue Ribbon Bar & Grill","phone":"8089450177","address":"1831 S King St","lat":21.29536683794261,"lng":-157.831959988746,"neighborhood":"Mccully - Moiliili","city_fetched":"Honolulu","state":"HI","country":"United States","canonicalUrl":"https://foursquare.com/v/blue-ribbon-bar--grill/4cbadd6b0180721e30669c61","category":"Bar","checkinsCount":480,"usersCount":185,"tipCount":3,"visitsCount":487,"tier":"","message":"","currency":"","rating":7.5},{"name":"Next Door","phone":"8088522243","twitter":"nextdoorhnl","address":"43 N Hotel St","lat":21.311570318933107,"lng":-157.8624415397644,"neighborhood":"Downtown Honolulu","city_fetched":"Honolulu","state":"HI","country":"United States","canonicalUrl":"https://foursquare.com/v/next-door/4b058650f964a520ba5b22e3","category":"Bar","checkinsCount":1976,"usersCount":672,"tipCount":14,"visitsCount":2026,"url":"http://nextdoorhnl.com","tier":1,"message":"Cheap","currency":"$","rating":7.5},{"name":"Duke's Barefoot Bar","phone":"8089222268","address":"2335 Kalakaua Ave Ste 116","lat":21.27674,"lng":-157.827699,"neighborhood":"Waikiki","city_fetched":"Honolulu","state":"HI","country":"United States","canonicalUrl":"https://foursquare.com/v/dukes-barefoot-bar/50d241fce4b01ff93bc9cb5b","category":"Cocktail Bar","checkinsCount":814,"usersCount":696,"tipCount":9,"visitsCount":817,"url":"http://dukeswaikiki.com","tier":"","message":"","currency":"","rating":7.5},{"name":"Lotus Downtown HNL","phone":"8088883928","twitter":"lotus_downtown","address":"34 N Hotel St","lat":21.311599,"lng":-157.862413,"neighborhood":"Downtown Honolulu","city_fetched":"Honolulu","state":"HI","country":"United States","canonicalUrl":"https://foursquare.com/lotus_downtown","category":"Cocktail Bar","checkinsCount":679,"usersCount":197,"tipCount":8,"visitsCount":679,"tier":"","message":"","currency":"","rating":7.5},{"name":"Chez Kenzo Bar & Grill","phone":"8089412439","address":"1451 S King St","lat":21.297799162899203,"lng":-157.83939420414694,"neighborhood":"Ala Moana - Kakaako","city_fetched":"Honolulu","state":"HI","country":"United States","canonicalUrl":"https://foursquare.com/v/chez-kenzo-bar--grill/511484f1e4b0f26e355a6aef","category":"Restaurant","checkinsCount":858,"usersCount":449,"tipCount":9,"visitsCount":1105,"tier":2,"message":"Moderate","currency":"$","rating":7.5},{"name":"Jazz Minds Art & Cafe","phone":"8089450800","twitter":"jazzmindshnl","address":"1661 Kapiolani Blvd","lat":21.291058554048092,"lng":-157.8384918508175,"neighborhood":"Ala Moana - Kakaako","city_fetched":"Honolulu","state":"HI","country":"United States","canonicalUrl":"https://foursquare.com/v/jazz-minds-art--cafe/4b058650f964a520b95b22e3","category":"Jazz Club","checkinsCount":1532,"usersCount":292,"tipCount":13,"visitsCount":1536,"url":"http://honolulujazzclub.com","tier":"","message":"","currency":"","rating":7.5},{"name":"Cheeseburger In Paradise","phone":"8089233731","address":"2500 Kalakaua Ave Ste A","lat":21.274031756414622,"lng":-157.82379810116,"neighborhood":"Waikiki","city_fetched":"Honolulu","state":"HI","country":"United States","canonicalUrl":"https://foursquare.com/v/cheeseburger-in-paradise/4b05864ef964a5202d5b22e3","category":"Burger Joint","checkinsCount":6068,"usersCount":5212,"tipCount":108,"visitsCount":6578,"url":"http://www.cheeseburgerland.com","tier":2,"message":"Moderate","currency":"$","rating":7.5},{"name":"Club Evergreen","phone":"8089441006","address":"1376 Kapiolani Blvd","lat":21.29417295093089,"lng":-157.84405733949833,"neighborhood":"Ala Moana - Kakaako","city_fetched":"Honolulu","state":"HI","country":"United States","canonicalUrl":"https://foursquare.com/v/club-evergreen/4bf90e5bb182c9b6955d785a","category":"Bar","checkinsCount":320,"usersCount":93,"tipCount":3,"visitsCount":331,"tier":"","message":"","currency":"","rating":7.5},{"name":"Utage Restaurant & Lounge","phone":"8088438109","address":"1286 Kalani St","lat":21.321622,"lng":-157.876052,"neighborhood":"Kalihi - Palama","city_fetched":"Honolulu","state":"HI","country":"United States","canonicalUrl":"https://foursquare.com/v/utage-restaurant--lounge/4b058650f964a520955b22e3","category":"Bar","checkinsCount":611,"usersCount":291,"tipCount":16,"visitsCount":614,"url":"http://utagehawaii.com","tier":"","message":"","currency":"","rating":7.5},{"name":"Station Bar and Lounge","phone":"8083849963","address":"1726 Kapiolani Blvd","lat":21.29080270773364,"lng":-157.8371295891131,"neighborhood":"Ala Moana - Kakaako","city_fetched":"Honolulu","state":"HI","country":"United States","canonicalUrl":"https://foursquare.com/v/station-bar-and-lounge/4e9930cad22d3f4f88e319fe","category":"Bar","checkinsCount":741,"usersCount":247,"tipCount":10,"visitsCount":760,"url":"http://station808.com","tier":1,"message":"Cheap","currency":"$","rating":7.5},{"name":"Hanagasa Inn","phone":"8085315988","address":"1343 River St","lat":21.316244681814112,"lng":-157.8602182975103,"neighborhood":"Kalihi - Palama","city_fetched":"Honolulu","state":"HI","country":"United States","canonicalUrl":"https://foursquare.com/v/hanagasa-inn/4bd2974641b9ef3be47bfee5","category":"Dive Bar","checkinsCount":459,"usersCount":146,"tipCount":4,"visitsCount":647,"tier":"","message":"","currency":"","rating":7.4},{"name":"Hotel Renew","phone":"8086877700","twitter":"hotelrenewhi","address":"129 Paoakalani Ave","lat":21.272912955886454,"lng":-157.82224955842426,"neighborhood":"Waikiki","city_fetched":"Honolulu","state":"HI","country":"United States","canonicalUrl":"https://foursquare.com/v/hotel-renew/4b3a7b18f964a5204a6825e3","category":"Hotel","checkinsCount":1569,"usersCount":536,"tipCount":24,"visitsCount":1582,"url":"http://www.hotelrenew.com","tier":"","message":"","currency":"","rating":7.4},{"name":"Addiction","phone":"8089704161","address":"1775 Ala Moana Blvd","lat":21.285230842833126,"lng":-157.83914969546424,"neighborhood":"Waikiki","city_fetched":"Honolulu","state":"HI","country":"United States","canonicalUrl":"https://foursquare.com/v/addiction/4ed890f08b8173160a0fc901","category":"Nightclub","checkinsCount":1745,"usersCount":904,"tipCount":8,"visitsCount":1818,"url":"http://addictionnightclub.com","tier":"","message":"","currency":"","rating":7.4},{"name":"The Study","phone":"8084503398","address":"1775 Ala Moana Blvd.","lat":21.285309755337977,"lng":-157.8392370199905,"neighborhood":"Waikiki","city_fetched":"Honolulu","state":"HI","country":"United States","canonicalUrl":"https://foursquare.com/v/the-study/4fd9a92be4b05b8592d16aec","category":"Cocktail Bar","checkinsCount":1173,"usersCount":686,"tipCount":10,"visitsCount":1185,"url":"http://www.themodernhonolulu.com/the-study?utm_source=yext&utm_medium=listing&utm_campaign=The+Study","tier":"","message":"","currency":"","rating":7.3},{"name":"Tropics Tap House","phone":"8089555089","address":"1019 University Ave","lat":21.292572864185015,"lng":-157.82153350334983,"neighborhood":"Mccully - Moiliili","city_fetched":"Honolulu","state":"HI","country":"United States","canonicalUrl":"https://foursquare.com/v/tropics-tap-house/51ef6b77498e7140aff5482d","category":"Sports Bar","checkinsCount":860,"usersCount":348,"tipCount":16,"visitsCount":941,"url":"http://tropicstaphousehonolulu.com","tier":2,"message":"Moderate","currency":"$","rating":7.3},{"name":"Regency Club - Hyatt Regency Waikiki","phone":"8089231234","address":"2424 Kalakaua Ave","lat":21.275754,"lng":-157.825015,"neighborhood":"Waikiki","city_fetched":"Honolulu","state":"HI","country":"United States","canonicalUrl":"https://foursquare.com/v/regency-club--hyatt-regency-waikiki/4cd703b6886cb60cedf38c89","category":"Resort","checkinsCount":1292,"usersCount":325,"tipCount":17,"visitsCount":1295,"url":"http://www.hyattwaikiki.com","tier":"","message":"","currency":"","rating":7.3},{"name":"Chiko's Tavern","phone":"8089495440","address":"930 McCully St","lat":21.294275766911678,"lng":-157.83046965591313,"neighborhood":"Mccully - Moiliili","city_fetched":"Honolulu","state":"HI","country":"United States","canonicalUrl":"https://foursquare.com/v/chikos-tavern/4d8db738c479a35d914a3497","category":"Karaoke Bar","checkinsCount":1401,"usersCount":515,"tipCount":13,"visitsCount":1558,"url":"http://chikostavern.com","tier":"","message":"","currency":"","rating":7.2},{"name":"Pau Hana lounge","phone":"8088411002","address":"746 Kohou St","lat":21.323870340019166,"lng":-157.8713435805359,"neighborhood":"Kalihi - Palama","city_fetched":"Honolulu","state":"HI","country":"United States","canonicalUrl":"https://foursquare.com/v/pau-hana-lounge/4fb86abbe4b042b08ea094c1","category":"Bar","checkinsCount":331,"usersCount":144,"tipCount":3,"visitsCount":368,"url":"http://pauhanalounge.com","tier":"","message":"","currency":"","rating":7.2},{"name":"Hau Tree Bar","address":"at Super Pool, Hilton Hawaiian Village","lat":21.281853280704993,"lng":-157.83796790390244,"neighborhood":"Waikiki","city_fetched":"Honolulu","state":"HI","country":"United States","canonicalUrl":"https://foursquare.com/v/hau-tree-bar/4ba00808f964a520e55337e3","category":"Hotel Bar","checkinsCount":1191,"usersCount":821,"tipCount":19,"visitsCount":1202,"url":"http://www.hiltonhawaiianvillage.com/dining/bars","tier":2,"message":"Moderate","currency":"$","rating":7.2},{"name":"Moana Terrace Bar & Grill","address":"2552 Kalakaua Ave","lat":21.273083,"lng":-157.8233222,"neighborhood":"Waikiki","city_fetched":"Honolulu","state":"HI","country":"United States","canonicalUrl":"https://foursquare.com/v/moana-terrace-bar--grill/4b06197df964a520a2e822e3","category":"Hotel Bar","checkinsCount":1919,"usersCount":1172,"tipCount":25,"visitsCount":1937,"tier":"","message":"","currency":"","rating":7.1},{"name":"King's Korner Sports Bar & Grill","phone":"8089415509","address":"2334 S King St","lat":21.293672867583542,"lng":-157.8257703781128,"neighborhood":"Mccully - Moiliili","city_fetched":"Honolulu","state":"HI","country":"United States","canonicalUrl":"https://foursquare.com/v/kings-korner-sports-bar--grill/4fd0ee7f0cd66a4315315e24","category":"Sports Bar","checkinsCount":205,"usersCount":66,"tipCount":2,"visitsCount":215,"tier":"","message":"","currency":"","rating":7.1},{"name":"Moose McGillicuddy's","phone":"8089230751","twitter":"mooseswaikiki","address":"310 Lewers St","lat":21.2803942478268,"lng":-157.8294741607569,"neighborhood":"Waikiki","city_fetched":"Honolulu","state":"HI","country":"United States","canonicalUrl":"https://foursquare.com/v/moose-mcgillicuddys/4b05864ff964a520335b22e3","category":"Sports Bar","checkinsCount":5493,"usersCount":2749,"tipCount":53,"visitsCount":5572,"url":"http://moosewaikiki.com/Waikiki-Hawaii.html","tier":1,"message":"Cheap","currency":"$","rating":7.1},{"name":"Splash at Sheraton Princess Kaiulani","address":"120 Kaiulani Ave","lat":21.277018413295227,"lng":-157.82597537753418,"neighborhood":"Waikiki","city_fetched":"Honolulu","state":"HI","country":"United States","canonicalUrl":"https://foursquare.com/v/splash-at-sheraton-princess-kaiulani/4c0c9bd7b1b676b0105ddf86","category":"Bar","checkinsCount":537,"usersCount":315,"tipCount":5,"visitsCount":537,"tier":"","message":"","currency":"","rating":7.1},{"name":"Champions Sports Bar & Grill","phone":"8085968878","twitter":"champions808","address":"1108 Keeaumoku St","lat":21.2997024666551,"lng":-157.83980754031867,"neighborhood":"Makiki - Lower Punchbowl - Tantalu","city_fetched":"Honolulu","state":"HI","country":"United States","canonicalUrl":"https://foursquare.com/champions808","category":"Sports Bar","checkinsCount":1469,"usersCount":504,"tipCount":15,"visitsCount":1509,"tier":"","message":"","currency":"","rating":7.1},{"name":"The Hideaway Bar","phone":"8089499885","address":"1913 Dudoit Ln","lat":21.28650291009412,"lng":-157.83418384677765,"neighborhood":"Waikiki","city_fetched":"Honolulu","state":"HI","country":"United States","canonicalUrl":"https://foursquare.com/v/the-hideaway-bar/4b2c475bf964a5201cc524e3","category":"Bar","checkinsCount":894,"usersCount":365,"tipCount":7,"visitsCount":900,"tier":"","message":"","currency":"","rating":7.1},{"name":"Pandora Cafe","phone":"8089432020","twitter":"pandoracafe","address":"1526 Makaloa St","lat":21.29354303943151,"lng":-157.84163203299175,"neighborhood":"Ala Moana - Kakaako","city_fetched":"Honolulu","state":"HI","country":"United States","canonicalUrl":"https://foursquare.com/v/pandora-cafe/4ec4b7b00aaf9233ed81863e","category":"Sake Bar","checkinsCount":338,"usersCount":124,"tipCount":6,"visitsCount":345,"tier":"","message":"","currency":"","rating":7.1},{"name":"Puka's","lat":21.277667893903196,"lng":-157.7865751950006,"neighborhood":"Waialae - Kahala","city_fetched":"Honolulu","state":"HI","country":"United States","canonicalUrl":"https://foursquare.com/v/pukas/554c3254498e4393b75da99f","category":"Bar","checkinsCount":194,"usersCount":101,"tipCount":3,"visitsCount":201,"tier":"","message":"","currency":"","rating":7},{"name":"The M","address":"500 Ala Moana Blvd","lat":21.30127619987673,"lng":-157.86286716929058,"neighborhood":"Downtown Honolulu","city_fetched":"Honolulu","state":"HI","country":"United States","canonicalUrl":"https://foursquare.com/v/the-m/4fb606e9e4b0a80411202eb7","category":"Nightclub","checkinsCount":2490,"usersCount":1078,"tipCount":15,"visitsCount":2739,"url":"http://mnlhnl.com","tier":2,"message":"Moderate","currency":"$","rating":7},{"name":"Sheraton Leahi Club Lounge","address":"2255 Kalakaua Ave","lat":21.277658453281962,"lng":-157.8300388567803,"neighborhood":"Waikiki","city_fetched":"Honolulu","state":"HI","country":"United States","canonicalUrl":"https://foursquare.com/v/sheraton-leahi-club-lounge/4dfaccaca8096fbd6be54a20","category":"Lounge","checkinsCount":849,"usersCount":363,"tipCount":10,"visitsCount":850,"tier":"","message":"","currency":"","rating":7},{"name":"9th Ave Rock House","lat":21.284462,"lng":-157.80263935,"neighborhood":"Kaimuki","city_fetched":"Honolulu","state":"HI","country":"United States","canonicalUrl":"https://foursquare.com/v/9th-ave-rock-house/4c552a931b46c9b6ff4fc0cf","category":"Karaoke Bar","checkinsCount":222,"usersCount":90,"tipCount":5,"visitsCount":223,"tier":"","message":"","currency":"","rating":7},{"name":"Atrium Bar (Lobby 5, HIA)","address":"300 Rodgers Blvd","lat":21.332482518357075,"lng":-157.9198739712095,"neighborhood":"Hickham","city_fetched":"Honolulu","state":"HI","country":"United States","canonicalUrl":"https://foursquare.com/v/atrium-bar-lobby-5-hia/50ec8a4be4b0d877a7d72558","category":"Sports Bar","checkinsCount":86,"usersCount":79,"tipCount":6,"visitsCount":86,"tier":"","message":"","currency":"","rating":6.9},{"name":"Village Bottle Shop & Tasting Room","twitter":"villagebeer","address":"675 Auahi St Ste 121","lat":21.298338,"lng":-157.861312,"neighborhood":"Ala Moana - Kakaako","city_fetched":"Honolulu","state":"HI","country":"United States","canonicalUrl":"https://foursquare.com/v/village-bottle-shop--tasting-room/5717cdd8498ea1dc717bd798","category":"Beer Bar","checkinsCount":34,"usersCount":23,"tipCount":3,"visitsCount":36,"tier":"","message":"","currency":"","rating":6.8},{"name":"The Sand Bar & Grill","address":"2375 Ala Wai Blvd","lat":21.278875049988553,"lng":-157.8233847682086,"neighborhood":"Waikiki","city_fetched":"Honolulu","state":"HI","country":"United States","canonicalUrl":"https://foursquare.com/v/the-sand-bar--grill/4b61312ef964a520850c2ae3","category":"Hotel Bar","checkinsCount":569,"usersCount":301,"tipCount":9,"visitsCount":570,"tier":"","message":"","currency":"","rating":6.8},{"name":"Hibiscus Club","phone":"8085960965","address":"350 Ward Ave","lat":21.296631266173264,"lng":-157.85556677006946,"neighborhood":"Ala Moana - Kakaako","city_fetched":"Honolulu","state":"HI","country":"United States","canonicalUrl":"https://foursquare.com/v/hibiscus-club/4c47b5d10f5aa59314077f76","category":"Dive Bar","checkinsCount":195,"usersCount":84,"tipCount":1,"visitsCount":199,"url":"http://www.clubhibiscus.com","tier":"","message":"","currency":"","rating":6.8}]