[{"name":"Full Sail Brewing Co.","phone":"5413862247","twitter":"fullsailbrewing","address":"506 Columbia St","lat":45.710669807495044,"lng":-121.51613089607415,"city_fetched":"Hood River,US","state":"OR","country":"United States","canonicalUrl":"https://foursquare.com/v/full-sail-brewing-co/4adb6517f964a520ef2621e3","categoryId":"50327c8591d4c4b30a586d5d","category":"Brewery","checkinsCount":5531,"usersCount":4698,"tipCount":70,"visitsCount":6340,"url":"http://www.fullsailbrewing.com","tier":2,"message":"Moderate","currency":"$","rating":9.2},{"name":"Double Mountain Brewery & Taproom","phone":"5413870042","twitter":"doublemountain","address":"8 4th St","lat":45.71003491282609,"lng":-121.5144881359362,"city_fetched":"Hood River,US","state":"OR","country":"United States","canonicalUrl":"https://foursquare.com/v/double-mountain-brewery--taproom/4a906b6af964a520bb1720e3","categoryId":"50327c8591d4c4b30a586d5d","category":"Brewery","checkinsCount":6261,"usersCount":4057,"tipCount":86,"visitsCount":7183,"url":"http://www.doublemountainbrewery.com","tier":2,"message":"Moderate","currency":"$","rating":9},{"name":"Pfriem Family Brewers","phone":"5413210490","twitter":"pfriembeer","address":"707 Portway Ave Ste 101","lat":45.714715691599665,"lng":-121.51787007343799,"city_fetched":"Hood River,US","state":"OR","country":"United States","canonicalUrl":"https://foursquare.com/v/pfriem-family-brewers/4fef614be4b00e3bf8aa22e8","categoryId":"50327c8591d4c4b30a586d5d","category":"Brewery","checkinsCount":2693,"usersCount":1941,"tipCount":35,"visitsCount":3264,"url":"http://pfriembeer.com","tier":2,"message":"Moderate","currency":"$","rating":9},{"name":"Everybody's Brewing","phone":"5096372774","twitter":"everybodysbrew","address":"151 W Jewett Blvd","lat":45.72734679810187,"lng":-121.48567370139062,"city_fetched":"Hood River,US","state":"WA","country":"United States","canonicalUrl":"https://foursquare.com/v/everybodys-brewing/4b369885f964a520bd3825e3","categoryId":"50327c8591d4c4b30a586d5d","category":"Brewery","checkinsCount":1935,"usersCount":1049,"tipCount":27,"visitsCount":2199,"url":"http://www.everybodysbrewing.com","tier":"","message":"","currency":"","rating":9},{"name":"Volcanic Bottle Shoppe","phone":"5414361226","twitter":"volcanicbottle","address":"1410 12th St","lat":45.699839,"lng":-121.523798,"city_fetched":"Hood River,US","state":"OR","country":"United States","canonicalUrl":"https://foursquare.com/v/volcanic-bottle-shoppe/4c647321d646be9a9d0a0afd","categoryId":"56aa371ce4b08b9a8d57356c","category":"Beer Bar","checkinsCount":584,"usersCount":175,"tipCount":5,"visitsCount":691,"url":"http://www.volcanicbottleshoppe.com","tier":"","message":"","currency":"","rating":8.3},{"name":"Phelps Creek Vineyards","phone":"5413862607","twitter":"gorgepinot","address":"1850 Country Club Rd","lat":45.66880992118991,"lng":-121.58949136734009,"city_fetched":"Hood River,US","state":"OR","country":"United States","canonicalUrl":"https://foursquare.com/gorgepinot","categoryId":"4bf58dd8d48988d123941735","category":"Wine Bar","checkinsCount":196,"usersCount":185,"tipCount":3,"visitsCount":219,"url":"http://www.phelpscreekvineyards.com","tier":"","message":"","currency":"","rating":8.1},{"name":"Red Carpet Tavern","phone":"5413866664","address":"3631 Cascade Ave.","lat":45.71056524956218,"lng":-121.5485237269653,"city_fetched":"Hood River,US","state":"OR","country":"United States","canonicalUrl":"https://foursquare.com/v/red-carpet-tavern/4bc422bcdce4eee1f8f6719d","categoryId":"4bf58dd8d48988d116941735","category":"Bar","checkinsCount":512,"usersCount":131,"tipCount":6,"visitsCount":595,"tier":"","message":"","currency":"","rating":7.5},{"name":"Camp 1805","lat":45.714683994447164,"lng":-121.51579360475708,"city_fetched":"Hood River,US","state":"OR","country":"United States","canonicalUrl":"https://foursquare.com/v/camp-1805/53d31407498eb6c951280b30","categoryId":"4bf58dd8d48988d122941735","category":"Whisky Bar","checkinsCount":154,"usersCount":75,"tipCount":2,"visitsCount":159,"tier":"","message":"","currency":"","rating":7.4},{"name":"Logsdon Barrel House & Taproom","phone":"5414360040","address":"101 4th St","lat":45.70943649173697,"lng":-121.51415339671075,"city_fetched":"Hood River,US","state":"OR","country":"United States","canonicalUrl":"https://foursquare.com/v/logsdon-barrel-house--taproom/54dfa97c498e6ac81974f0a7","categoryId":"50327c8591d4c4b30a586d5d","category":"Brewery","checkinsCount":205,"usersCount":178,"tipCount":2,"visitsCount":219,"url":"http://www.logsdonbarrelhouse.com","tier":"","message":"","currency":"","rating":7.4},{"name":"Big Horse Brew Pub","phone":"5413864411","address":"115 State St","lat":45.707973675536536,"lng":-121.51202917098999,"city_fetched":"Hood River,US","state":"OR","country":"United States","canonicalUrl":"https://foursquare.com/v/big-horse-brew-pub/4b32e457f964a520a31525e3","categoryId":"50327c8591d4c4b30a586d5d","category":"Brewery","checkinsCount":1416,"usersCount":1217,"tipCount":33,"visitsCount":1507,"url":"http://bighorsebrewpub.com","tier":"","message":"","currency":"","rating":7.3},{"name":"Cebu Bamboo Lounge","phone":"5413862200","address":"1108 E Marina Way","lat":45.71193686356019,"lng":-121.49885416030884,"city_fetched":"Hood River,US","state":"OR","country":"United States","canonicalUrl":"https://foursquare.com/v/cebu-bamboo-lounge/4b510a2ff964a5200a3f27e3","categoryId":"4bf58dd8d48988d1d5941735","category":"Hotel Bar","checkinsCount":414,"usersCount":188,"tipCount":2,"visitsCount":420,"url":"http://hoodriverinn.com/cebu.htm","tier":"","message":"","currency":"","rating":6.7},{"name":"River City Saloon","phone":"5413872583","address":"207 Cascade Ave","lat":45.7095121771536,"lng":-121.51268144622955,"city_fetched":"Hood River,US","state":"OR","country":"United States","canonicalUrl":"https://foursquare.com/v/river-city-saloon/4f32c44619836c91c7f842a4","categoryId":"4d4b7105d754a06376d81259","category":"Nightlife Spot","checkinsCount":317,"usersCount":127,"tipCount":1,"visitsCount":342,"tier":"","message":"","currency":"","rating":6.6},{"name":"Pint Shack","lat":45.70923,"lng":-121.514173,"city_fetched":"Hood River,US","state":"OR","country":"United States","canonicalUrl":"https://foursquare.com/v/pint-shack/4e5034308877402b06cf7dcf","categoryId":"4bf58dd8d48988d117941735","category":"Beer Garden","checkinsCount":342,"usersCount":110,"tipCount":3,"visitsCount":347,"tier":2,"message":"Moderate","currency":"$","rating":6.2},{"name":"Rivertap","phone":"5413869900","address":"112 Oak St","lat":45.7091766742651,"lng":-121.51185368071101,"city_fetched":"Hood River,US","state":"OR","country":"United States","canonicalUrl":"https://foursquare.com/v/rivertap/4fb16f44e4b06952e0702b90","categoryId":"4bf58dd8d48988d1d4941735","category":"Speakeasy","checkinsCount":251,"usersCount":102,"tipCount":12,"visitsCount":251,"tier":"","message":"","currency":"","rating":6.1},{"name":"The Horse & Hound British Pub","phone":"5413862099","address":"403 Oak St","lat":45.70868647928542,"lng":-121.5147128422049,"city_fetched":"Hood River,US","state":"OR","country":"United States","canonicalUrl":"https://foursquare.com/v/the-horse--hound-british-pub/4bb4160e643cd13a786d395c","categoryId":"4bf58dd8d48988d116941735","category":"Bar","checkinsCount":883,"usersCount":422,"tipCount":17,"visitsCount":897,"tier":"","message":"","currency":"","rating":5.9}]