[{"name":"Capone's Ohio Club","phone":"5016270702","address":"336A Central Ave","lat":34.51475553308449,"lng":-93.05374900589028,"city_fetched":"Hot Springs","state":"AR","country":"United States","canonicalUrl":"https://foursquare.com/v/capones-ohio-club/4cafcbb939458cfa90a7fd9f","category":"Speakeasy","checkinsCount":857,"usersCount":634,"tipCount":14,"visitsCount":899,"url":"http://www.theohioclub.com","tier":"","message":"","currency":"","rating":8.1},{"name":"Superior Bathhouse Brewery And Distillery","phone":"5016242337","address":"Bathhouse Row","lat":34.514862912709305,"lng":-93.05359251322633,"city_fetched":"Hot Springs","state":"AR","country":"United States","canonicalUrl":"https://foursquare.com/v/superior-bathhouse-brewery-and-distillery/5205264611d220fdf4c2bcd0","category":"Brewery","checkinsCount":601,"usersCount":610,"tipCount":14,"visitsCount":756,"url":"http://www.superiorbathhouse.com","tier":2,"message":"Moderate","currency":"$","rating":7.9},{"name":"Maxine's Live Music Venue","phone":"5013210909","address":"700 Central Ave","lat":34.510753884817404,"lng":-93.0540543794632,"city_fetched":"Hot Springs","state":"AR","country":"United States","canonicalUrl":"https://foursquare.com/v/maxines-live-music-venue/4b9af1d3f964a520a4e535e3","category":"Music Venue","checkinsCount":934,"usersCount":575,"tipCount":5,"visitsCount":1146,"url":"http://www.maxineslive.com","tier":"","message":"","currency":"","rating":7.9},{"name":"Rod's Pizza Cellar","phone":"5016247637","address":"3350 Central Ave","lat":34.47401940822601,"lng":-93.061384,"city_fetched":"Hot Springs","state":"AR","country":"United States","canonicalUrl":"https://foursquare.com/v/rods-pizza-cellar/4b773b14f964a520f6892ee3","category":"Italian Restaurant","checkinsCount":377,"usersCount":376,"tipCount":11,"visitsCount":521,"url":"http://rodspizzacellar.com","tier":2,"message":"Moderate","currency":"$","rating":7.2},{"name":"The big chill","address":"Higdon ferry","lat":34.474492703055006,"lng":-93.0638438570687,"city_fetched":"Hot Springs","state":"AR","country":"United States","canonicalUrl":"https://foursquare.com/v/the-big-chill/4b7b600af964a520a4602fe3","category":"Music Venue","checkinsCount":471,"usersCount":150,"tipCount":15,"visitsCount":510,"tier":"","message":"","currency":"","rating":7},{"name":"The Winery Of Hot Springs","phone":"5016239463","address":"1503 Central Ave","lat":34.49859840699369,"lng":-93.05637522429484,"city_fetched":"Hot Springs","state":"AR","country":"United States","canonicalUrl":"https://foursquare.com/v/the-winery-of-hot-springs/4c38f78d2c8020a1dcde8b00","category":"Wine Shop","checkinsCount":152,"usersCount":162,"tipCount":5,"visitsCount":183,"url":"http://www.hotspringswinery.com","tier":"","message":"","currency":"","rating":6.9}]