[{"name":"Daiquiris & Company","phone":"9858739981","twitter":"daiqandco","address":"296 S Hollywood Rd","lat":29.602865,"lng":-90.754292,"city_fetched":"Houma","state":"LA","country":"United States","canonicalUrl":"https://foursquare.com/v/daiquiris--company/4defd8cf887754a6af9d4e4d","category":"Bar","checkinsCount":154,"usersCount":99,"tipCount":2,"visitsCount":171,"url":"http://www.daiquirisandcompany.com/home.php","tier":"","message":"","currency":"","rating":8.3},{"name":"The Boxer & The Barrel","address":"7817 Main St","lat":29.596940580242265,"lng":-90.72356014404531,"neighborhood":"Downtown Houma","city_fetched":"Houma","state":"LA","country":"United States","canonicalUrl":"https://foursquare.com/v/the-boxer--the-barrel/4b461cf2f964a520c91626e3","category":"Bar","checkinsCount":200,"usersCount":87,"tipCount":3,"visitsCount":203,"tier":"","message":"","currency":"","rating":7.9},{"name":"Hooters Houma","phone":"9852620801","twitter":"hootershouma","address":"1619 Martin Luther King Jr Blvd","lat":29.6092277,"lng":-90.7501324,"city_fetched":"Houma","state":"LA","country":"United States","canonicalUrl":"https://foursquare.com/v/hooters-houma/4b89dbc4f964a520d35132e3","category":"Bar","checkinsCount":581,"usersCount":296,"tipCount":3,"visitsCount":595,"url":"http://hootersoflouisiana.com","tier":"","message":"","currency":"","rating":6.7}]