[{"name":"Karbach Brewing Co.","phone":"7136802739","twitter":"karbachbrewing","address":"2032 Karbach St","lat":29.806366315498714,"lng":-95.46015297836743,"neighborhood":"Northwest Houston","city_fetched":"Houston","state":"TX","country":"United States","canonicalUrl":"https://foursquare.com/v/karbach-brewing-co/4d9f2a53f21988bf9352d789","category":"Brewery","checkinsCount":6716,"usersCount":4518,"tipCount":58,"visitsCount":9142,"url":"http://www.karbachbrewing.com","tier":1,"message":"Cheap","currency":"$","rating":9.5},{"name":"13 Celsius","phone":"7135298466","address":"3000 Caroline St","lat":29.74124560881298,"lng":-95.37372542297997,"neighborhood":"Midtown","city_fetched":"Houston","state":"TX","country":"United States","canonicalUrl":"https://foursquare.com/v/13-celsius/4ac81232f964a52080bb20e3","category":"Wine Bar","checkinsCount":4008,"usersCount":2194,"tipCount":60,"visitsCount":4914,"url":"http://www.13celsius.com","tier":2,"message":"Moderate","currency":"$","rating":9.4},{"name":"Saint Arnold Brewing Company","phone":"7136869494","twitter":"saintarnold","address":"2000 Lyons Ave","lat":29.771166633043162,"lng":-95.34845352172852,"neighborhood":"Central Houston","city_fetched":"Houston","state":"TX","country":"United States","canonicalUrl":"https://foursquare.com/v/saint-arnold-brewing-company/4b2d0181f964a52032cc24e3","category":"Brewery","checkinsCount":13622,"usersCount":8388,"tipCount":130,"visitsCount":15862,"url":"http://www.saintarnold.com","tier":1,"message":"Cheap","currency":"$","rating":9.3},{"name":"Agora","phone":"7135267212","address":"1712 Westheimer Rd","lat":29.742866467107856,"lng":-95.40262936959893,"neighborhood":"Neartown - Montrose","city_fetched":"Houston","state":"TX","country":"United States","canonicalUrl":"https://foursquare.com/v/agora/4cfbf9f02d80a1434b8f4ed8","category":"Coffee Shop","checkinsCount":10457,"usersCount":4736,"tipCount":113,"visitsCount":11941,"url":"http://agorahouston.com","tier":2,"message":"Moderate","currency":"$","rating":9.3},{"name":"Anvil Bar & Refuge","phone":"7135231622","twitter":"anvilhouston","address":"1424 Westheimer Rd","lat":29.7430281,"lng":-95.39682984352112,"neighborhood":"Neartown - Montrose","city_fetched":"Houston","state":"TX","country":"United States","canonicalUrl":"https://foursquare.com/v/anvil-bar--refuge/4a95e7d0f964a520572520e3","category":"Cocktail Bar","checkinsCount":12937,"usersCount":6394,"tipCount":170,"visitsCount":13800,"url":"http://www.anvilhouston.com","tier":2,"message":"Moderate","currency":"$","rating":9.3},{"name":"Topgolf","phone":"2814063176","twitter":"topgolfhouston","address":"1030 Memorial Brook Blvd","lat":29.786743399909664,"lng":-95.65005049109459,"neighborhood":"Energy Corridor","city_fetched":"Houston","state":"TX","country":"United States","canonicalUrl":"https://foursquare.com/v/topgolf/505363dfe4b09a662ca2487f","category":"Golf Course","checkinsCount":11591,"usersCount":8650,"tipCount":67,"visitsCount":15627,"url":"http://topgolf.com/us/houston-west/","tier":"","message":"","currency":"","rating":9.3},{"name":"Perry's Steakhouse & Grille","phone":"8323589000","twitter":"perrysdining","address":"9827 Katy Fwy","lat":29.783370307738,"lng":-95.5386757850647,"neighborhood":"Memorial City","city_fetched":"Houston","state":"TX","country":"United States","canonicalUrl":"https://foursquare.com/v/perrys-steakhouse--grille/4c40dcfb6c1a95211668b96a","category":"Steakhouse","checkinsCount":2796,"usersCount":2320,"tipCount":44,"visitsCount":3667,"url":"http://www.perryssteakhouse.com","tier":3,"message":"Expensive","currency":"$","rating":9.3},{"name":"Benjy's","phone":"7135227602","twitter":"benjys_village","address":"2424 Dunstan Rd","lat":29.719502228826226,"lng":-95.41641265153885,"neighborhood":"University Place","city_fetched":"Houston","state":"TX","country":"United States","canonicalUrl":"https://foursquare.com/v/benjys/436aa480f964a5209c291fe3","category":"New American Restaurant","checkinsCount":6118,"usersCount":3719,"tipCount":85,"visitsCount":6338,"url":"http://www.benjys.com","tier":2,"message":"Moderate","currency":"$","rating":9.3},{"name":"Aka Sushi House","phone":"7138077875","address":"2390 W Alabama St","lat":29.73866902097587,"lng":-95.41733264923096,"neighborhood":"Greenway - Upper Kirby","city_fetched":"Houston","state":"TX","country":"United States","canonicalUrl":"https://foursquare.com/v/aka-sushi-house/4afb5f4cf964a520701d22e3","category":"Sushi Restaurant","checkinsCount":6732,"usersCount":3291,"tipCount":91,"visitsCount":7658,"url":"http://akasushi.net","tier":2,"message":"Moderate","currency":"$","rating":9.2},{"name":"Johnny's Gold Brick","twitter":"johnnysgb","address":"2518 Yale St","lat":29.809843272256874,"lng":-95.39904498645342,"neighborhood":"Greater Heights","city_fetched":"Houston","state":"TX","country":"United States","canonicalUrl":"https://foursquare.com/v/johnnys-gold-brick/54a2bd58498e5892fbd7191a","category":"Cocktail Bar","checkinsCount":571,"usersCount":479,"tipCount":7,"visitsCount":945,"url":"http://treadsack.com/johnnys/","tier":"","message":"","currency":"","rating":9.2},{"name":"No Label Brewing Co.","phone":"2816937545","twitter":"nolabelbrewco","address":"5373 1st St","lat":29.78642721312207,"lng":-95.81421901947151,"city_fetched":"Houston","state":"TX","country":"United States","canonicalUrl":"https://foursquare.com/v/no-label-brewing-co/4be5b80f910020a17e60d314","category":"Brewery","checkinsCount":1967,"usersCount":1183,"tipCount":32,"visitsCount":2356,"url":"http://www.nolabelbrew.com","tier":1,"message":"Cheap","currency":"$","rating":9.2},{"name":"Conservatory","phone":"7133987697","twitter":"conservatoryhtx","address":"1010 Prairie St","lat":29.76048095451066,"lng":-95.36165486777158,"neighborhood":"Downtown Houston","city_fetched":"Houston","state":"TX","country":"United States","canonicalUrl":"https://foursquare.com/v/conservatory/54da67fc498ef16e5489131e","category":"Beer Garden","checkinsCount":716,"usersCount":527,"tipCount":10,"visitsCount":844,"url":"http://conservatoryhtx.com","tier":"","message":"","currency":"","rating":9.2},{"name":"Benjy's","phone":"7138681131","twitter":"benjys_wash","address":"5922 Washington Ave","lat":29.771252476896294,"lng":-95.42140882251438,"neighborhood":"Washington Avenue - Memorial Park","city_fetched":"Houston","state":"TX","country":"United States","canonicalUrl":"https://foursquare.com/v/benjys/4afdfae7f964a520a72c22e3","category":"New American Restaurant","checkinsCount":7502,"usersCount":5048,"tipCount":99,"visitsCount":9051,"url":"http://benjys.com","tier":2,"message":"Moderate","currency":"$","rating":9.2},{"name":"Hughie's Tavern & Grille","phone":"7138661830","twitter":"hughieshouston","address":"1802 W 18th St","lat":29.801515519556013,"lng":-95.43154775555216,"neighborhood":"Lazybrook","city_fetched":"Houston","state":"TX","country":"United States","canonicalUrl":"https://foursquare.com/v/hughies-tavern--grille/51f46297498e284bb2346e87","category":"Vietnamese Restaurant","checkinsCount":1887,"usersCount":1090,"tipCount":30,"visitsCount":3024,"url":"http://www.hughiesgrille.com","tier":2,"message":"Moderate","currency":"$","rating":9.2},{"name":"Cedar Creek Café, Bar & Grill","phone":"7138089623","address":"1034 W 20th St","lat":29.8035425799098,"lng":-95.41774144128394,"neighborhood":"Shady Acres","city_fetched":"Houston","state":"TX","country":"United States","canonicalUrl":"https://foursquare.com/v/cedar-creek-caf%C3%A9-bar--grill/4aecb5bbf964a5207fca21e3","category":"American Restaurant","checkinsCount":16802,"usersCount":7092,"tipCount":124,"visitsCount":19889,"url":"http://www.cedarcreekcafebargrill.com","tier":2,"message":"Moderate","currency":"$","rating":9.2},{"name":"Crisp Wine-Beer-Eatery","phone":"7133600223","twitter":"crisphouston","address":"2220 Bevis St","lat":29.806263613030207,"lng":-95.42219654693812,"neighborhood":"Shady Acres","city_fetched":"Houston","state":"TX","country":"United States","canonicalUrl":"https://foursquare.com/crisphouston","category":"Wine Bar","checkinsCount":3214,"usersCount":2317,"tipCount":36,"visitsCount":4832,"url":"http://crisphouston.com","tier":2,"message":"Moderate","currency":"$","rating":9.2},{"name":"Boheme","phone":"7135291099","twitter":"barboheme","address":"307 Fairview St","lat":29.748029014192532,"lng":-95.38605409775569,"neighborhood":"Neartown - Montrose","city_fetched":"Houston","state":"TX","country":"United States","canonicalUrl":"https://foursquare.com/v/boheme/4a8c37e4f964a520550d20e3","category":"Wine Bar","checkinsCount":13164,"usersCount":6187,"tipCount":131,"visitsCount":15656,"url":"http://www.barboheme.com","tier":2,"message":"Moderate","currency":"$","rating":9.2},{"name":"Flying Saucer Draught Emporium","phone":"7132289472","address":"705 Main St","lat":29.75920368568827,"lng":-95.36324914019512,"neighborhood":"Downtown Houston","city_fetched":"Houston","state":"TX","country":"United States","canonicalUrl":"https://foursquare.com/v/flying-saucer-draught-emporium/41326e00f964a520f9111fe3","category":"Beer Garden","checkinsCount":28104,"usersCount":10341,"tipCount":183,"visitsCount":31011,"url":"http://www.beerknurd.com","tier":2,"message":"Moderate","currency":"$","rating":9.2},{"name":"The Hay Merchant","phone":"7135239805","twitter":"haymerchant","address":"1100 Westheimer Rd","lat":29.7449144488392,"lng":-95.39285337255195,"neighborhood":"Neartown - Montrose","city_fetched":"Houston","state":"TX","country":"United States","canonicalUrl":"https://foursquare.com/v/the-hay-merchant/4f247503e4b0ed3398747c01","category":"Beer Garden","checkinsCount":14437,"usersCount":5683,"tipCount":155,"visitsCount":15531,"url":"http://www.haymerchant.com","tier":2,"message":"Moderate","currency":"$","rating":9.1},{"name":"The Flat","phone":"7133607228","twitter":"theflathtx","address":"1701 Commonwealth St","lat":29.751471866524383,"lng":-95.39862060200554,"neighborhood":"Neartown - Montrose","city_fetched":"Houston","state":"TX","country":"United States","canonicalUrl":"https://foursquare.com/v/the-flat/4b0b5ef1f964a520e83023e3","category":"Lounge","checkinsCount":4035,"usersCount":2033,"tipCount":39,"visitsCount":4978,"url":"http://theflathouston.com","tier":2,"message":"Moderate","currency":"$","rating":9.1},{"name":"Onion Creek","phone":"7138800706","twitter":"onioncreekcafe","address":"3106 White Oak Dr","lat":29.781713927370845,"lng":-95.39092597813186,"neighborhood":"Greater Heights","city_fetched":"Houston","state":"TX","country":"United States","canonicalUrl":"https://foursquare.com/v/onion-creek/42829c80f964a5202a221fe3","category":"Café","checkinsCount":13721,"usersCount":6008,"tipCount":120,"visitsCount":15961,"url":"http://www.onioncreekcafe.com/home.html","tier":2,"message":"Moderate","currency":"$","rating":9.1},{"name":"Chuy's","phone":"7135241700","twitter":"chuysrestaurant","address":"2706 Westheimer Rd","lat":29.74250240575713,"lng":-95.42036890983582,"neighborhood":"Afton Oaks - River Oaks","city_fetched":"Houston","state":"TX","country":"United States","canonicalUrl":"https://foursquare.com/v/chuys/44055758f964a5203c301fe3","category":"Mexican Restaurant","checkinsCount":15684,"usersCount":7944,"tipCount":134,"visitsCount":19198,"url":"http://www.chuys.com","tier":2,"message":"Moderate","currency":"$","rating":9.1},{"name":"Underbelly","phone":"7135289800","twitter":"underbellyhou","address":"1100 Westheimer Rd","lat":29.744940377061372,"lng":-95.39303742418491,"neighborhood":"Neartown - Montrose","city_fetched":"Houston","state":"TX","country":"United States","canonicalUrl":"https://foursquare.com/v/underbelly/4f248037e4b0831876b0ece0","category":"New American Restaurant","checkinsCount":4946,"usersCount":2997,"tipCount":89,"visitsCount":5027,"url":"http://www.underbellyhouston.com","tier":3,"message":"Expensive","currency":"$","rating":9.1},{"name":"Jupiter Pizza & Waffles Co.","phone":"2813131008","twitter":"jptrpizza","address":"16135 City Walk","lat":29.595550075256334,"lng":-95.62226992701724,"neighborhood":"Sugar Land Town Square","city_fetched":"Houston","state":"TX","country":"United States","canonicalUrl":"https://foursquare.com/v/jupiter-pizza--waffles-co/51f82e1d498e4e8c4ead813d","category":"Pizza Place","checkinsCount":1729,"usersCount":1170,"tipCount":48,"visitsCount":2011,"url":"http://www.jupiterpizzaandwaffles.com","tier":2,"message":"Moderate","currency":"$","rating":9.1},{"name":"Dolce Vita Pizzeria & Enoteca","phone":"7135208222","twitter":"dolcevita_htx","address":"500 Westheimer Rd","lat":29.74464439335356,"lng":-95.38744456110155,"neighborhood":"Montrose","city_fetched":"Houston","state":"TX","country":"United States","canonicalUrl":"https://foursquare.com/v/dolce-vita-pizzeria--enoteca/4e4e5e2abd4101d0d7a89bf9","category":"Pizza Place","checkinsCount":3037,"usersCount":2042,"tipCount":62,"visitsCount":3523,"url":"http://dolcevitahouston.com","tier":2,"message":"Moderate","currency":"$","rating":9.1},{"name":"Weights + Measures","phone":"7136541970","twitter":"wmhtx","address":"2808 Caroline St Ste 101","lat":29.74280063304635,"lng":-95.37272370594683,"neighborhood":"Midtown","city_fetched":"Houston","state":"TX","country":"United States","canonicalUrl":"https://foursquare.com/v/weights--measures/533a412f498e24595b81e4f6","category":"Cocktail Bar","checkinsCount":1393,"usersCount":1367,"tipCount":28,"visitsCount":2617,"url":"http://weights-measures.com","tier":"","message":"","currency":"","rating":9.1},{"name":"Little Woodrow's","phone":"7135221041","twitter":"lilwoods_htown","address":"2306 Brazos St","lat":29.74985195374296,"lng":-95.37722134710863,"neighborhood":"Midtown","city_fetched":"Houston","state":"TX","country":"United States","canonicalUrl":"https://foursquare.com/v/little-woodrows/41326e00f964a52059121fe3","category":"Bar","checkinsCount":14618,"usersCount":7228,"tipCount":55,"visitsCount":18375,"url":"http://www.littlewoodrows.com","tier":1,"message":"Cheap","currency":"$","rating":9.1},{"name":"Topgolf","phone":"8322000106","twitter":"topgolfhouston","address":"560 Spring Park Center Blvd","lat":30.048135571401374,"lng":-95.42673245072365,"city_fetched":"Houston","state":"TX","country":"United States","canonicalUrl":"https://foursquare.com/v/topgolf/53021eef498e0682fd038914","category":"Golf Course","checkinsCount":1969,"usersCount":2623,"tipCount":18,"visitsCount":4087,"url":"http://topgolf.com/us/houston-north/","tier":"","message":"","currency":"","rating":9.1},{"name":"Gringo's Mexican Kitchen","phone":"7135381000","address":"3005 Kirby Dr","lat":29.554459453565485,"lng":-95.3967735171318,"city_fetched":"Houston","state":"TX","country":"United States","canonicalUrl":"https://foursquare.com/v/gringos-mexican-kitchen/4b567009f964a520561028e3","category":"Mexican Restaurant","checkinsCount":3887,"usersCount":2520,"tipCount":42,"visitsCount":5518,"url":"http://gringosmexicankitchen.com","tier":2,"message":"Moderate","currency":"$","rating":9.1},{"name":"Eddie V's Prime Seafood","phone":"8322002380","twitter":"eddievs","address":"12848 Queensbury Ln Ste 200","lat":29.778886378940058,"lng":-95.56082293650927,"neighborhood":"Memorial","city_fetched":"Houston","state":"TX","country":"United States","canonicalUrl":"https://foursquare.com/v/eddie-vs-prime-seafood/4c98392a05a1b1f711088c53","category":"Seafood Restaurant","checkinsCount":2803,"usersCount":1698,"tipCount":36,"visitsCount":2971,"url":"http://eddiev.com","tier":4,"message":"Very Expensive","currency":"$","rating":9.1},{"name":"Axelrad Beer Garden","phone":"2816302222","twitter":"axelradhouston","address":"1517 Alabama St","lat":29.7351359161301,"lng":-95.37477315581394,"neighborhood":"Midtown","city_fetched":"Houston","state":"TX","country":"United States","canonicalUrl":"https://foursquare.com/v/axelrad-beer-garden/4eec1bd2b634f75441bb6a11","category":"Beer Garden","checkinsCount":1486,"usersCount":1363,"tipCount":11,"visitsCount":2323,"url":"http://www.axelradbeergarden.com","tier":"","message":"","currency":"","rating":9.1},{"name":"Moon Tower Inn","phone":"8322660105","twitter":"daddymeatstacks","address":"3004 Canal St","lat":29.754385586911194,"lng":-95.34104571095399,"neighborhood":"Second Ward","city_fetched":"Houston","state":"TX","country":"United States","canonicalUrl":"https://foursquare.com/v/moon-tower-inn/4bb6408b941ad13ab0201fe3","category":"Beer Garden","checkinsCount":5407,"usersCount":2913,"tipCount":92,"visitsCount":6647,"url":"http://damngoodfoodcoldassbeer.com","tier":1,"message":"Cheap","currency":"$","rating":9},{"name":"Julep","phone":"8328312068","twitter":"julephou","address":"1919 Washington Ave Ste A","lat":29.76769471553464,"lng":-95.37787046742186,"neighborhood":"Sixth Ward","city_fetched":"Houston","state":"TX","country":"United States","canonicalUrl":"https://foursquare.com/v/julep/5033e2e3e4b0ee26f2d6aa57","category":"Cocktail Bar","checkinsCount":1474,"usersCount":1256,"tipCount":34,"visitsCount":2241,"url":"http://julephouston.com","tier":"","message":"","currency":"","rating":9},{"name":"Chuy's","phone":"8327721277","address":"21300 Katy Fwy","lat":29.786412892944814,"lng":-95.74003213910407,"city_fetched":"Houston","state":"TX","country":"United States","canonicalUrl":"https://foursquare.com/v/chuys/4e00ccf6d4c0836163d99ea5","category":"Mexican Restaurant","checkinsCount":5323,"usersCount":2794,"tipCount":56,"visitsCount":6424,"url":"http://chuys.com","tier":2,"message":"Moderate","currency":"$","rating":9},{"name":"Premium Draught","phone":"7138691522","twitter":"premiumdraught","address":"733 Studewood St","lat":29.78503613033504,"lng":-95.38805289933106,"neighborhood":"Greater Heights","city_fetched":"Houston","state":"TX","country":"United States","canonicalUrl":"https://foursquare.com/v/premium-draught/507f01d1e4b0225db15f29e8","category":"Beer Store","checkinsCount":747,"usersCount":220,"tipCount":8,"visitsCount":759,"url":"http://premiumdraught.com","tier":"","message":"","currency":"","rating":9},{"name":"BCN Taste & Tradition","phone":"7138583774","twitter":"bcnhouston","address":"4210 Roseland St","lat":29.73497668229506,"lng":-95.39013867899497,"neighborhood":"Neartown - Montrose","city_fetched":"Houston","state":"TX","country":"United States","canonicalUrl":"https://foursquare.com/v/bcn-taste--tradition/535ee160498e3c147550f2f2","category":"Spanish Restaurant","checkinsCount":243,"usersCount":252,"tipCount":8,"visitsCount":367,"url":"http://www.bcnhouston.com","tier":"","message":"","currency":"","rating":9},{"name":"Buffalo Bayou Brewing Co.","twitter":"buffbrew","address":"5301 Nolda St","lat":29.77624409900646,"lng":-95.41607406155951,"neighborhood":"Cottage Grove","city_fetched":"Houston","state":"TX","country":"United States","canonicalUrl":"https://foursquare.com/v/buffalo-bayou-brewing-co/4ed54baa0e01fd2f5c0c6b3b","category":"Brewery","checkinsCount":2152,"usersCount":1218,"tipCount":27,"visitsCount":2656,"url":"http://buffbrew.com","tier":1,"message":"Cheap","currency":"$","rating":9},{"name":"Boondoggles","phone":"2813262739","address":"4106 Nasa Pkwy","lat":29.56553339122852,"lng":-95.05308118313037,"city_fetched":"Houston","state":"TX","country":"United States","canonicalUrl":"https://foursquare.com/v/boondoggles/4b2e5873f964a52096de24e3","category":"Pub","checkinsCount":7007,"usersCount":2444,"tipCount":62,"visitsCount":8021,"url":"http://boondogglespub.com","tier":2,"message":"Moderate","currency":"$","rating":9},{"name":"Kirby Ice House","address":"3333 Eastside St","lat":29.73560972754154,"lng":-95.42418636603219,"neighborhood":"Greenway - Upper Kirby","city_fetched":"Houston","state":"TX","country":"United States","canonicalUrl":"https://foursquare.com/v/kirby-ice-house/57082b0a498e04ec2a3b783b","category":"Bar","checkinsCount":647,"usersCount":644,"tipCount":1,"visitsCount":1026,"tier":"","message":"","currency":"","rating":9},{"name":"Flying Saucer Draught Emporium","phone":"2812427468","address":"15929 City Walk","lat":29.596947022590882,"lng":-95.62078147219727,"neighborhood":"Sugar Land Town Square","city_fetched":"Houston","state":"TX","country":"United States","canonicalUrl":"https://foursquare.com/v/flying-saucer-draught-emporium/4e99ca17775b2c05ad8f3643","category":"Beer Garden","checkinsCount":16505,"usersCount":4049,"tipCount":83,"visitsCount":17632,"url":"http://www.beerknurd.com","tier":2,"message":"Moderate","currency":"$","rating":9},{"name":"J. Henry's Draught House & Kitchen","phone":"2817861994","twitter":"jhenrysdraught","address":"1105 Clear Lake City Blvd","lat":29.582076282863543,"lng":-95.15587037684024,"neighborhood":"Clear Lake","city_fetched":"Houston","state":"TX","country":"United States","canonicalUrl":"https://foursquare.com/v/j-henrys-draught-house--kitchen/556f8bbb498ecb99740e2d2b","category":"Gastropub","checkinsCount":388,"usersCount":248,"tipCount":9,"visitsCount":614,"url":"http://www.jhdraughthouse.com","tier":"","message":"","currency":"","rating":9},{"name":"West Alabama Ice House","phone":"7135286874","address":"1919 W Alabama St","lat":29.73847210407257,"lng":-95.40783226,"neighborhood":"Neartown - Montrose","city_fetched":"Houston","state":"TX","country":"United States","canonicalUrl":"https://foursquare.com/v/west-alabama-ice-house/41326e00f964a52053131fe3","category":"Dive Bar","checkinsCount":7420,"usersCount":3081,"tipCount":66,"visitsCount":8444,"tier":1,"message":"Cheap","currency":"$","rating":9},{"name":"Whole Foods Market Brewing Company","twitter":"wfmbrewing","address":"1700 Post Oak Blvd","lat":29.749401996164732,"lng":-95.46160664287896,"neighborhood":"Uptown-Galleria","city_fetched":"Houston","state":"TX","country":"United States","canonicalUrl":"https://foursquare.com/v/whole-foods-market-brewing-company/5487a1fe498eacf7cbf8e04c","category":"Brewery","checkinsCount":395,"usersCount":151,"tipCount":4,"visitsCount":437,"tier":"","message":"","currency":"","rating":9},{"name":"Down The Street","phone":"7138803508","twitter":"downthestreettx","address":"5746 Larkin St","lat":29.77912,"lng":-95.425987,"neighborhood":"Cottage Grove","city_fetched":"Houston","state":"TX","country":"United States","canonicalUrl":"https://foursquare.com/v/down-the-street/52bf77fd11d2e7527fea8c9e","category":"Cocktail Bar","checkinsCount":1204,"usersCount":913,"tipCount":23,"visitsCount":2235,"url":"http://www.downthestreethouston.com","tier":2,"message":"Moderate","currency":"$","rating":9},{"name":"Cottonwood","phone":"7138020410","twitter":"cottonwoodbar","address":"3422 N Shepherd Dr","lat":29.81834689661254,"lng":-95.40996245105421,"neighborhood":"Garden Oaks","city_fetched":"Houston","state":"TX","country":"United States","canonicalUrl":"https://foursquare.com/v/cottonwood/507449bde4b013b951067637","category":"Beer Garden","checkinsCount":6520,"usersCount":3376,"tipCount":75,"visitsCount":7869,"url":"http://www.cottonwoodhouston.com","tier":2,"message":"Moderate","currency":"$","rating":9},{"name":"Santikos Silverado 19 IMAX","phone":"2812900077","address":"24720 Texas 249","lat":30.041251427166458,"lng":-95.60519601672713,"city_fetched":"Houston","state":"TX","country":"United States","canonicalUrl":"https://foursquare.com/v/santikos-silverado-19-imax/4b08b586f964a5202c1123e3","category":"Movie Theater","checkinsCount":12463,"usersCount":5292,"tipCount":93,"visitsCount":15710,"url":"http://www.santikos.com","tier":"","message":"","currency":"","rating":9},{"name":"BJ's Restaurant and Brewhouse","phone":"7134367805","twitter":"bjsrestaurants","address":"11200 Broadway St","lat":29.55464934,"lng":-95.39358447,"city_fetched":"Houston","state":"TX","country":"United States","canonicalUrl":"https://foursquare.com/v/bjs-restaurant-and-brewhouse/4ba5718cf964a520ab0739e3","category":"American Restaurant","checkinsCount":4565,"usersCount":2949,"tipCount":71,"visitsCount":5844,"url":"http://t.co/bl46gcjDLN","tier":2,"message":"Moderate","currency":"$","rating":9},{"name":"Chelsea Wine Bar","phone":"2813265282","twitter":"chelseawinetx","address":"4106 Nasa Pkwy","lat":29.565560965213667,"lng":-95.05340136150187,"city_fetched":"Houston","state":"TX","country":"United States","canonicalUrl":"https://foursquare.com/v/chelsea-wine-bar/4b298eeef964a520e0a024e3","category":"Wine Bar","checkinsCount":2775,"usersCount":1084,"tipCount":45,"visitsCount":3149,"url":"http://chelseawinebartexas.com","tier":2,"message":"Moderate","currency":"$","rating":8.9},{"name":"The Blue Fish on Washington","phone":"7138623474","twitter":"bluefishhouston","address":"5820 Washington Ave #100","lat":29.77138067247176,"lng":-95.42097404413721,"neighborhood":"Washington Avenue - Memorial Park","city_fetched":"Houston","state":"TX","country":"United States","canonicalUrl":"https://foursquare.com/v/the-blue-fish-on-washington/4e485cf4c65bd6ffbeabde69","category":"Sushi Restaurant","checkinsCount":3439,"usersCount":2027,"tipCount":42,"visitsCount":4300,"url":"http://thebluefishsushi.com","tier":2,"message":"Moderate","currency":"$","rating":8.9},{"name":"Mai's Restaurant","phone":"7135205300","twitter":"maishouston","address":"3403 Milam St","lat":29.741254,"lng":-95.379843,"neighborhood":"Midtown","city_fetched":"Houston","state":"TX","country":"United States","canonicalUrl":"https://foursquare.com/v/mais-restaurant/4d3f2b86557d6dcb9bfd5544","category":"Vietnamese Restaurant","checkinsCount":10471,"usersCount":5465,"tipCount":120,"visitsCount":12682,"url":"http://maishouston.com","tier":2,"message":"Moderate","currency":"$","rating":8.9},{"name":"Southside Espresso","phone":"7139429990","twitter":"southsidehou","address":"904 Westheimer Rd Ste C","lat":29.74500274658203,"lng":-95.39073944091797,"neighborhood":"Neartown - Montrose","city_fetched":"Houston","state":"TX","country":"United States","canonicalUrl":"https://foursquare.com/v/southside-espresso/508b5225e4b0c9eb71763651","category":"Coffee Shop","checkinsCount":5277,"usersCount":1246,"tipCount":76,"visitsCount":5524,"url":"http://www.southsideespresso.com","tier":1,"message":"Cheap","currency":"$","rating":8.9},{"name":"Triniti","phone":"7135279090","twitter":"trinitihouston","address":"2815 S Shepherd Dr","lat":29.74016465544181,"lng":-95.41047897227082,"neighborhood":"Neartown - Montrose","city_fetched":"Houston","state":"TX","country":"United States","canonicalUrl":"https://foursquare.com/v/triniti/4ef134fa6c25ad9ee77f88ad","category":"New American Restaurant","checkinsCount":1560,"usersCount":1153,"tipCount":47,"visitsCount":1883,"url":"http://www.trinitirestaurant.com","tier":3,"message":"Expensive","currency":"$","rating":8.9},{"name":"Rudyard's British Pub","phone":"7135210521","twitter":"rudyards","address":"2010 Waugh Dr","lat":29.75004519506558,"lng":-95.39655496793156,"neighborhood":"Neartown - Montrose","city_fetched":"Houston","state":"TX","country":"United States","canonicalUrl":"https://foursquare.com/v/rudyards-british-pub/41326e00f964a520eb121fe3","category":"Pub","checkinsCount":8360,"usersCount":2871,"tipCount":70,"visitsCount":9676,"url":"http://rudyardspub.com","tier":2,"message":"Moderate","currency":"$","rating":8.9},{"name":"Canyon Creek","phone":"7138645885","address":"6603 Westcott St","lat":29.775046323301414,"lng":-95.4276904550965,"neighborhood":"Washington Avenue - Memorial Park","city_fetched":"Houston","state":"TX","country":"United States","canonicalUrl":"https://foursquare.com/v/canyon-creek/4c25357a905a0f4711206160","category":"American Restaurant","checkinsCount":7981,"usersCount":3469,"tipCount":52,"visitsCount":9270,"url":"http://canyoncreekcafe.com","tier":2,"message":"Moderate","currency":"$","rating":8.9},{"name":"La Carafe","phone":"7132299399","address":"813 Congress St","lat":29.762935,"lng":-95.361966,"neighborhood":"Downtown Houston","city_fetched":"Houston","state":"TX","country":"United States","canonicalUrl":"https://foursquare.com/v/la-carafe/41326e00f964a52048121fe3","category":"Wine Bar","checkinsCount":3137,"usersCount":1843,"tipCount":38,"visitsCount":3164,"url":"http://www.owlnet.rice.edu/~hans320/pro","tier":1,"message":"Cheap","currency":"$","rating":8.9},{"name":"Petrol Station","phone":"7139572875","twitter":"petrol_station","address":"985 Wakefield Dr","lat":29.821329345970234,"lng":-95.42441655516672,"neighborhood":"Oak Forest - Garden Oaks","city_fetched":"Houston","state":"TX","country":"United States","canonicalUrl":"https://foursquare.com/v/petrol-station/4af1e709f964a52043e421e3","category":"Bar","checkinsCount":9457,"usersCount":3197,"tipCount":95,"visitsCount":10764,"tier":2,"message":"Moderate","currency":"$","rating":8.9},{"name":"Beaver's","phone":"7138642328","twitter":"beavershouston","address":"2310 Decatur St","lat":29.767022353383325,"lng":-95.38235664367676,"neighborhood":"Sixth Ward","city_fetched":"Houston","state":"TX","country":"United States","canonicalUrl":"https://foursquare.com/v/beavers/4aa29c54f964a520f84120e3","category":"Southern / Soul Food Restaurant","checkinsCount":7932,"usersCount":4488,"tipCount":110,"visitsCount":9024,"url":"http://beavershouston.com","tier":2,"message":"Moderate","currency":"$","rating":8.9},{"name":"Nobi Public House","phone":"8329325111","twitter":"nobipub","address":"241 E NASA Pkwy","lat":29.539095497339904,"lng":-95.11683761454626,"city_fetched":"Houston","state":"TX","country":"United States","canonicalUrl":"https://foursquare.com/v/nobi-public-house/50c0f87ae4b0e418ee38fc33","category":"Gastropub","checkinsCount":4383,"usersCount":1614,"tipCount":68,"visitsCount":6177,"url":"http://www.nobipub.com","tier":1,"message":"Cheap","currency":"$","rating":8.9},{"name":"Max's Wine Dive","phone":"7138808737","twitter":"mwdhouston","address":"4720 Washington Ave Ste B","lat":29.770618653602043,"lng":-95.40911352519971,"neighborhood":"Washington Avenue - Memorial Park","city_fetched":"Houston","state":"TX","country":"United States","canonicalUrl":"https://foursquare.com/v/maxs-wine-dive/4bd0e02ab221c9b61da5d4d0","category":"Southern / Soul Food Restaurant","checkinsCount":6639,"usersCount":3810,"tipCount":114,"visitsCount":7168,"url":"http://www.maxswinedive.com/houston/index.php","tier":2,"message":"Moderate","currency":"$","rating":8.9},{"name":"Eddie V's Prime Seafood","phone":"7138741800","twitter":"eddievs","address":"2800 Kirby Dr Ste A100","lat":29.74043153,"lng":-95.41919404,"neighborhood":"Greenway - Upper Kirby","city_fetched":"Houston","state":"TX","country":"United States","canonicalUrl":"https://foursquare.com/v/eddie-vs-prime-seafood/4cb8dc81bac937042062e07c","category":"Seafood Restaurant","checkinsCount":2972,"usersCount":2038,"tipCount":53,"visitsCount":3470,"url":"http://eddiev.com","tier":3,"message":"Expensive","currency":"$","rating":8.9},{"name":"Hubcap Grill & Beer Yard","phone":"7138620555","twitter":"hubcap_grill","address":"1133 W 19th St","lat":29.80288175,"lng":-95.419459,"neighborhood":"Shady Acres","city_fetched":"Houston","state":"TX","country":"United States","canonicalUrl":"https://foursquare.com/v/hubcap-grill--beer-yard/4e2dcb87b0fbc2edac3a1c7d","category":"Burger Joint","checkinsCount":3344,"usersCount":2178,"tipCount":67,"visitsCount":3913,"url":"http://hubcapgrill.com/hubcap_grill_heights.html","tier":2,"message":"Moderate","currency":"$","rating":8.9},{"name":"Double Trouble Caffeine & Cocktails","phone":"7138740096","twitter":"2xtroubletx","address":"3622 Main St","lat":29.73868729,"lng":-95.37966091,"neighborhood":"Midtown","city_fetched":"Houston","state":"TX","country":"United States","canonicalUrl":"https://foursquare.com/v/double-trouble-caffeine--cocktails/4e1650e9d1649878a8f142d7","category":"Coffee Shop","checkinsCount":5227,"usersCount":1609,"tipCount":49,"visitsCount":5400,"tier":2,"message":"Moderate","currency":"$","rating":8.9},{"name":"Perry's Steakhouse & Grille","phone":"2819705999","twitter":"perrysdining","address":"9730 Cypresswood Dr","lat":29.988820751627646,"lng":-95.55587947368622,"city_fetched":"Houston","state":"TX","country":"United States","canonicalUrl":"https://foursquare.com/v/perrys-steakhouse--grille/4bac0f99f964a52088e13ae3","category":"Steakhouse","checkinsCount":1787,"usersCount":1480,"tipCount":25,"visitsCount":2610,"url":"http://www.perryssteakhouse.com","tier":3,"message":"Expensive","currency":"$","rating":8.9},{"name":"Plonk! Beer & Wine Bistro","phone":"7132901070","twitter":"plonkbistro1","address":"1214 W 43rd St #100","lat":29.829094078352767,"lng":-95.43119966983795,"neighborhood":"Oak Forest","city_fetched":"Houston","state":"TX","country":"United States","canonicalUrl":"https://foursquare.com/v/plonk-beer--wine-bistro/4acfe113f964a5209dd620e3","category":"Wine Bar","checkinsCount":2763,"usersCount":783,"tipCount":39,"visitsCount":2925,"url":"http://plonkbistro.com","tier":2,"message":"Moderate","currency":"$","rating":8.9},{"name":"The Tasting Room","phone":"7139939801","twitter":"thetastingroom","address":"1101-18 Uptown Park Blvd","lat":29.756900605721334,"lng":-95.4574556056316,"neighborhood":"Uptown-Galleria","city_fetched":"Houston","state":"TX","country":"United States","canonicalUrl":"https://foursquare.com/v/the-tasting-room/4a692e73f964a520bacb1fe3","category":"Wine Bar","checkinsCount":6039,"usersCount":3815,"tipCount":52,"visitsCount":7114,"url":"http://www.tastingroomwines.com/our_locations/uptown_park/index.php","tier":2,"message":"Moderate","currency":"$","rating":8.9},{"name":"Down House","phone":"7138643696","twitter":"downhousehtx","address":"1801 Yale St","lat":29.80214026247886,"lng":-95.39942335593483,"neighborhood":"Greater Heights","city_fetched":"Houston","state":"TX","country":"United States","canonicalUrl":"https://foursquare.com/v/down-house/4da36a0b22a5f04d8f2b2455","category":"New American Restaurant","checkinsCount":6804,"usersCount":4137,"tipCount":116,"visitsCount":8444,"url":"http://treadsack.com/downhouse/","tier":2,"message":"Moderate","currency":"$","rating":8.8},{"name":"Juan Mon's International","phone":"7135285826","twitter":"juanmonsmidtown","address":"1901 Taft St","lat":29.751883149147034,"lng":-95.38539826869965,"neighborhood":"Fourth Ward","city_fetched":"Houston","state":"TX","country":"United States","canonicalUrl":"https://foursquare.com/v/juan-mons-international/4bbb8c09afe1b71303552f4b","category":"Sandwich Place","checkinsCount":1106,"usersCount":568,"tipCount":27,"visitsCount":1287,"url":"http://www.juanmons.com","tier":"","message":"","currency":"","rating":8.8},{"name":"Izakaya Wa","phone":"7134610155","address":"12665 Memorial Dr Ste A","lat":29.767588121418843,"lng":-95.55873103347218,"neighborhood":"Memorial","city_fetched":"Houston","state":"TX","country":"United States","canonicalUrl":"https://foursquare.com/v/izakaya-wa/5263214c498ebb8d5a68a852","category":"Japanese Restaurant","checkinsCount":704,"usersCount":631,"tipCount":16,"visitsCount":1194,"url":"http://izakayawa.com","tier":2,"message":"Moderate","currency":"$","rating":8.8},{"name":"Outriggers Seafood Bar & Grill","phone":"2814743474","twitter":"outriggerskemah","address":"101 Bath","lat":29.549929817467607,"lng":-95.02353605705304,"city_fetched":"Houston","state":"TX","country":"United States","canonicalUrl":"https://foursquare.com/v/outriggers-seafood-bar--grill/4b8ac6f7f964a520598032e3","category":"Seafood Restaurant","checkinsCount":5635,"usersCount":2154,"tipCount":44,"visitsCount":6790,"url":"http://outriggerskemah.com","tier":2,"message":"Moderate","currency":"$","rating":8.8},{"name":"Siphon Coffee","phone":"8322820142","twitter":"siphoncoffeetx","address":"701 W Alabama St","lat":29.73849202032672,"lng":-95.3881287574768,"neighborhood":"Neartown - Montrose","city_fetched":"Houston","state":"TX","country":"United States","canonicalUrl":"https://foursquare.com/v/siphon-coffee/52d1709f11d21affb4f137c2","category":"Coffee Shop","checkinsCount":2744,"usersCount":1580,"tipCount":51,"visitsCount":4719,"url":"http://www.siphoncoffeehouston.com","tier":2,"message":"Moderate","currency":"$","rating":8.8},{"name":"Ibiza Food and Wine Bar","phone":"7135240004","twitter":"ibizahouston","address":"2450 Louisiana St Ste 200","lat":29.747260593652502,"lng":-95.37668978944946,"neighborhood":"Midtown","city_fetched":"Houston","state":"TX","country":"United States","canonicalUrl":"https://foursquare.com/v/ibiza-food-and-wine-bar/4b855b83f964a520cf5831e3","category":"Spanish Restaurant","checkinsCount":2035,"usersCount":1455,"tipCount":27,"visitsCount":2214,"url":"http://ibizafoodandwinebar.com","tier":3,"message":"Expensive","currency":"$","rating":8.8},{"name":"Seasons 52","phone":"7136215452","twitter":"seasons52","address":"4410 Westheimer Rd","lat":29.74153944,"lng":-95.45204076,"neighborhood":"Uptown-Galleria","city_fetched":"Houston","state":"TX","country":"United States","canonicalUrl":"https://foursquare.com/v/seasons-52/519bbbbc498ef9d920a07a39","category":"New American Restaurant","checkinsCount":1423,"usersCount":1802,"tipCount":27,"visitsCount":2624,"url":"http://seasons52.com","tier":3,"message":"Expensive","currency":"$","rating":8.8},{"name":"Oporto Wine Cafe","phone":"7136211114","twitter":"portowine","address":"3833 Richmond Ave","lat":29.732462588450336,"lng":-95.43950872467657,"neighborhood":"Greenway - Upper Kirby","city_fetched":"Houston","state":"TX","country":"United States","canonicalUrl":"https://foursquare.com/v/oporto-wine-cafe/4b67005ff964a5206c342be3","category":"Tapas Restaurant","checkinsCount":1872,"usersCount":1118,"tipCount":43,"visitsCount":1923,"url":"http://oporto.us","tier":"","message":"","currency":"","rating":8.8},{"name":"Don'key's Mexican Food","phone":"2814871253","address":"5010 Spencer Hwy","lat":29.665211149333143,"lng":-95.16648191578757,"neighborhood":"Golden Acres","city_fetched":"Houston","state":"TX","country":"United States","canonicalUrl":"https://foursquare.com/v/donkeys-mexican-food/4b9a76a3f964a52082b735e3","category":"Mexican Restaurant","checkinsCount":2710,"usersCount":1277,"tipCount":37,"visitsCount":3380,"url":"http://findthedonkey.com","tier":1,"message":"Cheap","currency":"$","rating":8.8},{"name":"McGonigel's Mucky Duck","phone":"7135285999","twitter":"theduckhouston","address":"2425 Norfolk St","lat":29.73263555,"lng":-95.417089,"neighborhood":"Greenway - Upper Kirby","city_fetched":"Houston","state":"TX","country":"United States","canonicalUrl":"https://foursquare.com/v/mcgonigels-mucky-duck/41326e00f964a5207b121fe3","category":"Pub","checkinsCount":3022,"usersCount":1562,"tipCount":36,"visitsCount":3403,"url":"http://www.mcgonigels.com","tier":2,"message":"Moderate","currency":"$","rating":8.8},{"name":"8th Wonder Brewery","phone":"7132290868","twitter":"8thwonderbrew","address":"2202 Dallas St","lat":29.74860887281347,"lng":-95.35610080763728,"neighborhood":"Downtown Houston","city_fetched":"Houston","state":"TX","country":"United States","canonicalUrl":"https://foursquare.com/v/8th-wonder-brewery/4eace8af8b8181aef7e49f44","category":"Brewery","checkinsCount":2561,"usersCount":2298,"tipCount":28,"visitsCount":3951,"url":"http://www.8thwonderbrew.com","tier":1,"message":"Cheap","currency":"$","rating":8.8},{"name":"The Davenport","phone":"7135201140","address":"2115 Richmond Ave","lat":29.7340808769413,"lng":-95.41119039058685,"neighborhood":"Greenway - Upper Kirby","city_fetched":"Houston","state":"TX","country":"United States","canonicalUrl":"https://foursquare.com/v/the-davenport/41326e00f964a52073131fe3","category":"Lounge","checkinsCount":9928,"usersCount":1814,"tipCount":55,"visitsCount":10857,"url":"http://thedavenportlounge.com","tier":2,"message":"Moderate","currency":"$","rating":8.8},{"name":"The Pastry War","phone":"7132267770","twitter":"thepastrywar","address":"310 Main St","lat":29.761963012732938,"lng":-95.36118477021033,"neighborhood":"Downtown Houston","city_fetched":"Houston","state":"TX","country":"United States","canonicalUrl":"https://foursquare.com/v/the-pastry-war/520a9f2211d25ad4883dda48","category":"Cocktail Bar","checkinsCount":2959,"usersCount":1668,"tipCount":54,"visitsCount":3076,"url":"http://www.thepastrywar.com","tier":2,"message":"Moderate","currency":"$","rating":8.8},{"name":"D&T Drive Inn","phone":"7138686165","twitter":"dandticehouse","address":"1307 Enid St","lat":29.803447544710874,"lng":-95.37581068559335,"neighborhood":"Greater Heights","city_fetched":"Houston","state":"TX","country":"United States","canonicalUrl":"https://foursquare.com/v/dt-drive-inn/4cb7a587dd41a35d26f1d4a0","category":"Beer Garden","checkinsCount":2714,"usersCount":1373,"tipCount":41,"visitsCount":3741,"url":"http://treadsack.com/dtdriveinn/","tier":1,"message":"Cheap","currency":"$","rating":8.8},{"name":"Beer Market Co.","phone":"8322536390","twitter":"beermarketco","address":"920 Studemont St Ste 900","lat":29.76716054479857,"lng":-95.39189733599181,"neighborhood":"Memorial Heights","city_fetched":"Houston","state":"TX","country":"United States","canonicalUrl":"https://foursquare.com/v/beer-market-co/532b0171498ea8b04260fd3e","category":"Beer Garden","checkinsCount":1413,"usersCount":1065,"tipCount":26,"visitsCount":2161,"url":"http://www.beermarketco.com","tier":"","message":"","currency":"","rating":8.8},{"name":"Bohemeo's","phone":"7139234277","twitter":"bohemeos","address":"708 Telephone Rd Ste E","lat":29.734602309349278,"lng":-95.33153038532167,"neighborhood":"Greater Eastwood","city_fetched":"Houston","state":"TX","country":"United States","canonicalUrl":"https://foursquare.com/v/bohemeos/4ae3b68af964a520669821e3","category":"Café","checkinsCount":2439,"usersCount":939,"tipCount":39,"visitsCount":3020,"url":"http://www.bohemeos.com","tier":2,"message":"Moderate","currency":"$","rating":8.8},{"name":"The Pass and Provisions","phone":"7136289020","twitter":"passprovisions","address":"807 Taft St","lat":29.758778376520986,"lng":-95.38561958481843,"neighborhood":"Fourth Ward","city_fetched":"Houston","state":"TX","country":"United States","canonicalUrl":"https://foursquare.com/v/the-pass-and-provisions/50392c32e4b0fd37177fbecb","category":"Molecular Gastronomy Restaurant","checkinsCount":2945,"usersCount":2243,"tipCount":82,"visitsCount":3800,"url":"http://www.passandprovisions.com","tier":3,"message":"Expensive","currency":"$","rating":8.7},{"name":"Ritual","phone":"8322035180","twitter":"ritualhouston","address":"602 Studewood St","lat":29.781875775079335,"lng":-95.38734555244446,"neighborhood":"Greater Heights","city_fetched":"Houston","state":"TX","country":"United States","canonicalUrl":"https://foursquare.com/v/ritual/570d6334498efe09178a95ea","category":"Southern / Soul Food Restaurant","checkinsCount":147,"usersCount":158,"tipCount":3,"visitsCount":198,"url":"http://www.ritualhouston.com","tier":"","message":"","currency":"","rating":8.7},{"name":"Guru Burgers & Crepes","phone":"2813130026","twitter":"guruburgers","address":"2268 Texas Dr","lat":29.596544005139364,"lng":-95.62031954558822,"neighborhood":"Sugar Land Town Square","city_fetched":"Houston","state":"TX","country":"United States","canonicalUrl":"https://foursquare.com/v/guru-burgers--crepes/4fb149b5e4b059499f386678","category":"Burger Joint","checkinsCount":3120,"usersCount":1407,"tipCount":59,"visitsCount":3220,"url":"http://www.gurukitchen.com/gurukitchen/home.html","tier":2,"message":"Moderate","currency":"$","rating":8.7},{"name":"Mongoose vs Cobra","phone":"7136506872","twitter":"barmvsc","address":"1011 McGowen St","lat":29.745218290957272,"lng":-95.37351587869405,"neighborhood":"Midtown","city_fetched":"Houston","state":"TX","country":"United States","canonicalUrl":"https://foursquare.com/v/mongoose-vs-cobra/4faef0eae4b085f6b2d59fd1","category":"Beer Garden","checkinsCount":5171,"usersCount":2903,"tipCount":65,"visitsCount":6015,"url":"http://mongooseversuscobra.com","tier":2,"message":"Moderate","currency":"$","rating":8.7},{"name":"The Original OKRA Charity Saloon","phone":"7132378828","twitter":"okrafried","address":"924 Congress St","lat":29.762378337215882,"lng":-95.36123586758579,"neighborhood":"Downtown Houston","city_fetched":"Houston","state":"TX","country":"United States","canonicalUrl":"https://foursquare.com/v/the-original-okra-charity-saloon/5037e52de4b0c09de9b65e54","category":"Cocktail Bar","checkinsCount":5284,"usersCount":2681,"tipCount":51,"visitsCount":5462,"url":"http://friedokra.org/okra-charity-saloon","tier":1,"message":"Cheap","currency":"$","rating":8.7},{"name":"Brick House Tavern + Tap","address":"19740 Southwest Fwy","lat":29.563870495490292,"lng":-95.68306174302131,"city_fetched":"Houston","state":"TX","country":"United States","canonicalUrl":"https://foursquare.com/v/brick-house-tavern--tap/56b40455498e4a68b642ddeb","category":"Beer Bar","checkinsCount":140,"usersCount":192,"tipCount":2,"visitsCount":346,"tier":"","message":"","currency":"","rating":8.7},{"name":"Saint Dane's Bar & Grille","phone":"7138077040","twitter":"saintdaneselgin","address":"502 Elgin St","lat":29.743867111262652,"lng":-95.38128107786179,"neighborhood":"Midtown","city_fetched":"Houston","state":"TX","country":"United States","canonicalUrl":"https://foursquare.com/v/saint-danes-bar--grille/4b05a7b3f964a52056e022e3","category":"Sports Bar","checkinsCount":11609,"usersCount":3301,"tipCount":87,"visitsCount":12460,"url":"http://www.saintdanes.com","tier":1,"message":"Cheap","currency":"$","rating":8.7},{"name":"Reserve 101","phone":"7136557101","twitter":"reserve101","address":"1201 Caroline St","lat":29.753821,"lng":-95.363492,"neighborhood":"Downtown Houston","city_fetched":"Houston","state":"TX","country":"United States","canonicalUrl":"https://foursquare.com/v/reserve-101/4b5fc53bf964a52028cc29e3","category":"Whisky Bar","checkinsCount":4293,"usersCount":1620,"tipCount":37,"visitsCount":4334,"url":"http://reserve101.com","tier":2,"message":"Moderate","currency":"$","rating":8.7},{"name":"Voodoo Queen","address":"322 Milby St","lat":29.74747957159921,"lng":-95.3378277920229,"neighborhood":"Second Ward","city_fetched":"Houston","state":"TX","country":"United States","canonicalUrl":"https://foursquare.com/v/voodoo-queen/5222c73e11d2cb4e8b557b04","category":"Dive Bar","checkinsCount":1192,"usersCount":692,"tipCount":21,"visitsCount":1731,"tier":2,"message":"Moderate","currency":"$","rating":8.7},{"name":"The Davenport Lounge","phone":"2814613283","twitter":"davneportlounge","address":"1235 Clear Lake City Blvd","lat":29.582759773598436,"lng":-95.15353739261627,"neighborhood":"Clear Lake","city_fetched":"Houston","state":"TX","country":"United States","canonicalUrl":"https://foursquare.com/v/the-davenport-lounge/4b7a20fff964a520f2232fe3","category":"Cocktail Bar","checkinsCount":13652,"usersCount":701,"tipCount":16,"visitsCount":14392,"url":"http://thedavenportlounge.com","tier":2,"message":"Moderate","currency":"$","rating":8.7},{"name":"Under the Volcano","phone":"7135265282","address":"2349 Bissonnet St","lat":29.7252459,"lng":-95.41492,"neighborhood":"University Place","city_fetched":"Houston","state":"TX","country":"United States","canonicalUrl":"https://foursquare.com/v/under-the-volcano/41326e00f964a52045131fe3","category":"Bar","checkinsCount":6099,"usersCount":3284,"tipCount":62,"visitsCount":7044,"tier":2,"message":"Moderate","currency":"$","rating":8.7},{"name":"The Fish Restaurant & Sushi Bar","phone":"7135265294","address":"309 Gray St Ste 107","lat":29.752211568821043,"lng":-95.37735423728766,"neighborhood":"Midtown","city_fetched":"Houston","state":"TX","country":"United States","canonicalUrl":"https://foursquare.com/v/the-fish-restaurant--sushi-bar/4ad75ab2f964a520c40921e3","category":"Sushi Restaurant","checkinsCount":3642,"usersCount":1804,"tipCount":42,"visitsCount":3766,"url":"http://fishhouston.net","tier":2,"message":"Moderate","currency":"$","rating":8.7},{"name":"Hearsay Gastro Lounge","phone":"7132258079","twitter":"hearsaylounge","address":"218 Travis St","lat":29.763073486963982,"lng":-95.36158561706543,"neighborhood":"Downtown Houston","city_fetched":"Houston","state":"TX","country":"United States","canonicalUrl":"https://foursquare.com/v/hearsay-gastro-lounge/4ae659aef964a52092a621e3","category":"New American Restaurant","checkinsCount":5879,"usersCount":3555,"tipCount":92,"visitsCount":6096,"url":"http://www.hearsayhouston.com","tier":3,"message":"Expensive","currency":"$","rating":8.7},{"name":"The Shack","phone":"2812561575","address":"16602 Cypress Rosehill Rd","lat":30.010129388205772,"lng":-95.69709515349108,"city_fetched":"Houston","state":"TX","country":"United States","canonicalUrl":"https://foursquare.com/v/the-shack/4d4a04897d36f04dc99317e5","category":"Burger Joint","checkinsCount":1146,"usersCount":904,"tipCount":39,"visitsCount":1452,"tier":2,"message":"Moderate","currency":"$","rating":8.7},{"name":"Yard House","phone":"7134619273","twitter":"yardhouse","address":"800 Sorella Ct","lat":29.78005996,"lng":-95.56084156,"neighborhood":"Memorial","city_fetched":"Houston","state":"TX","country":"United States","canonicalUrl":"https://foursquare.com/v/yard-house/4eeac7416da1b1f7c402d6ec","category":"American Restaurant","checkinsCount":15524,"usersCount":8012,"tipCount":126,"visitsCount":16231,"url":"http://www.yardhouse.com","tier":2,"message":"Moderate","currency":"$","rating":8.7},{"name":"The St. Regis Houston","phone":"7138407600","twitter":"spg","address":"1919 Briar Oaks Ln","lat":29.747541095677512,"lng":-95.45068969187832,"neighborhood":"Uptown-Galleria","city_fetched":"Houston","state":"TX","country":"United States","canonicalUrl":"https://foursquare.com/v/the-st-regis-houston/4a9efa5af964a520043c20e3","category":"Hotel","checkinsCount":4521,"usersCount":2377,"tipCount":24,"visitsCount":5439,"url":"http://www.spg.com/foursquare/","tier":"","message":"","currency":"","rating":8.7},{"name":"BRC Gastropub","phone":"7138612233","twitter":"brcgastropub","address":"519 Shepherd Dr","lat":29.767246,"lng":-95.40968629308549,"neighborhood":"Washington Avenue - Memorial Park","city_fetched":"Houston","state":"TX","country":"United States","canonicalUrl":"https://foursquare.com/v/brc-gastropub/4bd62623637ba5932ac5f770","category":"Gastropub","checkinsCount":7341,"usersCount":4177,"tipCount":106,"visitsCount":8223,"url":"http://www.brcgastropub.com","tier":2,"message":"Moderate","currency":"$","rating":8.7},{"name":"Captain Foxheart's Bad News Bar & Spirits Lodge","twitter":"badnewsbar","address":"308 1/2 Main St","lat":29.761939990331477,"lng":-95.36103147835547,"neighborhood":"Downtown Houston","city_fetched":"Houston","state":"TX","country":"United States","canonicalUrl":"https://foursquare.com/v/captain-foxhearts-bad-news-bar--spirits-lodge/5154bdd0e4b0c6f05f25300b","category":"Cocktail Bar","checkinsCount":3328,"usersCount":1457,"tipCount":45,"visitsCount":3424,"tier":2,"message":"Moderate","currency":"$","rating":8.7},{"name":"Fleming's Prime Steakhouse & Wine Bar","phone":"7138271120","address":"788 W Sam Houston Pkwy N","lat":29.777905876708903,"lng":-95.56213554122935,"neighborhood":"Memorial","city_fetched":"Houston","state":"TX","country":"United States","canonicalUrl":"https://foursquare.com/v/flemings-prime-steakhouse--wine-bar/4bf34a556a31d13ae48c942e","category":"Steakhouse","checkinsCount":1460,"usersCount":1027,"tipCount":9,"visitsCount":1645,"url":"http://www.flemingssteakhouse.com/locations/tx/town-and-country","tier":3,"message":"Expensive","currency":"$","rating":8.6},{"name":"The Richmond Arms Pub","phone":"7137847722","address":"5920 Richmond Ave","lat":29.731796042676997,"lng":-95.48322647809982,"neighborhood":"Woodlake - Briar Meadow","city_fetched":"Houston","state":"TX","country":"United States","canonicalUrl":"https://foursquare.com/v/the-richmond-arms-pub/4b2af69df964a520fbb224e3","category":"Pub","checkinsCount":5256,"usersCount":2424,"tipCount":29,"visitsCount":6272,"url":"http://www.richmondarmsonline.com","tier":2,"message":"Moderate","currency":"$","rating":8.6},{"name":"Glass Wall","phone":"7138687930","twitter":"glasswalltx","address":"933 Studewood St","lat":29.788787,"lng":-95.387846,"neighborhood":"Greater Heights","city_fetched":"Houston","state":"TX","country":"United States","canonicalUrl":"https://foursquare.com/v/glass-wall/4b68fa78f964a520a8952be3","category":"Wine Bar","checkinsCount":1169,"usersCount":822,"tipCount":22,"visitsCount":1349,"url":"http://www.glasswalltherestaurant.com","tier":"","message":"","currency":"","rating":8.6},{"name":"T-bones Sports Pub","phone":"7138643944","address":"1971 W T C Jester Blvd","lat":29.802473116434424,"lng":-95.43229980554119,"neighborhood":"Lazybrook","city_fetched":"Houston","state":"TX","country":"United States","canonicalUrl":"https://foursquare.com/v/tbones-sports-pub/4b9ad886f964a520aedb35e3","category":"Sports Bar","checkinsCount":4798,"usersCount":961,"tipCount":20,"visitsCount":5564,"url":"http://www.tbonessportspub.com","tier":1,"message":"Cheap","currency":"$","rating":8.6},{"name":"Shepherd Park Draught House","phone":"8327671380","twitter":"shepparkdraught","address":"3402 N Shepherd Dr","lat":29.81769531,"lng":-95.40980448,"neighborhood":"Garden Oaks","city_fetched":"Houston","state":"TX","country":"United States","canonicalUrl":"https://foursquare.com/v/shepherd-park-draught-house/4e98c48eb634d75c1837b94b","category":"Beer Garden","checkinsCount":2534,"usersCount":1092,"tipCount":34,"visitsCount":2801,"url":"http://www.shepherdparktx.com","tier":2,"message":"Moderate","currency":"$","rating":8.6},{"name":"Kay's Lounge","phone":"7135210010","address":"2324 Bissonnet St","lat":29.72566071149991,"lng":-95.41399757597397,"neighborhood":"University Place","city_fetched":"Houston","state":"TX","country":"United States","canonicalUrl":"https://foursquare.com/v/kays-lounge/41326e00f964a5203c121fe3","category":"Dive Bar","checkinsCount":2170,"usersCount":1115,"tipCount":8,"visitsCount":2513,"tier":1,"message":"Cheap","currency":"$","rating":8.6},{"name":"Neon Boots Dancehall & Saloon","phone":"7136770828","twitter":"neonbootsclub","address":"11410 Hempstead Rd","lat":29.81389393088131,"lng":-95.4761266708374,"neighborhood":"Northwest Houston","city_fetched":"Houston","state":"TX","country":"United States","canonicalUrl":"https://foursquare.com/v/neon-boots-dancehall--saloon/51be39182fc6ff85570a6b45","category":"Gay Bar","checkinsCount":1284,"usersCount":692,"tipCount":14,"visitsCount":2197,"url":"http://neonbootsclub.com","tier":4,"message":"Very Expensive","currency":"$","rating":8.6},{"name":"The Queen Vic Pub & Kitchen","phone":"7135330022","twitter":"thequeenvicpub","address":"2712 Richmond Ave","lat":29.734278463129336,"lng":-95.42053926902071,"neighborhood":"Greenway - Upper Kirby","city_fetched":"Houston","state":"TX","country":"United States","canonicalUrl":"https://foursquare.com/v/the-queen-vic-pub--kitchen/4c84452fe602b1f739e9ad7a","category":"English Restaurant","checkinsCount":3237,"usersCount":2138,"tipCount":73,"visitsCount":3794,"url":"http://thequeenvicpub.com","tier":2,"message":"Moderate","currency":"$","rating":8.6},{"name":"Urban Eats","phone":"8328344417","twitter":"feasturbaneats","address":"3414 Washington Ave","lat":29.769484342178558,"lng":-95.39477571849115,"neighborhood":"Washington Avenue - Memorial Park","city_fetched":"Houston","state":"TX","country":"United States","canonicalUrl":"https://foursquare.com/v/urban-eats/533192ce498e7e6e24a7980b","category":"Bistro","checkinsCount":733,"usersCount":849,"tipCount":15,"visitsCount":1236,"url":"http://feasturbaneats.com","tier":"","message":"","currency":"","rating":8.6},{"name":"Oporto Fooding House & Wine","phone":"7135280115","twitter":"portowino","address":"125 W Gray St Ste 500","lat":29.75313431948219,"lng":-95.38032901283916,"neighborhood":"Fourth Ward","city_fetched":"Houston","state":"TX","country":"United States","canonicalUrl":"https://foursquare.com/v/oporto-fooding-house--wine/53504b9511d253671ef9e190","category":"Portuguese Restaurant","checkinsCount":625,"usersCount":689,"tipCount":9,"visitsCount":1021,"url":"http://www.oportomidtown.us","tier":"","message":"","currency":"","rating":8.6},{"name":"Last Concert Cafe","phone":"7132268563","twitter":"lastconcertcafe","address":"1403 Nance St","lat":29.76835177,"lng":-95.353003,"neighborhood":"Downtown Houston","city_fetched":"Houston","state":"TX","country":"United States","canonicalUrl":"https://foursquare.com/v/last-concert-cafe/4461075df964a5200f331fe3","category":"Mexican Restaurant","checkinsCount":2716,"usersCount":1648,"tipCount":40,"visitsCount":3086,"url":"http://www.lastconcert.com","tier":2,"message":"Moderate","currency":"$","rating":8.6},{"name":"The Backyard Grill","phone":"2818979200","twitter":"thebyg","address":"9453 Jones Rd","lat":29.90946097858272,"lng":-95.58580848477666,"city_fetched":"Houston","state":"TX","country":"United States","canonicalUrl":"https://foursquare.com/v/the-backyard-grill/4ba1572bf964a52051ae37e3","category":"American Restaurant","checkinsCount":2477,"usersCount":1113,"tipCount":45,"visitsCount":3151,"url":"http://thebackyardgrill-hub.com","tier":2,"message":"Moderate","currency":"$","rating":8.6},{"name":"BJ's Restaurant and Brewhouse","phone":"2817691850","twitter":"bjsrestaurants","address":"20536 Katy Fwy","lat":29.78612857,"lng":-95.72885858,"neighborhood":"West Green Reserves","city_fetched":"Houston","state":"TX","country":"United States","canonicalUrl":"https://foursquare.com/v/bjs-restaurant-and-brewhouse/534d5da9498e6343535c2ab7","category":"American Restaurant","checkinsCount":1222,"usersCount":1582,"tipCount":30,"visitsCount":2772,"url":"http://t.co/bl46gcjDLN","tier":1,"message":"Cheap","currency":"$","rating":8.5},{"name":"Watson's House of Ale's","phone":"2819202929","address":"14656 Grisby Rd","lat":29.782886100223315,"lng":-95.64356625080109,"neighborhood":"Energy Corridor","city_fetched":"Houston","state":"TX","country":"United States","canonicalUrl":"https://foursquare.com/v/watsons-house-of-ales/4abea415f964a520048f20e3","category":"Pub","checkinsCount":4728,"usersCount":2037,"tipCount":27,"visitsCount":5170,"tier":2,"message":"Moderate","currency":"$","rating":8.5},{"name":"Poison Girl","phone":"7135279929","twitter":"poisongirlbar","address":"1641 Westheimer Rd Ste B","lat":29.74262102712687,"lng":-95.40109397145392,"neighborhood":"Neartown - Montrose","city_fetched":"Houston","state":"TX","country":"United States","canonicalUrl":"https://foursquare.com/v/poison-girl/42829c80f964a5202d221fe3","category":"Whisky Bar","checkinsCount":9266,"usersCount":3873,"tipCount":76,"visitsCount":10141,"tier":1,"message":"Cheap","currency":"$","rating":8.5},{"name":"Bollo Woodfired Pizza","phone":"7136770391","twitter":"bollohouston","address":"2202 W Alabama St","lat":29.73884475065232,"lng":-95.41324576333506,"neighborhood":"Greenway - Upper Kirby","city_fetched":"Houston","state":"TX","country":"United States","canonicalUrl":"https://foursquare.com/v/bollo-woodfired-pizza/554d57f7498e05b6d6ab2f48","category":"Pizza Place","checkinsCount":357,"usersCount":471,"tipCount":9,"visitsCount":755,"url":"http://www.bollohouston.com","tier":"","message":"","currency":"","rating":8.5},{"name":"The Grove","phone":"7133377321","twitter":"grovehouston","address":"1611 Lamar St","lat":29.752591120084606,"lng":-95.36044386335169,"neighborhood":"Downtown Houston","city_fetched":"Houston","state":"TX","country":"United States","canonicalUrl":"https://foursquare.com/v/the-grove/4ae106ebf964a520b48421e3","category":"New American Restaurant","checkinsCount":5442,"usersCount":4290,"tipCount":68,"visitsCount":5845,"url":"http://www.thegrovehouston.com","tier":3,"message":"Expensive","currency":"$","rating":8.5},{"name":"Gringo's Mexican Kitchen","phone":"2814853844","address":"2202 Broadway St","lat":29.549667006015085,"lng":-95.24945147359449,"city_fetched":"Houston","state":"TX","country":"United States","canonicalUrl":"https://foursquare.com/v/gringos-mexican-kitchen/4b566fa2f964a520461028e3","category":"Mexican Restaurant","checkinsCount":3853,"usersCount":2056,"tipCount":28,"visitsCount":5377,"url":"http://gringosmexicankitchen.com","tier":2,"message":"Moderate","currency":"$","rating":8.5},{"name":"Prego","phone":"7135292420","twitter":"prego_houston","address":"2520 Amherst St","lat":29.715977786555655,"lng":-95.41734874248505,"neighborhood":"University Place","city_fetched":"Houston","state":"TX","country":"United States","canonicalUrl":"https://foursquare.com/v/prego/4b7772bdf964a520119b2ee3","category":"Italian Restaurant","checkinsCount":1156,"usersCount":917,"tipCount":44,"visitsCount":1298,"url":"http://www.prego-houston.com","tier":2,"message":"Moderate","currency":"$","rating":8.5},{"name":"Chapultepec Lupita","phone":"7135222365","address":"813 Richmond Ave","lat":29.734197329893277,"lng":-95.3893518447876,"neighborhood":"Neartown - Montrose","city_fetched":"Houston","state":"TX","country":"United States","canonicalUrl":"https://foursquare.com/v/chapultepec-lupita/4b9cb66ef964a520ba7736e3","category":"Mexican Restaurant","checkinsCount":3351,"usersCount":1640,"tipCount":50,"visitsCount":3828,"tier":2,"message":"Moderate","currency":"$","rating":8.5},{"name":"Nick's Place","phone":"7137808338","twitter":"nicksplacehou","address":"2713 Rockyridge Dr","lat":29.73648958379707,"lng":-95.53244505090974,"neighborhood":"Woodlake - Briar Meadow","city_fetched":"Houston","state":"TX","country":"United States","canonicalUrl":"https://foursquare.com/v/nicks-place/41326e00f964a5209c121fe3","category":"Sports Bar","checkinsCount":1858,"usersCount":921,"tipCount":27,"visitsCount":2392,"url":"http://nicksplacehouston.com","tier":2,"message":"Moderate","currency":"$","rating":8.5},{"name":"Lucky's Pub","phone":"7135222010","address":"801 St Emanuel St","lat":29.752479470526875,"lng":-95.35416442115329,"neighborhood":"Downtown Houston","city_fetched":"Houston","state":"TX","country":"United States","canonicalUrl":"https://foursquare.com/v/luckys-pub/4b1473ccf964a5204fa323e3","category":"Sports Bar","checkinsCount":12881,"usersCount":5494,"tipCount":89,"visitsCount":13994,"url":"http://luckyspub.com","tier":2,"message":"Moderate","currency":"$","rating":8.5},{"name":"BJ's Restaurant and Brewhouse","phone":"2814778777","twitter":"bjsrestaurants","address":"7637 Cypress Creek Pkwy","lat":29.96239722,"lng":-95.54459726,"neighborhood":"Willowbrook Mall","city_fetched":"Houston","state":"TX","country":"United States","canonicalUrl":"https://foursquare.com/v/bjs-restaurant-and-brewhouse/4ba58aa6f964a520c31039e3","category":"American Restaurant","checkinsCount":7220,"usersCount":4536,"tipCount":82,"visitsCount":8941,"url":"http://t.co/bl46gcjDLN","tier":2,"message":"Moderate","currency":"$","rating":8.5},{"name":"The Ginger Man","phone":"7135262770","twitter":"gman_houston","address":"5607 Morningside Dr","lat":29.715860147716537,"lng":-95.41474163532257,"neighborhood":"University Place","city_fetched":"Houston","state":"TX","country":"United States","canonicalUrl":"https://foursquare.com/v/the-ginger-man/41326e00f964a52005121fe3","category":"Beer Garden","checkinsCount":10566,"usersCount":4476,"tipCount":77,"visitsCount":10859,"url":"http://houston.gingermanpub.com","tier":2,"message":"Moderate","currency":"$","rating":8.5},{"name":"The Tasting Room","phone":"2818221505","twitter":"thetastingroom","address":"818 Town and Country Blvd Ste 100","lat":29.781955039117975,"lng":-95.56053580814368,"neighborhood":"Memorial","city_fetched":"Houston","state":"TX","country":"United States","canonicalUrl":"https://foursquare.com/v/the-tasting-room/4d56b39fcf1b3704eddec13f","category":"Wine Bar","checkinsCount":3506,"usersCount":2267,"tipCount":32,"visitsCount":3738,"url":"http://www.tastingroomwines.com","tier":3,"message":"Expensive","currency":"$","rating":8.5},{"name":"Joystix Classic Games & Pinballs","phone":"7132242225","address":"1820 Franklin St","lat":29.758277535438538,"lng":-95.3527163,"neighborhood":"Downtown Houston","city_fetched":"Houston","state":"TX","country":"United States","canonicalUrl":"https://foursquare.com/v/joystix-classic-games--pinballs/4a7d0f36f964a5206fee1fe3","category":"Video Game Store","checkinsCount":1449,"usersCount":942,"tipCount":10,"visitsCount":1507,"tier":"","message":"","currency":"","rating":8.5},{"name":"JW Marriott Executive Lounge","address":"5150 Westheimer Rd","lat":29.74095565013891,"lng":-95.46640808874663,"neighborhood":"Uptown-Galleria","city_fetched":"Houston","state":"TX","country":"United States","canonicalUrl":"https://foursquare.com/v/jw-marriott-executive-lounge/4bbb2f0b935e95217ad82890","category":"Hotel Bar","checkinsCount":911,"usersCount":256,"tipCount":3,"visitsCount":915,"url":"http://marriott.com","tier":"","message":"","currency":"","rating":8.5},{"name":"Canard","phone":"7138642408","twitter":"canardhtx","address":"4721 N Main St Ste B","lat":29.798001358414368,"lng":-95.38306880414876,"neighborhood":"Greater Heights","city_fetched":"Houston","state":"TX","country":"United States","canonicalUrl":"https://foursquare.com/v/canard/56a7d467498e8f441c6bc4ad","category":"Cocktail Bar","checkinsCount":124,"usersCount":84,"tipCount":3,"visitsCount":135,"url":"http://treadsack.com/canard/","tier":"","message":"","currency":"","rating":8.4},{"name":"The Bull and Bear","phone":"2814966655","address":"11980 Westheimer Rd","lat":29.7378008528136,"lng":-95.59122034381589,"neighborhood":"Briarforest","city_fetched":"Houston","state":"TX","country":"United States","canonicalUrl":"https://foursquare.com/v/the-bull-and-bear/4b0819d9f964a520cb0323e3","category":"Pub","checkinsCount":2996,"usersCount":1161,"tipCount":33,"visitsCount":3673,"url":"http://www.thebullandbear-tavernandeatery.com","tier":2,"message":"Moderate","currency":"$","rating":8.4},{"name":"The Honeymoon Cafe & Bar","phone":"2818466995","twitter":"thehoneymoonhtx","address":"300 Main St","lat":29.76243376973272,"lng":-95.36098549087843,"neighborhood":"Downtown Houston","city_fetched":"Houston","state":"TX","country":"United States","canonicalUrl":"https://foursquare.com/v/the-honeymoon-cafe--bar/5302fa43498e54371caeae81","category":"Café","checkinsCount":2401,"usersCount":1167,"tipCount":46,"visitsCount":2707,"url":"http://www.thehoneymoonhtx.com","tier":2,"message":"Moderate","currency":"$","rating":8.4},{"name":"Royal Oak Bar and Grill","phone":"2819744752","twitter":"royaloakhouston","address":"1318 Westheimer Rd","lat":29.74390183368754,"lng":-95.39526142770734,"neighborhood":"Neartown - Montrose","city_fetched":"Houston","state":"TX","country":"United States","canonicalUrl":"https://foursquare.com/royaloakhouston","category":"Pub","checkinsCount":15603,"usersCount":5512,"tipCount":97,"visitsCount":17338,"url":"http://royaloakhouston.com","tier":2,"message":"Moderate","currency":"$","rating":8.4},{"name":"Neil's Bahr","phone":"2813527456","twitter":"neilsbahr","address":"2006 Walker St","lat":29.75217273209661,"lng":-95.35550302439675,"neighborhood":"Downtown Houston","city_fetched":"Houston","state":"TX","country":"United States","canonicalUrl":"https://foursquare.com/v/neils-bahr/5320d0b9498edcd270d2fd25","category":"Beer Garden","checkinsCount":1628,"usersCount":937,"tipCount":17,"visitsCount":2149,"tier":1,"message":"Cheap","currency":"$","rating":8.4},{"name":"hops meet barley","lat":29.738154603958655,"lng":-95.4151074124608,"neighborhood":"Greenway - Upper Kirby","city_fetched":"Houston","state":"TX","country":"United States","canonicalUrl":"https://foursquare.com/v/hops-meet-barley/57a296dd498e96334ec694b1","category":"Beer Bar","checkinsCount":54,"usersCount":39,"tipCount":2,"visitsCount":59,"tier":"","message":"","currency":"","rating":8.4},{"name":"Bourbon St. Daiquiris","address":"12970 Westheimer Rd","lat":29.73648215777851,"lng":-95.61563889359067,"neighborhood":"Eldridge - West Oaks","city_fetched":"Houston","state":"TX","country":"United States","canonicalUrl":"https://foursquare.com/v/bourbon-st-daiquiris/53b7419e498e3a0a0d2ac0bf","category":"Bar","checkinsCount":173,"usersCount":185,"tipCount":6,"visitsCount":354,"tier":"","message":"","currency":"","rating":8.4},{"name":"Pete's Dueling Piano Bar","phone":"7133377383","address":"1201 Fannin St","lat":29.75415071097949,"lng":-95.36483645439148,"neighborhood":"Downtown Houston","city_fetched":"Houston","state":"TX","country":"United States","canonicalUrl":"https://foursquare.com/v/petes-dueling-piano-bar/4bb55ff42ea195214e71aa2f","category":"Bar","checkinsCount":3515,"usersCount":2072,"tipCount":29,"visitsCount":3548,"url":"http://www.petesduelingpianobar.com","tier":"","message":"","currency":"","rating":8.4},{"name":"Ragin Cajun","phone":"7136236321","twitter":"ragincajunhou","address":"4302 Richmond Ave","lat":29.732837767626023,"lng":-95.44869384658642,"neighborhood":"Central Houston","city_fetched":"Houston","state":"TX","country":"United States","canonicalUrl":"https://foursquare.com/v/ragin-cajun/4ae87a5df964a520b0af21e3","category":"Cajun / Creole Restaurant","checkinsCount":4858,"usersCount":3333,"tipCount":70,"visitsCount":5613,"url":"http://www.ragin-cajun.com","tier":2,"message":"Moderate","currency":"$","rating":8.4},{"name":"Yia Yia Mary's Greek Kitchen","phone":"7138408665","address":"4747 San Felipe St","lat":29.748092988377888,"lng":-95.45758867991013,"neighborhood":"Uptown-Galleria","city_fetched":"Houston","state":"TX","country":"United States","canonicalUrl":"https://foursquare.com/v/yia-yia-marys-greek-kitchen/4adf7b3ef964a520fd7a21e3","category":"Greek Restaurant","checkinsCount":5693,"usersCount":4009,"tipCount":88,"visitsCount":7045,"url":"http://www.yiayiamarys.com","tier":2,"message":"Moderate","currency":"$","rating":8.4},{"name":"Indika","phone":"7135242170","twitter":"indikausa","address":"516 Westheimer Rd","lat":29.744622,"lng":-95.387853,"neighborhood":"Montrose","city_fetched":"Houston","state":"TX","country":"United States","canonicalUrl":"https://foursquare.com/v/indika/4b3c00ecf964a5202c8025e3","category":"Indian Restaurant","checkinsCount":968,"usersCount":764,"tipCount":33,"visitsCount":1026,"url":"http://www.indikausa.com","tier":3,"message":"Expensive","currency":"$","rating":8.4},{"name":"Genji Japanese Restaurant & Karaoke Bar","phone":"7137800827","address":"11124 Westheimer Rd","lat":29.737281165577535,"lng":-95.5728887256956,"neighborhood":"Briarforest","city_fetched":"Houston","state":"TX","country":"United States","canonicalUrl":"https://foursquare.com/v/genji-japanese-restaurant--karaoke-bar/50906e3e498e8c94e34d3120","category":"Japanese Restaurant","checkinsCount":2986,"usersCount":972,"tipCount":16,"visitsCount":3783,"tier":1,"message":"Cheap","currency":"$","rating":8.4},{"name":"Around the Corner","twitter":"arnd_thecorner","address":"1510 Hutchins St","lat":29.746605781631253,"lng":-95.35813093185425,"neighborhood":"Downtown Houston","city_fetched":"Houston","state":"TX","country":"United States","canonicalUrl":"https://foursquare.com/v/around-the-corner/54de6eb9498eb760c9768dee","category":"Bar","checkinsCount":183,"usersCount":142,"tipCount":2,"visitsCount":260,"url":"http://aroundthecornerhouston.com","tier":"","message":"","currency":"","rating":8.4},{"name":"F Bar","phone":"7135223227","twitter":"fbarhouston","address":"202 Tuam St","lat":29.74736449224296,"lng":-95.38231739323231,"neighborhood":"Neartown - Montrose","city_fetched":"Houston","state":"TX","country":"United States","canonicalUrl":"https://foursquare.com/fbarhouston","category":"Nightclub","checkinsCount":10583,"usersCount":3608,"tipCount":47,"visitsCount":13883,"url":"http://www.fbarhouston.com","tier":1,"message":"Cheap","currency":"$","rating":8.4},{"name":"RDG + Bar Annie","phone":"7138401111","twitter":"rdgbarannie","address":"1800 Post Oak Blvd","lat":29.74697427588587,"lng":-95.46149915235775,"neighborhood":"Uptown-Galleria","city_fetched":"Houston","state":"TX","country":"United States","canonicalUrl":"https://foursquare.com/v/rdg--bar-annie/4b11df33f964a520478623e3","category":"New American Restaurant","checkinsCount":2165,"usersCount":1732,"tipCount":46,"visitsCount":2519,"url":"http://www.rdgbarannie.com","tier":4,"message":"Very Expensive","currency":"$","rating":8.4},{"name":"Grand Prize Bar","phone":"7135264566","address":"1010 Banks St","lat":29.73025429727456,"lng":-95.39157013994317,"neighborhood":"The Museum District","city_fetched":"Houston","state":"TX","country":"United States","canonicalUrl":"https://foursquare.com/v/grand-prize-bar/4c4902abfbafc928903956da","category":"Bar","checkinsCount":9331,"usersCount":3146,"tipCount":58,"visitsCount":10225,"tier":1,"message":"Cheap","currency":"$","rating":8.4},{"name":"Azuma on the Lake","phone":"2813130518","twitter":"azumaonthelake","address":"15380 Southwest Fwy","lat":29.601404130695233,"lng":-95.62196196776267,"neighborhood":"Lake Pointe","city_fetched":"Houston","state":"TX","country":"United States","canonicalUrl":"https://foursquare.com/v/azuma-on-the-lake/4c7997b2a8683704a23b114d","category":"Japanese Restaurant","checkinsCount":2597,"usersCount":1056,"tipCount":31,"visitsCount":2883,"url":"http://www.azumaonthelake.com","tier":3,"message":"Expensive","currency":"$","rating":8.4},{"name":"Khon's","phone":"7135237775","twitter":"khons","address":"2808 Milam St","lat":29.74516659695625,"lng":-95.37719579134,"neighborhood":"Midtown","city_fetched":"Houston","state":"TX","country":"United States","canonicalUrl":"https://foursquare.com/v/khons/4a972c4ef964a520cd2820e3","category":"Wine Bar","checkinsCount":2361,"usersCount":519,"tipCount":22,"visitsCount":2397,"url":"http://www.khonsbar.com","tier":2,"message":"Moderate","currency":"$","rating":8.4},{"name":"Sonoma Wine Bar & Restaurant","phone":"7135269463","twitter":"sonomahouston","address":"2720 Richmond Ave","lat":29.734262563274996,"lng":-95.42088933333334,"neighborhood":"Greenway - Upper Kirby","city_fetched":"Houston","state":"TX","country":"United States","canonicalUrl":"https://foursquare.com/v/sonoma-wine-bar--restaurant/4c3f8ce3b3ce76b085eb3d9f","category":"Wine Bar","checkinsCount":1307,"usersCount":903,"tipCount":18,"visitsCount":1396,"url":"http://www.sonomahouston.com/sonoma-wine-bar-in-upper-kirby/","tier":2,"message":"Moderate","currency":"$","rating":8.4},{"name":"Emmit's Place","phone":"7137280012","twitter":"emmitsplace","address":"4852 Benning Dr","lat":29.657139195581674,"lng":-95.46316271839048,"neighborhood":"Willow Meadows - Willowbend","city_fetched":"Houston","state":"TX","country":"United States","canonicalUrl":"https://foursquare.com/v/emmits-place/53114ee911d2a4b92f75951c","category":"Bar","checkinsCount":579,"usersCount":178,"tipCount":3,"visitsCount":1042,"url":"http://www.emmitsplace.com","tier":"","message":"","currency":"","rating":8.4},{"name":"Stone's Throw","phone":"8326590265","twitter":"stonesthrowhtx","address":"1417 Westheimer Rd","lat":29.74284987756321,"lng":-95.3969179824403,"neighborhood":"Montrose","city_fetched":"Houston","state":"TX","country":"United States","canonicalUrl":"https://foursquare.com/v/stones-throw/53e038a6498e18848f5a1f8e","category":"Cocktail Bar","checkinsCount":1262,"usersCount":720,"tipCount":20,"visitsCount":1385,"url":"http://www.stonesthrowhouston.com","tier":"","message":"","currency":"","rating":8.4},{"name":"MAX's Wine Dive","phone":"7135289200","twitter":"mwdhouston","address":"214 Fairview St Ste 2","lat":29.748357001022686,"lng":-95.38529634475707,"neighborhood":"Neartown - Montrose","city_fetched":"Houston","state":"TX","country":"United States","canonicalUrl":"https://foursquare.com/v/maxs-wine-dive/52dd2f0211d2013b9387d72a","category":"Southern / Soul Food Restaurant","checkinsCount":1416,"usersCount":1086,"tipCount":18,"visitsCount":1615,"url":"http://www.maxswinedive.com/houston-214-fairview-st","tier":2,"message":"Moderate","currency":"$","rating":8.4},{"name":"The Growler Spot","phone":"8326005866","twitter":"thegrowlerspot","address":"29615 FM 1093 Rd","lat":29.690463993576532,"lng":-95.88607396685651,"city_fetched":"Houston","state":"TX","country":"United States","canonicalUrl":"https://foursquare.com/v/the-growler-spot/53efcbf9498e3f8047b1ae06","category":"Beer Garden","checkinsCount":97,"usersCount":138,"tipCount":3,"visitsCount":473,"url":"http://thegrowlerspot.com","tier":"","message":"","currency":"","rating":8.3},{"name":"Foundation Room","phone":"8884025837","twitter":"hobhouston","address":"House of Blues","lat":29.75438524363093,"lng":-95.36428135288394,"neighborhood":"Downtown Houston","city_fetched":"Houston","state":"TX","country":"United States","canonicalUrl":"https://foursquare.com/v/foundation-room/4b99de13f964a5200e9535e3","category":"Lounge","checkinsCount":2287,"usersCount":1205,"tipCount":15,"visitsCount":2299,"tier":3,"message":"Expensive","currency":"$","rating":8.3},{"name":"Big Star","phone":"2815019560","address":"1005 W 19th St","lat":29.803014,"lng":-95.416227,"neighborhood":"Shady Acres","city_fetched":"Houston","state":"TX","country":"United States","canonicalUrl":"https://foursquare.com/v/big-star/4ad3c51ef964a5203be620e3","category":"Bar","checkinsCount":4057,"usersCount":1404,"tipCount":26,"visitsCount":4627,"url":"http://bigstarbar.com","tier":1,"message":"Cheap","currency":"$","rating":8.3},{"name":"The Deck on Fountainview","phone":"7139149990","twitter":"thedeckonfvbar","address":"6002 Fairdale Ln","lat":29.733352689048317,"lng":-95.48449640851153,"neighborhood":"Woodlake - Briar Meadow","city_fetched":"Houston","state":"TX","country":"United States","canonicalUrl":"https://foursquare.com/v/the-deck-on-fountainview/4d799f97b39b2c0f8f9ae690","category":"Sports Bar","checkinsCount":3278,"usersCount":1001,"tipCount":38,"visitsCount":3713,"url":"http://thedeckonfountainview.com","tier":2,"message":"Moderate","currency":"$","rating":8.3},{"name":"Lei Low","phone":"7133802968","twitter":"leilowhtx","address":"6412 N Main St Ste C","lat":29.80877643293455,"lng":-95.38952009433521,"neighborhood":"Greater Heights","city_fetched":"Houston","state":"TX","country":"United States","canonicalUrl":"https://foursquare.com/v/lei-low/5304fffe498e837bf2f4e413","category":"Tiki Bar","checkinsCount":1027,"usersCount":945,"tipCount":20,"visitsCount":1882,"url":"http://leilowhtx.com","tier":2,"message":"Moderate","currency":"$","rating":8.3},{"name":"Valhalla (Rice University)","phone":"7133483258","address":"6100 Main St","lat":29.7192529828444,"lng":-95.39986610412598,"neighborhood":"University Place","city_fetched":"Houston","state":"TX","country":"United States","canonicalUrl":"https://foursquare.com/v/valhalla-rice-university/4b9a6ee5f964a520cfb435e3","category":"Bar","checkinsCount":2806,"usersCount":1201,"tipCount":24,"visitsCount":3461,"url":"http://valhalla.rice.edu","tier":1,"message":"Cheap","currency":"$","rating":8.3},{"name":"Fleming's Prime Steakhouse & Wine Bar","phone":"7135205959","address":"2405 W Alabama St","lat":29.738367180935096,"lng":-95.41662132507606,"neighborhood":"Greenway - Upper Kirby","city_fetched":"Houston","state":"TX","country":"United States","canonicalUrl":"https://foursquare.com/v/flemings-prime-steakhouse--wine-bar/4c474c12972c0f47b1582321","category":"Steakhouse","checkinsCount":2388,"usersCount":1289,"tipCount":26,"visitsCount":2484,"url":"http://www.flemingssteakhouse.com/locations/tx/houston","tier":4,"message":"Very Expensive","currency":"$","rating":8.3},{"name":"The Tasting Room Kings Harbor","phone":"2813610044","twitter":"tastingroomkw","address":"1660 W Lake Houston Pkwy Ste 105","lat":30.031676665223547,"lng":-95.17338760969396,"neighborhood":"Lake Houston","city_fetched":"Houston","state":"TX","country":"United States","canonicalUrl":"https://foursquare.com/v/the-tasting-room-kings-harbor/4f6d0006e4b0463c935549c1","category":"American Restaurant","checkinsCount":620,"usersCount":285,"tipCount":11,"visitsCount":629,"url":"http://www.tastingroomwines.com/kings-harbor/","tier":2,"message":"Moderate","currency":"$","rating":8.3},{"name":"Mo's Irish Pub","phone":"2812510715","address":"138 Vintage Park Blvd","lat":29.996011841786295,"lng":-95.57111434012596,"city_fetched":"Houston","state":"TX","country":"United States","canonicalUrl":"https://foursquare.com/v/mos-irish-pub/54c82838498ebd6244c57663","category":"Pub","checkinsCount":768,"usersCount":765,"tipCount":6,"visitsCount":1565,"tier":"","message":"","currency":"","rating":8.3},{"name":"Brash Brewing","address":"512 Crosstimbers St","lat":29.829252067545767,"lng":-95.40769697181048,"neighborhood":"Independence Heights","city_fetched":"Houston","state":"TX","country":"United States","canonicalUrl":"https://foursquare.com/v/brash-brewing/541b1bc2498ef421d4c1dda5","category":"Brewery","checkinsCount":580,"usersCount":333,"tipCount":3,"visitsCount":796,"tier":"","message":"","currency":"","rating":8.3},{"name":"Brio Tuscan Grille","phone":"7139739610","twitter":"brioitalian","address":"12808 Queensbury Ln","lat":29.778591396839392,"lng":-95.56037686268878,"neighborhood":"Memorial","city_fetched":"Houston","state":"TX","country":"United States","canonicalUrl":"https://foursquare.com/v/brio-tuscan-grille/4bbf6bff30c99c746e2b5511","category":"Italian Restaurant","checkinsCount":4299,"usersCount":2597,"tipCount":49,"visitsCount":4707,"url":"http://www.brioitalian.com/index.html","tier":2,"message":"Moderate","currency":"$","rating":8.3},{"name":"Char Bar","phone":"7132228177","twitter":"thecharbar","address":"305 Travis St","lat":29.76256803260323,"lng":-95.36181838086462,"neighborhood":"Downtown Houston","city_fetched":"Houston","state":"TX","country":"United States","canonicalUrl":"https://foursquare.com/v/char-bar/4a3b1487f964a5208aa01fe3","category":"Bar","checkinsCount":875,"usersCount":428,"tipCount":5,"visitsCount":877,"url":"http://charbarhouston.com","tier":"","message":"","currency":"","rating":8.3},{"name":"9er's","phone":"7139914040","address":"9865 Blackhawk Blvd","lat":29.602418049999997,"lng":-95.247938,"neighborhood":"Southbelt - Ellington","city_fetched":"Houston","state":"TX","country":"United States","canonicalUrl":"https://foursquare.com/v/9ers/4b6b0921f964a5203cee2be3","category":"Sports Bar","checkinsCount":554,"usersCount":330,"tipCount":15,"visitsCount":727,"url":"http://www.9ersgrill.com","tier":2,"message":"Moderate","currency":"$","rating":8.3},{"name":"Whiskey River Dancehall & Saloon","phone":"2814770528","twitter":"whiskeyriverhou","address":"7637 Cypress Creek Pkwy","lat":29.96214686447118,"lng":-95.54463314432924,"neighborhood":"Willowbrook Mall","city_fetched":"Houston","state":"TX","country":"United States","canonicalUrl":"https://foursquare.com/whiskeyriverhou","category":"Bar","checkinsCount":4753,"usersCount":1859,"tipCount":25,"visitsCount":4990,"url":"http://whiskeyriverhouston.com","tier":2,"message":"Moderate","currency":"$","rating":8.3},{"name":"Tequila Lopez Mexican Restaurant","phone":"2814957601","twitter":"tequilalopeztx","address":"8145 Highway 6 S, 144","lat":29.691434586794745,"lng":-95.64255771977,"city_fetched":"Houston","state":"TX","country":"United States","canonicalUrl":"https://foursquare.com/v/tequila-lopez-mexican-restaurant/4b9aab49f964a5206fcb35e3","category":"Bar","checkinsCount":555,"usersCount":419,"tipCount":12,"visitsCount":915,"url":"http://www.tequilalopezhouston.com","tier":2,"message":"Moderate","currency":"$","rating":8.3},{"name":"Clé Houston","phone":"7139552302","address":"2301 MAIN ST HOUSTON TX 77002 200 W 39th St","lat":29.74667390596205,"lng":-95.37269815216814,"neighborhood":"Midtown","city_fetched":"Houston","state":"TX","country":"United States","canonicalUrl":"https://foursquare.com/v/cl%C3%A9-houston/55693c82498e40bf31c24d32","category":"Nightclub","checkinsCount":721,"usersCount":790,"tipCount":5,"visitsCount":1582,"url":"http://www.clehouston.com","tier":"","message":"","currency":"","rating":8.3},{"name":"Simone on Sunset","phone":"7136363033","address":"2418 Sunset Blvd","lat":29.723203,"lng":-95.415807,"neighborhood":"University Place","city_fetched":"Houston","state":"TX","country":"United States","canonicalUrl":"https://foursquare.com/v/simone-on-sunset/4d2f94e72748b60c880dd4a0","category":"Wine Bar","checkinsCount":1515,"usersCount":968,"tipCount":18,"visitsCount":1832,"url":"http://simoneonsunset.com","tier":2,"message":"Moderate","currency":"$","rating":8.3},{"name":"Local Pour","phone":"7135211881","twitter":"local_pour","address":"1952 W Gray St","lat":29.75365272468506,"lng":-95.40701172015103,"neighborhood":"Neartown - Montrose","city_fetched":"Houston","state":"TX","country":"United States","canonicalUrl":"https://foursquare.com/v/local-pour/501b0cf9e4b08720c37a8dac","category":"Pub","checkinsCount":4630,"usersCount":2668,"tipCount":37,"visitsCount":5932,"url":"http://www.localpourhouston.com","tier":3,"message":"Expensive","currency":"$","rating":8.3},{"name":"Four Seasons Hotel Houston","phone":"7136501300","twitter":"fourseasons","address":"1300 Lamar St","lat":29.754174863288235,"lng":-95.36266150260539,"neighborhood":"Downtown Houston","city_fetched":"Houston","state":"TX","country":"United States","canonicalUrl":"https://foursquare.com/v/four-seasons-hotel-houston/4b7cdb7bf964a5208fa72fe3","category":"Hotel","checkinsCount":6579,"usersCount":3539,"tipCount":42,"visitsCount":6986,"url":"http://www.fourseasons.com/houston/","tier":"","message":"","currency":"","rating":8.3},{"name":"Mainly Drinks","phone":"2818671700","twitter":"mainlydrinks","address":"223 W Main St","lat":29.665263861542556,"lng":-95.02136714741931,"city_fetched":"Houston","state":"TX","country":"United States","canonicalUrl":"https://foursquare.com/v/mainly-drinks/4e62f5621f6ef7d07af352fb","category":"New American Restaurant","checkinsCount":352,"usersCount":186,"tipCount":14,"visitsCount":416,"url":"http://mainlydrinks-hub.com","tier":2,"message":"Moderate","currency":"$","rating":8.3},{"name":"Stereo Live","phone":"8322519600","twitter":"stereo_live","address":"6400 Richmond Ave","lat":29.73208660280619,"lng":-95.49874369726098,"neighborhood":"Woodlake - Briar Meadow","city_fetched":"Houston","state":"TX","country":"United States","canonicalUrl":"https://foursquare.com/v/stereo-live/4bb80c7553649c7468b146fb","category":"Concert Hall","checkinsCount":10532,"usersCount":3385,"tipCount":43,"visitsCount":12477,"tier":"","message":"","currency":"","rating":8.3},{"name":"Stockyard Bar-B-Q","phone":"7137823500","twitter":"stockyardbbq","address":"6504 Westheimer Rd","lat":29.737918037999098,"lng":-95.49857979780147,"neighborhood":"Great Uptown","city_fetched":"Houston","state":"TX","country":"United States","canonicalUrl":"https://foursquare.com/v/stockyard-barbq/4e8604bc0aafdd0b12224a29","category":"BBQ Joint","checkinsCount":1048,"usersCount":843,"tipCount":35,"visitsCount":1279,"url":"http://www.stockyardbarbq.com","tier":"","message":"","currency":"","rating":8.3},{"name":"The Nightingale Room","twitter":"nightingaleroom","address":"308 Main St","lat":29.76194123009517,"lng":-95.3609906005963,"neighborhood":"Downtown Houston","city_fetched":"Houston","state":"TX","country":"United States","canonicalUrl":"https://foursquare.com/v/the-nightingale-room/5463e960498e27df601e8fd3","category":"Lounge","checkinsCount":759,"usersCount":515,"tipCount":12,"visitsCount":777,"url":"http://www.nightingaleroom.com","tier":"","message":"","currency":"","rating":8.2},{"name":"Specs","address":"1614 Louetta Rd","lat":30.06551496081014,"lng":-95.43839330461881,"city_fetched":"Houston","state":"TX","country":"United States","canonicalUrl":"https://foursquare.com/v/specs/4c3b5ae9d94dc9b67caeffe7","category":"Liquor Store","checkinsCount":1019,"usersCount":617,"tipCount":6,"visitsCount":1429,"tier":"","message":"","currency":"","rating":8.2},{"name":"El Patio","phone":"7137800410","twitter":"elpatiohouston","address":"6444 Westheimer Rd","lat":29.738149194156584,"lng":-95.4974683667407,"neighborhood":"Great Uptown","city_fetched":"Houston","state":"TX","country":"United States","canonicalUrl":"https://foursquare.com/v/el-patio/4bcce81c8920b7130c019fdc","category":"Mexican Restaurant","checkinsCount":2409,"usersCount":1051,"tipCount":32,"visitsCount":2817,"url":"http://www.elpatio.com","tier":2,"message":"Moderate","currency":"$","rating":8.2},{"name":"La Fendee Mediterranean Grill","phone":"7135221505","address":"1402 Westheimer Rd","lat":29.743368693221644,"lng":-95.39612037609267,"neighborhood":"Neartown - Montrose","city_fetched":"Houston","state":"TX","country":"United States","canonicalUrl":"https://foursquare.com/v/la-fendee-mediterranean-grill/5304304b498e1ec4bf8f00b2","category":"Mediterranean Restaurant","checkinsCount":306,"usersCount":201,"tipCount":10,"visitsCount":380,"url":"http://www.lafendeegrill.com","tier":2,"message":"Moderate","currency":"$","rating":8.2},{"name":"Mellow Mushroom Pizza Bakers","phone":"8326988888","address":"16000 Stuebner Airline Rd","lat":30.011909906151335,"lng":-95.51481485366821,"city_fetched":"Houston","state":"TX","country":"United States","canonicalUrl":"https://foursquare.com/v/mellow-mushroom-pizza-bakers/50351e52ebcac4fb6c503dd8","category":"Pizza Place","checkinsCount":2216,"usersCount":1297,"tipCount":57,"visitsCount":2972,"url":"http://mellowmushroom.com","tier":2,"message":"Moderate","currency":"$","rating":8.2},{"name":"Kung Fu Saloon","phone":"7138640642","twitter":"kfshouston","address":"5317 Washington Ave","lat":29.770443023024768,"lng":-95.41554726137413,"neighborhood":"Washington Avenue - Memorial Park","city_fetched":"Houston","state":"TX","country":"United States","canonicalUrl":"https://foursquare.com/v/kung-fu-saloon/4d9d66eb7865a0935220e77a","category":"Bar","checkinsCount":13468,"usersCount":6235,"tipCount":76,"visitsCount":15352,"url":"http://kungfusaloon.com","tier":3,"message":"Expensive","currency":"$","rating":8.2},{"name":"Avant Garden","phone":"8325191429","twitter":"avantgardenbar","address":"411 Westheimer Rd","lat":29.744316918265028,"lng":-95.38643749423602,"neighborhood":"Montrose","city_fetched":"Houston","state":"TX","country":"United States","canonicalUrl":"https://foursquare.com/v/avant-garden/483e8b95f964a5201c501fe3","category":"Bar","checkinsCount":3895,"usersCount":2129,"tipCount":34,"visitsCount":4438,"url":"http://avantgardenhouston.com","tier":1,"message":"Cheap","currency":"$","rating":8.2},{"name":"Cecil's Pub","phone":"7135243691","address":"600 W Gray St","lat":29.75353795555783,"lng":-95.38849254270811,"neighborhood":"Neartown - Montrose","city_fetched":"Houston","state":"TX","country":"United States","canonicalUrl":"https://foursquare.com/v/cecils-pub/41326e00f964a5208d111fe3","category":"Pub","checkinsCount":5082,"usersCount":1730,"tipCount":40,"visitsCount":5578,"tier":1,"message":"Cheap","currency":"$","rating":8.2},{"name":"Front Porch Pub","phone":"7135719571","address":"217 Gray St","lat":29.752658,"lng":-95.377519,"neighborhood":"Midtown","city_fetched":"Houston","state":"TX","country":"United States","canonicalUrl":"https://foursquare.com/v/front-porch-pub/4283ee00f964a520a9221fe3","category":"Pub","checkinsCount":9048,"usersCount":3812,"tipCount":55,"visitsCount":9612,"url":"http://www.frontporchpub.com","tier":2,"message":"Moderate","currency":"$","rating":8.2},{"name":"PJ's Sports Bar","phone":"7135201748","address":"614 W Gray St","lat":29.753526434001145,"lng":-95.38878904826846,"neighborhood":"Neartown - Montrose","city_fetched":"Houston","state":"TX","country":"United States","canonicalUrl":"https://foursquare.com/v/pjs-sports-bar/41326e00f964a520bf121fe3","category":"Dive Bar","checkinsCount":2131,"usersCount":703,"tipCount":14,"visitsCount":2283,"url":"http://pjssportsbar.com","tier":1,"message":"Cheap","currency":"$","rating":8.2},{"name":"Wooster's Garden","twitter":"woostersgarden","address":"3315 Milam St","lat":29.74151961998174,"lng":-95.37950277328491,"neighborhood":"Midtown","city_fetched":"Houston","state":"TX","country":"United States","canonicalUrl":"https://foursquare.com/v/woosters-garden/52c04cf511d282fc8b9aa7b1","category":"Beer Garden","checkinsCount":1171,"usersCount":944,"tipCount":4,"visitsCount":1524,"url":"http://woostersgarden.com","tier":"","message":"","currency":"","rating":8.2},{"name":"Daiquiri Shack","phone":"7137333301","twitter":"daiquirishacktx","address":"12805 Cullen Blvd","lat":29.623920999534835,"lng":-95.35482350054635,"neighborhood":"Southeast Houston","city_fetched":"Houston","state":"TX","country":"United States","canonicalUrl":"https://foursquare.com/v/daiquiri-shack/4c9d5c998afca0935565f615","category":"Cocktail Bar","checkinsCount":471,"usersCount":459,"tipCount":11,"visitsCount":1071,"url":"http://daiquirishacktx.com","tier":1,"message":"Cheap","currency":"$","rating":8.2},{"name":"Pistolero's","phone":"2819743860","twitter":"pistoleros_htx","address":"1517 Westheimer Rd","lat":29.742570265047984,"lng":-95.39840585443467,"neighborhood":"Neartown - Montrose","city_fetched":"Houston","state":"TX","country":"United States","canonicalUrl":"https://foursquare.com/v/pistoleros/518d6b53498ef4294eab9c2f","category":"Mexican Restaurant","checkinsCount":1666,"usersCount":1225,"tipCount":30,"visitsCount":2200,"url":"http://pistoleroshouston.com","tier":2,"message":"Moderate","currency":"$","rating":8.2},{"name":"Arlo's Ballroom","phone":"7134891899","twitter":"arlosballroom","address":"2119 Leeland St","lat":29.746633726861706,"lng":-95.35831332206726,"neighborhood":"Downtown Houston","city_fetched":"Houston","state":"TX","country":"United States","canonicalUrl":"https://foursquare.com/v/arlos-ballroom/55f8ece0498e17705bad84b2","category":"Nightclub","checkinsCount":131,"usersCount":130,"tipCount":0,"visitsCount":197,"tier":"","message":"","currency":"","rating":8.2},{"name":"Skallywag","address":"600 6th St","lat":29.543548575070847,"lng":-95.01826377139422,"city_fetched":"Houston","state":"TX","country":"United States","canonicalUrl":"https://foursquare.com/v/skallywag/5148c4f6e4b008f967817ff8","category":"Bar","checkinsCount":4812,"usersCount":734,"tipCount":35,"visitsCount":5796,"tier":2,"message":"Moderate","currency":"$","rating":8.2},{"name":"Eight Row Flint","phone":"7138808463","twitter":"eightrowflint","address":"1039 Yale St","lat":29.790381841594275,"lng":-95.39912168277002,"neighborhood":"Greater Heights","city_fetched":"Houston","state":"TX","country":"United States","canonicalUrl":"https://foursquare.com/v/eight-row-flint/54edaf21498e6903beb7281a","category":"Gastropub","checkinsCount":681,"usersCount":513,"tipCount":14,"visitsCount":956,"url":"http://eightrowflint.com","tier":2,"message":"Moderate","currency":"$","rating":8.2},{"name":"Friends Uncorked","address":"111S Friendswood Dr","lat":29.53262210120796,"lng":-95.20456024260571,"city_fetched":"Houston","state":"TX","country":"United States","canonicalUrl":"https://foursquare.com/v/friends-uncorked/51f33456498e1f9591c3b0ed","category":"Wine Bar","checkinsCount":72,"usersCount":50,"tipCount":8,"visitsCount":76,"tier":"","message":"","currency":"","rating":8.2},{"name":"The Cellar Door","phone":"2815993303","address":"829 S Mason Rd","lat":29.770303220974554,"lng":-95.75009336163552,"city_fetched":"Houston","state":"TX","country":"United States","canonicalUrl":"https://foursquare.com/v/the-cellar-door/4c62f210edd320a1fd29ae29","category":"Wine Bar","checkinsCount":476,"usersCount":370,"tipCount":15,"visitsCount":599,"url":"http://cellardoorkaty.com","tier":2,"message":"Moderate","currency":"$","rating":8.2},{"name":"Cafe Mawal","phone":"7139771999","address":"6006 Fairdale Ln","lat":29.733638354490825,"lng":-95.48518180847168,"neighborhood":"Woodlake - Briar Meadow","city_fetched":"Houston","state":"TX","country":"United States","canonicalUrl":"https://foursquare.com/v/cafe-mawal/4d3c9cdd719460fcdf817220","category":"Mediterranean Restaurant","checkinsCount":2669,"usersCount":1299,"tipCount":24,"visitsCount":3779,"tier":2,"message":"Moderate","currency":"$","rating":8.2},{"name":"Growler's Beer and Wine To Go","lat":29.75650961180419,"lng":-95.39783831111933,"neighborhood":"Neartown - Montrose","city_fetched":"Houston","state":"TX","country":"United States","canonicalUrl":"https://foursquare.com/v/growlers-beer-and-wine-to-go/510aa453e4b0ca1792376caa","category":"Beer Store","checkinsCount":924,"usersCount":486,"tipCount":9,"visitsCount":1238,"tier":"","message":"","currency":"","rating":8.2},{"name":"Bullpen Pizza & Sports Bar","phone":"2812420190","twitter":"bullpenpizza","address":"14019 Southwest Fwy Ste 204","lat":29.61970146146607,"lng":-95.60141958971496,"neighborhood":"Sugar Creek","city_fetched":"Houston","state":"TX","country":"United States","canonicalUrl":"https://foursquare.com/v/bullpen-pizza--sports-bar/4cbcc28dbac937047914fa7c","category":"Bar","checkinsCount":1020,"usersCount":480,"tipCount":5,"visitsCount":1454,"url":"http://bullpensugarland.com","tier":2,"message":"Moderate","currency":"$","rating":8.2},{"name":"That Cigar Place","phone":"2818096993","twitter":"thatcigarplace","address":"7951 Katy Fwy","lat":29.782691567981786,"lng":-95.47853631880837,"neighborhood":"Great Uptown","city_fetched":"Houston","state":"TX","country":"United States","canonicalUrl":"https://foursquare.com/thatcigarplace","category":"Lounge","checkinsCount":302,"usersCount":56,"tipCount":5,"visitsCount":309,"url":"http://thatcigarplace.com","tier":"","message":"","currency":"","rating":8.2},{"name":"Lincoln Bar","phone":"7138648811","twitter":"lincolnbarhou","address":"5110 Washington Ave","lat":29.770689005683437,"lng":-95.4130105042412,"neighborhood":"Washington Avenue - Memorial Park","city_fetched":"Houston","state":"TX","country":"United States","canonicalUrl":"https://foursquare.com/v/lincoln-bar/550aeb86498eaed27be98570","category":"Bar","checkinsCount":863,"usersCount":633,"tipCount":4,"visitsCount":1222,"url":"http://www.lincolnbarhouston.com","tier":"","message":"","currency":"","rating":8.2},{"name":"Red Lion Pub","phone":"7137823030","twitter":"redlionpub","address":"2316 S Shepherd Dr","lat":29.745685,"lng":-95.410765,"neighborhood":"Afton Oaks - River Oaks","city_fetched":"Houston","state":"TX","country":"United States","canonicalUrl":"https://foursquare.com/v/red-lion-pub/41326e00f964a520cf121fe3","category":"Pub","checkinsCount":5831,"usersCount":2862,"tipCount":101,"visitsCount":6714,"url":"http://redlionhouston.com","tier":2,"message":"Moderate","currency":"$","rating":8.2},{"name":"Tango & Malbec","phone":"7136298646","address":"2800 Sage Rd","lat":29.737580139207065,"lng":-95.4671913046067,"neighborhood":"Uptown-Galleria","city_fetched":"Houston","state":"TX","country":"United States","canonicalUrl":"https://foursquare.com/v/tango--malbec/4d0147de895a2c0fcfbec7c3","category":"Latin American Restaurant","checkinsCount":1632,"usersCount":1345,"tipCount":47,"visitsCount":1825,"url":"http://www.tangomalbec.com","tier":4,"message":"Very Expensive","currency":"$","rating":8.1},{"name":"Club Tropicana","phone":"7139774188","address":"3222 Fondren Rd","lat":29.729265378127728,"lng":-95.52087434995504,"neighborhood":"Woodlake - Briar Meadow","city_fetched":"Houston","state":"TX","country":"United States","canonicalUrl":"https://foursquare.com/v/club-tropicana/41326e00f964a520ad111fe3","category":"Nightclub","checkinsCount":455,"usersCount":312,"tipCount":10,"visitsCount":536,"url":"http://www.clubtropicanahouston.com","tier":"","message":"","currency":"","rating":8.1},{"name":"Beaucoup Bar & Grill","phone":"7137475100","twitter":"beaucoupbag","address":"3102 Old Spanish Trl","lat":29.699804698488233,"lng":-95.38058969634595,"neighborhood":"Astrodome","city_fetched":"Houston","state":"TX","country":"United States","canonicalUrl":"https://foursquare.com/v/beaucoup-bar--grill/4b940daef964a5207d6434e3","category":"Cajun / Creole Restaurant","checkinsCount":2821,"usersCount":1211,"tipCount":65,"visitsCount":3204,"url":"http://beaucoupbarandgrill.com","tier":2,"message":"Moderate","currency":"$","rating":8.1},{"name":"La Grange","phone":"8329624745","address":"2517 Ralph St","lat":29.74314922400659,"lng":-95.40106469002738,"neighborhood":"Neartown - Montrose","city_fetched":"Houston","state":"TX","country":"United States","canonicalUrl":"https://foursquare.com/v/la-grange/5556557a498e46458b5afa28","category":"Cocktail Bar","checkinsCount":1208,"usersCount":1377,"tipCount":14,"visitsCount":2130,"url":"http://lagrangehouston.com","tier":"","message":"","currency":"","rating":8.1},{"name":"Bar 5015","phone":"7135225015","address":"5015 Almeda Rd","lat":29.723880740979748,"lng":-95.37818736345258,"neighborhood":"The Museum District","city_fetched":"Houston","state":"TX","country":"United States","canonicalUrl":"https://foursquare.com/v/bar-5015/4bb293f535f0c9b6f87fbb83","category":"Bar","checkinsCount":1557,"usersCount":895,"tipCount":23,"visitsCount":2132,"url":"http://www.bar5015.com","tier":1,"message":"Cheap","currency":"$","rating":8.1},{"name":"Shakespeare Pub","phone":"2814974625","address":"14129 Memorial Dr","lat":29.769713916666667,"lng":-95.59276175,"neighborhood":"Memorial","city_fetched":"Houston","state":"TX","country":"United States","canonicalUrl":"https://foursquare.com/v/shakespeare-pub/41326e00f964a520fb121fe3","category":"Pub","checkinsCount":823,"usersCount":420,"tipCount":13,"visitsCount":928,"url":"http://shakespearepub.net","tier":"","message":"","currency":"","rating":8.1},{"name":"Seasons 52","phone":"7134645252","twitter":"seasons52","address":"842 W Sam Houston Parkway N. City Center Three","lat":29.77914738,"lng":-95.56151748,"neighborhood":"Memorial","city_fetched":"Houston","state":"TX","country":"United States","canonicalUrl":"https://foursquare.com/v/seasons-52/527d045a11d237dae9992f66","category":"New American Restaurant","checkinsCount":582,"usersCount":456,"tipCount":10,"visitsCount":612,"url":"http://seasons52.com","tier":3,"message":"Expensive","currency":"$","rating":8.1},{"name":"k&k drive in","address":"4618 Red Bluff Rd","lat":29.674667716026306,"lng":-95.13967037200928,"city_fetched":"Houston","state":"TX","country":"United States","canonicalUrl":"https://foursquare.com/v/kk-drive-in/4bbe720bb083a5937011a2e9","category":"Bar","checkinsCount":951,"usersCount":81,"tipCount":2,"visitsCount":1011,"tier":"","message":"","currency":"","rating":8.1},{"name":"Guava Lamp","phone":"7135243359","twitter":"guavalamp","address":"570 Waugh Dr","lat":29.759746288307504,"lng":-95.3988251242425,"neighborhood":"Neartown - Montrose","city_fetched":"Houston","state":"TX","country":"United States","canonicalUrl":"https://foursquare.com/guavalamp","category":"Gay Bar","checkinsCount":7790,"usersCount":1665,"tipCount":30,"visitsCount":8362,"url":"http://guavalamphouston.com","tier":2,"message":"Moderate","currency":"$","rating":8.1},{"name":"Little Woodrow's Shepherd","phone":"8328049941","twitter":"lw720shepherd","address":"720 Shepherd Dr","lat":29.768806249382894,"lng":-95.40922603273025,"neighborhood":"Washington Avenue - Memorial Park","city_fetched":"Houston","state":"TX","country":"United States","canonicalUrl":"https://foursquare.com/v/little-woodrows-shepherd/516dd9ebe4b002b216de010f","category":"Bar","checkinsCount":3269,"usersCount":1906,"tipCount":23,"visitsCount":4864,"url":"http://littlewoodrows.com","tier":2,"message":"Moderate","currency":"$","rating":8.1},{"name":"Monarch Restaurant","phone":"7135271800","twitter":"monarchzaza","address":"5701 Main St","lat":29.724558360454168,"lng":-95.39008755604499,"neighborhood":"The Museum District","city_fetched":"Houston","state":"TX","country":"United States","canonicalUrl":"https://foursquare.com/v/monarch-restaurant/4c03107d9a7920a13d74cf79","category":"Hotel Bar","checkinsCount":3117,"usersCount":1650,"tipCount":27,"visitsCount":3161,"url":"http://www.hotelzaza.com/#houston/monarch","tier":3,"message":"Expensive","currency":"$","rating":8.1},{"name":"The D Bar","phone":"2819281380","address":"4409 Dowling St","lat":29.726573405823917,"lng":-95.37109850813414,"neighborhood":"Greater Third Ward","city_fetched":"Houston","state":"TX","country":"United States","canonicalUrl":"https://foursquare.com/v/the-d-bar/4e4f3a8662e14b77e399ff74","category":"Nightclub","checkinsCount":1111,"usersCount":724,"tipCount":6,"visitsCount":1693,"url":"http://www.visitblackhouston.com/city/dbar/","tier":"","message":"","currency":"","rating":8.1},{"name":"Hawg Stop Bar And Grill","lat":29.881633,"lng":-95.12913805,"city_fetched":"Houston","state":"TX","country":"United States","canonicalUrl":"https://foursquare.com/v/hawg-stop-bar-and-grill/4cdeefe170bba1cdcb9263c4","category":"Bar","checkinsCount":273,"usersCount":168,"tipCount":4,"visitsCount":359,"tier":"","message":"","currency":"","rating":8.1},{"name":"Bar Munich","phone":"7135231008","twitter":"barmunich","address":"2616 Louisiana St","lat":29.746673315924834,"lng":-95.377357006073,"neighborhood":"Midtown","city_fetched":"Houston","state":"TX","country":"United States","canonicalUrl":"https://foursquare.com/v/bar-munich/4d7c244dea35236a8dee5323","category":"Bar","checkinsCount":2471,"usersCount":1286,"tipCount":26,"visitsCount":2495,"url":"http://www.barmunich.com","tier":1,"message":"Cheap","currency":"$","rating":8.1},{"name":"Twin Peaks","phone":"7135207730","address":"4527 Lomitas St","lat":29.73146017287169,"lng":-95.41725554346664,"neighborhood":"Greenway - Upper Kirby","city_fetched":"Houston","state":"TX","country":"United States","canonicalUrl":"https://foursquare.com/v/twin-peaks/4e8dea826c25640674243d9f","category":"Sports Bar","checkinsCount":9387,"usersCount":5294,"tipCount":72,"visitsCount":11409,"url":"http://www.twinpeaksrestaurant.com","tier":2,"message":"Moderate","currency":"$","rating":8.1},{"name":"Little Woodrow's","phone":"7132222224","twitter":"lilwoods_htown","address":"2019 Walker St","lat":29.7524245,"lng":-95.354735,"neighborhood":"Downtown Houston","city_fetched":"Houston","state":"TX","country":"United States","canonicalUrl":"https://foursquare.com/v/little-woodrows/4d335cd6eefa8cfa544d40b3","category":"Bar","checkinsCount":5205,"usersCount":2238,"tipCount":20,"visitsCount":5582,"url":"http://littlewoodrows.com","tier":1,"message":"Cheap","currency":"$","rating":8.1},{"name":"Fastrak","phone":"7139108199","address":"2940 Shaver St","lat":29.667534897223682,"lng":-95.20833635183443,"city_fetched":"Houston","state":"TX","country":"United States","canonicalUrl":"https://foursquare.com/v/fastrak/4e60309aa80951b317867552","category":"Beer Garden","checkinsCount":65,"usersCount":102,"tipCount":1,"visitsCount":156,"tier":"","message":"","currency":"","rating":8.1},{"name":"11 Below Brewing Company","phone":"2814442337","twitter":"11belowbrewing","address":"6820 Bourgeois Rd","lat":29.951623050831763,"lng":-95.51865066006562,"city_fetched":"Houston","state":"TX","country":"United States","canonicalUrl":"https://foursquare.com/v/11-below-brewing-company/54dcfd80498e1970397c6c07","category":"Brewery","checkinsCount":203,"usersCount":255,"tipCount":2,"visitsCount":454,"url":"http://www.11belowbrewing.com","tier":"","message":"","currency":"","rating":8.1},{"name":"Underdogs Sports Pub","phone":"7138685688","twitter":"underdogspub","address":"4212 Washington Ave","lat":29.77046979277805,"lng":-95.40347820039521,"neighborhood":"Washington Avenue - Memorial Park","city_fetched":"Houston","state":"TX","country":"United States","canonicalUrl":"https://foursquare.com/v/underdogs-sports-pub/502d822ae4b01a4fc09d40ee","category":"Sports Bar","checkinsCount":1132,"usersCount":561,"tipCount":10,"visitsCount":1238,"url":"http://underdogspub-hub.com","tier":1,"message":"Cheap","currency":"$","rating":8.1},{"name":"Sonoma Wine Bar & Restaurant","phone":"7138649463","twitter":"sonomahouston","address":"801 Studewood St","lat":29.785582,"lng":-95.388055,"neighborhood":"Greater Heights","city_fetched":"Houston","state":"TX","country":"United States","canonicalUrl":"https://foursquare.com/v/sonoma-wine-bar--restaurant/502abb21e4b09463855d43eb","category":"Wine Bar","checkinsCount":696,"usersCount":481,"tipCount":9,"visitsCount":843,"url":"http://sonomahouston.com","tier":"","message":"","currency":"","rating":8.1},{"name":"Nomad Tavern","phone":"7134680020","address":"2133 Bingle Rd","lat":29.812712469343793,"lng":-95.5008590659808,"neighborhood":"Northwest Houston","city_fetched":"Houston","state":"TX","country":"United States","canonicalUrl":"https://foursquare.com/v/nomad-tavern/4c6f19749375a0938e010337","category":"Bar","checkinsCount":260,"usersCount":72,"tipCount":3,"visitsCount":273,"tier":"","message":"","currency":"","rating":8.1},{"name":"Legends Sports Bar & Grill","address":"12343 Murphy Rd","lat":29.641486716190776,"lng":-95.56491466849116,"city_fetched":"Houston","state":"TX","country":"United States","canonicalUrl":"https://foursquare.com/v/legends-sports-bar--grill/4ca8d78d97c8a1cdad0189a5","category":"Bar","checkinsCount":162,"usersCount":90,"tipCount":2,"visitsCount":167,"tier":"","message":"","currency":"","rating":8.1},{"name":"Bayou Bar @ Whole Foods","phone":"7132841260","address":"701 Waugh Dr","lat":29.758061163658347,"lng":-95.39749062967572,"neighborhood":"Neartown - Montrose","city_fetched":"Houston","state":"TX","country":"United States","canonicalUrl":"https://foursquare.com/v/bayou-bar--whole-foods/4e04ee838877de8da369cc52","category":"Bar","checkinsCount":1322,"usersCount":250,"tipCount":4,"visitsCount":1397,"tier":"","message":"","currency":"","rating":8.1},{"name":"Sullivan's Steakhouse","phone":"7139610333","twitter":"sullivanssteak","address":"4608 Westheimer Rd","lat":29.74144509554902,"lng":-95.45509815216064,"neighborhood":"Uptown-Galleria","city_fetched":"Houston","state":"TX","country":"United States","canonicalUrl":"https://foursquare.com/v/sullivans-steakhouse/41326e00f964a5201e131fe3","category":"Steakhouse","checkinsCount":2704,"usersCount":1651,"tipCount":24,"visitsCount":2886,"url":"http://www.sullivansteakhouse.com","tier":3,"message":"Expensive","currency":"$","rating":8.1},{"name":"TGI Fridays","phone":"2815401375","twitter":"tgifridays","address":"20430 Highway 59 N","lat":30.013066081631877,"lng":-95.26335012953425,"city_fetched":"Houston","state":"TX","country":"United States","canonicalUrl":"https://foursquare.com/v/tgi-fridays/509d636e5d2463e8715480b7","category":"American Restaurant","checkinsCount":2126,"usersCount":1339,"tipCount":17,"visitsCount":2828,"url":"http://tgifridays.com","tier":2,"message":"Moderate","currency":"$","rating":8.1},{"name":"Republic Diner + Sojubang","phone":"8326493601","twitter":"republicdiner","address":"1221 W 11th St","lat":29.79030259890392,"lng":-95.4092001914978,"neighborhood":"Greater Heights","city_fetched":"Houston","state":"TX","country":"United States","canonicalUrl":"https://foursquare.com/v/republic-diner--sojubang/562277cc498e9e3173649b98","category":"Korean Restaurant","checkinsCount":225,"usersCount":276,"tipCount":12,"visitsCount":352,"url":"http://republicdiner.com","tier":2,"message":"Moderate","currency":"$","rating":8.1},{"name":"Hunky Dory Tavern","phone":"7138642408","twitter":"hunkydoryhtx","address":"1819 N Shepherd Dr","lat":29.801881551304817,"lng":-95.41074490578245,"neighborhood":"Greater Heights","city_fetched":"Houston","state":"TX","country":"United States","canonicalUrl":"https://foursquare.com/v/hunky-dory-tavern/5307a5e9498e5db186fdb749","category":"English Restaurant","checkinsCount":302,"usersCount":328,"tipCount":7,"visitsCount":440,"url":"http://treadsack.com/hunky-dory/","tier":"","message":"","currency":"","rating":8.1},{"name":"Fuad's Restaurant","phone":"7137850130","address":"6100 Westheimer Rd Ste 144","lat":29.73875524437779,"lng":-95.49076437694917,"neighborhood":"Great Uptown","city_fetched":"Houston","state":"TX","country":"United States","canonicalUrl":"https://foursquare.com/v/fuads-restaurant/4c4372b5da2176b0f88a627a","category":"Steakhouse","checkinsCount":592,"usersCount":123,"tipCount":15,"visitsCount":614,"tier":"","message":"","currency":"","rating":8.1},{"name":"Calhoun’s Rooftop Bar & Grill","address":"4701 Calhoun Rd Ste 200","lat":29.722710679245957,"lng":-95.3372557363699,"neighborhood":"Greater Third Ward","city_fetched":"Houston","state":"TX","country":"United States","canonicalUrl":"https://foursquare.com/v/calhouns-rooftop-bar--grill/52da9034498e75c12b08f694","category":"Bar","checkinsCount":648,"usersCount":250,"tipCount":3,"visitsCount":653,"url":"http://calhounsrooftop.com","tier":"","message":"","currency":"","rating":8.1},{"name":"Griff's Shenanigans Cafe & Bar","phone":"7135289912","address":"3416 Roseland St","lat":29.74168323337317,"lng":-95.39020513889751,"neighborhood":"Montrose","city_fetched":"Houston","state":"TX","country":"United States","canonicalUrl":"https://foursquare.com/v/griffs-shenanigans-cafe--bar/41326e00f964a5200a121fe3","category":"Bar","checkinsCount":4279,"usersCount":1325,"tipCount":32,"visitsCount":4990,"url":"http://griffshouston.net","tier":1,"message":"Cheap","currency":"$","rating":8},{"name":"Drink Houston","phone":"7132900041","twitter":"drinkhouston","address":"7620 Katy Fwy","lat":29.785835949194013,"lng":-95.46503108773099,"neighborhood":"Northwest Houston","city_fetched":"Houston","state":"TX","country":"United States","canonicalUrl":"https://foursquare.com/drinkhouston","category":"Nightclub","checkinsCount":4530,"usersCount":2014,"tipCount":36,"visitsCount":4874,"url":"http://drinkhouston.com","tier":2,"message":"Moderate","currency":"$","rating":8},{"name":"Straits","phone":"7136959922","twitter":"straitsr","address":"800 Sorella Court, Suite 940, Houston, TX 77024","lat":29.780208949100405,"lng":-95.56092739105225,"neighborhood":"Memorial","city_fetched":"Houston","state":"TX","country":"United States","canonicalUrl":"https://foursquare.com/v/straits/4b425680f964a520ecd125e3","category":"Asian Restaurant","checkinsCount":4474,"usersCount":2664,"tipCount":63,"visitsCount":4522,"url":"http://www.straitsrestaurants.com","tier":2,"message":"Moderate","currency":"$","rating":8},{"name":"Irish Cowboy","phone":"7139002500","twitter":"irishcowboyhou","address":"2300 Louisiana St","lat":29.74877411465948,"lng":-95.37560624475361,"neighborhood":"Midtown","city_fetched":"Houston","state":"TX","country":"United States","canonicalUrl":"https://foursquare.com/v/irish-cowboy/56c26c60cd10e978205983c8","category":"Irish Pub","checkinsCount":316,"usersCount":234,"tipCount":0,"visitsCount":338,"tier":"","message":"","currency":"","rating":8},{"name":"GAGE Lounge","phone":"8326492354","twitter":"gagelounge","address":"2600 Travis St Ste 104","lat":29.7456626479957,"lng":-95.37542735961242,"neighborhood":"Midtown","city_fetched":"Houston","state":"TX","country":"United States","canonicalUrl":"https://foursquare.com/v/gage-lounge/53e57b65498ef2e63f0b5c9d","category":"Lounge","checkinsCount":356,"usersCount":224,"tipCount":2,"visitsCount":388,"url":"http://www.gagelounge.com","tier":"","message":"","currency":"","rating":8},{"name":"Bacco","address":"5010 Dincans St","lat":29.727711492598917,"lng":-95.42074898366981,"neighborhood":"Greenway - Upper Kirby","city_fetched":"Houston","state":"TX","country":"United States","canonicalUrl":"https://foursquare.com/v/bacco/5424f987498e8b3461c73b5a","category":"Wine Bar","checkinsCount":141,"usersCount":154,"tipCount":1,"visitsCount":304,"url":"http://baccoteca.com","tier":"","message":"","currency":"","rating":8},{"name":"Redneck Country Club","address":"11110 W Airport Blvd","lat":29.641884784631372,"lng":-95.57118613503238,"city_fetched":"Houston","state":"TX","country":"United States","canonicalUrl":"https://foursquare.com/v/redneck-country-club/522a9b6311d2348a1d400e1b","category":"Bar","checkinsCount":441,"usersCount":453,"tipCount":10,"visitsCount":813,"url":"http://theredneckcountryclub.com","tier":"","message":"","currency":"","rating":8},{"name":"Town in City Brewing Company","phone":"8324091650","twitter":"townincitybrew","address":"1125 W Cavalcade St","lat":29.803750087288176,"lng":-95.38731675976608,"neighborhood":"Greater Heights","city_fetched":"Houston","state":"TX","country":"United States","canonicalUrl":"https://foursquare.com/v/town-in-city-brewing-company/54bad4d4498eec46cf996749","category":"Brewery","checkinsCount":373,"usersCount":398,"tipCount":4,"visitsCount":588,"url":"http://townincitybrewingcompany","tier":1,"message":"Cheap","currency":"$","rating":8},{"name":"Molly Maguires","phone":"2815806167","address":"15945 Kuykendahl Rd","lat":30.00924465207747,"lng":-95.46588083171945,"city_fetched":"Houston","state":"TX","country":"United States","canonicalUrl":"https://foursquare.com/v/molly-maguires/41326e00f964a52087121fe3","category":"Bar","checkinsCount":441,"usersCount":178,"tipCount":4,"visitsCount":543,"url":"http://mollyspubs.com","tier":"","message":"","currency":"","rating":8},{"name":"Houston Watch Co.","phone":"8328193223","twitter":"houstonwatchco","address":"913 Franklin St","lat":29.763292485584923,"lng":-95.36075555404311,"neighborhood":"Downtown Houston","city_fetched":"Houston","state":"TX","country":"United States","canonicalUrl":"https://foursquare.com/v/houston-watch-co/541c2faf498e5208ed83297e","category":"Bar","checkinsCount":460,"usersCount":271,"tipCount":2,"visitsCount":581,"url":"http://houstonwatchcompany.com","tier":"","message":"","currency":"","rating":8},{"name":"Whatever Sports Bar and Grill","phone":"2818079229","address":"11902 Jones Rd","lat":29.94767549658201,"lng":-95.58451073864893,"city_fetched":"Houston","state":"TX","country":"United States","canonicalUrl":"https://foursquare.com/v/whatever-sports-bar-and-grill/4c0c299d6071a5932867e232","category":"Sports Bar","checkinsCount":1946,"usersCount":359,"tipCount":4,"visitsCount":2351,"tier":"","message":"","currency":"","rating":8},{"name":"Spindletap Brewery","twitter":"spindletap","address":"10622 Hirsch Rd","lat":29.867708444271845,"lng":-95.31505211287893,"neighborhood":"East Little York","city_fetched":"Houston","state":"TX","country":"United States","canonicalUrl":"https://foursquare.com/v/spindletap-brewery/563e3aaccd108d476238cae1","category":"Brewery","checkinsCount":86,"usersCount":133,"tipCount":1,"visitsCount":194,"tier":"","message":"","currency":"","rating":8},{"name":"Stampede Houston","phone":"2812192006","twitter":"stampedehouston","address":"Eastex Fwy","lat":29.897958740285954,"lng":-95.31834534730055,"city_fetched":"Houston","state":"TX","country":"United States","canonicalUrl":"https://foursquare.com/v/stampede-houston/526b31f511d27d206732635c","category":"Concert Hall","checkinsCount":440,"usersCount":461,"tipCount":10,"visitsCount":757,"url":"http://www.stampedehouston.com","tier":"","message":"","currency":"","rating":7.9},{"name":"Jailhouse Saloon","phone":"2812880255","address":"310 Preston Ave","lat":30.081196,"lng":-95.421023,"city_fetched":"Houston","state":"TX","country":"United States","canonicalUrl":"https://foursquare.com/v/jailhouse-saloon/4be1145b40d676b0f6d604ee","category":"Music Venue","checkinsCount":399,"usersCount":156,"tipCount":2,"visitsCount":446,"url":"http://www.jailhousesaloontx.com","tier":"","message":"","currency":"","rating":7.9}]