[{"name":"Miss Vickie's On The River","phone":"7279407237","address":"1029 Baillies Bluff Rd","lat":28.173045311160458,"lng":-82.78596794149874,"city_fetched":"Hudson,US","state":"FL","country":"United States","canonicalUrl":"https://foursquare.com/v/miss-vickies-on-the-river/4c12cc54b7b9c928057ea837","categoryId":"4bf58dd8d48988d116941735","category":"Bar","checkinsCount":1015,"usersCount":573,"tipCount":29,"visitsCount":1281,"url":"http://missvickis.com","tier":1,"message":"Cheap","currency":"$","rating":8.9},{"name":"Marker 48 Brewing","address":"12147 Cortez Blvd","lat":28.53416974706923,"lng":-82.52437844035671,"city_fetched":"Hudson,US","state":"FL","country":"United States","canonicalUrl":"https://foursquare.com/v/marker-48-brewing/55e1e90c498e5edc8ac52054","categoryId":"50327c8591d4c4b30a586d5d","category":"Brewery","checkinsCount":154,"usersCount":176,"tipCount":6,"visitsCount":311,"tier":"","message":"","currency":"","rating":8.7},{"name":"Escape Brewing Company","phone":"7278076092","twitter":"escapebrew","address":"9945 Trinity Blvd #108","lat":28.18155733867365,"lng":-82.64999787804776,"city_fetched":"Hudson,US","state":"FL","country":"United States","canonicalUrl":"https://foursquare.com/v/escape-brewing-company/541f6d5d498ef421d52f2c8b","categoryId":"50327c8591d4c4b30a586d5d","category":"Brewery","checkinsCount":555,"usersCount":221,"tipCount":3,"visitsCount":1001,"url":"http://escapebrewingcompany.com","tier":"","message":"","currency":"","rating":8.7},{"name":"Fitzgerald's","phone":"7278169092","address":"5811 Nebraska Ave","lat":28.249840010454722,"lng":-82.71842017045213,"city_fetched":"Hudson,US","state":"FL","country":"United States","canonicalUrl":"https://foursquare.com/v/fitzgeralds/4b9ec4f8f964a520790037e3","categoryId":"4bf58dd8d48988d116941735","category":"Bar","checkinsCount":901,"usersCount":406,"tipCount":20,"visitsCount":1182,"url":"http://fitzgeraldsirishtavern.com","tier":"","message":"","currency":"","rating":8.5},{"name":"Seaside Inn","phone":"7278461112","address":"5330 Treadway Drive, Port Richey, FL","lat":28.273403709151047,"lng":-82.72645043753188,"city_fetched":"Hudson,US","state":"FL","country":"United States","canonicalUrl":"https://foursquare.com/v/seaside-inn/4becb1b72cf820a1da24b91c","categoryId":"4bf58dd8d48988d116941735","category":"Bar","checkinsCount":941,"usersCount":305,"tipCount":8,"visitsCount":1035,"url":"http://seasideinn.org","tier":"","message":"","currency":"","rating":8.3},{"name":"Big Storm Brewing","lat":28.192788916380273,"lng":-82.62565018511265,"city_fetched":"Hudson,US","state":"FL","country":"United States","canonicalUrl":"https://foursquare.com/v/big-storm-brewing/56e33033498eb4f0db8d86ea","categoryId":"50327c8591d4c4b30a586d5d","category":"Brewery","checkinsCount":77,"usersCount":97,"tipCount":1,"visitsCount":151,"tier":"","message":"","currency":"","rating":8.3},{"name":"alex's place","phone":"7278439690","address":"7845 grand blvd","lat":28.271434627646926,"lng":-82.72195065460518,"city_fetched":"Hudson,US","state":"FL","country":"United States","canonicalUrl":"https://foursquare.com/v/alexs-place/4b8c5787f964a520c2cb32e3","categoryId":"4bf58dd8d48988d11b941735","category":"Pub","checkinsCount":137,"usersCount":56,"tipCount":6,"visitsCount":144,"tier":"","message":"","currency":"","rating":8.2},{"name":"Stix Billiards","phone":"7279379225","address":"38529 US Highway 19 N","lat":28.121957390142114,"lng":-82.7383804321289,"city_fetched":"Hudson,US","state":"FL","country":"United States","canonicalUrl":"https://foursquare.com/v/stix-billiards/4be0b54bcb81c9b6f9ca668b","categoryId":"4bf58dd8d48988d11a941735","category":"Other Nightlife","checkinsCount":2379,"usersCount":492,"tipCount":17,"visitsCount":2637,"tier":1,"message":"Cheap","currency":"$","rating":8.1},{"name":"Thunder Tavern","phone":"7272648820","address":"5111 SR 54","lat":28.217140519554963,"lng":-82.72963277307929,"city_fetched":"Hudson,US","state":"FL","country":"United States","canonicalUrl":"https://foursquare.com/v/thunder-tavern/4e4d9d37b0fb088f3c02fa76","categoryId":"4bf58dd8d48988d116941735","category":"Bar","checkinsCount":95,"usersCount":50,"tipCount":2,"visitsCount":137,"tier":"","message":"","currency":"","rating":8.1},{"name":"Brass Tap","phone":"7273762059","address":"10700 State Road 54, New Port Richey, FL 34655","lat":28.193360003799196,"lng":-82.63800185694132,"city_fetched":"Hudson,US","state":"FL","country":"United States","canonicalUrl":"https://foursquare.com/v/brass-tap/4f52b08be4b07c31b3b3741e","categoryId":"4bf58dd8d48988d117941735","category":"Beer Garden","checkinsCount":4067,"usersCount":705,"tipCount":19,"visitsCount":4682,"url":"http://brasstapbeerbar.com","tier":"","message":"","currency":"","rating":8},{"name":"Saint Somewhere Brewing Company","phone":"8135036181","address":"1141 Savannah Ave Unit E","lat":28.16453371482508,"lng":-82.77191620428654,"city_fetched":"Hudson,US","state":"FL","country":"United States","canonicalUrl":"https://foursquare.com/v/saint-somewhere-brewing-company/4c1cf60e63750f47ed5eb767","categoryId":"50327c8591d4c4b30a586d5d","category":"Brewery","checkinsCount":434,"usersCount":164,"tipCount":1,"visitsCount":539,"url":"http://www.saintsomewherebrewing.com","tier":1,"message":"Cheap","currency":"$","rating":8},{"name":"The Vine","phone":"8139648463","address":"17667 N Dale Mabry Hwy","lat":28.126177687536526,"lng":-82.50117020916566,"neighborhood":"Village of Tampa","city_fetched":"Hudson,US","state":"FL","country":"United States","canonicalUrl":"https://foursquare.com/v/the-vine/4b2c0637f964a520dfbf24e3","categoryId":"4bf58dd8d48988d123941735","category":"Wine Bar","checkinsCount":956,"usersCount":489,"tipCount":29,"visitsCount":1045,"url":"http://thevinebar.net","tier":"","message":"","currency":"","rating":7.9},{"name":"BB Magee's","phone":"7278611769","address":"12400 County Line Rd","lat":28.43308925628662,"lng":-82.610477,"city_fetched":"Hudson,US","state":"FL","country":"United States","canonicalUrl":"https://foursquare.com/v/bb-magees/4c1ab1878b3aa593660e965f","categoryId":"4bf58dd8d48988d116941735","category":"Bar","checkinsCount":883,"usersCount":162,"tipCount":8,"visitsCount":1043,"tier":"","message":"","currency":"","rating":7.9},{"name":"Cribari Club","phone":"7275971200","twitter":"cribariclub","address":"6153 Massachusetts Ave","lat":28.25890097,"lng":-82.71234908,"city_fetched":"Hudson,US","state":"FL","country":"United States","canonicalUrl":"https://foursquare.com/v/cribari-club/4c56c68c6201e21e510ea86d","categoryId":"4bf58dd8d48988d11f941735","category":"Nightclub","checkinsCount":1615,"usersCount":275,"tipCount":10,"visitsCount":1731,"url":"http://cribariclub.com","tier":"","message":"","currency":"","rating":7.8},{"name":"Eagles Nest","phone":"7279383465","address":"1208 N Pinellas Ave","lat":28.16032593,"lng":-82.756178,"city_fetched":"Hudson,US","state":"FL","country":"United States","canonicalUrl":"https://foursquare.com/v/eagles-nest/4c2ffe0fa0ced13a6d99116e","categoryId":"4bf58dd8d48988d11b941735","category":"Pub","checkinsCount":315,"usersCount":139,"tipCount":4,"visitsCount":374,"tier":"","message":"","currency":"","rating":7.7},{"name":"Mugs N Jugs - Tarpon Springs","phone":"7279346847","address":"40737 US Hwy 19 N","lat":28.142530772200836,"lng":-82.73983209743834,"city_fetched":"Hudson,US","state":"FL","country":"United States","canonicalUrl":"https://foursquare.com/v/mugs-n-jugs--tarpon-springs/5605db19498e9a253a4eb4f5","categoryId":"4bf58dd8d48988d116941735","category":"Bar","checkinsCount":121,"usersCount":127,"tipCount":1,"visitsCount":272,"url":"http://www.mugsnjugstogo.com","tier":"","message":"","currency":"","rating":7.7},{"name":"Evom Lounge","address":"14251 Powell Rd, Spring Hill, FL 34609","lat":28.492528245493048,"lng":-82.48663135528793,"neighborhood":"Silverthorn","city_fetched":"Hudson,US","state":"FL","country":"United States","canonicalUrl":"https://foursquare.com/v/evom-lounge/4ebad370722e20541dd940dd","categoryId":"4bf58dd8d48988d121941735","category":"Lounge","checkinsCount":517,"usersCount":161,"tipCount":9,"visitsCount":634,"tier":"","message":"","currency":"","rating":7.7},{"name":"Monti Magill's Irish Pub","address":"2396 Commercial Way","lat":28.46769083136486,"lng":-82.61954475251116,"city_fetched":"Hudson,US","state":"FL","country":"United States","canonicalUrl":"https://foursquare.com/v/monti-magills-irish-pub/4f58cc1ce4b0055171bcd5de","categoryId":"4bf58dd8d48988d11b941735","category":"Pub","checkinsCount":230,"usersCount":108,"tipCount":1,"visitsCount":247,"tier":"","message":"","currency":"","rating":7.7},{"name":"Danny's Bar & Grill","phone":"7279385970","address":"3105 Grand Blvd","lat":28.204200857864,"lng":-82.72392659145916,"city_fetched":"Hudson,US","state":"FL","country":"United States","canonicalUrl":"https://foursquare.com/v/dannys-bar--grill/4be0983d652b0f47f3f27211","categoryId":"4bf58dd8d48988d11d941735","category":"Sports Bar","checkinsCount":1263,"usersCount":221,"tipCount":9,"visitsCount":1419,"url":"http://dannyssportsbar.com","tier":"","message":"","currency":"","rating":7.7},{"name":"International Beer Garten","phone":"8137490884","address":"16540 Pointe Village Dr Ste 102","lat":28.18952948720464,"lng":-82.54061056686858,"city_fetched":"Hudson,US","state":"FL","country":"United States","canonicalUrl":"https://foursquare.com/v/international-beer-garten/4b65a3b2f964a52078f72ae3","categoryId":"4bf58dd8d48988d117941735","category":"Beer Garden","checkinsCount":2468,"usersCount":857,"tipCount":25,"visitsCount":2792,"url":"http://ibgtampa.com","tier":2,"message":"Moderate","currency":"$","rating":7.6},{"name":"The Reef","lat":28.24987751886061,"lng":-82.71974807565275,"city_fetched":"Hudson,US","state":"FL","country":"United States","canonicalUrl":"https://foursquare.com/v/the-reef/4ba590faf964a520d91239e3","categoryId":"4bf58dd8d48988d121941735","category":"Lounge","checkinsCount":187,"usersCount":107,"tipCount":1,"visitsCount":202,"tier":"","message":"","currency":"","rating":7.6},{"name":"Skinny's Bar & Grill","phone":"7278634400","address":"13228 US Highway 19","lat":28.34993541240692,"lng":-82.69866228103638,"city_fetched":"Hudson,US","state":"FL","country":"United States","canonicalUrl":"https://foursquare.com/v/skinnys-bar--grill/4b13e877f964a520669a23e3","categoryId":"4bf58dd8d48988d116941735","category":"Bar","checkinsCount":1264,"usersCount":408,"tipCount":16,"visitsCount":1537,"url":"http://skinnysbarhudsonfl.com","tier":"","message":"","currency":"","rating":7.6},{"name":"The Wild Rover Brewery","phone":"8134755995","twitter":"wildroverbrew","address":"8470 N Mobley Rd","lat":28.11419805845673,"lng":-82.58098840713501,"city_fetched":"Hudson,US","state":"FL","country":"United States","canonicalUrl":"https://foursquare.com/v/the-wild-rover-brewery/5288c30a11d2a9f7ad225c70","categoryId":"50327c8591d4c4b30a586d5d","category":"Brewery","checkinsCount":446,"usersCount":255,"tipCount":5,"visitsCount":658,"url":"http://thewildroverbrewery.com","tier":"","message":"","currency":"","rating":7.5},{"name":"Rookie's Sports Bar & Grill","phone":"3525934114","twitter":"rookiesportsbar","address":"3095 Anderson Snow Rd","lat":28.47550369340965,"lng":-82.48790032268815,"city_fetched":"Hudson,US","state":"FL","country":"United States","canonicalUrl":"https://foursquare.com/v/rookies-sports-bar--grill/4eae00ec775bad292fa97bfb","categoryId":"4bf58dd8d48988d11d941735","category":"Sports Bar","checkinsCount":1270,"usersCount":559,"tipCount":25,"visitsCount":1707,"url":"http://www.rookiessportsbarfl.com","tier":"","message":"","currency":"","rating":7.4},{"name":"Rookie's Sports Bar & Grill","lat":28.452256,"lng":-82.630195,"city_fetched":"Hudson,US","state":"FL","country":"United States","canonicalUrl":"https://foursquare.com/v/rookies-sports-bar--grill/524de22a11d293587af09bed","categoryId":"4bf58dd8d48988d116941735","category":"Bar","checkinsCount":274,"usersCount":128,"tipCount":10,"visitsCount":317,"tier":2,"message":"Moderate","currency":"$","rating":7.3},{"name":"Cricketers","phone":"7273723011","address":"7306 State Road 52","lat":28.330888066666667,"lng":-82.69381113,"city_fetched":"Hudson,US","state":"FL","country":"United States","canonicalUrl":"https://foursquare.com/v/cricketers/4c37e73493db0f4775c32092","categoryId":"4bf58dd8d48988d116941735","category":"Bar","checkinsCount":377,"usersCount":135,"tipCount":5,"visitsCount":397,"tier":"","message":"","currency":"","rating":7.3},{"name":"Hurricanes Sportsbar","phone":"7278495233","address":"6935 Ridge Rd","lat":28.281498,"lng":-82.6994109,"city_fetched":"Hudson,US","state":"FL","country":"United States","canonicalUrl":"https://foursquare.com/v/hurricanes-sportsbar/4d2d3e3839a35481948ab620","categoryId":"4bf58dd8d48988d11d941735","category":"Sports Bar","checkinsCount":655,"usersCount":106,"tipCount":3,"visitsCount":658,"tier":"","message":"","currency":"","rating":7.3},{"name":"Venom Custom Choppers","address":"7430 US 19","lat":28.265424370765686,"lng":-82.7273029088974,"city_fetched":"Hudson,US","state":"FL","country":"United States","canonicalUrl":"https://foursquare.com/v/venom-custom-choppers/4cdadf37cea2224bdb3a824c","categoryId":"4bf58dd8d48988d11b941735","category":"Pub","checkinsCount":115,"usersCount":70,"tipCount":1,"visitsCount":194,"tier":"","message":"","currency":"","rating":7.3},{"name":"SilverKing Brewing Company","address":"325 E Lemon St","lat":28.14517593383789,"lng":-82.75298309326172,"city_fetched":"Hudson,US","state":"FL","country":"United States","canonicalUrl":"https://foursquare.com/v/silverking-brewing-company/54e52185498e3247528ba540","categoryId":"50327c8591d4c4b30a586d5d","category":"Brewery","checkinsCount":92,"usersCount":119,"tipCount":3,"visitsCount":162,"tier":"","message":"","currency":"","rating":7.2},{"name":"Overtime Sports Bar and Grill","phone":"7278697716","address":"7736 State Road 52","lat":28.331140085071514,"lng":-82.68616304975919,"city_fetched":"Hudson,US","state":"FL","country":"United States","canonicalUrl":"https://foursquare.com/v/overtime-sports-bar-and-grill/4f3252d819836c91c7cc78b1","categoryId":"4bf58dd8d48988d11d941735","category":"Sports Bar","checkinsCount":254,"usersCount":124,"tipCount":4,"visitsCount":325,"url":"http://www.ot52.com","tier":"","message":"","currency":"","rating":7.2},{"name":"Euphoria Emporium Cafe & Lounge","phone":"3528357130","address":"1381 Kass Cir","lat":28.453732460198083,"lng":-82.5925941192602,"city_fetched":"Hudson,US","state":"FL","country":"United States","canonicalUrl":"https://foursquare.com/v/euphoria-emporium-cafe--lounge/4f093132e4b0e8ed386372a7","categoryId":"4bf58dd8d48988d119941735","category":"Hookah Bar","checkinsCount":163,"usersCount":58,"tipCount":5,"visitsCount":167,"url":"http://euphoriaemporiumcafeandhookah.net","tier":"","message":"","currency":"","rating":7.2},{"name":"Village Pub","phone":"7278499884","address":"6217 Grand Blvd","lat":28.248897927774692,"lng":-82.71995358246286,"city_fetched":"Hudson,US","state":"FL","country":"United States","canonicalUrl":"https://foursquare.com/v/village-pub/4da760df4df0af29b6f69988","categoryId":"4bf58dd8d48988d118941735","category":"Dive Bar","checkinsCount":197,"usersCount":60,"tipCount":3,"visitsCount":199,"tier":"","message":"","currency":"","rating":7.1},{"name":"Rum River Tiki","phone":"7278492121","address":"7811 Bayview St","lat":28.27001296,"lng":-82.725799,"city_fetched":"Hudson,US","state":"FL","country":"United States","canonicalUrl":"https://foursquare.com/v/rum-river-tiki/4b58f9b1f964a520667628e3","categoryId":"4bf58dd8d48988d116941735","category":"Bar","checkinsCount":952,"usersCount":576,"tipCount":15,"visitsCount":1057,"tier":"","message":"","currency":"","rating":7.1},{"name":"Insomniacs Bar and Lounge","phone":"7273267847","twitter":"insomniacsbar","address":"4319 US Highway 19","lat":28.221850926688973,"lng":-82.7353542778182,"city_fetched":"Hudson,US","state":"FL","country":"United States","canonicalUrl":"https://foursquare.com/insomniacsbar","categoryId":"4bf58dd8d48988d118941735","category":"Dive Bar","checkinsCount":966,"usersCount":202,"tipCount":7,"visitsCount":982,"url":"http://www.insomniacsbar.com","tier":"","message":"","currency":"","rating":7.1},{"name":"Emporer's Club","phone":"7279431925","address":"2851 US 19","lat":28.200422865152458,"lng":-82.74116484997111,"city_fetched":"Hudson,US","state":"FL","country":"United States","canonicalUrl":"https://foursquare.com/v/emporers-club/4c65a4059cb82d7f4c6c8ed2","categoryId":"4bf58dd8d48988d1d6941735","category":"Strip Club","checkinsCount":250,"usersCount":136,"tipCount":4,"visitsCount":253,"tier":"","message":"","currency":"","rating":7},{"name":"Jilly's Lounge","phone":"7278476184","address":"5313 Main St","lat":28.250352135514937,"lng":-82.72623441263869,"city_fetched":"Hudson,US","state":"FL","country":"United States","canonicalUrl":"https://foursquare.com/v/jillys-lounge/4cd61e4567adf04d0c903191","categoryId":"4bf58dd8d48988d11d941735","category":"Sports Bar","checkinsCount":115,"usersCount":62,"tipCount":3,"visitsCount":121,"tier":"","message":"","currency":"","rating":6.9},{"name":"Karma Cafe","phone":"3526785252","address":"10511 Spring Hill Dr","lat":28.46074438756819,"lng":-82.5443246065783,"city_fetched":"Hudson,US","state":"FL","country":"United States","canonicalUrl":"https://foursquare.com/v/karma-cafe/4fc13de6e4b045c5b5276625","categoryId":"4bf58dd8d48988d11e941735","category":"Cocktail Bar","checkinsCount":247,"usersCount":126,"tipCount":7,"visitsCount":282,"tier":"","message":"","currency":"","rating":6.9},{"name":"Hammerheads","phone":"7279399494","address":"1916 U.S. 19","lat":28.186866398887872,"lng":-82.73900504015667,"city_fetched":"Hudson,US","state":"FL","country":"United States","canonicalUrl":"https://foursquare.com/v/hammerheads/4bdba3252a3a0f479f38b0b6","categoryId":"4bf58dd8d48988d116941735","category":"Bar","checkinsCount":808,"usersCount":329,"tipCount":14,"visitsCount":849,"url":"http://hammerheadsbilliardlounge.com","tier":"","message":"","currency":"","rating":6.6},{"name":"House Of Brews","phone":"8133156348","address":"17683 N Dale Mabry Hwy","lat":28.126757010283082,"lng":-82.50104333787283,"neighborhood":"Village of Tampa","city_fetched":"Hudson,US","state":"FL","country":"United States","canonicalUrl":"https://foursquare.com/v/house-of-brews/4b10bf08f964a520537523e3","categoryId":"4bf58dd8d48988d117941735","category":"Beer Garden","checkinsCount":2362,"usersCount":782,"tipCount":32,"visitsCount":2587,"url":"http://mcandersonshouseofbrews.com","tier":1,"message":"Cheap","currency":"$","rating":6.6},{"name":"The Zone Lounge","phone":"7279345599","twitter":"thezonelounge","address":"121 E Tarpon Ave","lat":28.146269259173906,"lng":-82.75541786255886,"city_fetched":"Hudson,US","state":"FL","country":"United States","canonicalUrl":"https://foursquare.com/v/the-zone-lounge/4b809173f964a520887d30e3","categoryId":"4bf58dd8d48988d121941735","category":"Lounge","checkinsCount":625,"usersCount":371,"tipCount":10,"visitsCount":645,"tier":"","message":"","currency":"","rating":6.6},{"name":"Market Salamander Grille at Innisbrook Golf & Spa Resort","phone":"7279425222","address":"36750 US Highway 19 N","lat":28.112659210193762,"lng":-82.75641851533507,"city_fetched":"Hudson,US","state":"FL","country":"United States","canonicalUrl":"https://foursquare.com/v/market-salamander-grille-at-innisbrook-golf--spa-resort/4cb72f3e8db0a14316df6f16","categoryId":"4bf58dd8d48988d11e941735","category":"Cocktail Bar","checkinsCount":478,"usersCount":285,"tipCount":6,"visitsCount":593,"url":"http://www.visitinnisbrook.com","tier":"","message":"","currency":"","rating":6.6},{"name":"Brass Flamimgo","address":"9034 U.S. Hwy 19 N.","lat":28.28918678495664,"lng":-82.71136918983953,"city_fetched":"Hudson,US","state":"FL","country":"United States","canonicalUrl":"https://foursquare.com/v/brass-flamimgo/4bb536212ea195212a2faa2f","categoryId":"4bf58dd8d48988d1d6941735","category":"Strip Club","checkinsCount":678,"usersCount":172,"tipCount":5,"visitsCount":687,"tier":"","message":"","currency":"","rating":6.5},{"name":"Beef 'O' Brady's","phone":"8133886893","address":"7040 Land O Lakes Blvd","lat":28.260126583320037,"lng":-82.47415722248356,"city_fetched":"Hudson,US","state":"FL","country":"United States","canonicalUrl":"https://foursquare.com/v/beef-o-bradys/4b2d80d3f964a520fbd724e3","categoryId":"4bf58dd8d48988d11d941735","category":"Sports Bar","checkinsCount":2045,"usersCount":549,"tipCount":10,"visitsCount":2318,"tier":"","message":"","currency":"","rating":6.4},{"name":"Sams Hudson Beach Bar","lat":28.362041728813107,"lng":-82.71047854290208,"city_fetched":"Hudson,US","state":"FL","country":"United States","canonicalUrl":"https://foursquare.com/v/sams-hudson-beach-bar/51ec22e2498e5d0b8f12cca4","categoryId":"4bf58dd8d48988d116941735","category":"Bar","checkinsCount":112,"usersCount":81,"tipCount":2,"visitsCount":115,"tier":"","message":"","currency":"","rating":6.3},{"name":"Varsity Club","phone":"7272322945","address":"3523 Little Rd","lat":28.209083778513207,"lng":-82.66654301025866,"city_fetched":"Hudson,US","state":"FL","country":"United States","canonicalUrl":"https://foursquare.com/v/varsity-club/511a6dbae4b07902cc06ef97","categoryId":"4bf58dd8d48988d11d941735","category":"Sports Bar","checkinsCount":675,"usersCount":449,"tipCount":18,"visitsCount":1097,"tier":2,"message":"Moderate","currency":"$","rating":6.3},{"name":"Bourbon Street Night Club","phone":"7278430686","address":"4331 US Highway 19","lat":28.222304064206153,"lng":-82.73502238055337,"city_fetched":"Hudson,US","state":"FL","country":"United States","canonicalUrl":"https://foursquare.com/v/bourbon-street-night-club/4b5d4745f964a520875829e3","categoryId":"4bf58dd8d48988d11d941735","category":"Sports Bar","checkinsCount":615,"usersCount":168,"tipCount":4,"visitsCount":635,"tier":"","message":"","currency":"","rating":6.2},{"name":"Calendar Girls","address":"US 19","lat":28.393811259518348,"lng":-82.66583107754496,"city_fetched":"Hudson,US","state":"FL","country":"United States","canonicalUrl":"https://foursquare.com/v/calendar-girls/4b88be66f964a520810b32e3","categoryId":"4bf58dd8d48988d1d6941735","category":"Strip Club","checkinsCount":154,"usersCount":77,"tipCount":4,"visitsCount":155,"tier":"","message":"","currency":"","rating":6.2},{"name":"Mulligan's Pub","address":"2990 Wentworth Way,","lat":28.143430648505806,"lng":-82.69921005754571,"city_fetched":"Hudson,US","state":"FL","country":"United States","canonicalUrl":"https://foursquare.com/v/mulligans-pub/4deae54fd4c00071b8309d48","categoryId":"4bf58dd8d48988d11b941735","category":"Pub","checkinsCount":163,"usersCount":118,"tipCount":3,"visitsCount":212,"tier":"","message":"","currency":"","rating":6.1},{"name":"Orbit 19 Liquor Lounge","address":"1542 US Highway 19","lat":28.18152467102173,"lng":-82.74009548935153,"city_fetched":"Hudson,US","state":"FL","country":"United States","canonicalUrl":"https://foursquare.com/v/orbit-19-liquor-lounge/4b0e0af2f964a520505423e3","categoryId":"4bf58dd8d48988d121941735","category":"Lounge","checkinsCount":2014,"usersCount":527,"tipCount":13,"visitsCount":2231,"url":"http://www.orbit19lounge.com","tier":1,"message":"Cheap","currency":"$","rating":6.1},{"name":"Molly Malone's","address":"4106 Little Rd","lat":28.21865553158004,"lng":-82.66481326449693,"city_fetched":"Hudson,US","state":"FL","country":"United States","canonicalUrl":"https://foursquare.com/v/molly-malones/4c253995b7b8a59316e43de8","categoryId":"4bf58dd8d48988d11d941735","category":"Sports Bar","checkinsCount":1435,"usersCount":412,"tipCount":15,"visitsCount":1490,"tier":"","message":"","currency":"","rating":6},{"name":"Sawgrass Tiki Bar","phone":"7279424290","address":"610 Athens St","lat":28.1551353,"lng":-82.760255,"city_fetched":"Hudson,US","state":"FL","country":"United States","canonicalUrl":"https://foursquare.com/v/sawgrass-tiki-bar/4b247256f964a520a06724e3","categoryId":"4bf58dd8d48988d120941735","category":"Karaoke Bar","checkinsCount":345,"usersCount":174,"tipCount":6,"visitsCount":345,"url":"http://www.sawgrasstikibar.com","tier":"","message":"","currency":"","rating":6},{"name":"Pickled Parrot","phone":"3525970707","address":"5526 Commercial Way","lat":28.50891568229166,"lng":-82.58072529447978,"city_fetched":"Hudson,US","state":"FL","country":"United States","canonicalUrl":"https://foursquare.com/v/pickled-parrot/4b7f3201f964a5203c1e30e3","categoryId":"4bf58dd8d48988d116941735","category":"Bar","checkinsCount":345,"usersCount":161,"tipCount":7,"visitsCount":365,"url":"http://thepickledparrotbar.com","tier":"","message":"","currency":"","rating":5.9}]