[{"name":"Naked Brewing Co.","address":"51 Buck Rd","lat":40.1474,"lng":-75.026797,"neighborhood":"Huntingdon Valley","city_fetched":"Huntingdon","state":"PA","country":"United States","canonicalUrl":"https://foursquare.com/v/naked-brewing-co/50ccd130e4b0881a75dc37a3","category":"Brewery","checkinsCount":337,"usersCount":251,"tipCount":7,"visitsCount":502,"tier":"","message":"","currency":"","rating":8.1},{"name":"Benny the Bum's","phone":"2156733000","twitter":"bennythebums","address":"9991 Bustleton Ave","lat":40.102173947491785,"lng":-75.02893924713135,"neighborhood":"Bustleton","city_fetched":"Huntingdon","state":"PA","country":"United States","canonicalUrl":"https://foursquare.com/v/benny-the-bums/4b3fee40f964a5205ab225e3","category":"Bar","checkinsCount":4610,"usersCount":1507,"tipCount":36,"visitsCount":5210,"url":"http://www.bennythebums.com","tier":2,"message":"Moderate","currency":"$","rating":7.5},{"name":"Oh! Bryon's Roast Beef","phone":"2159386626","address":"2895 Pine Rd","lat":40.12317001308161,"lng":-75.043263644621,"neighborhood":"Huntingdon Valley","city_fetched":"Huntingdon","state":"PA","country":"United States","canonicalUrl":"https://foursquare.com/v/oh-bryons-roast-beef/4b2860d5f964a520ea9224e3","category":"Bar","checkinsCount":1129,"usersCount":374,"tipCount":7,"visitsCount":1379,"tier":1,"message":"Cheap","currency":"$","rating":7.4},{"name":"Omare's Irish Pub","phone":"2156767282","address":"10253 Bustleton Ave","lat":40.10905471126754,"lng":-75.02548456192017,"neighborhood":"Somerton","city_fetched":"Huntingdon","state":"PA","country":"United States","canonicalUrl":"https://foursquare.com/v/omares-irish-pub/4bf0b9cfa09076b0a5bf29d4","category":"Pub","checkinsCount":556,"usersCount":177,"tipCount":5,"visitsCount":607,"tier":"","message":"","currency":"","rating":6.9},{"name":"Onyx Hookah Lounge","address":"842 Red Lion Rd","lat":40.10240599856038,"lng":-75.03125537626316,"neighborhood":"Bustleton","city_fetched":"Huntingdon","state":"PA","country":"United States","canonicalUrl":"https://foursquare.com/v/onyx-hookah-lounge/4fb84ee5e4b07bf810973b7c","category":"Hookah Bar","checkinsCount":352,"usersCount":64,"tipCount":3,"visitsCount":356,"tier":"","message":"","currency":"","rating":6.5}]