[{"name":"Johnny's Saloon","phone":"7148480676","twitter":"johnnyssaloon","address":"17428 Beach Blvd","lat":33.70930302837856,"lng":-117.98845795793576,"city_fetched":"Huntington","state":"CA","country":"United States","canonicalUrl":"https://foursquare.com/v/johnnys-saloon/4b960e2cf964a5205bbb34e3","category":"Dive Bar","checkinsCount":2830,"usersCount":1216,"tipCount":24,"visitsCount":2974,"url":"http://www.johnnyssaloon.com","tier":1,"message":"Cheap","currency":"$","rating":9},{"name":"Bagelmania & Coffee House","phone":"7149655637","twitter":"bagelmaniahb","address":"8861 Adams Ave","lat":33.6725328020918,"lng":-117.97312259674072,"city_fetched":"Huntington","state":"CA","country":"United States","canonicalUrl":"https://foursquare.com/v/bagelmania--coffee-house/4ae5daa3f964a5208ea221e3","category":"Bagel Shop","checkinsCount":1943,"usersCount":652,"tipCount":21,"visitsCount":2432,"url":"http://bagelmaniacoffeehouse.com/home/","tier":1,"message":"Cheap","currency":"$","rating":8.9},{"name":"Lamppost Pizza","phone":"7149686128","twitter":"lamppostpizzafv","address":"10130 Warner Ave","lat":33.71584758174732,"lng":-117.95220163779395,"city_fetched":"Huntington","state":"CA","country":"United States","canonicalUrl":"https://foursquare.com/v/lamppost-pizza/4bd38b6bb221c9b66712dad0","category":"Pizza Place","checkinsCount":934,"usersCount":409,"tipCount":5,"visitsCount":1176,"url":"http://www.lamppostpizza.com/fv","tier":"","message":"","currency":"","rating":8.8},{"name":"Gen Korean BBQ House","phone":"7145968833","address":"16300 Beach Blvd","lat":33.726165,"lng":-117.988415,"city_fetched":"Huntington","state":"CA","country":"United States","canonicalUrl":"https://foursquare.com/v/gen-korean-bbq-house/50957141e4b000bd206d4c35","category":"Korean Restaurant","checkinsCount":2415,"usersCount":1552,"tipCount":27,"visitsCount":2603,"url":"http://genkoreanbbq.com","tier":2,"message":"Moderate","currency":"$","rating":8.7},{"name":"Total Wine & More","phone":"7148614047","twitter":"totalwine","address":"16272 Beach Blvd","lat":33.72678,"lng":-117.988536,"city_fetched":"Huntington","state":"CA","country":"United States","canonicalUrl":"https://foursquare.com/v/total-wine--more/4f3d6b3fe4b0075887d886ca","category":"Wine Shop","checkinsCount":2610,"usersCount":1579,"tipCount":21,"visitsCount":3755,"url":"http://www.totalwine.com","tier":"","message":"","currency":"","rating":8.6},{"name":"Duke's Huntington Beach","phone":"7143746446","twitter":"dukeshb","address":"317 Pacific Coast Hwy","lat":33.656652,"lng":-118.00217401109565,"city_fetched":"Huntington","state":"CA","country":"United States","canonicalUrl":"https://foursquare.com/dukeshb","category":"Seafood Restaurant","checkinsCount":6772,"usersCount":5025,"tipCount":72,"visitsCount":6915,"url":"http://www.dukeshuntington.com","tier":3,"message":"Expensive","currency":"$","rating":8.6},{"name":"Four Sons Brewing","address":"18421 Gothard St Ste 100","lat":33.69503628757932,"lng":-118.00005568016677,"city_fetched":"Huntington","state":"CA","country":"United States","canonicalUrl":"https://foursquare.com/v/four-sons-brewing/53af6d32498e40442f87878e","category":"Brewery","checkinsCount":538,"usersCount":440,"tipCount":10,"visitsCount":953,"url":"http://foursonsbrewing.com","tier":"","message":"","currency":"","rating":8.6},{"name":"Don The Beachcomber","phone":"5625921321","twitter":"don_beachcomber","address":"16278 Pacific Coast Hwy","lat":33.725450614094484,"lng":-118.07917714118958,"neighborhood":"Huntington Harbour","city_fetched":"Huntington","state":"CA","country":"United States","canonicalUrl":"https://foursquare.com/v/don-the-beachcomber/4abfb83bf964a520d09120e3","category":"Asian Restaurant","checkinsCount":3574,"usersCount":2111,"tipCount":44,"visitsCount":4142,"url":"http://www.donthebeachcomber.com","tier":2,"message":"Moderate","currency":"$","rating":8.5},{"name":"25 Degrees","phone":"7149602525","twitter":"_25degreeshb","address":"412 Walnut Ave","lat":33.65833858,"lng":-118.00153085,"neighborhood":"Downtown Huntington Beach","city_fetched":"Huntington","state":"CA","country":"United States","canonicalUrl":"https://foursquare.com/v/25-degrees/4aee49d7f964a5205ed321e3","category":"Bar","checkinsCount":3799,"usersCount":2186,"tipCount":59,"visitsCount":3860,"url":"http://www.25degreesrestaurant.com","tier":3,"message":"Expensive","currency":"$","rating":8.3},{"name":"Simmzy's","lat":33.654833,"lng":-117.998301,"city_fetched":"Huntington","state":"CA","country":"United States","canonicalUrl":"https://foursquare.com/v/simmzys/565622fb498e1d3d9cc98941","category":"Gastropub","checkinsCount":260,"usersCount":227,"tipCount":6,"visitsCount":298,"tier":"","message":"","currency":"","rating":8.3},{"name":"My Place","phone":"7148928706","address":"5452 Commercial Dr","lat":33.737966,"lng":-118.033482,"city_fetched":"Huntington","state":"CA","country":"United States","canonicalUrl":"https://foursquare.com/v/my-place/4b8824b7f964a520c4e231e3","category":"Sports Bar","checkinsCount":1236,"usersCount":468,"tipCount":10,"visitsCount":1560,"url":"http://myplacesportsbar.com/main.htm","tier":"","message":"","currency":"","rating":8.3},{"name":"Kit's Place","address":"19476 Beach Blvd","lat":33.67992549105711,"lng":-117.9880142211914,"city_fetched":"Huntington","state":"CA","country":"United States","canonicalUrl":"https://foursquare.com/v/kits-place/4daa62694df01c19b189e6a0","category":"Dive Bar","checkinsCount":478,"usersCount":190,"tipCount":4,"visitsCount":664,"tier":"","message":"","currency":"","rating":8.2},{"name":"Longboard Restaurant & Pub North Side","phone":"7148968700","address":"14892 Springdale St","lat":33.745721500011044,"lng":-118.02400933011373,"city_fetched":"Huntington","state":"CA","country":"United States","canonicalUrl":"https://foursquare.com/v/longboard-restaurant--pub-north-side/52278edb498e4441c6aa4d7a","category":"Pub","checkinsCount":215,"usersCount":165,"tipCount":3,"visitsCount":318,"url":"http://www.longboardresturant.com","tier":"","message":"","currency":"","rating":8.2},{"name":"BJ's Restaurant and Brewhouse","phone":"7148429242","twitter":"bjsrestaurants","address":"16060 Beach Blvd","lat":33.72962213,"lng":-117.9885721,"city_fetched":"Huntington","state":"CA","country":"United States","canonicalUrl":"https://foursquare.com/v/bjs-restaurant-and-brewhouse/4a766ca7f964a52003e31fe3","category":"American Restaurant","checkinsCount":9718,"usersCount":5382,"tipCount":61,"visitsCount":11402,"url":"http://t.co/bl46gcjDLN","tier":2,"message":"Moderate","currency":"$","rating":8.2},{"name":"BJ's Restaurant and Brewhouse","phone":"7143742224","twitter":"bjsrestaurants","address":"200 Main St","lat":33.65808487,"lng":-118.0007601,"neighborhood":"Downtown Huntington Beach","city_fetched":"Huntington","state":"CA","country":"United States","canonicalUrl":"https://foursquare.com/v/bjs-restaurant-and-brewhouse/4a4f75c2f964a52058af1fe3","category":"American Restaurant","checkinsCount":4932,"usersCount":3566,"tipCount":30,"visitsCount":5035,"url":"http://t.co/bl46gcjDLN","tier":2,"message":"Moderate","currency":"$","rating":8.2},{"name":"Shanghai'd Room","phone":"7145149809","address":"16391 Beach Blvd","lat":33.724244376605036,"lng":-117.98976760048298,"city_fetched":"Huntington","state":"CA","country":"United States","canonicalUrl":"https://foursquare.com/v/shanghaid-room/4ff276ede4b07ac2b3e239a8","category":"Cocktail Bar","checkinsCount":543,"usersCount":171,"tipCount":1,"visitsCount":606,"tier":"","message":"","currency":"","rating":8.1},{"name":"Don José","phone":"7149627911","address":"9093 Adams Ave","lat":33.6724664085145,"lng":-117.96940128533416,"city_fetched":"Huntington","state":"CA","country":"United States","canonicalUrl":"https://foursquare.com/v/don-jos%C3%A9/4b3c333cf964a520d88225e3","category":"Mexican Restaurant","checkinsCount":1618,"usersCount":682,"tipCount":18,"visitsCount":2011,"url":"http://don-jose.com","tier":2,"message":"Moderate","currency":"$","rating":8.1},{"name":"Riip Beer Co.","phone":"7142486710","address":"17214 Pacific Coast Hwy","lat":33.712731987001504,"lng":-118.06334369937507,"neighborhood":"Huntington Harbour","city_fetched":"Huntington","state":"CA","country":"United States","canonicalUrl":"https://foursquare.com/v/riip-beer-co/55693c43498e8be4ba61d73b","category":"Brewery","checkinsCount":236,"usersCount":87,"tipCount":2,"visitsCount":243,"url":"http://riipbeer.com","tier":"","message":"","currency":"","rating":8},{"name":"Zimzala","phone":"7149605050","twitter":"zimzalahb","address":"500 Pacific Coast Hwy Fl 2","lat":33.658364882105715,"lng":-118.00226305058416,"neighborhood":"Downtown Huntington Beach","city_fetched":"Huntington","state":"CA","country":"United States","canonicalUrl":"https://foursquare.com/v/zimzala/4b64cb5ff964a5209dd02ae3","category":"Bar","checkinsCount":3338,"usersCount":1546,"tipCount":41,"visitsCount":3352,"url":"http://www.restaurantzimzala.com","tier":2,"message":"Moderate","currency":"$","rating":8},{"name":"Main Street Wine Company","phone":"7149697400","address":"301 Main St","lat":33.65923850743888,"lng":-118.00006711738976,"neighborhood":"Downtown Huntington Beach","city_fetched":"Huntington","state":"CA","country":"United States","canonicalUrl":"https://foursquare.com/v/main-street-wine-company/4b9c08daf964a5202b4336e3","category":"Wine Bar","checkinsCount":996,"usersCount":482,"tipCount":12,"visitsCount":1005,"url":"http://www.mainstreetwinecompany.com","tier":"","message":"","currency":"","rating":8},{"name":"Mirage Hookah Lounge","phone":"7148923200","address":"6041 Bolsa Ave, Huntington Beach, CA 92647","lat":33.74480849758367,"lng":-118.02288291196496,"city_fetched":"Huntington","state":"CA","country":"United States","canonicalUrl":"https://foursquare.com/v/mirage-hookah-lounge/4f1e4cd6e4b00eb69c300692","category":"Hookah Bar","checkinsCount":512,"usersCount":280,"tipCount":10,"visitsCount":620,"url":"http://miragehb.com","tier":"","message":"","currency":"","rating":8},{"name":"Pelican Isle Waterfront Dining","phone":"5625923221","address":"16400 Pacific Coast Hwy Ste 103","lat":33.72453009,"lng":-118.07624342,"neighborhood":"Huntington Harbour","city_fetched":"Huntington","state":"CA","country":"United States","canonicalUrl":"https://foursquare.com/v/pelican-isle-waterfront-dining/4a9aab6cf964a520273220e3","category":"Sports Bar","checkinsCount":733,"usersCount":429,"tipCount":11,"visitsCount":792,"url":"http://stockteam.com/pelican-isle-huntington-beach.html","tier":"","message":"","currency":"","rating":8},{"name":"SeaLegs Wine Bar","phone":"7145365700","twitter":"sealegswinebar","address":"21022 Beach Blvd","lat":33.65726449194299,"lng":-117.98729128136203,"city_fetched":"Huntington","state":"CA","country":"United States","canonicalUrl":"https://foursquare.com/v/sealegs-wine-bar/4ec01a230e019a162ae71d84","category":"Wine Bar","checkinsCount":858,"usersCount":516,"tipCount":11,"visitsCount":918,"url":"http://www.sealegswine.com","tier":2,"message":"Moderate","currency":"$","rating":7.9},{"name":"J. King Neptunes","phone":"5625924878","address":"17115 Pacific Coast Hwy","lat":33.713247587629475,"lng":-118.06544166734432,"neighborhood":"Sunset Beach","city_fetched":"Huntington","state":"CA","country":"United States","canonicalUrl":"https://foursquare.com/v/j-king-neptunes/4aff24cef964a520e63422e3","category":"Dive Bar","checkinsCount":836,"usersCount":347,"tipCount":8,"visitsCount":881,"tier":2,"message":"Moderate","currency":"$","rating":7.9},{"name":"Tebo Tebo Tea Lounge","phone":"7148390030","address":"15556 Brookhurst St #B","lat":33.736973926685884,"lng":-117.95430663847291,"city_fetched":"Huntington","state":"CA","country":"United States","canonicalUrl":"https://foursquare.com/v/tebo-tebo-tea-lounge/4e38b56062e16ad099ebb4a9","category":"Asian Restaurant","checkinsCount":4808,"usersCount":2460,"tipCount":25,"visitsCount":5597,"url":"http://tebotebo.com","tier":2,"message":"Moderate","currency":"$","rating":7.9},{"name":"Huntington Beach Beer Co. & Restaurant","phone":"7149605343","address":"201 Main St","lat":33.65829699098465,"lng":-118.00116003894465,"neighborhood":"Downtown Huntington Beach","city_fetched":"Huntington","state":"CA","country":"United States","canonicalUrl":"https://foursquare.com/v/huntington-beach-beer-co--restaurant/4a3319a0f964a520009b1fe3","category":"American Restaurant","checkinsCount":7901,"usersCount":4322,"tipCount":56,"visitsCount":8042,"tier":2,"message":"Moderate","currency":"$","rating":7.9},{"name":"Fred's Mexican Cafe","phone":"7143748226","twitter":"fredshb","address":"300 Pacific Coast Hwy","lat":33.657316862774806,"lng":-118.00161838531494,"neighborhood":"Downtown Huntington Beach","city_fetched":"Huntington","state":"CA","country":"United States","canonicalUrl":"https://foursquare.com/v/freds-mexican-cafe/4a4f745df964a52054af1fe3","category":"Mexican Restaurant","checkinsCount":8996,"usersCount":6228,"tipCount":73,"visitsCount":9166,"url":"http://www.fredsmexicancafe.com","tier":2,"message":"Moderate","currency":"$","rating":7.9},{"name":"Marlin Bar & Grill","phone":"7148425587","twitter":"flickr","address":"5874 Edinger Ave","lat":33.728673754105,"lng":-118.02660521067281,"city_fetched":"Huntington","state":"CA","country":"United States","canonicalUrl":"https://foursquare.com/v/marlin-bar--grill/4bdb95a53904a5936a4c4b9e","category":"Bar","checkinsCount":759,"usersCount":307,"tipCount":7,"visitsCount":821,"url":"http://marlinbar.com","tier":"","message":"","currency":"","rating":7.9},{"name":"Silky Sullivan's Restaurant & Irish Pub","phone":"7149632718","twitter":"silkysullivans","address":"10201 Slater Ave","lat":33.70932608817166,"lng":-117.95100612368536,"city_fetched":"Huntington","state":"CA","country":"United States","canonicalUrl":"https://foursquare.com/v/silky-sullivans-restaurant--irish-pub/4a611a27f964a520dcc11fe3","category":"Pub","checkinsCount":3385,"usersCount":1400,"tipCount":19,"visitsCount":4308,"url":"http://www.silkysullivans.com","tier":2,"message":"Moderate","currency":"$","rating":7.8},{"name":"O'Connell's","phone":"7149632603","address":"19047 Bushard St","lat":33.68590926442615,"lng":-117.96322524547577,"city_fetched":"Huntington","state":"CA","country":"United States","canonicalUrl":"https://foursquare.com/v/oconnells/4b395520f964a520c95a25e3","category":"Sports Bar","checkinsCount":2080,"usersCount":507,"tipCount":23,"visitsCount":2602,"url":"http://www.hboconnells.com","tier":1,"message":"Cheap","currency":"$","rating":7.8},{"name":"The Pen","phone":"7149699686","address":"19901 Beach Blvd","lat":33.6734569,"lng":-117.98919823,"city_fetched":"Huntington","state":"CA","country":"United States","canonicalUrl":"https://foursquare.com/v/the-pen/4c35675e66e40f473836cb8b","category":"Bar","checkinsCount":687,"usersCount":333,"tipCount":8,"visitsCount":755,"tier":"","message":"","currency":"","rating":7.8},{"name":"The Red Table","phone":"7148464700","twitter":"redtabletweets","address":"16821 Algonquin St #105","lat":33.717364,"lng":-118.0517703294754,"neighborhood":"Huntington Harbour","city_fetched":"Huntington","state":"CA","country":"United States","canonicalUrl":"https://foursquare.com/v/the-red-table/4e224e5252b1f82ffba8608c","category":"Gastropub","checkinsCount":1146,"usersCount":625,"tipCount":22,"visitsCount":1274,"url":"http://www.redtablerestaurants.com","tier":2,"message":"Moderate","currency":"$","rating":7.8},{"name":"The Corner","phone":"7149686800","address":"8961 Adams Ave","lat":33.673284,"lng":-117.97155688,"city_fetched":"Huntington","state":"CA","country":"United States","canonicalUrl":"https://foursquare.com/v/the-corner/4dfc0c758877e9c47491a43e","category":"Gastropub","checkinsCount":1113,"usersCount":654,"tipCount":16,"visitsCount":1414,"url":"http://thecornerhb.com","tier":2,"message":"Moderate","currency":"$","rating":7.7},{"name":"Aloha Grill","phone":"7143744427","twitter":"alohagrillhb","address":"221 Main St","lat":33.65881384,"lng":-118.00066,"neighborhood":"Downtown Huntington Beach","city_fetched":"Huntington","state":"CA","country":"United States","canonicalUrl":"https://foursquare.com/v/aloha-grill/4a332cc5f964a5200c9b1fe3","category":"Caribbean Restaurant","checkinsCount":3884,"usersCount":2290,"tipCount":37,"visitsCount":3902,"url":"http://www.alohagrill.com","tier":2,"message":"Moderate","currency":"$","rating":7.7},{"name":"Longboard Restaurant & Pub","phone":"7149601896","address":"217 Main St","lat":33.658713,"lng":-118.000697,"neighborhood":"Downtown Huntington Beach","city_fetched":"Huntington","state":"CA","country":"United States","canonicalUrl":"https://foursquare.com/v/longboard-restaurant--pub/4a4f7590f964a52057af1fe3","category":"Bar","checkinsCount":3615,"usersCount":1908,"tipCount":28,"visitsCount":3643,"url":"http://longboardpub.com","tier":"","message":"","currency":"","rating":7.6},{"name":"Surf Dog's Sports Grill","phone":"7148465700","address":"5932 Warner Ave","lat":33.71441630101812,"lng":-118.0250072479248,"city_fetched":"Huntington","state":"CA","country":"United States","canonicalUrl":"https://foursquare.com/v/surf-dogs-sports-grill/4a7a50bbf964a52022e91fe3","category":"Sports Bar","checkinsCount":1488,"usersCount":489,"tipCount":13,"visitsCount":1565,"url":"http://www.surfdogshb.com","tier":2,"message":"Moderate","currency":"$","rating":7.6},{"name":"The Bee Hive","phone":"7148925777","address":"6431 Edinger Ave","lat":33.73033684274727,"lng":-118.01633010411972,"city_fetched":"Huntington","state":"CA","country":"United States","canonicalUrl":"https://foursquare.com/v/the-bee-hive/4a57f925f964a5202ab71fe3","category":"Dive Bar","checkinsCount":1553,"usersCount":145,"tipCount":5,"visitsCount":1597,"tier":"","message":"","currency":"","rating":7.6},{"name":"Sakura Shabu Shabu Restaurant & Bar","phone":"7148418885","address":"16871 Beach Blvd","lat":33.71719676666667,"lng":-117.9894894361496,"city_fetched":"Huntington","state":"CA","country":"United States","canonicalUrl":"https://foursquare.com/v/sakura-shabu-shabu-restaurant--bar/4b05bfdcf964a5205fe222e3","category":"Japanese Restaurant","checkinsCount":1369,"usersCount":683,"tipCount":11,"visitsCount":1450,"url":"http://sakurashabu-shabu.com","tier":"","message":"","currency":"","rating":7.5},{"name":"Hurricane's Bar & Grill","phone":"7143740500","twitter":"hurricanesbar","address":"200 Main St","lat":33.65817391133836,"lng":-118.00082769106952,"neighborhood":"Downtown Huntington Beach","city_fetched":"Huntington","state":"CA","country":"United States","canonicalUrl":"https://foursquare.com/hurricanesbar","category":"Restaurant","checkinsCount":5319,"usersCount":2756,"tipCount":44,"visitsCount":5359,"url":"http://hurricanesbargrill.com","tier":2,"message":"Moderate","currency":"$","rating":7.5},{"name":"The Speakeasy","phone":"7148993279","address":"7561 Center Ave Ste 37","lat":33.73410335614923,"lng":-117.99721922616605,"neighborhood":"North Huntington Center","city_fetched":"Huntington","state":"CA","country":"United States","canonicalUrl":"https://foursquare.com/v/the-speakeasy/513d4ed6e4b099fed1926d24","category":"Bar","checkinsCount":615,"usersCount":384,"tipCount":9,"visitsCount":679,"url":"http://speakeasyhb.com","tier":2,"message":"Moderate","currency":"$","rating":7.5},{"name":"The Irishman","address":"424 Olive Ave","lat":33.659204,"lng":-118.000735,"neighborhood":"Downtown Huntington Beach","city_fetched":"Huntington","state":"CA","country":"United States","canonicalUrl":"https://foursquare.com/v/the-irishman/530fff61498ea3c7e60ed354","category":"Pub","checkinsCount":215,"usersCount":119,"tipCount":5,"visitsCount":217,"url":"http://theirishmanpub.com","tier":"","message":"","currency":"","rating":7.5},{"name":"2nd Floor - Food, Art, Drinks","phone":"7149699000","twitter":"2ndfloorhb","address":"126 Main St","lat":33.65787776427019,"lng":-118.00106787155606,"neighborhood":"Downtown Huntington Beach","city_fetched":"Huntington","state":"CA","country":"United States","canonicalUrl":"https://foursquare.com/v/2nd-floor--food-art-drinks/4c02e02158dad13afdfd4797","category":"Other Nightlife","checkinsCount":3461,"usersCount":2223,"tipCount":46,"visitsCount":3478,"url":"http://2ndfloor.wikidot.com","tier":2,"message":"Moderate","currency":"$","rating":7.4},{"name":"No Ka Oi","phone":"7149608300","twitter":"nokaoihb","address":"215 Main St","lat":33.65862076353088,"lng":-118.0006790077487,"neighborhood":"Downtown Huntington Beach","city_fetched":"Huntington","state":"CA","country":"United States","canonicalUrl":"https://foursquare.com/v/no-ka-oi/4b537d03f964a5207a9f27e3","category":"Bar","checkinsCount":1673,"usersCount":1056,"tipCount":24,"visitsCount":1683,"url":"http://www.nokaoirestaurant.com","tier":"","message":"","currency":"","rating":7.4},{"name":"Killarney Pub & Grill","phone":"7145367887","address":"209 Main St","lat":33.65845305120043,"lng":-118.00089059551402,"neighborhood":"Downtown Huntington Beach","city_fetched":"Huntington","state":"CA","country":"United States","canonicalUrl":"https://foursquare.com/v/killarney-pub--grill/4ba14160f964a5207fa637e3","category":"Pub","checkinsCount":4436,"usersCount":2246,"tipCount":29,"visitsCount":4469,"url":"http://killarneypubandgrill.com","tier":1,"message":"Cheap","currency":"$","rating":7.4},{"name":"BrewBakers","phone":"7145965506","address":"7242 Heil Ave","lat":33.722547696309405,"lng":-118.00179984818178,"neighborhood":"Goldenwest","city_fetched":"Huntington","state":"CA","country":"United States","canonicalUrl":"https://foursquare.com/v/brewbakers/4a905f4ff964a520911720e3","category":"Brewery","checkinsCount":416,"usersCount":318,"tipCount":6,"visitsCount":454,"url":"http://brewbakers1.com","tier":"","message":"","currency":"","rating":7.4},{"name":"Rockin' Crepes","phone":"7145369100","twitter":"rockincrepes","address":"8943 Atlanta Ave","lat":33.658689905809034,"lng":-117.97198652340558,"city_fetched":"Huntington","state":"CA","country":"United States","canonicalUrl":"https://foursquare.com/v/rockin-crepes/4a2c823cf964a5206c971fe3","category":"Creperie","checkinsCount":1045,"usersCount":539,"tipCount":21,"visitsCount":1065,"url":"http://www.rockincrepeshb.com","tier":1,"message":"Cheap","currency":"$","rating":7.3},{"name":"The Bungalow Huntington Beach","lat":33.65423298353582,"lng":-117.99680747908633,"city_fetched":"Huntington","state":"CA","country":"United States","canonicalUrl":"https://foursquare.com/v/the-bungalow-huntington-beach/5782cf52498e7519bdae4b24","category":"Lounge","checkinsCount":134,"usersCount":96,"tipCount":3,"visitsCount":137,"tier":"","message":"","currency":"","rating":7.3},{"name":"Centerfield Sports Bar & Grill","phone":"7148480113","address":"17296 Beach Blvd","lat":33.71123353279775,"lng":-117.9886069893837,"city_fetched":"Huntington","state":"CA","country":"United States","canonicalUrl":"https://foursquare.com/v/centerfield-sports-bar--grill/4b400500f964a5204fb425e3","category":"Sports Bar","checkinsCount":1637,"usersCount":580,"tipCount":18,"visitsCount":1864,"url":"http://centerfieldbar.com","tier":"","message":"","currency":"","rating":7.3},{"name":"Duke's Barefoot Bar","address":"317 Pacific Coast Hwy","lat":33.65673576275553,"lng":-118.00213152409869,"city_fetched":"Huntington","state":"CA","country":"United States","canonicalUrl":"https://foursquare.com/v/dukes-barefoot-bar/5031a892e4b0f9a2de76f935","category":"Bar","checkinsCount":293,"usersCount":214,"tipCount":2,"visitsCount":293,"tier":"","message":"","currency":"","rating":7.3},{"name":"Monkey House Cafe","phone":"7149651135","twitter":"monkeyhousecafe","address":"18862 Beach Blvd #101","lat":33.68849592896157,"lng":-117.98844337463379,"city_fetched":"Huntington","state":"CA","country":"United States","canonicalUrl":"https://foursquare.com/v/monkey-house-cafe/4c53283606901b8dce23a349","category":"Café","checkinsCount":416,"usersCount":263,"tipCount":8,"visitsCount":473,"url":"http://monkeyhousecafe-hub.com","tier":"","message":"","currency":"","rating":7.2},{"name":"Beach City Brewery","phone":"7144254756","twitter":"beachcitybrew","address":"7631 Woodwind Dr","lat":33.704438240701634,"lng":-117.99524545669556,"city_fetched":"Huntington","state":"CA","country":"United States","canonicalUrl":"https://foursquare.com/beachcitybrew","category":"Brewery","checkinsCount":382,"usersCount":302,"tipCount":2,"visitsCount":632,"url":"http://www.beachcitybrewery.com","tier":"","message":"","currency":"","rating":7.2},{"name":"The Green Girl Saloon","phone":"7148978612","address":"14341 Beach Blvd","lat":33.75399,"lng":-117.990034,"city_fetched":"Huntington","state":"CA","country":"United States","canonicalUrl":"https://foursquare.com/v/the-green-girl-saloon/4a764016f964a520b3e21fe3","category":"Bar","checkinsCount":2244,"usersCount":853,"tipCount":13,"visitsCount":2720,"url":"http://www.thegreengirlsaloon.com","tier":"","message":"","currency":"","rating":7.2},{"name":"Gallaghers Pub and Grill","phone":"7145362422","twitter":"gallagherspub","address":"300 Pacific Coast Hwy","lat":33.657638354109665,"lng":-118.000727891922,"neighborhood":"Downtown Huntington Beach","city_fetched":"Huntington","state":"CA","country":"United States","canonicalUrl":"https://foursquare.com/v/gallaghers-pub-and-grill/4a32fd5af964a520dd9a1fe3","category":"Pub","checkinsCount":2310,"usersCount":1341,"tipCount":20,"visitsCount":2383,"url":"http://www.gallagherspub.com","tier":1,"message":"Cheap","currency":"$","rating":7.1},{"name":"Baja Sharkeez","phone":"7149605282","twitter":"sharkeezhuntbch","address":"211 Main St","lat":33.658531379293166,"lng":-118.00080299377441,"neighborhood":"Downtown Huntington Beach","city_fetched":"Huntington","state":"CA","country":"United States","canonicalUrl":"https://foursquare.com/v/baja-sharkeez/4a4f7618f964a52059af1fe3","category":"Bar","checkinsCount":8478,"usersCount":4075,"tipCount":66,"visitsCount":8568,"url":"http://www.sharkeez.net/huntington-beach","tier":2,"message":"Moderate","currency":"$","rating":7.1},{"name":"Mothers Tavern","address":"16701 Pacific Coast Hwy","lat":33.71956076666667,"lng":-118.07256931666667,"neighborhood":"Sunset Beach","city_fetched":"Huntington","state":"CA","country":"United States","canonicalUrl":"https://foursquare.com/v/mothers-tavern/4bc7e8188b7c9c74776c37cf","category":"Bar","checkinsCount":484,"usersCount":260,"tipCount":2,"visitsCount":531,"tier":"","message":"","currency":"","rating":7.1},{"name":"Watertable","phone":"7148454776","twitter":"watertablehb","address":"21500 Pacific Coast Hwy","lat":33.651172396389065,"lng":-117.99067119104045,"city_fetched":"Huntington","state":"CA","country":"United States","canonicalUrl":"https://foursquare.com/v/watertable/535c081e498edf48bd617a41","category":"American Restaurant","checkinsCount":339,"usersCount":237,"tipCount":5,"visitsCount":347,"url":"http://www.hyatt.com/corporate/restaurants/Watertable/en/Watertable.html","tier":3,"message":"Expensive","currency":"$","rating":7},{"name":"Surf City Hookah Lounge","phone":"7149630507","address":"19092 Beach Blvd","lat":33.68513843312712,"lng":-117.98801759561626,"city_fetched":"Huntington","state":"CA","country":"United States","canonicalUrl":"https://foursquare.com/v/surf-city-hookah-lounge/4bc55b71ccbcef3bf87be6d2","category":"Hookah Bar","checkinsCount":1275,"usersCount":200,"tipCount":10,"visitsCount":1294,"url":"http://surfcityhookahlounge.com","tier":"","message":"","currency":"","rating":7},{"name":"Deville","phone":"7143744860","address":"424 Olive Ave","lat":33.659146950218016,"lng":-118.00081625389542,"neighborhood":"Downtown Huntington Beach","city_fetched":"Huntington","state":"CA","country":"United States","canonicalUrl":"https://foursquare.com/v/deville/4b80d2ddf964a520f18d30e3","category":"Bar","checkinsCount":456,"usersCount":152,"tipCount":9,"visitsCount":456,"tier":"","message":"","currency":"","rating":7},{"name":"Brix Sunset Beach","phone":"5625923167","twitter":"brixsunsetbeach","address":"16635 Pacific Coast Hwy","lat":33.72031712340004,"lng":-118.07381614058005,"neighborhood":"Sunset Beach","city_fetched":"Huntington","state":"CA","country":"United States","canonicalUrl":"https://foursquare.com/v/brix-sunset-beach/4bbfc743b492d13a954fa360","category":"Gastropub","checkinsCount":1167,"usersCount":742,"tipCount":20,"visitsCount":1270,"url":"http://brixsunsetbeach.com","tier":"","message":"","currency":"","rating":6.9}]