[{"name":"Straight To Ale","address":"3200 Leeman Ferry Rd SW","lat":34.69466490911115,"lng":-86.5935986357026,"city_fetched":"Huntsville,US","state":"AL","country":"United States","canonicalUrl":"https://foursquare.com/v/straight-to-ale/4d94fea32bd6f04d2ffb1450","categoryId":"50327c8591d4c4b30a586d5d","category":"Brewery","checkinsCount":1834,"usersCount":822,"tipCount":19,"visitsCount":2423,"url":"http://straighttoale.com","tier":1,"message":"Cheap","currency":"$","rating":9.1},{"name":"Yellowhammer Brewing","phone":"2569755950","twitter":"yellowhammerale","address":"2406 Clinton Ave W","lat":34.72158449445069,"lng":-86.60544886142365,"city_fetched":"Huntsville,US","state":"AL","country":"United States","canonicalUrl":"https://foursquare.com/v/yellowhammer-brewing/4de7fd37d4c0faa56423ead6","categoryId":"50327c8591d4c4b30a586d5d","category":"Brewery","checkinsCount":660,"usersCount":418,"tipCount":5,"visitsCount":1113,"url":"http://yellowhammerbrewery.com","tier":1,"message":"Cheap","currency":"$","rating":9},{"name":"Amendment XXI","phone":"2567150131","twitter":"amendmentxxihsv","address":"120 Northside Sq.","lat":34.73093757146929,"lng":-86.58509092514659,"neighborhood":"Downtown Huntsville","city_fetched":"Huntsville,US","state":"AL","country":"United States","canonicalUrl":"https://foursquare.com/v/amendment-xxi/4b89f7d3f964a520375932e3","categoryId":"4bf58dd8d48988d1d4941735","category":"Speakeasy","checkinsCount":1566,"usersCount":579,"tipCount":19,"visitsCount":1616,"url":"http://amendmentxxihsv.com","tier":"","message":"","currency":"","rating":8.6},{"name":"Salty Nut Brewery","phone":"2564255204","twitter":"saltynutbrewery","address":"2406 Clinton Ave W","lat":34.72250031848474,"lng":-86.6035577440461,"city_fetched":"Huntsville,US","state":"AL","country":"United States","canonicalUrl":"https://foursquare.com/v/salty-nut-brewery/51f55f8a498ec93b61bb0dfc","categoryId":"50327c8591d4c4b30a586d5d","category":"Brewery","checkinsCount":946,"usersCount":188,"tipCount":1,"visitsCount":1264,"url":"http://www.saltynutbrewery.com","tier":"","message":"","currency":"","rating":8.5},{"name":"The Nook","phone":"2564890911","twitter":"thenooktavern","address":"3305 Bob Wallace Ave SW","lat":34.71119758929791,"lng":-86.61191403865814,"city_fetched":"Huntsville,US","state":"AL","country":"United States","canonicalUrl":"https://foursquare.com/v/the-nook/4b43e69af964a5209ced25e3","categoryId":"4bf58dd8d48988d11b941735","category":"Pub","checkinsCount":2574,"usersCount":1000,"tipCount":31,"visitsCount":2900,"url":"http://www.thenooktavern.com","tier":2,"message":"Moderate","currency":"$","rating":8.5},{"name":"Scene Restaurant & Lounge","phone":"2563278340","twitter":"sceneatmonaco","address":"370 The Bridge St","lat":34.719092829341946,"lng":-86.67382478713989,"city_fetched":"Huntsville,US","state":"AL","country":"United States","canonicalUrl":"https://foursquare.com/v/scene-restaurant--lounge/4b4fd075f964a520601627e3","categoryId":"4bf58dd8d48988d121941735","category":"Lounge","checkinsCount":4848,"usersCount":1386,"tipCount":37,"visitsCount":4887,"url":"http://sceneatmonaco.com","tier":2,"message":"Moderate","currency":"$","rating":8.3},{"name":"Ruggby's Food and Spirits","phone":"2568950795","address":"4820 University Dr NW","lat":34.738332803456736,"lng":-86.65336489677429,"city_fetched":"Huntsville,US","state":"AL","country":"United States","canonicalUrl":"https://foursquare.com/v/ruggbys-food-and-spirits/4baa665ef964a52085663ae3","categoryId":"4bf58dd8d48988d11b941735","category":"Pub","checkinsCount":1057,"usersCount":215,"tipCount":8,"visitsCount":1132,"tier":"","message":"","currency":"","rating":8.2},{"name":"Furniture Factory Bar & Grill","phone":"2565398001","twitter":"ffactory_hsv","address":"619 Meridian St N","lat":34.73794671217494,"lng":-86.58628810312368,"neighborhood":"Downtown Huntsville","city_fetched":"Huntsville,US","state":"AL","country":"United States","canonicalUrl":"https://foursquare.com/v/furniture-factory-bar--grill/4b85e835f964a520db7831e3","categoryId":"4bf58dd8d48988d116941735","category":"Bar","checkinsCount":1988,"usersCount":824,"tipCount":21,"visitsCount":2487,"url":"http://www.furniturefactorybargrill.com","tier":"","message":"","currency":"","rating":8.1},{"name":"Straight To Ale Brands","phone":"2568019650","twitter":"straighttoale","address":"2610 Clinton Ave W","lat":34.72080362253732,"lng":-86.60727381706238,"city_fetched":"Huntsville,US","state":"AL","country":"United States","canonicalUrl":"https://foursquare.com/v/straight-to-ale-brands/57695294498ea9f4e86c3464","categoryId":"50327c8591d4c4b30a586d5d","category":"Brewery","checkinsCount":146,"usersCount":76,"tipCount":3,"visitsCount":161,"tier":"","message":"","currency":"","rating":8.1},{"name":"Thirsty Turtle","phone":"2568815079","address":"4800 Whitesburg Dr SE","lat":34.69370055439435,"lng":-86.56988473928229,"city_fetched":"Huntsville,US","state":"AL","country":"United States","canonicalUrl":"https://foursquare.com/v/thirsty-turtle/4b808b94f964a520af7b30e3","categoryId":"4bf58dd8d48988d11b941735","category":"Pub","checkinsCount":992,"usersCount":298,"tipCount":6,"visitsCount":1154,"tier":"","message":"","currency":"","rating":8},{"name":"Humphrey's Bar and Grill","phone":"2567045555","twitter":"humphreysbar","address":"109 Washington St NE","lat":34.73188222075809,"lng":-86.58595801990583,"neighborhood":"Downtown Huntsville","city_fetched":"Huntsville,US","state":"AL","country":"United States","canonicalUrl":"https://foursquare.com/v/humphreys-bar-and-grill/4b5b5cb2f964a520cff728e3","categoryId":"4bf58dd8d48988d116941735","category":"Bar","checkinsCount":3870,"usersCount":1393,"tipCount":26,"visitsCount":4239,"url":"http://www.humphreysdowntown.com","tier":2,"message":"Moderate","currency":"$","rating":7.9},{"name":"Below the Radar","phone":"2564696617","address":"220 Holmes Ave NE","lat":34.733003127557154,"lng":-86.58559837449116,"neighborhood":"Downtown Huntsville","city_fetched":"Huntsville,US","state":"AL","country":"United States","canonicalUrl":"https://foursquare.com/v/below-the-radar/4f78d0f8e4b0f75aef6a20e6","categoryId":"50327c8591d4c4b30a586d5d","category":"Brewery","checkinsCount":2511,"usersCount":1327,"tipCount":49,"visitsCount":3349,"url":"http://btrbrew.com","tier":2,"message":"Moderate","currency":"$","rating":7.8},{"name":"Baumhower's Restaurant","phone":"2568818878","twitter":"bobbaumhower","address":"4250 Balmoral Dr SW","lat":34.69177493224184,"lng":-86.5795579117609,"city_fetched":"Huntsville,US","state":"AL","country":"United States","canonicalUrl":"https://foursquare.com/v/baumhowers-restaurant/4b676a44f964a520894d2be3","categoryId":"4bf58dd8d48988d11d941735","category":"Sports Bar","checkinsCount":3589,"usersCount":1296,"tipCount":32,"visitsCount":4007,"url":"http://www.wingssportsgrille.com","tier":1,"message":"Cheap","currency":"$","rating":7.8},{"name":"West End Grill","phone":"2567228040","twitter":"west_end_hsv","address":"6610 Old Madison Pike NW","lat":34.714244019157526,"lng":-86.66917750918356,"city_fetched":"Huntsville,US","state":"AL","country":"United States","canonicalUrl":"https://foursquare.com/v/west-end-grill/4b481f2bf964a520ab4826e3","categoryId":"4bf58dd8d48988d116941735","category":"Bar","checkinsCount":2852,"usersCount":848,"tipCount":28,"visitsCount":3337,"url":"http://westendgrillhsv.com","tier":2,"message":"Moderate","currency":"$","rating":7.7},{"name":"Maggie Meyer's Irish Pub","phone":"2569246126","address":"1009 Henderson Rd NW","lat":34.73361015598386,"lng":-86.63386599886094,"city_fetched":"Huntsville,US","state":"AL","country":"United States","canonicalUrl":"https://foursquare.com/v/maggie-meyers-irish-pub/5365da06498e6cfe8300df59","categoryId":"4bf58dd8d48988d11b941735","category":"Pub","checkinsCount":128,"usersCount":112,"tipCount":3,"visitsCount":272,"url":"http://maggiemeyersirishpub.com","tier":"","message":"","currency":"","rating":7.5},{"name":"Bumper's Billards","phone":"2567211495","address":"4925 University Dr NW #188","lat":34.73715431498441,"lng":-86.65626028116701,"city_fetched":"Huntsville,US","state":"AL","country":"United States","canonicalUrl":"https://foursquare.com/v/bumpers-billards/4bfd9785f7c82d7f05698e04","categoryId":"4bf58dd8d48988d116941735","category":"Bar","checkinsCount":1450,"usersCount":285,"tipCount":12,"visitsCount":1566,"url":"http://bumpershuntsville.com","tier":"","message":"","currency":"","rating":7.4},{"name":"Copper Top Bar & Grill","phone":"2565361150","address":"200 Oakwood Ave NE Ste Q","lat":34.748790807714954,"lng":-86.58242549900017,"city_fetched":"Huntsville,US","state":"AL","country":"United States","canonicalUrl":"https://foursquare.com/v/copper-top-bar--grill/4c185bdb6a21c9b6f5fcc897","categoryId":"4bf58dd8d48988d116941735","category":"Bar","checkinsCount":549,"usersCount":162,"tipCount":7,"visitsCount":634,"tier":"","message":"","currency":"","rating":7.3},{"name":"The Brickhouse Sports Cafe","phone":"2565851599","twitter":"thebrickhousesc","address":"7 Town Center Dr NW","lat":34.753989530978586,"lng":-86.69298648834229,"neighborhood":"Providence","city_fetched":"Huntsville,US","state":"AL","country":"United States","canonicalUrl":"https://foursquare.com/v/the-brickhouse-sports-cafe/4c38e62993db0f47537e2292","categoryId":"4bf58dd8d48988d11d941735","category":"Sports Bar","checkinsCount":2581,"usersCount":926,"tipCount":29,"visitsCount":2721,"url":"http://www.brickhousesportscafe.com","tier":"","message":"","currency":"","rating":7.3},{"name":"End ZONE","phone":"2565362234","address":"1909 University Dr NW","lat":34.739191647563324,"lng":-86.60151387699058,"city_fetched":"Huntsville,US","state":"AL","country":"United States","canonicalUrl":"https://foursquare.com/v/end-zone/4c79bf19566db60c852d460e","categoryId":"4bf58dd8d48988d11d941735","category":"Sports Bar","checkinsCount":762,"usersCount":154,"tipCount":9,"visitsCount":772,"url":"http://southendzone.com","tier":"","message":"","currency":"","rating":7.2},{"name":"LeeAnn's","phone":"2564899300","address":"415 East Church Street NW","lat":34.734061,"lng":-86.5922344,"neighborhood":"Downtown Huntsville","city_fetched":"Huntsville,US","state":"AL","country":"United States","canonicalUrl":"https://foursquare.com/v/leeanns/4ba3e485f964a520cf6a38e3","categoryId":"4bf58dd8d48988d116941735","category":"Bar","checkinsCount":536,"usersCount":297,"tipCount":10,"visitsCount":566,"url":"http://leeanns.biz","tier":"","message":"","currency":"","rating":7.2},{"name":"Bandito Southside","phone":"2564893232","address":"11220 Memorial Pkwy SW #P1","lat":34.635665443213405,"lng":-86.56833725069852,"city_fetched":"Huntsville,US","state":"AL","country":"United States","canonicalUrl":"https://foursquare.com/v/bandito-southside/4b7f860ff964a520d33230e3","categoryId":"4bf58dd8d48988d116941735","category":"Bar","checkinsCount":1650,"usersCount":481,"tipCount":22,"visitsCount":1877,"url":"http://www.banditosouthside.com","tier":"","message":"","currency":"","rating":7},{"name":"Lone Goose Saloon","phone":"2567150705","address":"108 Cleveland Ave NW","lat":34.720650380806866,"lng":-86.60809827396346,"city_fetched":"Huntsville,US","state":"AL","country":"United States","canonicalUrl":"https://foursquare.com/v/lone-goose-saloon/4d8ffb5e5091a1cd8aa5b201","categoryId":"4bf58dd8d48988d116941735","category":"Bar","checkinsCount":2229,"usersCount":548,"tipCount":11,"visitsCount":2529,"tier":"","message":"","currency":"","rating":7},{"name":"Jimmys","lat":34.74763482925822,"lng":-86.7776149083775,"city_fetched":"Huntsville,US","state":"AL","country":"United States","canonicalUrl":"https://foursquare.com/v/jimmys/4bdc7e27c79cc928cbcd86e9","categoryId":"4bf58dd8d48988d1d6941735","category":"Strip Club","checkinsCount":167,"usersCount":89,"tipCount":4,"visitsCount":170,"tier":"","message":"","currency":"","rating":7},{"name":"Chips & Salsa Cantina","twitter":"chipshsv","address":"10300 Bailey Cove Rd SE","lat":34.64316985952694,"lng":-86.54066158047428,"city_fetched":"Huntsville,US","state":"AL","country":"United States","canonicalUrl":"https://foursquare.com/v/chips--salsa-cantina/4b7f2c50f964a5207f1c30e3","categoryId":"4bf58dd8d48988d116941735","category":"Bar","checkinsCount":928,"usersCount":207,"tipCount":2,"visitsCount":1009,"tier":"","message":"","currency":"","rating":6.9},{"name":"Sports Page","phone":"2568809471","address":"Memorial Pkwy SW","lat":34.64741263599836,"lng":-86.566016,"city_fetched":"Huntsville,US","state":"AL","country":"United States","canonicalUrl":"https://foursquare.com/v/sports-page/4bd8d3040115c9b65c7f7580","categoryId":"4bf58dd8d48988d11d941735","category":"Sports Bar","checkinsCount":1212,"usersCount":200,"tipCount":7,"visitsCount":1292,"tier":"","message":"","currency":"","rating":6.9},{"name":"Bishop's South Side Pub & Grill","lat":34.628066133333334,"lng":-86.566689,"city_fetched":"Huntsville,US","state":"AL","country":"United States","canonicalUrl":"https://foursquare.com/v/bishops-south-side-pub--grill/4ba27787f964a52091fb37e3","categoryId":"4bf58dd8d48988d11b941735","category":"Pub","checkinsCount":281,"usersCount":68,"tipCount":7,"visitsCount":281,"tier":"","message":"","currency":"","rating":6.6},{"name":"Carson's Grill","phone":"2567240920","address":"129 Old Highway 431","lat":34.661257796409785,"lng":-86.48272275924683,"city_fetched":"Huntsville,US","state":"AL","country":"United States","canonicalUrl":"https://foursquare.com/v/carsons-grill/4b9acfcef964a52018d835e3","categoryId":"4bf58dd8d48988d11b941735","category":"Pub","checkinsCount":648,"usersCount":208,"tipCount":7,"visitsCount":696,"tier":"","message":"","currency":"","rating":6.6},{"name":"Diamonds Sports Bar","address":"11208 Memorial Pkwy SW Ste H","lat":34.63782231355283,"lng":-86.56802183308518,"city_fetched":"Huntsville,US","state":"AL","country":"United States","canonicalUrl":"https://foursquare.com/v/diamonds-sports-bar/4d1d18c8d7b0b1f71072f79e","categoryId":"4bf58dd8d48988d11d941735","category":"Sports Bar","checkinsCount":346,"usersCount":125,"tipCount":6,"visitsCount":376,"tier":"","message":"","currency":"","rating":6.3},{"name":"Jefferson Street Pub","address":"111 Jefferson St N","lat":34.731011477045115,"lng":-86.5855047677218,"neighborhood":"Downtown Huntsville","city_fetched":"Huntsville,US","state":"AL","country":"United States","canonicalUrl":"https://foursquare.com/v/jefferson-street-pub/4ebb26889adf82e8060d7208","categoryId":"4bf58dd8d48988d11b941735","category":"Pub","checkinsCount":1126,"usersCount":420,"tipCount":8,"visitsCount":1162,"tier":"","message":"","currency":"","rating":6.2},{"name":"Club Rush","twitter":"club_rush","address":"109 Northside Sq","lat":34.73070377000293,"lng":-86.58560330115833,"neighborhood":"Downtown Huntsville","city_fetched":"Huntsville,US","state":"AL","country":"United States","canonicalUrl":"https://foursquare.com/v/club-rush/4d9fe7c06fd254813dc7539b","categoryId":"4bf58dd8d48988d116941735","category":"Bar","checkinsCount":429,"usersCount":141,"tipCount":2,"visitsCount":434,"url":"http://www.clubrush.net","tier":"","message":"","currency":"","rating":6.2},{"name":"Hoppers","lat":34.74051435121378,"lng":-86.6679036454273,"city_fetched":"Huntsville,US","state":"AL","country":"United States","canonicalUrl":"https://foursquare.com/v/hoppers/4e0eaac8ae603a50b5459e1b","categoryId":"4bf58dd8d48988d116941735","category":"Bar","checkinsCount":220,"usersCount":131,"tipCount":5,"visitsCount":225,"tier":"","message":"","currency":"","rating":5.9},{"name":"Rush Upstairs","address":"109 Northside Sq","lat":34.730716340825204,"lng":-86.58563286115103,"neighborhood":"Downtown Huntsville","city_fetched":"Huntsville,US","state":"AL","country":"United States","canonicalUrl":"https://foursquare.com/v/rush-upstairs/51009d0de4b005e6b13de2d6","categoryId":"4bf58dd8d48988d116941735","category":"Bar","checkinsCount":311,"usersCount":103,"tipCount":10,"visitsCount":314,"tier":"","message":"","currency":"","rating":5.9},{"name":"FUBAR","address":"110 Washington Street S.E. 107","lat":34.73144886992915,"lng":-86.58512541216,"neighborhood":"Downtown Huntsville","city_fetched":"Huntsville,US","state":"AL","country":"United States","canonicalUrl":"https://foursquare.com/v/fubar/506d3a5ae4b089a9aa9cb12d","categoryId":"4bf58dd8d48988d11f941735","category":"Nightclub","checkinsCount":423,"usersCount":219,"tipCount":10,"visitsCount":439,"tier":"","message":"","currency":"","rating":5.6},{"name":"Halftime Bar","address":"8865 Hwy 72","lat":34.747338039591625,"lng":-86.784720381134,"city_fetched":"Huntsville,US","state":"AL","country":"United States","canonicalUrl":"https://foursquare.com/v/halftime-bar/4dd9e19cae60680f154280dd","categoryId":"4bf58dd8d48988d120941735","category":"Karaoke Bar","checkinsCount":403,"usersCount":96,"tipCount":3,"visitsCount":423,"tier":"","message":"","currency":"","rating":5.5},{"name":"Huntsville Brewery","phone":"2564396743","address":"801 Franklin St SE","lat":34.722722604371455,"lng":-86.57833100670655,"neighborhood":"Downtown Huntsville","city_fetched":"Huntsville,US","state":"AL","country":"United States","canonicalUrl":"https://foursquare.com/v/huntsville-brewery/51bf59c8498e82ced92f1792","categoryId":"4bf58dd8d48988d117941735","category":"Beer Garden","checkinsCount":183,"usersCount":107,"tipCount":2,"visitsCount":201,"tier":2,"message":"Moderate","currency":"$","rating":5.4}]