[{"name":"Idaho Brewing Company","phone":"2085347232","twitter":"idahobrewing","address":"775 S Capital Ave","lat":43.485238937872204,"lng":-112.04574584817733,"city_fetched":"Idaho Falls,US","state":"ID","country":"United States","canonicalUrl":"https://foursquare.com/v/idaho-brewing-company/4c36774c3849c9288427bcb1","categoryId":"50327c8591d4c4b30a586d5d","category":"Brewery","checkinsCount":331,"usersCount":165,"tipCount":12,"visitsCount":382,"url":"http://www.idahobrewing.com","tier":"","message":"","currency":"","rating":8.5},{"name":"The Frosty Gator","phone":"2085293334","address":"298 D St","lat":43.49478798,"lng":-112.037363,"city_fetched":"Idaho Falls,US","state":"ID","country":"United States","canonicalUrl":"https://foursquare.com/v/the-frosty-gator/4bff4a1f8f76b7130ef11fd5","categoryId":"4bf58dd8d48988d116941735","category":"Bar","checkinsCount":1045,"usersCount":241,"tipCount":13,"visitsCount":1119,"url":"http://frostygatoridahofalls.com","tier":2,"message":"Moderate","currency":"$","rating":8.3},{"name":"D'railed","lat":43.492585644443594,"lng":-112.03655045544441,"city_fetched":"Idaho Falls,US","state":"Idaho","country":"United States","canonicalUrl":"https://foursquare.com/v/drailed/4f65276be4b04d4b164ed76f","categoryId":"4bf58dd8d48988d116941735","category":"Bar","checkinsCount":194,"usersCount":74,"tipCount":5,"visitsCount":197,"tier":"","message":"","currency":"","rating":7.8},{"name":"The Celt","phone":"2088815128","twitter":"celtpub","address":"398 W Broadway St","lat":43.49189895419257,"lng":-112.04122132390678,"city_fetched":"Idaho Falls,US","state":"ID","country":"United States","canonicalUrl":"https://foursquare.com/celtpub","categoryId":"4bf58dd8d48988d11b941735","category":"Pub","checkinsCount":568,"usersCount":215,"tipCount":13,"visitsCount":670,"url":"http://www.celtpub.com","tier":"","message":"","currency":"","rating":7.7},{"name":"Blue Wave","phone":"2085238347","address":"500 W 21st St","lat":43.47937524,"lng":-112.04359368333333,"city_fetched":"Idaho Falls,US","state":"ID","country":"United States","canonicalUrl":"https://foursquare.com/v/blue-wave/4c5219c7250dd13a242a4b7e","categoryId":"4bf58dd8d48988d116941735","category":"Bar","checkinsCount":165,"usersCount":104,"tipCount":4,"visitsCount":250,"tier":"","message":"","currency":"","rating":7.6},{"name":"Jaker's Bar & Grill","phone":"2085245240","address":"851 Lindsay Blvd","lat":43.50289609104982,"lng":-112.05066924460337,"city_fetched":"Idaho Falls,US","state":"ID","country":"United States","canonicalUrl":"https://foursquare.com/v/jakers-bar--grill/5105dcbde4b026c3cc73716a","categoryId":"4bf58dd8d48988d11b941735","category":"Pub","checkinsCount":192,"usersCount":174,"tipCount":7,"visitsCount":218,"url":"http://jakers.com/idaho-falls/","tier":"","message":"","currency":"","rating":7.5},{"name":"Bee's Knees Pub","address":"850 Lindsay Blvd","lat":43.50185698112928,"lng":-112.04973694813346,"city_fetched":"Idaho Falls,US","state":"ID","country":"United States","canonicalUrl":"https://foursquare.com/v/bees-knees-pub/5461706e498ed0dddffc6a17","categoryId":"4bf58dd8d48988d11b941735","category":"Pub","checkinsCount":55,"usersCount":82,"tipCount":1,"visitsCount":130,"tier":"","message":"","currency":"","rating":7.5},{"name":"Snow Eagle Brewing & Grill","phone":"2085570455","twitter":"snoweaglebrew","address":"455 River Pkwy","lat":43.49508225917816,"lng":-112.04529047012329,"city_fetched":"Idaho Falls,US","state":"ID","country":"United States","canonicalUrl":"https://foursquare.com/v/snow-eagle-brewing--grill/4e120acd62e1d997a6a4f728","categoryId":"50327c8591d4c4b30a586d5d","category":"Brewery","checkinsCount":453,"usersCount":397,"tipCount":17,"visitsCount":507,"url":"http://www.snoweaglebrewing.com","tier":"","message":"","currency":"","rating":7.5},{"name":"Marcellar's","phone":"2085230503","address":"431 Park Ave","lat":43.49304118892718,"lng":-112.04078210348655,"city_fetched":"Idaho Falls,US","state":"ID","country":"United States","canonicalUrl":"https://foursquare.com/v/marcellars/4bff4e718f76b713b5f11fd5","categoryId":"4bf58dd8d48988d123941735","category":"Wine Bar","checkinsCount":421,"usersCount":79,"tipCount":6,"visitsCount":434,"url":"http://www.winegeeks.org","tier":"","message":"","currency":"","rating":7.4},{"name":"Golden Crown Lounge","phone":"2085229140","address":"545 Shoup Ave","lat":43.493417161999204,"lng":-112.03877970738115,"city_fetched":"Idaho Falls,US","state":"ID","country":"United States","canonicalUrl":"https://foursquare.com/v/golden-crown-lounge/4bff54e28f76b713dff21fd5","categoryId":"4bf58dd8d48988d116941735","category":"Bar","checkinsCount":181,"usersCount":70,"tipCount":3,"visitsCount":187,"tier":"","message":"","currency":"","rating":6.8},{"name":"Ford's Bar","phone":"2085234840","address":"444 A St","lat":43.4930734799631,"lng":-112.04113636621645,"city_fetched":"Idaho Falls,US","state":"ID","country":"United States","canonicalUrl":"https://foursquare.com/v/fords-bar/4b899d8cf964a5206c4632e3","categoryId":"4bf58dd8d48988d118941735","category":"Dive Bar","checkinsCount":135,"usersCount":58,"tipCount":4,"visitsCount":135,"tier":"","message":"","currency":"","rating":6.3},{"name":"Karen's Park Avenue","phone":"2085529780","address":"369 Park Ave","lat":43.49237284901083,"lng":-112.04107429391237,"city_fetched":"Idaho Falls,US","state":"ID","country":"United States","canonicalUrl":"https://foursquare.com/v/karens-park-avenue/4cb13ef2db32f04dfe16c74d","categoryId":"4bf58dd8d48988d116941735","category":"Bar","checkinsCount":117,"usersCount":48,"tipCount":3,"visitsCount":118,"tier":"","message":"","currency":"","rating":5.8}]