[{"name":"Goose The Market","phone":"3179244944","twitter":"goosethemarket","address":"2503 N Delaware St","lat":39.803038,"lng":-86.152904,"neighborhood":"Fall Creek Place","city_fetched":"Indiana","state":"IN","country":"United States","canonicalUrl":"https://foursquare.com/v/goose-the-market/4ad886bdf964a520061221e3","category":"Gourmet Shop","checkinsCount":4568,"usersCount":1887,"tipCount":67,"visitsCount":5421,"url":"http://goosethemarket.com","tier":"","message":"","currency":"","rating":9.4},{"name":"Sun King Brewing Co.","phone":"3176023702","address":"135 N College Ave","lat":39.76913756093357,"lng":-86.14505933870417,"neighborhood":"Downtown Indianapolis","city_fetched":"Indiana","state":"IN","country":"United States","canonicalUrl":"https://foursquare.com/v/sun-king-brewing-co/4ad78002f964a5207b0b21e3","category":"Brewery","checkinsCount":12035,"usersCount":4995,"tipCount":61,"visitsCount":13726,"url":"http://www.sunkingbrewing.com","tier":1,"message":"Cheap","currency":"$","rating":9.4},{"name":"Tomlinson Tap Room","phone":"3174232337","twitter":"tomtaproom","address":"222 E Market St","lat":39.76855186272191,"lng":-86.15379810333252,"neighborhood":"Downtown Indianapolis","city_fetched":"Indiana","state":"IN","country":"United States","canonicalUrl":"https://foursquare.com/tomtaproom","category":"Bar","checkinsCount":3589,"usersCount":1395,"tipCount":22,"visitsCount":3664,"url":"http://www.tomlinsontaproom.com","tier":2,"message":"Moderate","currency":"$","rating":9.3},{"name":"Bakersfield Mass Ave","phone":"3176356962","twitter":"bakersfieldmass","address":"334 Massachusetts Ave","lat":39.771889744178566,"lng":-86.15332869101844,"neighborhood":"Downtown Indianapolis","city_fetched":"Indiana","state":"IN","country":"United States","canonicalUrl":"https://foursquare.com/v/bakersfield-mass-ave/512ffd44e4b0e80cc96198fb","category":"Mexican Restaurant","checkinsCount":7885,"usersCount":3758,"tipCount":86,"visitsCount":8982,"url":"http://bakersfieldtacos.com","tier":2,"message":"Moderate","currency":"$","rating":9.3},{"name":"Bluebeard","phone":"3176861580","twitter":"bluebeardindy1","address":"653 Virginia Ave","lat":39.75754246698388,"lng":-86.14600859302644,"neighborhood":"Fletcher Place","city_fetched":"Indiana","state":"IN","country":"United States","canonicalUrl":"https://foursquare.com/v/bluebeard/4fe517b6e4b0b3b97305718f","category":"Restaurant","checkinsCount":2851,"usersCount":1785,"tipCount":48,"visitsCount":3087,"url":"http://bluebeardindy.com","tier":3,"message":"Expensive","currency":"$","rating":9.3},{"name":"Flatwater Restaurant","phone":"3172575466","twitter":"flatwaterripple","address":"832 E Westfield Blvd","lat":39.870774372037744,"lng":-86.14359498023987,"neighborhood":"Broad Ripple","city_fetched":"Indiana","state":"IN","country":"United States","canonicalUrl":"https://foursquare.com/flatwaterripple","category":"American Restaurant","checkinsCount":7490,"usersCount":2877,"tipCount":79,"visitsCount":8188,"url":"http://www.flatwaterbroadripple.com","tier":2,"message":"Moderate","currency":"$","rating":9.2},{"name":"Twenty Tap","phone":"3176028440","twitter":"twentytap","address":"5408 N College Ave","lat":39.851225,"lng":-86.14599789,"neighborhood":"Meridian Kessler","city_fetched":"Indiana","state":"IN","country":"United States","canonicalUrl":"https://foursquare.com/v/twenty-tap/4e5e532814954da39fee1853","category":"Bar","checkinsCount":8710,"usersCount":2975,"tipCount":71,"visitsCount":9666,"url":"http://www.twentytap.com","tier":2,"message":"Moderate","currency":"$","rating":9.2},{"name":"Harry & Izzy's","phone":"3176359594","twitter":"harryandizzys","address":"153 S Illinois St","lat":39.764395027728796,"lng":-86.15997202854415,"neighborhood":"Downtown Indianapolis","city_fetched":"Indiana","state":"IN","country":"United States","canonicalUrl":"https://foursquare.com/v/harry--izzys/4b145285f964a52028a123e3","category":"Steakhouse","checkinsCount":9231,"usersCount":6338,"tipCount":92,"visitsCount":10087,"url":"http://www.harryandizzys.com","tier":3,"message":"Expensive","currency":"$","rating":9.2},{"name":"Cooper's Hawk Winery & Restaurant","phone":"3175749463","twitter":"chwinery","address":"3815 E 96th St","lat":39.926375166753196,"lng":-86.10165816035466,"neighborhood":"Keystone at The Crossing","city_fetched":"Indiana","state":"IN","country":"United States","canonicalUrl":"https://foursquare.com/v/coopers-hawk-winery--restaurant/4ca48bd2a73cb60c0fee2178","category":"American Restaurant","checkinsCount":6856,"usersCount":3474,"tipCount":70,"visitsCount":8501,"url":"http://www.chwinery.com","tier":3,"message":"Expensive","currency":"$","rating":9.2},{"name":"St Elmo's 1933 Lounge","phone":"3176350636","twitter":"stelmo","address":"127 S Illinois St","lat":39.76478103689806,"lng":-86.15989750074556,"neighborhood":"Downtown Indianapolis","city_fetched":"Indiana","state":"IN","country":"United States","canonicalUrl":"https://foursquare.com/v/st-elmos-1933-lounge/4e73d5c37d8b91760256c71f","category":"Speakeasy","checkinsCount":2047,"usersCount":1195,"tipCount":17,"visitsCount":2062,"url":"http://stelmos.com","tier":"","message":"","currency":"","rating":9.2},{"name":"Maggiano's Little Italy","phone":"3178140700","twitter":"maggianos","address":"3550 E 86th St","lat":39.911711285904794,"lng":-86.1067464844315,"neighborhood":"Keystone at The Crossing","city_fetched":"Indiana","state":"IN","country":"United States","canonicalUrl":"https://foursquare.com/v/maggianos-little-italy/4ae1d6ebf964a520d48721e3","category":"Italian Restaurant","checkinsCount":5955,"usersCount":4329,"tipCount":50,"visitsCount":7091,"url":"http://www.maggianos.com/locations/","tier":2,"message":"Moderate","currency":"$","rating":9.1},{"name":"Pearl Street Pizzeria & Pub","phone":"3176383110","address":"65 E Pearl Street","lat":39.76629720308313,"lng":-86.15669767153656,"neighborhood":"Downtown Indianapolis","city_fetched":"Indiana","state":"IN","country":"United States","canonicalUrl":"https://foursquare.com/v/pearl-street-pizzeria--pub/4c9aa4369c66370403a45afd","category":"Pizza Place","checkinsCount":5276,"usersCount":1892,"tipCount":53,"visitsCount":5428,"url":"http://pearlstreetpizzeria.com","tier":2,"message":"Moderate","currency":"$","rating":9.1},{"name":"Ale Emporium","phone":"3178421333","address":"8617 Allisonville Rd","lat":39.91323906061099,"lng":-86.07270033943027,"neighborhood":"Castleton","city_fetched":"Indiana","state":"IN","country":"United States","canonicalUrl":"https://foursquare.com/v/ale-emporium/4ae724e5f964a520d4a821e3","category":"Sports Bar","checkinsCount":14381,"usersCount":5564,"tipCount":103,"visitsCount":17862,"url":"http://ale-emporium.com","tier":2,"message":"Moderate","currency":"$","rating":9.1},{"name":"St Joseph Brewery & Public House","phone":"3176027005","twitter":"stjosephpub","address":"540 N College Ave","lat":39.77489940405044,"lng":-86.14568058043324,"neighborhood":"Downtown Indianapolis","city_fetched":"Indiana","state":"IN","country":"United States","canonicalUrl":"https://foursquare.com/v/st-joseph-brewery--public-house/5553d03a498e069f13e0d042","category":"Brewery","checkinsCount":957,"usersCount":1129,"tipCount":14,"visitsCount":1715,"url":"http://www.saintjoseph.beer","tier":"","message":"","currency":"","rating":9},{"name":"Yard House","phone":"3179174408","twitter":"yardhouse","address":"15 W Maryland St","lat":39.76568390849297,"lng":-86.15899819008345,"neighborhood":"Downtown Indianapolis","city_fetched":"Indiana","state":"IN","country":"United States","canonicalUrl":"https://foursquare.com/v/yard-house/54d28c68498ef6352f9681bc","category":"American Restaurant","checkinsCount":1596,"usersCount":1673,"tipCount":14,"visitsCount":2385,"url":"http://www.yardhouse.com","tier":"","message":"","currency":"","rating":9},{"name":"Black Acre Brewing Co.","phone":"3172076266","address":"5614 E Washington St","lat":39.77103352546692,"lng":-86.07098758220673,"neighborhood":"Irvington","city_fetched":"Indiana","state":"IN","country":"United States","canonicalUrl":"https://foursquare.com/v/black-acre-brewing-co/4e1a01b5b61c8f9ada5b4d2c","category":"Brewery","checkinsCount":4369,"usersCount":1830,"tipCount":40,"visitsCount":5364,"url":"http://blackacrebrewing.com","tier":2,"message":"Moderate","currency":"$","rating":9},{"name":"The Tick Tock Lounge","phone":"3176314182","address":"2602 E 10th St","lat":39.781457337121715,"lng":-86.11789128642668,"neighborhood":"Near Eastside","city_fetched":"Indiana","state":"IN","country":"United States","canonicalUrl":"https://foursquare.com/v/the-tick-tock-lounge/4f322d3419836c91c7bdb294","category":"Lounge","checkinsCount":636,"usersCount":314,"tipCount":17,"visitsCount":879,"tier":"","message":"","currency":"","rating":9},{"name":"Flat12 Bierwerks","phone":"3176352334","twitter":"flat12bierwerks","address":"414 Dorman St","lat":39.77279135,"lng":-86.138496,"neighborhood":"Near Eastside","city_fetched":"Indiana","state":"IN","country":"United States","canonicalUrl":"https://foursquare.com/v/flat12-bierwerks/4cd850152a805481f3719b2c","category":"Brewery","checkinsCount":6754,"usersCount":2729,"tipCount":40,"visitsCount":7525,"url":"http://flat12.me","tier":1,"message":"Cheap","currency":"$","rating":9},{"name":"Ball & Biscuit","phone":"3176360539","address":"331 Massachusetts Ave","lat":39.77170419848229,"lng":-86.15354733365133,"neighborhood":"Downtown Indianapolis","city_fetched":"Indiana","state":"IN","country":"United States","canonicalUrl":"https://foursquare.com/v/ball--biscuit/4b9d68dcf964a520c3aa36e3","category":"Cocktail Bar","checkinsCount":8003,"usersCount":3242,"tipCount":75,"visitsCount":8062,"url":"http://ballandbiscuit.com","tier":2,"message":"Moderate","currency":"$","rating":9},{"name":"Triton Brewing Company","phone":"3177352706","twitter":"tritonbrewing","address":"5764 Wheeler Rd","lat":39.86009656946654,"lng":-86.00682791732211,"city_fetched":"Indiana","state":"IN","country":"United States","canonicalUrl":"https://foursquare.com/v/triton-brewing-company/4e5587d1e4cd779e833777c6","category":"Brewery","checkinsCount":5747,"usersCount":1575,"tipCount":43,"visitsCount":6303,"url":"http://www.tritonbrewing.com","tier":2,"message":"Moderate","currency":"$","rating":9},{"name":"Bier Brewery Taproom","phone":"3172532437","twitter":"bierbrewery","address":"5133 E 65th St","lat":39.87562105125533,"lng":-86.08288221452781,"neighborhood":"Eastwood","city_fetched":"Indiana","state":"IN","country":"United States","canonicalUrl":"https://foursquare.com/v/bier-brewery-taproom/4ced6bc7821254812bf35ea1","category":"Brewery","checkinsCount":2868,"usersCount":1367,"tipCount":30,"visitsCount":3579,"url":"http://bierbrewery.com","tier":1,"message":"Cheap","currency":"$","rating":8.9},{"name":"Fountain Square Brewing Company","phone":"3174931410","twitter":"fountainsqrbrew","address":"1301 Barth Ave","lat":39.74972540214757,"lng":-86.14027801022124,"neighborhood":"Fountain Square","city_fetched":"Indiana","state":"IN","country":"United States","canonicalUrl":"https://foursquare.com/v/fountain-square-brewing-company/4e7e1920b8f700d320a85b00","category":"Brewery","checkinsCount":3857,"usersCount":2122,"tipCount":35,"visitsCount":4513,"url":"http://fountainsquarebrewery.com","tier":1,"message":"Cheap","currency":"$","rating":8.9},{"name":"Scotty's Brewhouse","phone":"3175740101","twitter":"brewhouse","address":"3905 E 96th St","lat":39.92625108969874,"lng":-86.09898447990417,"neighborhood":"Keystone at The Crossing","city_fetched":"Indiana","state":"IN","country":"United States","canonicalUrl":"https://foursquare.com/v/scottys-brewhouse/4ae79208f964a5207dac21e3","category":"American Restaurant","checkinsCount":25627,"usersCount":7759,"tipCount":121,"visitsCount":27928,"url":"http://www.scottysbrewhouse.com","tier":2,"message":"Moderate","currency":"$","rating":8.9},{"name":"Red Lion Grog House","phone":"3178224764","twitter":"redliongroghous","address":"1043 Virginia Ave","lat":39.752436206213915,"lng":-86.14066064357758,"neighborhood":"Fountain Square","city_fetched":"Indiana","state":"IN","country":"United States","canonicalUrl":"https://foursquare.com/v/red-lion-grog-house/4b1eb588f964a520401e24e3","category":"Pub","checkinsCount":5684,"usersCount":2376,"tipCount":62,"visitsCount":5783,"url":"http://www.redliongroghouse.com","tier":2,"message":"Moderate","currency":"$","rating":8.9},{"name":"Chatham Tap","phone":"3179178425","twitter":"chathamtap","address":"719 Massachusetts Ave","lat":39.77658353989152,"lng":-86.14644080400467,"neighborhood":"Chatham Arch","city_fetched":"Indiana","state":"IN","country":"United States","canonicalUrl":"https://foursquare.com/v/chatham-tap/4b2444bff964a520016524e3","category":"Bar","checkinsCount":13388,"usersCount":4309,"tipCount":97,"visitsCount":13607,"url":"http://chathamtap.com","tier":2,"message":"Moderate","currency":"$","rating":8.8},{"name":"Deviate Brewing","twitter":"deviatebrewing","address":"4004 W 96th St","lat":39.92638480451927,"lng":-86.22901255670357,"city_fetched":"Indiana","state":"IN","country":"United States","canonicalUrl":"https://foursquare.com/v/deviate-brewing/55e1f142498eececa6efd1d7","category":"Brewery","checkinsCount":498,"usersCount":271,"tipCount":8,"visitsCount":771,"url":"http://deviatebrewing.com","tier":"","message":"","currency":"","rating":8.8},{"name":"Hotel Tango Whisky","phone":"3176531806","address":"702 Virginia Ave","lat":39.75754800057733,"lng":-86.1448605397594,"neighborhood":"Fletcher Place","city_fetched":"Indiana","state":"IN","country":"United States","canonicalUrl":"https://foursquare.com/v/hotel-tango-whisky/541a289e498eaa82cbea98ef","category":"Whisky Bar","checkinsCount":827,"usersCount":573,"tipCount":11,"visitsCount":964,"url":"http://hoteltangowhiskey.com","tier":"","message":"","currency":"","rating":8.8},{"name":"Chef Joseph's at The Connoisseur Room","phone":"3176003577","twitter":"chefjosephs","address":"115 E Ohio St","lat":39.76971461732565,"lng":-86.15513920783997,"neighborhood":"Downtown Indianapolis","city_fetched":"Indiana","state":"IN","country":"United States","canonicalUrl":"https://foursquare.com/chefjosephs","category":"American Restaurant","checkinsCount":993,"usersCount":517,"tipCount":35,"visitsCount":1054,"url":"http://www.chefjosephs.com","tier":3,"message":"Expensive","currency":"$","rating":8.8},{"name":"Union 50","phone":"3176100234","twitter":"union50_","address":"620 N East St","lat":39.776126,"lng":-86.149183,"neighborhood":"Downtown Indianapolis","city_fetched":"Indiana","state":"IN","country":"United States","canonicalUrl":"https://foursquare.com/v/union-50/53adfdbf498ef536313234cc","category":"Gastropub","checkinsCount":1631,"usersCount":1412,"tipCount":23,"visitsCount":2487,"url":"http://www.union-50.com","tier":3,"message":"Expensive","currency":"$","rating":8.8},{"name":"English Ivy's","phone":"3178225070","address":"944 N Alabama St","lat":39.780735,"lng":-86.152124,"neighborhood":"St. Joseph Historic Neighborhood","city_fetched":"Indiana","state":"IN","country":"United States","canonicalUrl":"https://foursquare.com/v/english-ivys/4b14599cf964a520a5a123e3","category":"Gay Bar","checkinsCount":10634,"usersCount":1471,"tipCount":49,"visitsCount":12347,"url":"http://www.englishivys.com","tier":2,"message":"Moderate","currency":"$","rating":8.8},{"name":"Indiana City Brewing Co","phone":"3176431103","twitter":"indianacitybeer","address":"24 Shelby St","lat":39.76620574955985,"lng":-86.14115776840077,"neighborhood":"Near Southeast","city_fetched":"Indiana","state":"IN","country":"United States","canonicalUrl":"https://foursquare.com/v/indiana-city-brewing-co/519e8dc0498e1e71c5b78f6d","category":"Brewery","checkinsCount":1634,"usersCount":1161,"tipCount":21,"visitsCount":2152,"url":"http://www.indianacitybeer.com","tier":1,"message":"Cheap","currency":"$","rating":8.7},{"name":"Sahm's Place","phone":"3172021577","twitter":"sahmsplace","address":"2411 E 65th St","lat":39.87553363144034,"lng":-86.12108051776886,"neighborhood":"Glendale","city_fetched":"Indiana","state":"IN","country":"United States","canonicalUrl":"https://foursquare.com/v/sahms-place/4ad5006af964a520350121e3","category":"Bar","checkinsCount":2737,"usersCount":907,"tipCount":35,"visitsCount":3324,"url":"http://www.sahms.com","tier":2,"message":"Moderate","currency":"$","rating":8.7},{"name":"Big Lug Canteen","phone":"3175550580","address":"1435 E 86th St","lat":39.91178569379031,"lng":-86.13624186384166,"neighborhood":"Nora - Far Northside","city_fetched":"Indiana","state":"IN","country":"United States","canonicalUrl":"https://foursquare.com/v/big-lug-canteen/5601614b498e3854e9eaff2c","category":"Brewery","checkinsCount":635,"usersCount":378,"tipCount":6,"visitsCount":759,"tier":"","message":"","currency":"","rating":8.7},{"name":"White Rabbit Cabaret","phone":"3176869550","twitter":"whiterabbitcab","address":"1116 Prospect St","lat":39.752566403113896,"lng":-86.13929882657504,"neighborhood":"Fountain Square","city_fetched":"Indiana","state":"IN","country":"United States","canonicalUrl":"https://foursquare.com/v/white-rabbit-cabaret/4bb7fdfe3db7b71399e4209a","category":"Indie Theater","checkinsCount":3556,"usersCount":1433,"tipCount":22,"visitsCount":3620,"url":"http://www.whiterabbitcabaret.com","tier":"","message":"","currency":"","rating":8.7},{"name":"Boathouse Grille","phone":"3173288812","twitter":"boathousebi","address":"6225 W 56th St","lat":39.85232706373771,"lng":-86.26981973648071,"city_fetched":"Indiana","state":"IN","country":"United States","canonicalUrl":"https://foursquare.com/v/boathouse-grille/4b1936daf964a52052d923e3","category":"Bar","checkinsCount":2128,"usersCount":615,"tipCount":25,"visitsCount":2482,"url":"http://boathousegrill.com","tier":2,"message":"Moderate","currency":"$","rating":8.7},{"name":"Spoke & Steele","phone":"3177371616","twitter":"spokeandsteele","address":"123 S Illinois St","lat":39.76518624462178,"lng":-86.15991240631396,"neighborhood":"Downtown Indianapolis","city_fetched":"Indiana","state":"IN","country":"United States","canonicalUrl":"https://foursquare.com/v/spoke--steele/548259ab498ebb1006d177e3","category":"American Restaurant","checkinsCount":471,"usersCount":304,"tipCount":4,"visitsCount":491,"url":"http://www.spokeandsteele.com","tier":2,"message":"Moderate","currency":"$","rating":8.7},{"name":"Jazz Kitchen","phone":"3172534900","twitter":"thejazzkitchen","address":"5377 N College Ave","lat":39.850832120446,"lng":-86.14553689956665,"neighborhood":"Meridian Kessler","city_fetched":"Indiana","state":"IN","country":"United States","canonicalUrl":"https://foursquare.com/v/jazz-kitchen/4aeb0a6af964a52077bd21e3","category":"Jazz Club","checkinsCount":2465,"usersCount":1373,"tipCount":32,"visitsCount":2498,"url":"http://www.thejazzkitchen.com","tier":"","message":"","currency":"","rating":8.7},{"name":"Si Greene's Pub","phone":"3173536474","address":"5109 E 10th St","lat":39.781417950963,"lng":-86.0827130307107,"neighborhood":"Irvington","city_fetched":"Indiana","state":"IN","country":"United States","canonicalUrl":"https://foursquare.com/v/si-greenes-pub/4b5253abf964a520657727e3","category":"Bar","checkinsCount":2612,"usersCount":286,"tipCount":9,"visitsCount":2788,"tier":"","message":"","currency":"","rating":8.7},{"name":"Eddie Merlot's","phone":"3178468303","address":"3645 E 96th St","lat":39.92640638613636,"lng":-86.10412895679474,"neighborhood":"Keystone at The Crossing","city_fetched":"Indiana","state":"IN","country":"United States","canonicalUrl":"https://foursquare.com/v/eddie-merlots/4b749710f964a5203fe62de3","category":"Steakhouse","checkinsCount":1721,"usersCount":1166,"tipCount":21,"visitsCount":1944,"url":"http://www.eddiemerlots.com","tier":4,"message":"Very Expensive","currency":"$","rating":8.6},{"name":"Thr3e Wise Men Brewing Co.","phone":"3172555151","twitter":"brewhouse","address":"1021 Broad Ripple Ave","lat":39.8695722,"lng":-86.1408269,"neighborhood":"Broad Ripple","city_fetched":"Indiana","state":"IN","country":"United States","canonicalUrl":"https://foursquare.com/v/thr3e-wise-men-brewing-co/4cd2d899a60d224b549331d1","category":"Brewery","checkinsCount":16821,"usersCount":6403,"tipCount":92,"visitsCount":18044,"url":"http://www.scottysbrewhouse.com","tier":2,"message":"Moderate","currency":"$","rating":8.6},{"name":"The District Tap","phone":"3172888251","twitter":"thedistrictindy","address":"3720 E 82nd St","lat":39.910480466723904,"lng":-86.10277236237991,"neighborhood":"Castleton","city_fetched":"Indiana","state":"IN","country":"United States","canonicalUrl":"https://foursquare.com/v/the-district-tap/541be8fb498e784f1bc25cc3","category":"Sports Bar","checkinsCount":1042,"usersCount":1112,"tipCount":15,"visitsCount":2085,"url":"http://www.thedistrictindy.com","tier":"","message":"","currency":"","rating":8.6},{"name":"Redemption Alewerks","phone":"3173483330","twitter":"redemptionales","address":"7035 E 96th St Ste K","lat":39.92650363809335,"lng":-86.04497613557861,"neighborhood":"Castleton","city_fetched":"Indiana","state":"IN","country":"United States","canonicalUrl":"https://foursquare.com/redemptionales","category":"Brewery","checkinsCount":612,"usersCount":479,"tipCount":9,"visitsCount":1009,"url":"http://www.redemptionalewerks.com","tier":2,"message":"Moderate","currency":"$","rating":8.6},{"name":"Tappers Arcade Bar","address":"501 Virginia Ave","lat":39.75949345512792,"lng":-86.14776292774421,"neighborhood":"Fletcher Place","city_fetched":"Indiana","state":"IN","country":"United States","canonicalUrl":"https://foursquare.com/v/tappers-arcade-bar/56ff2471498ed95cb1bb2c54","category":"Bar","checkinsCount":295,"usersCount":232,"tipCount":6,"visitsCount":330,"tier":"","message":"","currency":"","rating":8.6},{"name":"MacNiven's Restaurant & Bar","phone":"3176327268","twitter":"macnivens","address":"339 Massachusetts Ave","lat":39.7718215446039,"lng":-86.15320801734924,"neighborhood":"Downtown Indianapolis","city_fetched":"Indiana","state":"IN","country":"United States","canonicalUrl":"https://foursquare.com/v/macnivens-restaurant--bar/4ae0cd1df964a520aa8221e3","category":"Pub","checkinsCount":9181,"usersCount":3865,"tipCount":86,"visitsCount":9340,"url":"http://www.macnivens.com‎","tier":2,"message":"Moderate","currency":"$","rating":8.6},{"name":"BJ's Restaurant and Brewhouse","phone":"3178813500","twitter":"bjsrestaurants","address":"1251 US Highway 31 N","lat":39.63399148,"lng":-86.12157136,"city_fetched":"Indiana","state":"IN","country":"United States","canonicalUrl":"https://foursquare.com/v/bjs-restaurant-and-brewhouse/4b5a4469f964a520bfb828e3","category":"American Restaurant","checkinsCount":5614,"usersCount":3427,"tipCount":62,"visitsCount":6738,"url":"http://t.co/bl46gcjDLN","tier":2,"message":"Moderate","currency":"$","rating":8.6},{"name":"Aristocrat Pub & Restaurant","phone":"3172837388","address":"5212 N College Ave","lat":39.84734885206481,"lng":-86.14606326158771,"neighborhood":"Meridian Kessler","city_fetched":"Indiana","state":"IN","country":"United States","canonicalUrl":"https://foursquare.com/v/aristocrat-pub--restaurant/4b3f98eaf964a520f5a925e3","category":"Pub","checkinsCount":3458,"usersCount":1757,"tipCount":47,"visitsCount":3861,"url":"http://www.aristocratpub.com‎ ","tier":2,"message":"Moderate","currency":"$","rating":8.6},{"name":"Bourbon Street Distillery","phone":"3176363316","twitter":"indycajuncreole","address":"361 Indiana Ave","lat":39.77269082606033,"lng":-86.16284375035026,"neighborhood":"Downtown Indianapolis","city_fetched":"Indiana","state":"IN","country":"United States","canonicalUrl":"https://foursquare.com/v/bourbon-street-distillery/4a9c9693f964a5209a3720e3","category":"Cajun / Creole Restaurant","checkinsCount":8137,"usersCount":3843,"tipCount":83,"visitsCount":8989,"url":"http://www.bourbonstreetdistillery.com","tier":1,"message":"Cheap","currency":"$","rating":8.5},{"name":"Downtown Olly's","phone":"3176365597","address":"822 N Illinois St","lat":39.7784635096575,"lng":-86.15963459014893,"neighborhood":"Downtown Indianapolis","city_fetched":"Indiana","state":"IN","country":"United States","canonicalUrl":"https://foursquare.com/v/downtown-ollys/4b0ab5c9f964a520b62623e3","category":"Gay Bar","checkinsCount":14825,"usersCount":2034,"tipCount":63,"visitsCount":16496,"tier":2,"message":"Moderate","currency":"$","rating":8.5},{"name":"Tastings - A Wine Experience","phone":"3174232400","twitter":"tastingsindy","address":"50 W Washington St","lat":39.76727363464625,"lng":-86.15954339504242,"neighborhood":"Downtown Indianapolis","city_fetched":"Indiana","state":"IN","country":"United States","canonicalUrl":"https://foursquare.com/tastingsindy","category":"Wine Bar","checkinsCount":4076,"usersCount":2416,"tipCount":46,"visitsCount":4096,"url":"http://www.awineexperience.com","tier":2,"message":"Moderate","currency":"$","rating":8.5},{"name":"MashCraft Brewing","phone":"3172154578","twitter":"mashcraftbrews","address":"1140 N State Road 135","lat":39.63300546829909,"lng":-86.15932611734945,"city_fetched":"Indiana","state":"IN","country":"United States","canonicalUrl":"https://foursquare.com/v/mashcraft-brewing/52a3539711d2f107b856b25b","category":"Brewery","checkinsCount":657,"usersCount":307,"tipCount":4,"visitsCount":969,"url":"http://www.mashcraft.com","tier":"","message":"","currency":"","rating":8.5},{"name":"Louie's Wine Dive","phone":"3179291644","twitter":"louieswinedive","address":"345 Massachusetts Ave","lat":39.77203383636837,"lng":-86.15308023234738,"neighborhood":"Downtown Indianapolis","city_fetched":"Indiana","state":"IN","country":"United States","canonicalUrl":"https://foursquare.com/v/louies-wine-dive/5563aee9498ef35244198530","category":"Wine Bar","checkinsCount":482,"usersCount":297,"tipCount":5,"visitsCount":522,"url":"http://louieswinedive.com","tier":"","message":"","currency":"","rating":8.5},{"name":"Iaria's Italian Restaurant","phone":"3176387706","twitter":"iariasrest","address":"317 S College Ave","lat":39.761980886379085,"lng":-86.14568058043324,"neighborhood":"Fletcher Place","city_fetched":"Indiana","state":"IN","country":"United States","canonicalUrl":"https://foursquare.com/v/iarias-italian-restaurant/4b16a435f964a5204bbb23e3","category":"Italian Restaurant","checkinsCount":2002,"usersCount":1442,"tipCount":28,"visitsCount":2408,"url":"http://www.iariasrestaurant.com","tier":2,"message":"Moderate","currency":"$","rating":8.5},{"name":"Black Market","phone":"3178226757","twitter":"blackmarketindy","address":"922 Massachusetts Ave","lat":39.780135,"lng":-86.141844,"neighborhood":"Downtown Indianapolis","city_fetched":"Indiana","state":"IN","country":"United States","canonicalUrl":"https://foursquare.com/v/black-market/4c5d93546147be9a205f9209","category":"Gastropub","checkinsCount":2558,"usersCount":1357,"tipCount":24,"visitsCount":2663,"url":"http://blackmarketindy.net","tier":3,"message":"Expensive","currency":"$","rating":8.5},{"name":"Taylor's Pub","phone":"3172590952","twitter":"taylorspubindy","address":"1325 W 86th St","lat":39.911164717692564,"lng":-86.18285686073803,"neighborhood":"St. Vincent - Greenbriar","city_fetched":"Indiana","state":"IN","country":"United States","canonicalUrl":"https://foursquare.com/v/taylors-pub/4c0736158b4520a138ac8697","category":"Bar","checkinsCount":2338,"usersCount":486,"tipCount":14,"visitsCount":2419,"url":"http://www.taylorspubindy.com","tier":2,"message":"Moderate","currency":"$","rating":8.5},{"name":"Scotty's Brewhouse","phone":"3175710808","twitter":"brewhouse","address":"1 Virginia Ave","lat":39.76609949939799,"lng":-86.1559371650219,"neighborhood":"Downtown Indianapolis","city_fetched":"Indiana","state":"IN","country":"United States","canonicalUrl":"https://foursquare.com/v/scottys-brewhouse/4ad9e1c3f964a5208e1b21e3","category":"Sports Bar","checkinsCount":25598,"usersCount":10590,"tipCount":140,"visitsCount":26286,"url":"http://www.scottysbrewhouse.com","tier":2,"message":"Moderate","currency":"$","rating":8.5},{"name":"Union Jack Pub","phone":"3172574343","address":"924 Broad Ripple Ave","lat":39.869876827632446,"lng":-86.14200711250305,"neighborhood":"Broad Ripple","city_fetched":"Indiana","state":"IN","country":"United States","canonicalUrl":"https://foursquare.com/v/union-jack-pub/4b3d3c1bf964a520c09025e3","category":"Pub","checkinsCount":6474,"usersCount":2955,"tipCount":53,"visitsCount":6758,"url":"http://unionjackpub-broadripple.com","tier":2,"message":"Moderate","currency":"$","rating":8.5},{"name":"Slippery Noodle Inn","phone":"3176316974","address":"372 S Meridian St","lat":39.76164408072416,"lng":-86.15868516664152,"neighborhood":"Downtown Indianapolis","city_fetched":"Indiana","state":"IN","country":"United States","canonicalUrl":"https://foursquare.com/v/slippery-noodle-inn/4b343e7ff964a520762625e3","category":"Jazz Club","checkinsCount":10001,"usersCount":6723,"tipCount":89,"visitsCount":11618,"url":"http://www.slipperynoodle.com","tier":"","message":"","currency":"","rating":8.4},{"name":"Seasons 52","phone":"3178465252","twitter":"seasons52","address":"8650 Keystone Xing","lat":39.91301154,"lng":-86.11178398,"neighborhood":"Keystone at The Crossing","city_fetched":"Indiana","state":"IN","country":"United States","canonicalUrl":"https://foursquare.com/v/seasons-52/4d2dba180f812c0fa9cd3e6a","category":"New American Restaurant","checkinsCount":4869,"usersCount":3198,"tipCount":51,"visitsCount":6013,"url":"http://seasons52.com","tier":3,"message":"Expensive","currency":"$","rating":8.4},{"name":"Northside Social","phone":"3172530111","twitter":"nsidesocial","address":"6525 N College Ave","lat":39.87424092409692,"lng":-86.14577293395996,"neighborhood":"Broad Ripple","city_fetched":"Indiana","state":"IN","country":"United States","canonicalUrl":"https://foursquare.com/v/northside-social/4b5ba9ebf964a5208a0e29e3","category":"American Restaurant","checkinsCount":2364,"usersCount":1301,"tipCount":18,"visitsCount":2541,"url":"http://www.northsidesocial.com","tier":3,"message":"Expensive","currency":"$","rating":8.4},{"name":"Sinking Ship 2","lat":39.92601664399817,"lng":-86.08710167804094,"neighborhood":"Keystone at The Crossing","city_fetched":"Indiana","state":"IN","country":"United States","canonicalUrl":"https://foursquare.com/v/sinking-ship-2/560ecb1f498eb0212f2fb296","category":"Sports Bar","checkinsCount":244,"usersCount":170,"tipCount":3,"visitsCount":309,"tier":"","message":"","currency":"","rating":8.4},{"name":"The Mousetrap Bar & Grill","phone":"3172553189","twitter":"themousetrap","address":"5565 N Keystone Ave","lat":39.85451698282047,"lng":-86.12159076611229,"city_fetched":"Indiana","state":"IN","country":"United States","canonicalUrl":"https://foursquare.com/themousetrap","category":"Music Venue","checkinsCount":3585,"usersCount":1352,"tipCount":33,"visitsCount":4021,"url":"http://themousetrapbar.com","tier":"","message":"","currency":"","rating":8.4},{"name":"Rathskeller Biergarten","phone":"3176360396","address":"401 E Michigan St","lat":39.77335943710805,"lng":-86.1499571800232,"neighborhood":"Downtown Indianapolis","city_fetched":"Indiana","state":"IN","country":"United States","canonicalUrl":"https://foursquare.com/v/rathskeller-biergarten/4bda090ac79cc928b2277de9","category":"Beer Garden","checkinsCount":3314,"usersCount":2029,"tipCount":18,"visitsCount":3324,"url":"http://rathskeller.com","tier":"","message":"","currency":"","rating":8.4},{"name":"Bu Da Lounge","phone":"3178228522","twitter":"budalounge","address":"148 E Market St","lat":39.76846294489516,"lng":-86.15494861198684,"neighborhood":"Downtown Indianapolis","city_fetched":"Indiana","state":"IN","country":"United States","canonicalUrl":"https://foursquare.com/v/bu-da-lounge/4ae0e3faf964a5206a8321e3","category":"Japanese Restaurant","checkinsCount":2053,"usersCount":971,"tipCount":33,"visitsCount":2354,"url":"http://www.budalounge.com","tier":"","message":"","currency":"","rating":8.4},{"name":"The Sinking Ship","phone":"3179207999","twitter":"sinkingshipindy","address":"4923 N College Ave","lat":39.84346389770508,"lng":-86.145392,"neighborhood":"Meridian Kessler","city_fetched":"Indiana","state":"IN","country":"United States","canonicalUrl":"https://foursquare.com/v/the-sinking-ship/4d4f10a25fb0b1f7347f8191","category":"Pub","checkinsCount":12005,"usersCount":2877,"tipCount":92,"visitsCount":13892,"url":"http://www.sinkingshipindy.com","tier":2,"message":"Moderate","currency":"$","rating":8.4},{"name":"Kona Jack's","phone":"3178431609","address":"9419 N Meridian St","lat":39.92454794803523,"lng":-86.15643739700317,"neighborhood":"Nora - Far Northside","city_fetched":"Indiana","state":"IN","country":"United States","canonicalUrl":"https://foursquare.com/v/kona-jacks/4b5a53a0f964a52078bd28e3","category":"Sushi Restaurant","checkinsCount":1842,"usersCount":1079,"tipCount":17,"visitsCount":1975,"url":"http://jacksarebetter.net","tier":3,"message":"Expensive","currency":"$","rating":8.4},{"name":"HopCat","phone":"3175654236","address":"6280 N College Ave","lat":39.869443492304676,"lng":-86.14616762867902,"neighborhood":"Broad Ripple","city_fetched":"Indiana","state":"IN","country":"United States","canonicalUrl":"https://foursquare.com/v/hopcat/53ed3d00498eaae8948b30e6","category":"Bar","checkinsCount":3484,"usersCount":2460,"tipCount":49,"visitsCount":5343,"url":"http://hopcat.com","tier":"","message":"","currency":"","rating":8.4},{"name":"Hard Rock Cafe Indianapolis","phone":"3179514816","twitter":"hardrock","address":"49 S Meridian St","lat":39.76578508752624,"lng":-86.15793406963348,"neighborhood":"Downtown Indianapolis","city_fetched":"Indiana","state":"IN","country":"United States","canonicalUrl":"https://foursquare.com/v/hard-rock-cafe-indianapolis/4ada0a97f964a520ae1d21e3","category":"Theme Restaurant","checkinsCount":5455,"usersCount":4289,"tipCount":45,"visitsCount":5718,"url":"http://www.facebook.com/hardrock","tier":2,"message":"Moderate","currency":"$","rating":8.3},{"name":"Daredevil Brewing Co","twitter":"daredevilbeer","address":"1151 Main Street","lat":39.782630805496005,"lng":-86.2407656974303,"city_fetched":"Indiana","state":"IN","country":"United States","canonicalUrl":"https://foursquare.com/v/daredevil-brewing-co/535aa0f5498efe844cc60b8d","category":"Brewery","checkinsCount":485,"usersCount":385,"tipCount":5,"visitsCount":700,"url":"http://www.daredevilbeer.com","tier":"","message":"","currency":"","rating":8.3},{"name":"Greg's (Our Place)","phone":"3176388138","address":"231 E 16th St","lat":39.788315231285495,"lng":-86.15275723427199,"neighborhood":"Old Northside","city_fetched":"Indiana","state":"IN","country":"United States","canonicalUrl":"https://foursquare.com/v/gregs-our-place/4b0e1963f964a520f75423e3","category":"Gay Bar","checkinsCount":11651,"usersCount":1661,"tipCount":27,"visitsCount":12986,"url":"http://www.gregsindianapolis.com","tier":1,"message":"Cheap","currency":"$","rating":8.3},{"name":"Conrad Indianapolis","phone":"3177135000","twitter":"conradindy","address":"50 W Washington St","lat":39.76734968786905,"lng":-86.15959441991279,"neighborhood":"Downtown Indianapolis","city_fetched":"Indiana","state":"IN","country":"United States","canonicalUrl":"https://foursquare.com/v/conrad-indianapolis/4b5901b6f964a5200e7828e3","category":"Hotel","checkinsCount":5282,"usersCount":2593,"tipCount":23,"visitsCount":5316,"url":"http://www.stayinspired.com","tier":"","message":"","currency":"","rating":8.3},{"name":"Libertine on Mass","lat":39.775752,"lng":-86.148296,"neighborhood":"Chatham Arch","city_fetched":"Indiana","state":"IN","country":"United States","canonicalUrl":"https://foursquare.com/v/libertine-on-mass/54d2a0f7498e78c8c2192313","category":"Bar","checkinsCount":425,"usersCount":297,"tipCount":3,"visitsCount":455,"tier":"","message":"","currency":"","rating":8.3},{"name":"TwoDEEP Brewing Co.","phone":"3176531884","twitter":"twodeepbrewing","address":"714 N Capitol Ave","lat":39.77725142976855,"lng":-86.16174817085266,"neighborhood":"Downtown Indianapolis","city_fetched":"Indiana","state":"IN","country":"United States","canonicalUrl":"https://foursquare.com/v/twodeep-brewing-co/53d41f02498e2a83f39f52a0","category":"Brewery","checkinsCount":614,"usersCount":591,"tipCount":5,"visitsCount":978,"url":"http://www.twodeepbrewing.com","tier":"","message":"","currency":"","rating":8.3},{"name":"Mass Ave Pub","phone":"3179740745","twitter":"massavepub","address":"745 Massachusetts Ave","lat":39.77706833021887,"lng":-86.14581973754753,"neighborhood":"Chatham Arch","city_fetched":"Indiana","state":"IN","country":"United States","canonicalUrl":"https://foursquare.com/v/mass-ave-pub/4bd8c357e914a593156d54fa","category":"Bar","checkinsCount":7142,"usersCount":2105,"tipCount":46,"visitsCount":7605,"url":"http://massavepub.com","tier":2,"message":"Moderate","currency":"$","rating":8.3},{"name":"Ralston's DraftHouse","phone":"3174931143","twitter":"ralstonsdraft","address":"635 Massachusetts Ave","lat":39.77579471704908,"lng":-86.14769335187441,"neighborhood":"Chatham Arch","city_fetched":"Indiana","state":"IN","country":"United States","canonicalUrl":"https://foursquare.com/v/ralstons-drafthouse/5057b021e4b04bd69ed75e78","category":"Pub","checkinsCount":6123,"usersCount":3020,"tipCount":54,"visitsCount":7015,"url":"http://www.ralstonsdrafthouse.com","tier":2,"message":"Moderate","currency":"$","rating":8.3},{"name":"Fort Ben Pub","lat":39.856288552353746,"lng":-86.00970819810401,"city_fetched":"Indiana","state":"IN","country":"United States","canonicalUrl":"https://foursquare.com/v/fort-ben-pub/523dfd3611d241f550da6e5b","category":"Bar","checkinsCount":623,"usersCount":202,"tipCount":7,"visitsCount":928,"tier":2,"message":"Moderate","currency":"$","rating":8.3},{"name":"Rock Bottom Restaurant & Brewery","phone":"3176818180","twitter":"rockbottom","address":"10 W Washington St","lat":39.76713866912979,"lng":-86.15860069967036,"neighborhood":"Downtown Indianapolis","city_fetched":"Indiana","state":"IN","country":"United States","canonicalUrl":"https://foursquare.com/v/rock-bottom-restaurant--brewery/4a974801f964a520382920e3","category":"Brewery","checkinsCount":10266,"usersCount":7153,"tipCount":92,"visitsCount":10502,"url":"http://www.rockbottom.com/DisplayLocationRBR.php?F","tier":2,"message":"Moderate","currency":"$","rating":8.3},{"name":"Books & Brews Brewing Company","phone":"3172885136","twitter":"booksbrews","address":"9402 Uptown Dr Ste 1400","lat":39.924126480825215,"lng":-86.03638054884603,"neighborhood":"Castleton","city_fetched":"Indiana","state":"IN","country":"United States","canonicalUrl":"https://foursquare.com/booksbrews","category":"Brewery","checkinsCount":782,"usersCount":504,"tipCount":15,"visitsCount":1163,"url":"http://www.booksnbrews.com","tier":"","message":"","currency":"","rating":8.3},{"name":"Coaches Tavern","phone":"3179171191","twitter":"coachestavern","address":"28 S Pennsylvania St","lat":39.76616906056067,"lng":-86.1561461279613,"neighborhood":"Downtown Indianapolis","city_fetched":"Indiana","state":"IN","country":"United States","canonicalUrl":"https://foursquare.com/coachestavern","category":"Sports Bar","checkinsCount":7981,"usersCount":1948,"tipCount":41,"visitsCount":8112,"url":"http://www.coachestavern.com","tier":2,"message":"Moderate","currency":"$","rating":8.3},{"name":"Melody Inn","phone":"3179234707","address":"3826 N Illinois St","lat":39.82556141860407,"lng":-86.15947902202606,"neighborhood":"Butler - Tarkington","city_fetched":"Indiana","state":"IN","country":"United States","canonicalUrl":"https://foursquare.com/v/melody-inn/4ad77854f964a520fb0a21e3","category":"Bar","checkinsCount":3730,"usersCount":1295,"tipCount":29,"visitsCount":4146,"url":"http://www.melodyindy.com","tier":1,"message":"Cheap","currency":"$","rating":8.3},{"name":"Howl at the Moon","phone":"3179550300","twitter":"_howlatthemoon","address":"20 E Georgia St","lat":39.764308808444106,"lng":-86.15741317866772,"neighborhood":"Downtown Indianapolis","city_fetched":"Indiana","state":"IN","country":"United States","canonicalUrl":"https://foursquare.com/v/howl-at-the-moon/4aeccbeff964a52046cb21e3","category":"Nightclub","checkinsCount":14369,"usersCount":7788,"tipCount":69,"visitsCount":14805,"url":"http://www.howlatthemoon.com","tier":2,"message":"Moderate","currency":"$","rating":8.2},{"name":"Meridian Restaurant & Bar","phone":"3174661111","address":"5694 N Meridian St","lat":39.856805053968706,"lng":-86.15759702263442,"neighborhood":"Butler - Tarkington","city_fetched":"Indiana","state":"IN","country":"United States","canonicalUrl":"https://foursquare.com/v/meridian-restaurant--bar/4c2fc61b213c2d7f6a80315d","category":"American Restaurant","checkinsCount":1133,"usersCount":803,"tipCount":19,"visitsCount":1475,"url":"http://meridianonmeridian.com","tier":2,"message":"Moderate","currency":"$","rating":8.2},{"name":"The Brass Ring","phone":"3176357464","address":"1245 Shelby St","lat":39.75037666,"lng":-86.13965661,"neighborhood":"Fountain Square","city_fetched":"Indiana","state":"IN","country":"United States","canonicalUrl":"https://foursquare.com/v/the-brass-ring/4ada0331f964a520361d21e3","category":"Bar","checkinsCount":4145,"usersCount":1797,"tipCount":35,"visitsCount":4554,"url":"http://thebrassringlounge.com","tier":2,"message":"Moderate","currency":"$","rating":8.2},{"name":"The Grill","phone":"3178422087","twitter":"grillfallcreek","address":"9755 Fall Creek Rd","lat":39.89723863262372,"lng":-85.99562419454936,"city_fetched":"Indiana","state":"IN","country":"United States","canonicalUrl":"https://foursquare.com/v/the-grill/4b5b9c8ff964a520e40a29e3","category":"Bar","checkinsCount":969,"usersCount":511,"tipCount":12,"visitsCount":1264,"url":"http://www.thegrillatgeist.com","tier":2,"message":"Moderate","currency":"$","rating":8.2},{"name":"Shallos Antique Restaurant","phone":"3178827997","twitter":"shallos","address":"8811 Hardegan St","lat":39.63801733734666,"lng":-86.12459888294876,"city_fetched":"Indiana","state":"IN","country":"United States","canonicalUrl":"https://foursquare.com/v/shallos-antique-restaurant/4ad7d796f964a5204f0f21e3","category":"American Restaurant","checkinsCount":3580,"usersCount":1789,"tipCount":53,"visitsCount":4009,"url":"http://shallos.net","tier":2,"message":"Moderate","currency":"$","rating":8.2},{"name":"Repeal","phone":"3176727514","twitter":"repealdine","address":"636 Virginia Ave","lat":39.75814914156416,"lng":-86.14599865328175,"neighborhood":"Fletcher Place","city_fetched":"Indiana","state":"IN","country":"United States","canonicalUrl":"https://foursquare.com/v/repeal/559f1827498ecf68f08ef678","category":"Cocktail Bar","checkinsCount":198,"usersCount":179,"tipCount":7,"visitsCount":230,"url":"http://www.repealrestaurant.com","tier":"","message":"","currency":"","rating":8.2},{"name":"Metazoa Brewing Company","phone":"3175220251","twitter":"metazoabrewing","address":"140 S College Ave","lat":39.76418929628385,"lng":-86.1459982395172,"neighborhood":"Downtown Indianapolis","city_fetched":"Indiana","state":"IN","country":"United States","canonicalUrl":"https://foursquare.com/v/metazoa-brewing-company/55e71ab8498e42d80720e30a","category":"Brewery","checkinsCount":265,"usersCount":289,"tipCount":2,"visitsCount":482,"tier":"","message":"","currency":"","rating":8.2},{"name":"Chatterbox Jazz Club","phone":"3176360584","address":"435 Massachusetts Ave","lat":39.77343646443313,"lng":-86.15108258080495,"neighborhood":"Downtown Indianapolis","city_fetched":"Indiana","state":"IN","country":"United States","canonicalUrl":"https://foursquare.com/v/chatterbox-jazz-club/4ad4bff8f964a52001ea20e3","category":"Jazz Club","checkinsCount":3948,"usersCount":1429,"tipCount":40,"visitsCount":4041,"url":"http://www.chatterboxjazz.com","tier":"","message":"","currency":"","rating":8.2},{"name":"Kilroy's Bar & Grill","phone":"3176389464","twitter":"kilroysindy","address":"201 S Meridian St","lat":39.764181049204616,"lng":-86.15800380706787,"neighborhood":"Downtown Indianapolis","city_fetched":"Indiana","state":"IN","country":"United States","canonicalUrl":"https://foursquare.com/v/kilroys-bar--grill/4b17629bf964a52025c523e3","category":"Sports Bar","checkinsCount":25460,"usersCount":11211,"tipCount":133,"visitsCount":27283,"url":"http://www.kilroysindy.com","tier":2,"message":"Moderate","currency":"$","rating":8.2},{"name":"La Revolucion Cafe & Bar","phone":"3174239490","address":"1132 Prospect St","lat":39.75251218915367,"lng":-86.13876697786954,"neighborhood":"Fountain Square","city_fetched":"Indiana","state":"IN","country":"United States","canonicalUrl":"https://foursquare.com/v/la-revolucion-cafe--bar/4df429bf22718759f82298c4","category":"Bar","checkinsCount":4111,"usersCount":1797,"tipCount":59,"visitsCount":4408,"tier":2,"message":"Moderate","currency":"$","rating":8.2},{"name":"New Day Craft Mead & Cider","phone":"8886323379","twitter":"newdaycraft","address":"1102 Prospect St","lat":39.75248569711372,"lng":-86.13958239555359,"neighborhood":"Fountain Square","city_fetched":"Indiana","state":"IN","country":"United States","canonicalUrl":"https://foursquare.com/v/new-day-craft-mead--cider/4beda0ed6c5c9521d0e7068a","category":"Brewery","checkinsCount":3410,"usersCount":1722,"tipCount":32,"visitsCount":3765,"url":"http://www.newdaycraft.com","tier":2,"message":"Moderate","currency":"$","rating":8.2},{"name":"Blind Owl Brewery","phone":"3179241000","twitter":"blindowlbrewery","address":"5014 E 62nd St","lat":39.870006862912966,"lng":-86.08457402210999,"neighborhood":"Eastwood","city_fetched":"Indiana","state":"IN","country":"United States","canonicalUrl":"https://foursquare.com/v/blind-owl-brewery/559e9921498e4d1770ad7e3c","category":"Brewery","checkinsCount":764,"usersCount":740,"tipCount":15,"visitsCount":1395,"url":"http://blindowlbrewery.com","tier":"","message":"","currency":"","rating":8.1},{"name":"Thunderbird","phone":"3179749580","twitter":"thunderbirdindy","address":"1127 Shelby St","lat":39.751525,"lng":-86.139579,"neighborhood":"Fountain Square","city_fetched":"Indiana","state":"IN","country":"United States","canonicalUrl":"https://foursquare.com/v/thunderbird/52a00826498ee805b3256475","category":"Cocktail Bar","checkinsCount":1312,"usersCount":901,"tipCount":24,"visitsCount":1599,"url":"http://thunderbirdindy.com","tier":3,"message":"Expensive","currency":"$","rating":8.1},{"name":"Rusty Bucket Restaurant and Tavern","phone":"3175663463","twitter":"myrustybucket","address":"1130 W 86th St","lat":39.91306261478751,"lng":-86.17968101038133,"neighborhood":"St. Vincent - Greenbriar","city_fetched":"Indiana","state":"IN","country":"United States","canonicalUrl":"https://foursquare.com/v/rusty-bucket-restaurant-and-tavern/4ad91d84f964a5203d1821e3","category":"Gastropub","checkinsCount":2585,"usersCount":1285,"tipCount":33,"visitsCount":3272,"url":"http://www.myrustybucket.com/home.aspx","tier":2,"message":"Moderate","currency":"$","rating":8.1},{"name":"The Pawn Shop Pub","phone":"3172555430","address":"2222 E 54th St","lat":39.85179168833948,"lng":-86.12406313419342,"city_fetched":"Indiana","state":"IN","country":"United States","canonicalUrl":"https://foursquare.com/v/the-pawn-shop-pub/4aee2c9cf964a520b4d221e3","category":"Wine Bar","checkinsCount":4164,"usersCount":918,"tipCount":23,"visitsCount":4570,"tier":1,"message":"Cheap","currency":"$","rating":8.1},{"name":"Naked Tchopstix","phone":"3172525555","twitter":"naked_tchopstix","address":"6253 N College Ave","lat":39.869143961564816,"lng":-86.14596873521805,"neighborhood":"Broad Ripple","city_fetched":"Indiana","state":"IN","country":"United States","canonicalUrl":"https://foursquare.com/v/naked-tchopstix/4aef872cf964a52015d921e3","category":"Sushi Restaurant","checkinsCount":5460,"usersCount":2549,"tipCount":68,"visitsCount":5519,"url":"http://tchopstix.com","tier":2,"message":"Moderate","currency":"$","rating":8.1},{"name":"Dorman Street Saloon","phone":"3172379008","address":"901 Dorman St","lat":39.77904305,"lng":-86.138843,"neighborhood":"Near Eastside","city_fetched":"Indiana","state":"IN","country":"United States","canonicalUrl":"https://foursquare.com/v/dorman-street-saloon/4af4d7edf964a520d1f621e3","category":"Bar","checkinsCount":3441,"usersCount":1167,"tipCount":25,"visitsCount":3999,"url":"http://www.dormanstreet.com‎","tier":2,"message":"Moderate","currency":"$","rating":8.1},{"name":"Radio Radio","phone":"3179550995","address":"1119 Prospect St","lat":39.7520608990667,"lng":-86.13915860652924,"neighborhood":"Fountain Square","city_fetched":"Indiana","state":"IN","country":"United States","canonicalUrl":"https://foursquare.com/v/radio-radio/4ad4bff8f964a520fde920e3","category":"Bar","checkinsCount":2840,"usersCount":1397,"tipCount":14,"visitsCount":2859,"url":"http://futureshock.net","tier":1,"message":"Cheap","currency":"$","rating":8.1},{"name":"Koelschip","address":"2505 N Delaware St","lat":39.80322307935146,"lng":-86.15288146454219,"neighborhood":"Fall Creek Place","city_fetched":"Indiana","state":"IN","country":"United States","canonicalUrl":"https://foursquare.com/v/koelschip/56a547af498e83d8fabc9914","category":"Pub","checkinsCount":171,"usersCount":87,"tipCount":5,"visitsCount":172,"tier":"","message":"","currency":"","rating":8.1},{"name":"Payless Liquors","phone":"3175709851","twitter":"payless_liquors","address":"9520 Uptown Dr","lat":39.92588782102746,"lng":-86.03539440512137,"neighborhood":"Castleton","city_fetched":"Indiana","state":"IN","country":"United States","canonicalUrl":"https://foursquare.com/v/payless-liquors/4b1713fef964a520f2c123e3","category":"Liquor Store","checkinsCount":1349,"usersCount":372,"tipCount":10,"visitsCount":1446,"url":"http://www.payless-liquors.com","tier":"","message":"","currency":"","rating":8.1},{"name":"The Tap","phone":"3178205880","twitter":"thetapmassave","address":"306 N. Delaware Street","lat":39.77120651429656,"lng":-86.15454612107307,"neighborhood":"Downtown Indianapolis","city_fetched":"Indiana","state":"IN","country":"United States","canonicalUrl":"https://foursquare.com/v/the-tap/55fdc727498e62f1d9ab9633","category":"Bar","checkinsCount":938,"usersCount":834,"tipCount":9,"visitsCount":1604,"url":"http://www.thetapmassave.com","tier":"","message":"","currency":"","rating":8.1},{"name":"Thirsty Scholar","phone":"3176023357","twitter":"thirstyscholari","address":"111 E 16th St, Suite 101","lat":39.78833754466504,"lng":-86.15567905037513,"neighborhood":"Old Northside","city_fetched":"Indiana","state":"IN","country":"United States","canonicalUrl":"https://foursquare.com/v/thirsty-scholar/51f00494498ee1a169c6567d","category":"Coffee Shop","checkinsCount":1420,"usersCount":768,"tipCount":22,"visitsCount":1950,"url":"http://www.thirstyscholar.net","tier":2,"message":"Moderate","currency":"$","rating":8.1},{"name":"Schneider's Pub","address":"8017 S Meridian St","lat":39.65079170370129,"lng":-86.15727405306467,"city_fetched":"Indiana","state":"IN","country":"United States","canonicalUrl":"https://foursquare.com/v/schneiders-pub/4c8978f82e3337048461bb41","category":"Pub","checkinsCount":685,"usersCount":173,"tipCount":3,"visitsCount":719,"tier":"","message":"","currency":"","rating":8.1},{"name":"George's Neighborhood Grill","phone":"3175771600","twitter":"georges_grill","address":"6935 Lake Plaza Dr","lat":39.88147655914229,"lng":-86.06763851167021,"city_fetched":"Indiana","state":"IN","country":"United States","canonicalUrl":"https://foursquare.com/v/georges-neighborhood-grill/4afdf6acf964a5207c2c22e3","category":"Bar","checkinsCount":3890,"usersCount":1722,"tipCount":43,"visitsCount":4213,"url":"http://www.georgesneighborhoodgrill.com","tier":2,"message":"Moderate","currency":"$","rating":8},{"name":"Lockerbie Pub","phone":"3176319545","address":"631 E Michigan St","lat":39.77372334397242,"lng":-86.14585452676702,"neighborhood":"Downtown Indianapolis","city_fetched":"Indiana","state":"IN","country":"United States","canonicalUrl":"https://foursquare.com/v/lockerbie-pub/4b0deb07f964a5209c5223e3","category":"Pub","checkinsCount":3651,"usersCount":1067,"tipCount":22,"visitsCount":3844,"tier":"","message":"","currency":"","rating":8},{"name":"Keystone Sports Review","phone":"3172519902","address":"5602 N Keystone Ave","lat":39.85531632,"lng":-86.12243142,"city_fetched":"Indiana","state":"IN","country":"United States","canonicalUrl":"https://foursquare.com/v/keystone-sports-review/4bba39f7b35776b097aeca01","category":"Pub","checkinsCount":1396,"usersCount":667,"tipCount":19,"visitsCount":1695,"url":"http://keystonesportsreview.com","tier":1,"message":"Cheap","currency":"$","rating":8},{"name":"Broad Ripple Brew Pub","phone":"3172532739","twitter":"brbrewpub","address":"842 E 65th St","lat":39.87350208529361,"lng":-86.14281286572519,"neighborhood":"Broad Ripple","city_fetched":"Indiana","state":"IN","country":"United States","canonicalUrl":"https://foursquare.com/v/broad-ripple-brew-pub/4b16de74f964a520b2be23e3","category":"Brewery","checkinsCount":7277,"usersCount":3414,"tipCount":65,"visitsCount":7853,"url":"http://www.broadripplebrewpub.com","tier":2,"message":"Moderate","currency":"$","rating":8},{"name":"Morty's Comedy Joint","phone":"3178485500","twitter":"mortyscomedy","address":"3625 E 96th St","lat":39.90922599622357,"lng":-86.10103368759155,"neighborhood":"Keystone at The Crossing","city_fetched":"Indiana","state":"IN","country":"United States","canonicalUrl":"https://foursquare.com/v/mortys-comedy-joint/4aeb0b0ff964a5207fbd21e3","category":"Comedy Club","checkinsCount":2120,"usersCount":1400,"tipCount":15,"visitsCount":2285,"url":"http://www.mortyscomedy.com","tier":"","message":"","currency":"","rating":8},{"name":"Moe & Johnny's","phone":"3172556376","twitter":"moeandjohnnys","address":"5380 N College Ave","lat":39.85085852,"lng":-86.14604566666667,"neighborhood":"Meridian Kessler","city_fetched":"Indiana","state":"IN","country":"United States","canonicalUrl":"https://foursquare.com/v/moe--johnnys/4adcff79f964a5204e6321e3","category":"Sports Bar","checkinsCount":10302,"usersCount":2813,"tipCount":55,"visitsCount":11311,"url":"http://www.moeandjohnnys.com","tier":1,"message":"Cheap","currency":"$","rating":8},{"name":"Benihana","phone":"3178462495","twitter":"benihana__","address":"8830 Keystone Xing","lat":39.91604600611778,"lng":-86.10996932636748,"neighborhood":"Keystone at The Crossing","city_fetched":"Indiana","state":"IN","country":"United States","canonicalUrl":"https://foursquare.com/v/benihana/4b33f8d9f964a5201a2325e3","category":"Japanese Restaurant","checkinsCount":2923,"usersCount":1950,"tipCount":36,"visitsCount":3286,"url":"http://www.benihana.com","tier":3,"message":"Expensive","currency":"$","rating":8},{"name":"Union Jack Pub","phone":"3172433300","twitter":"ujspeedway","address":"6225 W 25th St","lat":39.80198654360676,"lng":-86.26869640544432,"city_fetched":"Indiana","state":"IN","country":"United States","canonicalUrl":"https://foursquare.com/v/union-jack-pub/4b80515df964a5206f6730e3","category":"Pizza Place","checkinsCount":2873,"usersCount":1160,"tipCount":28,"visitsCount":3439,"url":"http://unionjackspeedway.com","tier":2,"message":"Moderate","currency":"$","rating":8},{"name":"Manley's Irish Mutt","phone":"3173510009","address":"7041 E 10th St","lat":39.78165179860514,"lng":-86.0437859861517,"neighborhood":"East Gate","city_fetched":"Indiana","state":"IN","country":"United States","canonicalUrl":"https://foursquare.com/v/manleys-irish-mutt/4d28d075068e8cfaeb91c94c","category":"Bar","checkinsCount":3400,"usersCount":688,"tipCount":13,"visitsCount":3747,"tier":"","message":"","currency":"","rating":8},{"name":"The Columbia Club","phone":"3177671361","twitter":"thecolumbiaclub","address":"121 Monument Cir","lat":39.76902191482016,"lng":-86.15752100944519,"neighborhood":"Downtown Indianapolis","city_fetched":"Indiana","state":"IN","country":"United States","canonicalUrl":"https://foursquare.com/v/the-columbia-club/4ad4bff8f964a520f4e920e3","category":"Hotel","checkinsCount":5685,"usersCount":1674,"tipCount":17,"visitsCount":5767,"url":"http://www.columbia-club.org","tier":"","message":"","currency":"","rating":7.9},{"name":"Mo's... A Place for Steaks","phone":"3176350720","twitter":"mossteaksindy","address":"15 E Maryland St","lat":39.76558160386585,"lng":-86.15727405306467,"neighborhood":"Downtown Indianapolis","city_fetched":"Indiana","state":"IN","country":"United States","canonicalUrl":"https://foursquare.com/v/mos-a-place-for-steaks/4be1f55cae55a5930a275c62","category":"Steakhouse","checkinsCount":1726,"usersCount":1067,"tipCount":19,"visitsCount":1726,"url":"http://www.mosindy.net","tier":"","message":"","currency":"","rating":7.9},{"name":"Ram Restaurant & Brewery","phone":"3179559900","twitter":"theram","address":"140 S Illinois St","lat":39.76486039904524,"lng":-86.16014689207077,"neighborhood":"Downtown Indianapolis","city_fetched":"Indiana","state":"IN","country":"United States","canonicalUrl":"https://foursquare.com/v/ram-restaurant--brewery/4ada3fe0f964a520832021e3","category":"Brewery","checkinsCount":9350,"usersCount":6317,"tipCount":92,"visitsCount":9476,"url":"http://theram.com","tier":2,"message":"Moderate","currency":"$","rating":7.9},{"name":"O'Reilly Irish Bar","lat":39.63668687420443,"lng":-86.15782061575777,"city_fetched":"Indiana","state":"IN","country":"United States","canonicalUrl":"https://foursquare.com/v/oreilly-irish-bar/56859506498e433ef351054e","category":"Pub","checkinsCount":180,"usersCount":118,"tipCount":3,"visitsCount":321,"tier":"","message":"","currency":"","rating":7.9},{"name":"Ike & Jonesy's","phone":"3176324553","twitter":"ikeandjonesys","address":"17 Jackson Pl","lat":39.76364374825342,"lng":-86.15894353533476,"neighborhood":"Downtown Indianapolis","city_fetched":"Indiana","state":"IN","country":"United States","canonicalUrl":"https://foursquare.com/ikeandjonesys","category":"Nightclub","checkinsCount":3878,"usersCount":2275,"tipCount":23,"visitsCount":4015,"url":"http://ikeandjonesys.com","tier":1,"message":"Cheap","currency":"$","rating":7.9},{"name":"The Wellington","phone":"3172555159","address":"6331 Guilford Ave","lat":39.87050629106446,"lng":-86.14278304462482,"neighborhood":"Broad Ripple","city_fetched":"Indiana","state":"IN","country":"United States","canonicalUrl":"https://foursquare.com/v/the-wellington/4add0caef964a520be6321e3","category":"Pub","checkinsCount":2712,"usersCount":1030,"tipCount":24,"visitsCount":2742,"tier":2,"message":"Moderate","currency":"$","rating":7.9},{"name":"IMS SnakePit","lat":39.79865994945439,"lng":-86.23411799029908,"city_fetched":"Indiana","state":"IN","country":"United States","canonicalUrl":"https://foursquare.com/v/ims-snakepit/4dd6a73ad1647fcf3e370d90","category":"Cocktail Bar","checkinsCount":599,"usersCount":440,"tipCount":1,"visitsCount":615,"tier":"","message":"","currency":"","rating":7.9},{"name":"Chilly Water Brewing Company","phone":"3179640518","twitter":"chillywaterbrew","address":"719 Virginia Ave Ste 105","lat":39.75727694394007,"lng":-86.1451686777949,"neighborhood":"Fletcher Place","city_fetched":"Indiana","state":"IN","country":"United States","canonicalUrl":"https://foursquare.com/v/chilly-water-brewing-company/53a8a7df498ecad91b05584e","category":"Brewery","checkinsCount":1555,"usersCount":1027,"tipCount":12,"visitsCount":2280,"url":"http://www.chillywaterbrewing.com","tier":"","message":"","currency":"","rating":7.9},{"name":"Revel Nightclub & Lounge","phone":"3172004836","twitter":"revel317","address":"225 S Meridian St","lat":39.763665935053695,"lng":-86.15803923920029,"neighborhood":"Downtown Indianapolis","city_fetched":"Indiana","state":"IN","country":"United States","canonicalUrl":"https://foursquare.com/v/revel-nightclub--lounge/53d1b1ca498e902ed0077394","category":"Nightclub","checkinsCount":187,"usersCount":137,"tipCount":2,"visitsCount":193,"url":"http://revelnightlife.com","tier":"","message":"","currency":"","rating":7.8},{"name":"Rock Bottom Restaurant & Brewery","phone":"3174718840","twitter":"rockbottom","address":"2801 Lake Circle Dr","lat":39.91265151523272,"lng":-86.20930910110474,"neighborhood":"College Park","city_fetched":"Indiana","state":"IN","country":"United States","canonicalUrl":"https://foursquare.com/v/rock-bottom-restaurant--brewery/4ae78f09f964a52061ac21e3","category":"Brewery","checkinsCount":6129,"usersCount":2860,"tipCount":53,"visitsCount":7203,"url":"http://rockbottom.com","tier":2,"message":"Moderate","currency":"$","rating":7.8},{"name":"Claddagh Irish Pub","phone":"3175693663","twitter":"claddagh_n_indy","address":"3835 E 96th St","lat":39.92635393506106,"lng":-86.10017538070679,"neighborhood":"Keystone at The Crossing","city_fetched":"Indiana","state":"IN","country":"United States","canonicalUrl":"https://foursquare.com/v/claddagh-irish-pub/4b13167ef964a520f19323e3","category":"Restaurant","checkinsCount":3115,"usersCount":2042,"tipCount":35,"visitsCount":3247,"url":"http://www.claddaghirishpubs.com","tier":2,"message":"Moderate","currency":"$","rating":7.8},{"name":"Drakes","phone":"3174367531","address":"3749 E 82nd St","lat":39.910440416014374,"lng":-86.1022102902706,"neighborhood":"Castleton","city_fetched":"Indiana","state":"IN","country":"United States","canonicalUrl":"https://foursquare.com/v/drakes/50cfb6cee4b050f8e6c52440","category":"New American Restaurant","checkinsCount":3510,"usersCount":1902,"tipCount":52,"visitsCount":4385,"url":"http://bluegrasshospitality.com","tier":2,"message":"Moderate","currency":"$","rating":7.8},{"name":"Open Society","address":"4850 N College Ave","lat":39.8427744247925,"lng":-86.14583961710441,"neighborhood":"Meridian Kessler","city_fetched":"Indiana","state":"IN","country":"United States","canonicalUrl":"https://foursquare.com/v/open-society/56197851498efdb18db40b45","category":"South American Restaurant","checkinsCount":135,"usersCount":81,"tipCount":3,"visitsCount":159,"tier":"","message":"","currency":"","rating":7.8},{"name":"GG's Bar and Grill","phone":"3175958900","address":"5701 E 71st St","lat":39.88285775362082,"lng":-86.0714212421104,"city_fetched":"Indiana","state":"IN","country":"United States","canonicalUrl":"https://foursquare.com/v/ggs-bar-and-grill/545d7c41498e65bd941b15eb","category":"Bar","checkinsCount":831,"usersCount":268,"tipCount":7,"visitsCount":870,"url":"http://ggsbarandgrill.com","tier":1,"message":"Cheap","currency":"$","rating":7.8},{"name":"Severin Bar & Grille","phone":"3176346664","twitter":"omnihotels","address":"40 Jackson Pl","lat":39.76375200546121,"lng":-86.15968882233193,"neighborhood":"Downtown Indianapolis","city_fetched":"Indiana","state":"IN","country":"United States","canonicalUrl":"https://foursquare.com/v/severin-bar--grille/4b76ab5ef964a52074572ee3","category":"Hotel Bar","checkinsCount":926,"usersCount":547,"tipCount":10,"visitsCount":935,"url":"http://omnihotels.com","tier":"","message":"","currency":"","rating":7.8},{"name":"HandleBar Indy","address":"Its A Bike!","lat":39.76212447764745,"lng":-86.15489892192184,"neighborhood":"Downtown Indianapolis","city_fetched":"Indiana","state":"IN","country":"United States","canonicalUrl":"https://foursquare.com/v/handlebar-indy/51869273498e6ba53d04d7bf","category":"Bar","checkinsCount":181,"usersCount":156,"tipCount":4,"visitsCount":184,"tier":"","message":"","currency":"","rating":7.8},{"name":"Triton Tap","phone":"3172575604","twitter":"tritonbrewing","address":"915 Broad Ripple Ave","lat":39.8695474505932,"lng":-86.1423397064209,"neighborhood":"Broad Ripple","city_fetched":"Indiana","state":"IN","country":"United States","canonicalUrl":"https://foursquare.com/v/triton-tap/5155940de4b08bfe22686be2","category":"Pub","checkinsCount":1187,"usersCount":620,"tipCount":11,"visitsCount":1202,"url":"http://tritonbrewing.com/tap-room/triton-tap-in-broad-ripple/","tier":2,"message":"Moderate","currency":"$","rating":7.8},{"name":"Plump's Last Shot","phone":"3172575867","address":"6416 Cornell Ave","lat":39.87311784714371,"lng":-86.14262399846302,"neighborhood":"Broad Ripple","city_fetched":"Indiana","state":"IN","country":"United States","canonicalUrl":"https://foursquare.com/v/plumps-last-shot/4b5a7773f964a520dec628e3","category":"Bar","checkinsCount":2658,"usersCount":1208,"tipCount":19,"visitsCount":2687,"tier":1,"message":"Cheap","currency":"$","rating":7.8},{"name":"Granite City Food & Brewery","phone":"3172187185","address":"150 W 96th St","lat":39.92727953636944,"lng":-86.16014957427979,"city_fetched":"Indiana","state":"IN","country":"United States","canonicalUrl":"https://foursquare.com/v/granite-city-food--brewery/4b8c3669f964a52067c432e3","category":"Brewery","checkinsCount":7596,"usersCount":4100,"tipCount":74,"visitsCount":9115,"url":"http://www.gcfb.net/locations_in_carmel","tier":2,"message":"Moderate","currency":"$","rating":7.8},{"name":"Riviera Club","phone":"3172555471","address":"5640 N Illinois St","lat":39.855613353539816,"lng":-86.16145849227905,"neighborhood":"Butler - Tarkington","city_fetched":"Indiana","state":"IN","country":"United States","canonicalUrl":"https://foursquare.com/v/riviera-club/4bb8cc311261d13a12f1e898","category":"Pool","checkinsCount":766,"usersCount":290,"tipCount":4,"visitsCount":964,"url":"http://rivi.org","tier":"","message":"","currency":"","rating":7.8},{"name":"The Egyptian Cafe & Hookah Bar","phone":"3172554400","address":"6265 Carrollton Ave","lat":39.86934158914056,"lng":-86.14454984664917,"neighborhood":"Broad Ripple","city_fetched":"Indiana","state":"IN","country":"United States","canonicalUrl":"https://foursquare.com/v/the-egyptian-cafe--hookah-bar/4b0c7b07f964a5200d3e23e3","category":"Hookah Bar","checkinsCount":4839,"usersCount":1790,"tipCount":64,"visitsCount":4904,"url":"http://www.theegyptianindy.com","tier":"","message":"","currency":"","rating":7.8},{"name":"Sangrita Saloon","lat":39.872651,"lng":-86.143119,"neighborhood":"Broad Ripple","city_fetched":"Indiana","state":"IN","country":"United States","canonicalUrl":"https://foursquare.com/v/sangrita-saloon/55690075498e7a84d0b6268d","category":"Cocktail Bar","checkinsCount":113,"usersCount":91,"tipCount":2,"visitsCount":133,"tier":"","message":"","currency":"","rating":7.8},{"name":"Scotty's Brewhouse","phone":"3178519066","twitter":"brewhouse","address":"4530 Southport Crossings Dr","lat":39.66359957034272,"lng":-86.09078347433052,"city_fetched":"Indiana","state":"IN","country":"United States","canonicalUrl":"https://foursquare.com/v/scottys-brewhouse/5491c411498e225b493d37f2","category":"American Restaurant","checkinsCount":537,"usersCount":436,"tipCount":5,"visitsCount":873,"url":"http://www.scottysbrewhouse.com","tier":"","message":"","currency":"","rating":7.7},{"name":"Houlihan's","phone":"3178459428","twitter":"houlihans","address":"6020 E 82nd St","lat":39.908123210110666,"lng":-86.06676578521729,"neighborhood":"Castleton","city_fetched":"Indiana","state":"IN","country":"United States","canonicalUrl":"https://foursquare.com/v/houlihans/4b2eb0b0f964a52004e524e3","category":"American Restaurant","checkinsCount":8160,"usersCount":3341,"tipCount":83,"visitsCount":8449,"url":"http://www.houlihans.com","tier":2,"message":"Moderate","currency":"$","rating":7.7},{"name":"John's Famous Stew","phone":"3176366212","twitter":"johnsfamousstew","address":"1146 Kentucky Ave","lat":39.752688589603274,"lng":-86.17787542670268,"neighborhood":"West Indianapolis","city_fetched":"Indiana","state":"IN","country":"United States","canonicalUrl":"https://foursquare.com/v/johns-famous-stew/4b05c5b7f964a520e9e222e3","category":"Soup Place","checkinsCount":521,"usersCount":393,"tipCount":14,"visitsCount":676,"url":"http://indysfamousstew.com","tier":1,"message":"Cheap","currency":"$","rating":7.7},{"name":"Plat 99","phone":"3176248220","address":"333 S Delaware St","lat":39.761705,"lng":-86.154327,"neighborhood":"Downtown Indianapolis","city_fetched":"Indiana","state":"IN","country":"United States","canonicalUrl":"https://foursquare.com/v/plat-99/50f87fcae4b02f78640121a4","category":"Cocktail Bar","checkinsCount":1565,"usersCount":803,"tipCount":16,"visitsCount":1578,"url":"http://thealexander.com/dining/lounge.asp","tier":"","message":"","currency":"","rating":7.7},{"name":"Lava Lounge","address":"6308 Guilford Ave","lat":39.870060262257745,"lng":-86.14311107577403,"neighborhood":"Broad Ripple","city_fetched":"Indiana","state":"IN","country":"United States","canonicalUrl":"https://foursquare.com/v/lava-lounge/4f2b4923e4b03d6f91fc670a","category":"Hookah Bar","checkinsCount":2702,"usersCount":981,"tipCount":47,"visitsCount":2766,"url":"http://lavaindy.com","tier":2,"message":"Moderate","currency":"$","rating":7.7},{"name":"Red Key Tavern","phone":"3172834601","address":"5170 N College Ave","lat":39.846982,"lng":-86.146005,"neighborhood":"Meridian Kessler","city_fetched":"Indiana","state":"IN","country":"United States","canonicalUrl":"https://foursquare.com/v/red-key-tavern/4ad78c3ef964a5200c0c21e3","category":"Pub","checkinsCount":1888,"usersCount":592,"tipCount":23,"visitsCount":1925,"tier":"","message":"","currency":"","rating":7.7},{"name":"Elbow Room Pub","phone":"3176353354","twitter":"elbowroompub","address":"605 N Pennsylvania St","lat":39.77575523,"lng":-86.15577881,"neighborhood":"St. Joseph Historic Neighborhood","city_fetched":"Indiana","state":"IN","country":"United States","canonicalUrl":"https://foursquare.com/v/elbow-room-pub/4ad8b6d5f964a520eb1321e3","category":"Pub","checkinsCount":6040,"usersCount":2505,"tipCount":45,"visitsCount":6741,"url":"http://www.elbowroompub.com","tier":2,"message":"Moderate","currency":"$","rating":7.7},{"name":"Ricks Cabaret","phone":"3172970429","address":"3551 Lafayette Rd","lat":39.82005830675659,"lng":-86.23029268438852,"neighborhood":"Eagledale","city_fetched":"Indiana","state":"IN","country":"United States","canonicalUrl":"https://foursquare.com/v/ricks-cabaret/4dd3075752b1f20e6806ff92","category":"Strip Club","checkinsCount":1093,"usersCount":225,"tipCount":4,"visitsCount":1274,"url":"http://www.ricksindy.com‎ ","tier":"","message":"","currency":"","rating":7.7},{"name":"Old Point Tavern","phone":"3176348943","address":"401 Massachusetts Ave","lat":39.77272272339838,"lng":-86.15204166204576,"neighborhood":"Downtown Indianapolis","city_fetched":"Indiana","state":"IN","country":"United States","canonicalUrl":"https://foursquare.com/v/old-point-tavern/4b1b2d3af964a52039f923e3","category":"Bar","checkinsCount":6445,"usersCount":2877,"tipCount":57,"visitsCount":6564,"tier":2,"message":"Moderate","currency":"$","rating":7.7},{"name":"Pat Flynn's Pub","phone":"3175453707","twitter":"murphys_indy","address":"5198 Allisonville Rd","lat":39.847261421666154,"lng":-86.11238479614258,"city_fetched":"Indiana","state":"IN","country":"United States","canonicalUrl":"https://foursquare.com/v/pat-flynns-pub/4bc7e74f0050b71311aab93b","category":"Restaurant","checkinsCount":1235,"usersCount":399,"tipCount":11,"visitsCount":1271,"url":"http://www.murphyssteakhouse.com","tier":"","message":"","currency":"","rating":7.7},{"name":"Kilroy's Bar N' Grill","phone":"3172577849","twitter":"kilroysindy","address":"831 Broad Ripple Ave","lat":39.86956210132732,"lng":-86.14362299897648,"neighborhood":"Broad Ripple","city_fetched":"Indiana","state":"IN","country":"United States","canonicalUrl":"https://foursquare.com/v/kilroys-bar-n-grill/4fa8abe07beba7c9958a0c2a","category":"Sports Bar","checkinsCount":13606,"usersCount":4665,"tipCount":60,"visitsCount":14677,"url":"http://www.kilroysindy.com/index.aspx","tier":1,"message":"Cheap","currency":"$","rating":7.6},{"name":"Billy O'Neals","address":"869-919 Chapelwood Blvd","lat":39.777965832560135,"lng":-86.29292494562137,"neighborhood":"Chapel Hill Village","city_fetched":"Indiana","state":"IN","country":"United States","canonicalUrl":"https://foursquare.com/v/billy-oneals/4b96ea9ef964a52096ed34e3","category":"Pub","checkinsCount":471,"usersCount":199,"tipCount":8,"visitsCount":517,"tier":"","message":"","currency":"","rating":7.6},{"name":"The Sawmill","address":"1313 N Sherman Dr","lat":39.78517798301257,"lng":-86.10187204922418,"neighborhood":"Near Eastside","city_fetched":"Indiana","state":"IN","country":"United States","canonicalUrl":"https://foursquare.com/v/the-sawmill/4ca7ebcef47ea143610e7021","category":"Bar","checkinsCount":169,"usersCount":112,"tipCount":3,"visitsCount":238,"tier":"","message":"","currency":"","rating":7.6},{"name":"Tiki Bob's","phone":"3173848622","address":"231 S Meridian St","lat":39.76353784282296,"lng":-86.1584069219743,"neighborhood":"Downtown Indianapolis","city_fetched":"Indiana","state":"IN","country":"United States","canonicalUrl":"https://foursquare.com/v/tiki-bobs/4be5ffbdcf200f476413143c","category":"Nightclub","checkinsCount":345,"usersCount":240,"tipCount":3,"visitsCount":352,"url":"http://www.tikibobsindy.com","tier":"","message":"","currency":"","rating":7.6},{"name":"Nicky Blaine's Cocktail Lounge","phone":"3176385588","twitter":"nickyblaines","address":"20 N Meridian St","lat":39.767948815730854,"lng":-86.15807402011639,"neighborhood":"Downtown Indianapolis","city_fetched":"Indiana","state":"IN","country":"United States","canonicalUrl":"https://foursquare.com/v/nicky-blaines-cocktail-lounge/4adce7e1f964a520686221e3","category":"Nightclub","checkinsCount":4421,"usersCount":2260,"tipCount":53,"visitsCount":4447,"url":"http://nickyblaines.com","tier":2,"message":"Moderate","currency":"$","rating":7.6},{"name":"Tini","address":"717 Massachusetts Ave","lat":39.776577188665065,"lng":-86.14654036655465,"neighborhood":"Chatham Arch","city_fetched":"Indiana","state":"IN","country":"United States","canonicalUrl":"https://foursquare.com/v/tini/4ee2c7bad3e34ebcee422f3a","category":"Bar","checkinsCount":4837,"usersCount":1176,"tipCount":21,"visitsCount":4986,"url":"http://tiniontheave.com","tier":2,"message":"Moderate","currency":"$","rating":7.6},{"name":"Mikie's Pub","address":"Emerson Ave","lat":39.691513843176615,"lng":-86.08111073286872,"neighborhood":"I65-South Emerson","city_fetched":"Indiana","state":"IN","country":"United States","canonicalUrl":"https://foursquare.com/v/mikies-pub/52967ef2498e1161162ef430","category":"Bar","checkinsCount":441,"usersCount":187,"tipCount":3,"visitsCount":795,"tier":"","message":"","currency":"","rating":7.6},{"name":"Metro Nightclub & Restaurant","phone":"3176396022","twitter":"metroindy","address":"707 Massachusetts Ave","lat":39.776535277846314,"lng":-86.1466397628633,"neighborhood":"Chatham Arch","city_fetched":"Indiana","state":"IN","country":"United States","canonicalUrl":"https://foursquare.com/v/metro-nightclub--restaurant/4ad8b86df964a520fd1321e3","category":"Gay Bar","checkinsCount":10830,"usersCount":2191,"tipCount":39,"visitsCount":11203,"url":"http://www.metro-indy.com‎ ","tier":1,"message":"Cheap","currency":"$","rating":7.6},{"name":"Hilton Garden Inn Indianapolis Airport","phone":"3178569100","twitter":"schahethotels","address":"8910 Hatfield Dr","lat":39.679141864707105,"lng":-86.3194698398044,"neighborhood":"Ameriplex","city_fetched":"Indiana","state":"IN","country":"United States","canonicalUrl":"https://foursquare.com/v/hilton-garden-inn-indianapolis-airport/4b66f668f964a5208d322be3","category":"Hotel","checkinsCount":1537,"usersCount":1020,"tipCount":10,"visitsCount":2011,"url":"http://www.indyairporthgi.com","tier":"","message":"","currency":"","rating":7.6},{"name":"The Vogue Theater","phone":"3172597029","twitter":"thevogue","address":"6259 N College Ave","lat":39.86916866504292,"lng":-86.1459231376648,"neighborhood":"Broad Ripple","city_fetched":"Indiana","state":"IN","country":"United States","canonicalUrl":"https://foursquare.com/v/the-vogue-theater/4afe1b71f964a520f22d22e3","category":"Nightclub","checkinsCount":11511,"usersCount":4572,"tipCount":56,"visitsCount":11726,"url":"http://www.thevogue.com","tier":2,"message":"Moderate","currency":"$","rating":7.6},{"name":"Joe's Grille on 82nd","phone":"3178455146","address":"6645 E 82nd St","lat":39.90478182440485,"lng":-86.05286121368408,"neighborhood":"Castleton","city_fetched":"Indiana","state":"IN","country":"United States","canonicalUrl":"https://foursquare.com/v/joes-grille-on-82nd/4b4ce351f964a52009c326e3","category":"Bar","checkinsCount":2007,"usersCount":550,"tipCount":7,"visitsCount":2113,"tier":"","message":"","currency":"","rating":7.6},{"name":"The Dugout","phone":"3179161514","address":"621 Virginia Ave","lat":39.75827421,"lng":-86.14646717,"neighborhood":"Fletcher Place","city_fetched":"Indiana","state":"IN","country":"United States","canonicalUrl":"https://foursquare.com/v/the-dugout/4b36d2cff964a5200c3d25e3","category":"Dive Bar","checkinsCount":1112,"usersCount":470,"tipCount":7,"visitsCount":1273,"url":"http://tomsdugout.ewbz.net","tier":1,"message":"Cheap","currency":"$","rating":7.5},{"name":"Skyline Club","phone":"3172635000","address":"1 American Square","lat":39.770523524339794,"lng":-86.1603446659085,"neighborhood":"Downtown Indianapolis","city_fetched":"Indiana","state":"IN","country":"United States","canonicalUrl":"https://foursquare.com/v/skyline-club/4b08280df964a520fa0423e3","category":"Lounge","checkinsCount":2261,"usersCount":1158,"tipCount":14,"visitsCount":2304,"url":"http://www.clubcorp.com/Clubs/Skyline-Club-Indianapolis/Amenities/Dining","tier":"","message":"","currency":"","rating":7.5},{"name":"Loughmiller's Pub & Eatery","phone":"3176387380","twitter":"loughmillerspub","address":"301 W Washington St","lat":39.76721642609174,"lng":-86.16346974442708,"neighborhood":"Downtown Indianapolis","city_fetched":"Indiana","state":"IN","country":"United States","canonicalUrl":"https://foursquare.com/loughmillerspub","category":"American Restaurant","checkinsCount":3015,"usersCount":2021,"tipCount":27,"visitsCount":3346,"url":"http://www.loughmillerspub.com","tier":2,"message":"Moderate","currency":"$","rating":7.5},{"name":"Claddagh Irish Pub","phone":"3178226274","twitter":"claddagh_indy","address":"234 S Meridian St","lat":39.76354155413158,"lng":-86.15838207862686,"neighborhood":"Downtown Indianapolis","city_fetched":"Indiana","state":"IN","country":"United States","canonicalUrl":"https://foursquare.com/v/claddagh-irish-pub/4ad4bff8f964a520ffe920e3","category":"Bar","checkinsCount":6313,"usersCount":4342,"tipCount":51,"visitsCount":6471,"url":"http://www.claddaghirishpubs.com","tier":2,"message":"Moderate","currency":"$","rating":7.5},{"name":"Gas Light Inn","address":"2280 S Meridian St","lat":39.73490554,"lng":-86.15914056,"neighborhood":"Garfield Park","city_fetched":"Indiana","state":"IN","country":"United States","canonicalUrl":"https://foursquare.com/v/gas-light-inn/4b9c074df964a520814236e3","category":"Bar","checkinsCount":416,"usersCount":206,"tipCount":4,"visitsCount":543,"tier":"","message":"","currency":"","rating":7.5},{"name":"Tilted Kilt Indianapolis","phone":"3176003633","twitter":"tiltedkiltindy","address":"141 S Meridian St","lat":39.764348817972156,"lng":-86.15794483373743,"neighborhood":"Downtown Indianapolis","city_fetched":"Indiana","state":"IN","country":"United States","canonicalUrl":"https://foursquare.com/v/tilted-kilt-indianapolis/4e1cbb47d1649b0f792a8019","category":"Pub","checkinsCount":7332,"usersCount":4474,"tipCount":59,"visitsCount":7398,"url":"http://www.tiltedkilt.com","tier":2,"message":"Moderate","currency":"$","rating":7.5},{"name":"Miller Lite Party Deck @IMS","lat":39.800553,"lng":-86.236817,"city_fetched":"Indiana","state":"IN","country":"United States","canonicalUrl":"https://foursquare.com/v/miller-lite-party-deck-ims/4bf992dc5ec320a1ed7c8ad3","category":"Sports Bar","checkinsCount":201,"usersCount":121,"tipCount":2,"visitsCount":204,"url":"http://www.indianapolismotorspeedway.com","tier":"","message":"","currency":"","rating":7.5},{"name":"Upland Brewing Company Tasting Room","phone":"3176023931","twitter":"uplandindy","address":"4842 N College Ave","lat":39.842664954689326,"lng":-86.14585876464844,"neighborhood":"Meridian Kessler","city_fetched":"Indiana","state":"IN","country":"United States","canonicalUrl":"https://foursquare.com/v/upland-brewing-company-tasting-room/4af8961df964a520790e22e3","category":"Brewery","checkinsCount":3283,"usersCount":1360,"tipCount":33,"visitsCount":3551,"url":"http://uplandbeer.com","tier":1,"message":"Cheap","currency":"$","rating":7.5},{"name":"The Night Porter","phone":"3172535252","address":"921 Broad Ripple Ave","lat":39.869570704361564,"lng":-86.14225123208641,"neighborhood":"Broad Ripple","city_fetched":"Indiana","state":"IN","country":"United States","canonicalUrl":"https://foursquare.com/v/the-night-porter/503bf0d1e4b0451d7e343da9","category":"Bar","checkinsCount":902,"usersCount":385,"tipCount":14,"visitsCount":902,"tier":"","message":"","currency":"","rating":7.4},{"name":"Fleming's Prime Steakhouse & Wine Bar","phone":"3174660175","address":"8487 Union Chapel Rd","lat":39.910096535075816,"lng":-86.10614466592477,"neighborhood":"Keystone at The Crossing","city_fetched":"Indiana","state":"IN","country":"United States","canonicalUrl":"https://foursquare.com/v/flemings-prime-steakhouse--wine-bar/4b169fdef964a5200fbb23e3","category":"Steakhouse","checkinsCount":1405,"usersCount":867,"tipCount":13,"visitsCount":1475,"url":"http://www.flemingssteakhouse.com/locations/in/indianapolis","tier":4,"message":"Very Expensive","currency":"$","rating":7.4},{"name":"86th Street Pub","phone":"3178721019","twitter":"86thstpub","address":"3661 W. 86th St.","lat":39.911137,"lng":-86.22494786666667,"city_fetched":"Indiana","state":"IN","country":"United States","canonicalUrl":"https://foursquare.com/v/86th-street-pub/4b402209f964a52002b625e3","category":"Bar","checkinsCount":3999,"usersCount":820,"tipCount":27,"visitsCount":4517,"url":"http://86thstpub.com","tier":2,"message":"Moderate","currency":"$","rating":7.4},{"name":"Hops & Fire Craft Tap House","address":"1259 N State Road 135","lat":39.63378171699917,"lng":-86.15712995829129,"city_fetched":"Indiana","state":"IN","country":"United States","canonicalUrl":"https://foursquare.com/v/hops--fire-craft-tap-house/56436985498e5f9074ddcf04","category":"Bar","checkinsCount":144,"usersCount":153,"tipCount":0,"visitsCount":297,"tier":"","message":"","currency":"","rating":7.4},{"name":"8 Seconds Saloon","phone":"3174861569","address":"111 N Lynhurst Dr","lat":39.76765528863284,"lng":-86.249247703197,"city_fetched":"Indiana","state":"IN","country":"United States","canonicalUrl":"https://foursquare.com/v/8-seconds-saloon/4b2251a6f964a520854524e3","category":"Nightclub","checkinsCount":3093,"usersCount":1761,"tipCount":20,"visitsCount":3573,"url":"http://8secondssaloon.net","tier":2,"message":"Moderate","currency":"$","rating":7.4},{"name":"Wild Beaver Saloon","phone":"3174233080","twitter":"wildbeaver","address":"20 E Maryland St","lat":39.765501,"lng":-86.157451,"neighborhood":"Downtown Indianapolis","city_fetched":"Indiana","state":"IN","country":"United States","canonicalUrl":"https://foursquare.com/v/wild-beaver-saloon/4b1450dff964a5200ea123e3","category":"Bar","checkinsCount":3227,"usersCount":1825,"tipCount":16,"visitsCount":3261,"url":"http://www.wildbeaversaloon.com","tier":"","message":"","currency":"","rating":7.4},{"name":"JW Marriott Executive Lounge","phone":"3178605800","twitter":"jwmarriottindy","address":"10 S West St","lat":39.766617804290945,"lng":-86.16758322917242,"neighborhood":"Downtown Indianapolis","city_fetched":"Indiana","state":"IN","country":"United States","canonicalUrl":"https://foursquare.com/v/jw-marriott-executive-lounge/4d4d4affa7f86ea8edef34de","category":"Lounge","checkinsCount":1247,"usersCount":372,"tipCount":6,"visitsCount":1247,"url":"http://www.jwindy.com","tier":"","message":"","currency":"","rating":7.4},{"name":"Connor's Pub","phone":"3172555039","address":"6331 Ferguson St","lat":39.8715689772379,"lng":-86.1437076330185,"neighborhood":"Broad Ripple","city_fetched":"Indiana","state":"IN","country":"United States","canonicalUrl":"https://foursquare.com/v/connors-pub/4b107954f964a520417123e3","category":"Bar","checkinsCount":3802,"usersCount":1244,"tipCount":20,"visitsCount":4184,"tier":1,"message":"Cheap","currency":"$","rating":7.4},{"name":"JW Marriott Lobby Lounge","phone":"3178605800","address":"10 S West St","lat":39.76642822258091,"lng":-86.16748884132369,"neighborhood":"Downtown Indianapolis","city_fetched":"Indiana","state":"IN","country":"United States","canonicalUrl":"https://foursquare.com/v/jw-marriott-lobby-lounge/4d19fd44f3cda0908c4044aa","category":"Hotel Bar","checkinsCount":3852,"usersCount":1831,"tipCount":10,"visitsCount":3863,"url":"http://www.jwindy.com/indianapolis-restaurants/lobby-lounge/","tier":2,"message":"Moderate","currency":"$","rating":7.4},{"name":"Alibi's Bar & Grill","phone":"3178417427","address":"7381 N Shadeland Ave","lat":39.88843150032807,"lng":-86.0456732814941,"city_fetched":"Indiana","state":"IN","country":"United States","canonicalUrl":"https://foursquare.com/v/alibis-bar--grill/4b855357f964a520cf5631e3","category":"American Restaurant","checkinsCount":2382,"usersCount":765,"tipCount":7,"visitsCount":2814,"tier":1,"message":"Cheap","currency":"$","rating":7.4},{"name":"Embassy Suites North","phone":"3178727700","twitter":"embassynorth","address":"3912 Vincennes Rd","lat":39.91581049084034,"lng":-86.22756369117042,"neighborhood":"College Park","city_fetched":"Indiana","state":"IN","country":"United States","canonicalUrl":"https://foursquare.com/v/embassy-suites-north/4b9a676cf964a5206eb235e3","category":"Hotel","checkinsCount":2232,"usersCount":1316,"tipCount":12,"visitsCount":3130,"tier":"","message":"","currency":"","rating":7.4},{"name":"Monkey's Tale","phone":"3172532883","address":"925 E Westfield Blvd","lat":39.87052655479613,"lng":-86.14226117255832,"neighborhood":"Broad Ripple","city_fetched":"Indiana","state":"IN","country":"United States","canonicalUrl":"https://foursquare.com/v/monkeys-tale/4ad90cfff964a5208c1721e3","category":"Karaoke Bar","checkinsCount":5113,"usersCount":1395,"tipCount":15,"visitsCount":5177,"url":"http://www.myspace.com/monkeystale","tier":1,"message":"Cheap","currency":"$","rating":7.4},{"name":"TGI Fridays","phone":"3173478443","twitter":"tgifridays","address":"6915 W 38th St","lat":39.82271286023491,"lng":-86.2788194750864,"neighborhood":"Eagle Creek","city_fetched":"Indiana","state":"IN","country":"United States","canonicalUrl":"https://foursquare.com/v/tgi-fridays/4b2c129ef964a520f6c024e3","category":"American Restaurant","checkinsCount":1870,"usersCount":1310,"tipCount":17,"visitsCount":2340,"url":"http://tgifridays.com","tier":2,"message":"Moderate","currency":"$","rating":7.4},{"name":"The Hookah House","phone":"3176241700","address":"937 S East St","lat":39.75429994551138,"lng":-86.14937308574952,"neighborhood":"Fletcher Place","city_fetched":"Indiana","state":"IN","country":"United States","canonicalUrl":"https://foursquare.com/v/the-hookah-house/4e4f28efd164978659c73295","category":"Hookah Bar","checkinsCount":759,"usersCount":231,"tipCount":13,"visitsCount":764,"url":"http://indyhookahhouse.com","tier":"","message":"","currency":"","rating":7.4},{"name":"Visions Sports Pub","address":"7411 Heathrow Way","lat":39.678914098482096,"lng":-86.29213700640476,"neighborhood":"Ameriplex","city_fetched":"Indiana","state":"IN","country":"United States","canonicalUrl":"https://foursquare.com/v/visions-sports-pub/4d9ba2f86432530cb0d85ae3","category":"Sports Bar","checkinsCount":331,"usersCount":123,"tipCount":5,"visitsCount":331,"tier":"","message":"","currency":"","rating":7.4},{"name":"Alley Cat Lounge","phone":"3172574036","twitter":"alleycatlounge","address":"6267 Carrollton Ave","lat":39.8694160352739,"lng":-86.14421199166539,"neighborhood":"Broad Ripple","city_fetched":"Indiana","state":"IN","country":"United States","canonicalUrl":"https://foursquare.com/v/alley-cat-lounge/4ad9d164f964a5200b1b21e3","category":"Dive Bar","checkinsCount":6730,"usersCount":2175,"tipCount":53,"visitsCount":6875,"tier":1,"message":"Cheap","currency":"$","rating":7.3},{"name":"Golden Ace","address":"2533 E Washington St","lat":39.768022,"lng":-86.118777,"neighborhood":"Near Southeast","city_fetched":"Indiana","state":"IN","country":"United States","canonicalUrl":"https://foursquare.com/v/golden-ace/4adcc367f964a5208c2f21e3","category":"Pub","checkinsCount":445,"usersCount":277,"tipCount":3,"visitsCount":496,"tier":"","message":"","currency":"","rating":7.3},{"name":"McQ's Pub & Eatery","phone":"3177811666","address":"3149 E Thompson Rd","lat":39.692625237453264,"lng":-86.10980987548828,"neighborhood":"Edgewood","city_fetched":"Indiana","state":"IN","country":"United States","canonicalUrl":"https://foursquare.com/v/mcqs-pub--eatery/4bd7b4fc885595218d3688a7","category":"Pub","checkinsCount":1083,"usersCount":339,"tipCount":9,"visitsCount":1190,"tier":"","message":"","currency":"","rating":7.3},{"name":"Bar Louie","phone":"3172155400","twitter":"barlouie","address":"1251 US 31 North","lat":39.633786076449155,"lng":-86.12182446084611,"city_fetched":"Indiana","state":"IN","country":"United States","canonicalUrl":"https://foursquare.com/v/bar-louie/5671e735498eec5f4a5047b2","category":"Cocktail Bar","checkinsCount":114,"usersCount":97,"tipCount":3,"visitsCount":184,"url":"http://t.co/6m5uO0JOqN","tier":"","message":"","currency":"","rating":7.3},{"name":"Daddy Jack's","phone":"3178431609","address":"9419 N Meridian St","lat":39.92489990134985,"lng":-86.15650388663347,"neighborhood":"Nora - Far Northside","city_fetched":"Indiana","state":"IN","country":"United States","canonicalUrl":"https://foursquare.com/v/daddy-jacks/4aef9ebef964a5209ed921e3","category":"Bar","checkinsCount":1893,"usersCount":1002,"tipCount":23,"visitsCount":1921,"url":"http://www.konajacksindy.com","tier":3,"message":"Expensive","currency":"$","rating":7.3},{"name":"501 Eagle","phone":"3176322100","address":"501 N College Ave","lat":39.773946,"lng":-86.145258,"neighborhood":"Downtown Indianapolis","city_fetched":"Indiana","state":"IN","country":"United States","canonicalUrl":"https://foursquare.com/v/501-eagle/4b300dcef964a52039f524e3","category":"Gay Bar","checkinsCount":4933,"usersCount":961,"tipCount":21,"visitsCount":5731,"url":"http://501eagle.com","tier":1,"message":"Cheap","currency":"$","rating":7.3},{"name":"The Famous Grand","address":"5462 Massachusetts Ave","lat":39.81531637,"lng":-86.07445929,"city_fetched":"Indiana","state":"IN","country":"United States","canonicalUrl":"https://foursquare.com/v/the-famous-grand/4e3b3edf483b04e17a794735","category":"Nightclub","checkinsCount":345,"usersCount":91,"tipCount":5,"visitsCount":438,"tier":"","message":"","currency":"","rating":7.3},{"name":"Joe's Crab Shack","phone":"3178494133","address":"8250 Dean Rd","lat":39.906296167183335,"lng":-86.0987913608551,"city_fetched":"Indiana","state":"IN","country":"United States","canonicalUrl":"https://foursquare.com/v/joes-crab-shack/4b7f2b34f964a5200d1c30e3","category":"Seafood Restaurant","checkinsCount":2373,"usersCount":1497,"tipCount":24,"visitsCount":2611,"url":"http://www.joes.net","tier":2,"message":"Moderate","currency":"$","rating":7.3},{"name":"Alley Cat Front Room","lat":39.86954039450089,"lng":-86.1445822199404,"neighborhood":"Broad Ripple","city_fetched":"Indiana","state":"IN","country":"United States","canonicalUrl":"https://foursquare.com/v/alley-cat-front-room/54f00069498eac22e344cdd5","category":"Bar","checkinsCount":96,"usersCount":50,"tipCount":2,"visitsCount":97,"tier":"","message":"","currency":"","rating":7.3},{"name":"That Place Bar & Grill","phone":"3178887100","twitter":"thatplacebar","address":"8810 S Emerson Ave","lat":39.63951282797496,"lng":-86.0839122334139,"city_fetched":"Indiana","state":"IN","country":"United States","canonicalUrl":"https://foursquare.com/thatplacebar","category":"Bar","checkinsCount":2855,"usersCount":1173,"tipCount":22,"visitsCount":3289,"url":"http://www.thatplacebarandgrill.com","tier":2,"message":"Moderate","currency":"$","rating":7.2},{"name":"Miyagi's","phone":"3178467077","twitter":"miyagisindy","address":"3625 E 96th St","lat":39.92659474932946,"lng":-86.10513498763565,"neighborhood":"Keystone at The Crossing","city_fetched":"Indiana","state":"IN","country":"United States","canonicalUrl":"https://foursquare.com/v/miyagis/4aff47f1f964a520dd3622e3","category":"Sushi Restaurant","checkinsCount":1273,"usersCount":724,"tipCount":20,"visitsCount":1297,"url":"http://indymiyagi-hub.com","tier":"","message":"","currency":"","rating":7.2},{"name":"Bubbaz Northeast Side","address":"7506 N Shadeland Ave","lat":39.89153666,"lng":-86.046571,"city_fetched":"Indiana","state":"IN","country":"United States","canonicalUrl":"https://foursquare.com/v/bubbaz-northeast-side/4c12e2d0b7b9c9281eb1a837","category":"Dive Bar","checkinsCount":538,"usersCount":214,"tipCount":7,"visitsCount":550,"tier":"","message":"","currency":"","rating":7.2},{"name":"Tavern On South","phone":"3176023115","twitter":"tavernonsouth","address":"423 W South St","lat":39.76139347983576,"lng":-86.16640448570251,"neighborhood":"Downtown Indianapolis","city_fetched":"Indiana","state":"IN","country":"United States","canonicalUrl":"https://foursquare.com/v/tavern-on-south/4cd2d340fa66236a8d46ed2e","category":"American Restaurant","checkinsCount":3538,"usersCount":2229,"tipCount":31,"visitsCount":3820,"url":"http://tavernonsouth.com","tier":3,"message":"Expensive","currency":"$","rating":7.2},{"name":"6 Lounge & Restaurant","phone":"3176386660","twitter":"6_lounge","address":"247 S Meridian St","lat":39.763200313417975,"lng":-86.15798955213629,"neighborhood":"Downtown Indianapolis","city_fetched":"Indiana","state":"IN","country":"United States","canonicalUrl":"https://foursquare.com/v/6-lounge--restaurant/4adc92d4f964a5206d2d21e3","category":"Lounge","checkinsCount":746,"usersCount":384,"tipCount":10,"visitsCount":752,"url":"http://www.6indy.com","tier":"","message":"","currency":"","rating":7.2},{"name":"Main Event","phone":"3172984771","twitter":"maineventindy","address":"7038 Shore Ter","lat":39.830340291900484,"lng":-86.28426611423492,"neighborhood":"Eagle Creek","city_fetched":"Indiana","state":"IN","country":"United States","canonicalUrl":"https://foursquare.com/maineventindy","category":"Bar","checkinsCount":1592,"usersCount":503,"tipCount":15,"visitsCount":1927,"url":"http://www.maineventindy.com","tier":"","message":"","currency":"","rating":7.2},{"name":"O'Reilly's Irish Bar and Restaurant","phone":"3179740674","twitter":"oreillysbar","address":"36 S Pennsylvania St","lat":39.76607919641571,"lng":-86.15624550562113,"neighborhood":"Downtown Indianapolis","city_fetched":"Indiana","state":"IN","country":"United States","canonicalUrl":"https://foursquare.com/v/oreillys-irish-bar-and-restaurant/4b8d9b62f964a520e70333e3","category":"Pub","checkinsCount":6361,"usersCount":2348,"tipCount":30,"visitsCount":6384,"url":"http://oreillysirishbar.com","tier":2,"message":"Moderate","currency":"$","rating":7.1},{"name":"O'Gara's Irish Pub","phone":"3177847474","address":"522 Main St","lat":39.72186,"lng":-86.08819,"city_fetched":"Indiana","state":"IN","country":"United States","canonicalUrl":"https://foursquare.com/v/ogaras-irish-pub/4d4395a24e5d3704597ae193","category":"Bar","checkinsCount":677,"usersCount":209,"tipCount":3,"visitsCount":726,"tier":"","message":"","currency":"","rating":7.1},{"name":"Bert & Den's Grille & Chill","address":"Southern Plaza","lat":39.70309273910418,"lng":-86.15023280987442,"city_fetched":"Indiana","state":"IN","country":"United States","canonicalUrl":"https://foursquare.com/v/bert--dens-grille--chill/4bf749c25efe2d7f70d96834","category":"Sports Bar","checkinsCount":489,"usersCount":212,"tipCount":7,"visitsCount":524,"tier":"","message":"","currency":"","rating":7.1},{"name":"Checkered Flag Tavern","phone":"3172476209","twitter":"chflagtavern","address":"5725 W Morris St","lat":39.75011229515076,"lng":-86.25827550888062,"city_fetched":"Indiana","state":"IN","country":"United States","canonicalUrl":"https://foursquare.com/v/checkered-flag-tavern/4d520329c305b60c7038961e","category":"Bar","checkinsCount":222,"usersCount":147,"tipCount":3,"visitsCount":289,"tier":"","message":"","currency":"","rating":7.1},{"name":"PT's Showclub","phone":"3175455777","twitter":"ptsshowclubindy","address":"7916 Pendleton Pike","lat":39.83554320559505,"lng":-86.0294223548622,"city_fetched":"Indiana","state":"IN","country":"United States","canonicalUrl":"https://foursquare.com/v/pts-showclub/4b764cd1f964a52053472ee3","category":"Strip Club","checkinsCount":1724,"usersCount":723,"tipCount":15,"visitsCount":1977,"url":"http://www.ptsshowclub.com","tier":"","message":"","currency":"","rating":7.1},{"name":"Nite Owls Saloon","phone":"3172226117","lat":39.71537439394629,"lng":-86.08224030827381,"city_fetched":"Indiana","state":"IN","country":"United States","canonicalUrl":"https://foursquare.com/v/nite-owls-saloon/5196efeb498e01d9f428be70","category":"Bar","checkinsCount":324,"usersCount":83,"tipCount":5,"visitsCount":354,"url":"http://www.niteowlsbg.com","tier":"","message":"","currency":"","rating":7.1},{"name":"The Colonial Inn","address":"4343 Madison Ave","lat":39.70231533050537,"lng":-86.139568,"city_fetched":"Indiana","state":"IN","country":"United States","canonicalUrl":"https://foursquare.com/v/the-colonial-inn/4b8f0d45f964a520954633e3","category":"Bar","checkinsCount":420,"usersCount":295,"tipCount":6,"visitsCount":554,"tier":"","message":"","currency":"","rating":7.1},{"name":"The Party","lat":39.66162035744603,"lng":-86.12621971244917,"city_fetched":"Indiana","state":"Indiana","country":"United States","canonicalUrl":"https://foursquare.com/v/the-party/4d7178e27e95224b7969366f","category":"Bar","checkinsCount":230,"usersCount":89,"tipCount":1,"visitsCount":251,"tier":"","message":"","currency":"","rating":7.1},{"name":"Zonie's Closet","phone":"3172660535","address":"1446 E Washington St","lat":39.76729885914877,"lng":-86.13336367862442,"neighborhood":"Near Eastside","city_fetched":"Indiana","state":"IN","country":"United States","canonicalUrl":"https://foursquare.com/v/zonies-closet/4b737b1ff964a5208fb02de3","category":"Gay Bar","checkinsCount":2701,"usersCount":742,"tipCount":18,"visitsCount":3029,"url":"http://www.zoniesclosets.com","tier":1,"message":"Cheap","currency":"$","rating":7.1},{"name":"Rockhouse Cafe","address":"3940 S Keystone Ave","lat":39.709477569468866,"lng":-86.12057641918739,"neighborhood":"University Heights","city_fetched":"Indiana","state":"IN","country":"United States","canonicalUrl":"https://foursquare.com/v/rockhouse-cafe/4c5e0683d25320a1e7dbc77a","category":"Lounge","checkinsCount":438,"usersCount":307,"tipCount":7,"visitsCount":448,"tier":"","message":"","currency":"","rating":7.1},{"name":"Oh Yumm Bistro","phone":"3172515656","twitter":"ohyummbistro","address":"5615 N Illinois St","lat":39.85454,"lng":-86.15939196666666,"neighborhood":"Butler - Tarkington","city_fetched":"Indiana","state":"IN","country":"United States","canonicalUrl":"https://foursquare.com/v/oh-yumm-bistro/4b16b358f964a52046bc23e3","category":"Gastropub","checkinsCount":362,"usersCount":270,"tipCount":10,"visitsCount":368,"url":"http://www.ohyummbistro.com","tier":3,"message":"Expensive","currency":"$","rating":7.1},{"name":"Club Indianapolis","phone":"3176355796","twitter":"clubindiana","address":"614 N Capitol Ave.","lat":39.77617125895439,"lng":-86.16199493408203,"neighborhood":"Downtown Indianapolis","city_fetched":"Indiana","state":"IN","country":"United States","canonicalUrl":"https://foursquare.com/v/club-indianapolis/4c29f17be19720a19536fa58","category":"Gym / Fitness Center","checkinsCount":475,"usersCount":119,"tipCount":1,"visitsCount":517,"url":"http://www.theclubs.com/page.cfm?location=indianapolis","tier":"","message":"","currency":"","rating":7},{"name":"Tow Yard Brewing","phone":"3176389273","twitter":"towyardbrewing","address":"501 Madison Ave","lat":39.76013429516695,"lng":-86.15757217889373,"neighborhood":"Downtown Indianapolis","city_fetched":"Indiana","state":"IN","country":"United States","canonicalUrl":"https://foursquare.com/v/tow-yard-brewing/5307b70e498e5f237ea60ebd","category":"Brewery","checkinsCount":2025,"usersCount":1801,"tipCount":19,"visitsCount":3138,"url":"http://www.towyardbrewing.com","tier":2,"message":"Moderate","currency":"$","rating":7},{"name":"Saddle Up","lat":39.90709786558389,"lng":-86.0581904273877,"neighborhood":"Castleton","city_fetched":"Indiana","state":"IN","country":"United States","canonicalUrl":"https://foursquare.com/v/saddle-up/5047da42e4b0ddb8f05f9161","category":"Bar","checkinsCount":2469,"usersCount":1246,"tipCount":19,"visitsCount":2984,"tier":2,"message":"Moderate","currency":"$","rating":7},{"name":"Corner Wine Bar","phone":"3172555159","address":"6331 Guilford Ave","lat":39.87052734263877,"lng":-86.14268839359283,"neighborhood":"Broad Ripple","city_fetched":"Indiana","state":"IN","country":"United States","canonicalUrl":"https://foursquare.com/v/corner-wine-bar/4b14586cf964a52090a123e3","category":"Wine Bar","checkinsCount":1525,"usersCount":783,"tipCount":17,"visitsCount":1537,"url":"http://cornerwinebar.com","tier":"","message":"","currency":"","rating":7},{"name":"Memories Bar & Grill","twitter":"memoriesindy","address":"7820 Michigan Rd","lat":39.89616420495045,"lng":-86.21591668829495,"city_fetched":"Indiana","state":"IN","country":"United States","canonicalUrl":"https://foursquare.com/v/memories-bar--grill/4ccba93197d0224b2bff5ab8","category":"Nightclub","checkinsCount":441,"usersCount":174,"tipCount":1,"visitsCount":461,"tier":"","message":"","currency":"","rating":7},{"name":"Tantrum Lounge","address":"8215 Center Run Drm","lat":39.90670285,"lng":-86.05696499347687,"neighborhood":"Castleton","city_fetched":"Indiana","state":"IN","country":"United States","canonicalUrl":"https://foursquare.com/v/tantrum-lounge/4ca5bf7b14c337044588b83b","category":"Lounge","checkinsCount":325,"usersCount":181,"tipCount":7,"visitsCount":329,"tier":"","message":"","currency":"","rating":7},{"name":"Tin Roof","phone":"3179512220","twitter":"indytinroof","address":"36 S Pennsylvania St","lat":39.765674430833485,"lng":-86.15633494534997,"neighborhood":"Downtown Indianapolis","city_fetched":"Indiana","state":"IN","country":"United States","canonicalUrl":"https://foursquare.com/v/tin-roof/4fa16190e4b0b74f3581021f","category":"Bar","checkinsCount":5786,"usersCount":2920,"tipCount":32,"visitsCount":5996,"url":"http://tinroofbars.com","tier":2,"message":"Moderate","currency":"$","rating":7},{"name":"Free Spirit Lounge","phone":"3178420200","twitter":"whitepages","address":"8110 N Shadeland Ave","lat":39.90273673607568,"lng":-86.04637041799374,"city_fetched":"Indiana","state":"IN","country":"United States","canonicalUrl":"https://foursquare.com/v/free-spirit-lounge/4b71ae13f964a520ab552de3","category":"Bar","checkinsCount":503,"usersCount":224,"tipCount":9,"visitsCount":537,"tier":"","message":"","currency":"","rating":6.9},{"name":"Big Woods Speedway","phone":"3177573250","twitter":"bigwoodsbrewing","address":"1002 Main St","lat":39.7802463,"lng":-86.2412924,"city_fetched":"Indiana","state":"IN","country":"United States","canonicalUrl":"https://foursquare.com/v/big-woods-speedway/571885a3cd10a651ba0789bf","category":"Beer Garden","checkinsCount":336,"usersCount":462,"tipCount":7,"visitsCount":630,"url":"http://quaffon.com/big-woods-speedway/","tier":"","message":"","currency":"","rating":6.9},{"name":"Taylor's Pub II","phone":"3178158615","twitter":"taylorspubindy","address":"1546 E 86th St","lat":39.913151441519695,"lng":-86.13389611244202,"neighborhood":"Nora - Far Northside","city_fetched":"Indiana","state":"IN","country":"United States","canonicalUrl":"https://foursquare.com/v/taylors-pub-ii/4ade4df9f964a520d57421e3","category":"Pub","checkinsCount":1881,"usersCount":502,"tipCount":8,"visitsCount":2035,"url":"http://www.taylorspubindy.com","tier":1,"message":"Cheap","currency":"$","rating":6.9}]