[{"name":"The Garage","lat":41.361470695467276,"lng":-93.56040587475513,"city_fetched":"Indianola,US","state":"IA","country":"United States","canonicalUrl":"https://foursquare.com/v/the-garage/4baec82af964a5208ed73be3","categoryId":"4bf58dd8d48988d116941735","category":"Bar","checkinsCount":669,"usersCount":180,"tipCount":5,"visitsCount":675,"tier":"","message":"","currency":"","rating":7.3},{"name":"The Zoo Bar","phone":"5159618731","twitter":"zoobarrocks","address":"102 W Ashland Ave","lat":41.361541630121366,"lng":-93.56117669829455,"city_fetched":"Indianola,US","state":"IA","country":"United States","canonicalUrl":"https://foursquare.com/v/the-zoo-bar/4bcf8204a8b3a593ff61625f","categoryId":"4bf58dd8d48988d116941735","category":"Bar","checkinsCount":2933,"usersCount":283,"tipCount":11,"visitsCount":2956,"tier":"","message":"","currency":"","rating":6.9},{"name":"Mojo's","phone":"5159610081","address":"206 N Howard St","lat":41.3616370925418,"lng":-93.5607566968175,"city_fetched":"Indianola,US","state":"IA","country":"United States","canonicalUrl":"https://foursquare.com/v/mojos/4baecae2f964a52070d83be3","categoryId":"4bf58dd8d48988d116941735","category":"Bar","checkinsCount":2053,"usersCount":250,"tipCount":5,"visitsCount":2141,"tier":"","message":"","currency":"","rating":6.4},{"name":"Brickhouse Tavern","phone":"5159625025","address":"107 N Buxton St","lat":41.36066095,"lng":-93.562410975,"city_fetched":"Indianola,US","state":"IA","country":"United States","canonicalUrl":"https://foursquare.com/v/brickhouse-tavern/4e71118afa76e1a41fc7d7e1","categoryId":"4bf58dd8d48988d11b941735","category":"Pub","checkinsCount":763,"usersCount":306,"tipCount":4,"visitsCount":952,"tier":"","message":"","currency":"","rating":6.3}]