[{"name":"Studio 13","phone":"3193387145","twitter":"s13ic","address":"13 S Linn St","lat":41.66068336666667,"lng":-91.532016,"city_fetched":"Iowa City,US","state":"IA","country":"United States","canonicalUrl":"https://foursquare.com/v/studio-13/4b9b0b0ff964a52035ee35e3","categoryId":"4bf58dd8d48988d1d8941735","category":"Gay Bar","checkinsCount":6874,"usersCount":899,"tipCount":23,"visitsCount":7156,"url":"http://www.sthirteen.com","tier":2,"message":"Moderate","currency":"$","rating":8.4},{"name":"Hudson's Southside Tap","phone":"3194991058","address":"482 Highway 1 W","lat":41.6479310381317,"lng":-91.54501748136776,"city_fetched":"Iowa City,US","state":"IA","country":"United States","canonicalUrl":"https://foursquare.com/v/hudsons-southside-tap/563962b2cd10673a3749c0d2","categoryId":"4bf58dd8d48988d1d4941735","category":"Speakeasy","checkinsCount":82,"usersCount":84,"tipCount":1,"visitsCount":155,"tier":"","message":"","currency":"","rating":8.1},{"name":"Micky's Irish Pub","phone":"3193386860","address":"11 S Dubuque St","lat":41.66084641745444,"lng":-91.53317354376615,"city_fetched":"Iowa City,US","state":"IA","country":"United States","canonicalUrl":"https://foursquare.com/v/mickys-irish-pub/4ba114daf964a520ec9537e3","categoryId":"4bf58dd8d48988d116941735","category":"Bar","checkinsCount":3666,"usersCount":1453,"tipCount":31,"visitsCount":3704,"url":"http://mickyspub.com","tier":2,"message":"Moderate","currency":"$","rating":8.1},{"name":"Deadwood Tavern","phone":"3193519417","twitter":"deadwoodic","address":"6 S Dubuque St","lat":41.66089879821036,"lng":-91.53295599402703,"city_fetched":"Iowa City,US","state":"IA","country":"United States","canonicalUrl":"https://foursquare.com/deadwoodic","categoryId":"4bf58dd8d48988d116941735","category":"Bar","checkinsCount":4104,"usersCount":1167,"tipCount":27,"visitsCount":4132,"tier":1,"message":"Cheap","currency":"$","rating":7.8},{"name":"Joe's Place","phone":"3193386717","address":"115 Iowa Ave","lat":41.661005802715444,"lng":-91.53386403503042,"city_fetched":"Iowa City,US","state":"IA","country":"United States","canonicalUrl":"https://foursquare.com/v/joes-place/4b0760ecf964a520e3fc22e3","categoryId":"4bf58dd8d48988d116941735","category":"Bar","checkinsCount":6641,"usersCount":1778,"tipCount":16,"visitsCount":6955,"url":"http://www.joesplace-ic.com","tier":1,"message":"Cheap","currency":"$","rating":7.8},{"name":"Shakespeare's Pub & Grill","phone":"3193377275","address":"819 S 1st Ave","lat":41.65106982,"lng":-91.50237500667572,"city_fetched":"Iowa City,US","state":"IA","country":"United States","canonicalUrl":"https://foursquare.com/v/shakespeares-pub--grill/4bd4e4c76798ef3b0ca6628d","categoryId":"4bf58dd8d48988d116941735","category":"Bar","checkinsCount":2122,"usersCount":308,"tipCount":14,"visitsCount":2173,"url":"http://shakespearespubandgrill.com","tier":"","message":"","currency":"","rating":7.8},{"name":"EDEN Lounge","phone":"3193591376","twitter":"edenloungeic","address":"217 Iowa Ave","lat":41.66090323145771,"lng":-91.53233645625122,"city_fetched":"Iowa City,US","state":"IA","country":"United States","canonicalUrl":"https://foursquare.com/edenloungeic","categoryId":"4bf58dd8d48988d121941735","category":"Lounge","checkinsCount":580,"usersCount":183,"tipCount":12,"visitsCount":620,"url":"http://www.edenloungeic.com","tier":3,"message":"Expensive","currency":"$","rating":7.8},{"name":"Iowa City Brewlab","phone":"3194991089","address":"505 E Washington St","lat":41.65977724672022,"lng":-91.52850592526059,"city_fetched":"Iowa City,US","state":"IA","country":"United States","canonicalUrl":"https://foursquare.com/v/iowa-city-brewlab/565a2ae8498ef1ac5c5b8272","categoryId":"50327c8591d4c4b30a586d5d","category":"Brewery","checkinsCount":92,"usersCount":107,"tipCount":1,"visitsCount":181,"url":"http://icbrewlab.com","tier":"","message":"","currency":"","rating":7.7},{"name":"Grizzly's South Side","phone":"3193377536","address":"1210 Highland Ct","lat":41.64733361759792,"lng":-91.52781552027245,"city_fetched":"Iowa City,US","state":"IA","country":"United States","canonicalUrl":"https://foursquare.com/v/grizzlys-south-side/4ba01cf5f964a520155b37e3","categoryId":"4bf58dd8d48988d118941735","category":"Dive Bar","checkinsCount":551,"usersCount":140,"tipCount":4,"visitsCount":621,"tier":"","message":"","currency":"","rating":7.7},{"name":"American Legion","address":"3016 Muscatine Ave","lat":41.64983953973664,"lng":-91.49209515593688,"city_fetched":"Iowa City,US","state":"IA","country":"United States","canonicalUrl":"https://foursquare.com/v/american-legion/4c8b0ac21eafb1f7df758035","categoryId":"4bf58dd8d48988d116941735","category":"Bar","checkinsCount":304,"usersCount":110,"tipCount":2,"visitsCount":429,"tier":"","message":"","currency":"","rating":7.6},{"name":"TCB","phone":"3198872665","address":"114 E College St","lat":41.6590528969292,"lng":-91.53389714105525,"city_fetched":"Iowa City,US","state":"IA","country":"United States","canonicalUrl":"https://foursquare.com/v/tcb/4dd306712271b8c595478542","categoryId":"4bf58dd8d48988d116941735","category":"Bar","checkinsCount":3253,"usersCount":1110,"tipCount":9,"visitsCount":3287,"tier":"","message":"","currency":"","rating":7.6},{"name":"Rocky O'Brien's","address":"720 Pacha Pkwy #8","lat":41.75411605834961,"lng":-91.60547637939453,"city_fetched":"Iowa City,US","state":"IA","country":"United States","canonicalUrl":"https://foursquare.com/v/rocky-obriens/525f7ad211d2547b95b7eebc","categoryId":"4bf58dd8d48988d11b941735","category":"Pub","checkinsCount":535,"usersCount":266,"tipCount":8,"visitsCount":718,"tier":"","message":"","currency":"","rating":7.6},{"name":"Blue Moose Tap House","phone":"3193589206","address":"211 Iowa Ave","lat":41.661119929903506,"lng":-91.53254927356197,"city_fetched":"Iowa City,US","state":"IA","country":"United States","canonicalUrl":"https://foursquare.com/v/blue-moose-tap-house/4b77674bf964a52030982ee3","categoryId":"4bf58dd8d48988d116941735","category":"Bar","checkinsCount":5656,"usersCount":2064,"tipCount":27,"visitsCount":5806,"url":"http://bluemooseic.com","tier":2,"message":"Moderate","currency":"$","rating":7.6},{"name":"2 Dogs Pub","phone":"3193379047","address":"1705 S 1st Ave","lat":41.642848,"lng":-91.504872,"city_fetched":"Iowa City,US","state":"IA","country":"United States","canonicalUrl":"https://foursquare.com/v/2-dogs-pub/4e504bb9483bb770491cedfa","categoryId":"4bf58dd8d48988d11b941735","category":"Pub","checkinsCount":1000,"usersCount":446,"tipCount":16,"visitsCount":1295,"url":"http://www.2dogspub.com","tier":1,"message":"Cheap","currency":"$","rating":7.5},{"name":"Hala Hala Hookah","phone":"3193384252","twitter":"halahalahookah","address":"327 S Gilbert St","lat":41.65716355591748,"lng":-91.53061031042213,"city_fetched":"Iowa City,US","state":"IA","country":"United States","canonicalUrl":"https://foursquare.com/v/hala-hala-hookah/5021f3b0e4b0851f0d4dbfd4","categoryId":"4bf58dd8d48988d119941735","category":"Hookah Bar","checkinsCount":415,"usersCount":91,"tipCount":9,"visitsCount":416,"tier":"","message":"","currency":"","rating":7.5},{"name":"Airliner Bar & Restaurant","phone":"3193519259","address":"22 S Clinton St","lat":41.660530500314245,"lng":-91.53449778337173,"city_fetched":"Iowa City,US","state":"IA","country":"United States","canonicalUrl":"https://foursquare.com/v/airliner-bar--restaurant/4b4be152f964a52058aa26e3","categoryId":"4bf58dd8d48988d116941735","category":"Bar","checkinsCount":4923,"usersCount":2163,"tipCount":26,"visitsCount":4970,"url":"http://www.theairlinerbar.com","tier":2,"message":"Moderate","currency":"$","rating":7.4},{"name":"Carl & Ernie's","phone":"3193374422","address":"Hwy 1 West","lat":41.64665016666667,"lng":-91.54267988333334,"city_fetched":"Iowa City,US","state":"IA","country":"United States","canonicalUrl":"https://foursquare.com/v/carl--ernies/4d9526a10caaa143e0f057b3","categoryId":"4bf58dd8d48988d116941735","category":"Bar","checkinsCount":839,"usersCount":382,"tipCount":6,"visitsCount":929,"tier":2,"message":"Moderate","currency":"$","rating":7.3},{"name":"Wildwood Smokehouse & Saloon","phone":"3193382211","twitter":"wildwoodsaloon","address":"4919 Walleye Dr SE","lat":41.67162664520391,"lng":-91.4523495748542,"city_fetched":"Iowa City,US","state":"IA","country":"United States","canonicalUrl":"https://foursquare.com/v/wildwood-smokehouse--saloon/4b4fa29ef964a5208c0e27e3","categoryId":"4bf58dd8d48988d11f941735","category":"Nightclub","checkinsCount":2384,"usersCount":733,"tipCount":12,"visitsCount":2582,"url":"http://www.wildwoodsmokehouseandsaloon.com","tier":1,"message":"Cheap","currency":"$","rating":7.2},{"name":"Pints","phone":"3193519898","address":"118 S Clinton St","lat":41.65934681060361,"lng":-91.53449445962906,"city_fetched":"Iowa City,US","state":"IA","country":"United States","canonicalUrl":"https://foursquare.com/v/pints/4b778451f964a520589f2ee3","categoryId":"4bf58dd8d48988d116941735","category":"Bar","checkinsCount":4706,"usersCount":1061,"tipCount":16,"visitsCount":4743,"tier":"","message":"","currency":"","rating":7.2},{"name":"DC's","phone":"3193589575","address":"124 S Dubuque St","lat":41.65927275543127,"lng":-91.53304112205439,"city_fetched":"Iowa City,US","state":"IA","country":"United States","canonicalUrl":"https://foursquare.com/v/dcs/4aff3a62f964a520213622e3","categoryId":"4bf58dd8d48988d116941735","category":"Bar","checkinsCount":6915,"usersCount":1794,"tipCount":22,"visitsCount":6980,"tier":2,"message":"Moderate","currency":"$","rating":7.2},{"name":"The Union Bar","phone":"3193394646","address":"121 E College St","lat":41.65878117926513,"lng":-91.53355662316314,"city_fetched":"Iowa City,US","state":"IA","country":"United States","canonicalUrl":"https://foursquare.com/v/the-union-bar/4b63d0f5f964a520da922ae3","categoryId":"4bf58dd8d48988d11f941735","category":"Nightclub","checkinsCount":5173,"usersCount":1169,"tipCount":19,"visitsCount":5195,"url":"http://theunionbar.com","tier":"","message":"","currency":"","rating":7.2},{"name":"Dublin Underground","phone":"3193377660","address":"5 S Dubuque St","lat":41.66102744634052,"lng":-91.53321610797461,"city_fetched":"Iowa City,US","state":"IA","country":"United States","canonicalUrl":"https://foursquare.com/v/dublin-underground/4b6c836ef964a520fb3f2ce3","categoryId":"4bf58dd8d48988d11b941735","category":"Pub","checkinsCount":1859,"usersCount":751,"tipCount":16,"visitsCount":1864,"tier":2,"message":"Moderate","currency":"$","rating":7.1},{"name":"Brothers Bar & Grill","phone":"3193386373","address":"125 S Dubuque St","lat":41.65913593084191,"lng":-91.53339109460882,"city_fetched":"Iowa City,US","state":"IA","country":"United States","canonicalUrl":"https://foursquare.com/v/brothers-bar--grill/4b9aaf94f964a520e2cc35e3","categoryId":"4bf58dd8d48988d116941735","category":"Bar","checkinsCount":8370,"usersCount":2689,"tipCount":20,"visitsCount":8560,"url":"http://brothersbarandgrill.com","tier":1,"message":"Cheap","currency":"$","rating":7.1},{"name":"The Red Poppy Hookah Parlor","address":"312 E College St","lat":41.6588802,"lng":-91.53077073333333,"city_fetched":"Iowa City,US","state":"IA","country":"United States","canonicalUrl":"https://foursquare.com/v/the-red-poppy-hookah-parlor/4d6ae7f8d2596ea83aca6b20","categoryId":"4bf58dd8d48988d119941735","category":"Hookah Bar","checkinsCount":378,"usersCount":171,"tipCount":10,"visitsCount":378,"tier":"","message":"","currency":"","rating":7},{"name":"George's","address":"312 E Market St","lat":41.66361896666667,"lng":-91.531263,"city_fetched":"Iowa City,US","state":"IA","country":"United States","canonicalUrl":"https://foursquare.com/v/georges/4ba01e07f964a520715b37e3","categoryId":"4bf58dd8d48988d116941735","category":"Bar","checkinsCount":895,"usersCount":415,"tipCount":10,"visitsCount":929,"tier":1,"message":"Cheap","currency":"$","rating":7},{"name":"Quinton's Bar & Deli","phone":"3193577074","address":"215 E Washington St","lat":41.659972647723585,"lng":-91.53246414651093,"city_fetched":"Iowa City,US","state":"IA","country":"United States","canonicalUrl":"https://foursquare.com/v/quintons-bar--deli/4b182d6ef964a52062ce23e3","categoryId":"4bf58dd8d48988d116941735","category":"Bar","checkinsCount":4321,"usersCount":1419,"tipCount":32,"visitsCount":4331,"url":"http://quintonsbaranddeli.com","tier":2,"message":"Moderate","currency":"$","rating":7},{"name":"The Club Car","phone":"3193519416","address":"122 Wright St","lat":41.65383811564383,"lng":-91.53373634060262,"city_fetched":"Iowa City,US","state":"IA","country":"United States","canonicalUrl":"https://foursquare.com/v/the-club-car/4b9fe4a2f964a520314837e3","categoryId":"4bf58dd8d48988d116941735","category":"Bar","checkinsCount":4591,"usersCount":288,"tipCount":4,"visitsCount":4950,"tier":1,"message":"Cheap","currency":"$","rating":6.9},{"name":"Sports Column","phone":"3193566902","address":"12 S Dubuque St","lat":41.6607817969551,"lng":-91.53305531007538,"city_fetched":"Iowa City,US","state":"IA","country":"United States","canonicalUrl":"https://foursquare.com/v/sports-column/4b88ca3bf964a5208b0d32e3","categoryId":"4bf58dd8d48988d11d941735","category":"Sports Bar","checkinsCount":4093,"usersCount":1578,"tipCount":12,"visitsCount":4146,"tier":2,"message":"Moderate","currency":"$","rating":6.9},{"name":"Bearded Dragon Brewery","address":"1 Woolf Avenue Ct","lat":41.664556753277665,"lng":-91.54994130134583,"city_fetched":"Iowa City,US","state":"IA","country":"United States","canonicalUrl":"https://foursquare.com/v/bearded-dragon-brewery/520049ef2fc601e87f74e344","categoryId":"50327c8591d4c4b30a586d5d","category":"Brewery","checkinsCount":2,"usersCount":2,"tipCount":1,"visitsCount":2,"tier":1,"message":"Cheap","currency":"$","rating":6.8},{"name":"Slims Saloon","address":"301 Main St","lat":41.70607120461362,"lng":-91.66349889231748,"city_fetched":"Iowa City,US","state":"IA","country":"United States","canonicalUrl":"https://foursquare.com/v/slims-saloon/4b92eebcf964a5202f2834e3","categoryId":"4bf58dd8d48988d116941735","category":"Bar","checkinsCount":516,"usersCount":240,"tipCount":2,"visitsCount":561,"tier":"","message":"","currency":"","rating":6.7},{"name":"Hilltop Tavern Ltd.","phone":"3193383063","twitter":"hilltoptavernia","address":"1100 N Dodge St","lat":41.675216,"lng":-91.521131,"city_fetched":"Iowa City,US","state":"IA","country":"United States","canonicalUrl":"https://foursquare.com/v/hilltop-tavern-ltd/4b86c655f964a5205e9c31e3","categoryId":"4bf58dd8d48988d116941735","category":"Bar","checkinsCount":469,"usersCount":310,"tipCount":3,"visitsCount":629,"url":"http://hilltoptavernnorthside.com","tier":1,"message":"Cheap","currency":"$","rating":6.6},{"name":"Coach's Corner","phone":"3193589080","address":"749 Mormon Trek Blvd","lat":41.65202175626076,"lng":-91.57577304648092,"neighborhood":"Weber","city_fetched":"Iowa City,US","state":"IA","country":"United States","canonicalUrl":"https://foursquare.com/v/coachs-corner/4bd4f5c8637ba593efd2f570","categoryId":"4bf58dd8d48988d11d941735","category":"Sports Bar","checkinsCount":1526,"usersCount":530,"tipCount":14,"visitsCount":1694,"tier":"","message":"","currency":"","rating":6.6},{"name":"Bo James","phone":"3193374703","address":"118 E Washington St","lat":41.660278261208965,"lng":-91.53388295275576,"city_fetched":"Iowa City,US","state":"IA","country":"United States","canonicalUrl":"https://foursquare.com/v/bo-james/4b6e46b1f964a520bbb52ce3","categoryId":"4bf58dd8d48988d116941735","category":"Bar","checkinsCount":3436,"usersCount":1349,"tipCount":22,"visitsCount":3475,"tier":1,"message":"Cheap","currency":"$","rating":6.6},{"name":"Martini's","phone":"3193515536","twitter":"martinisbaric","address":"127 E College St","lat":41.658844518012714,"lng":-91.53346203533958,"city_fetched":"Iowa City,US","state":"IA","country":"United States","canonicalUrl":"https://foursquare.com/v/martinis/4b76324ff964a520cc422ee3","categoryId":"4bf58dd8d48988d117941735","category":"Beer Garden","checkinsCount":3591,"usersCount":1311,"tipCount":12,"visitsCount":3604,"tier":"","message":"","currency":"","rating":6.6},{"name":"I.C. Ugly's Saloon","phone":"2106546678","address":"210 N Linn St","lat":41.66394384,"lng":-91.531419,"city_fetched":"Iowa City,US","state":"IA","country":"United States","canonicalUrl":"https://foursquare.com/v/ic-uglys-saloon/4b9f1b5bf964a520011437e3","categoryId":"4bf58dd8d48988d118941735","category":"Dive Bar","checkinsCount":1535,"usersCount":303,"tipCount":8,"visitsCount":1568,"tier":1,"message":"Cheap","currency":"$","rating":6.5},{"name":"ReUnion Brewery","phone":"3193373000","twitter":"mondodrafthouse","address":"516 2nd St","lat":41.67090117931366,"lng":-91.573492,"city_fetched":"Iowa City,US","state":"IA","country":"United States","canonicalUrl":"https://foursquare.com/v/reunion-brewery/4b7f07fef964a520931130e3","categoryId":"4bf58dd8d48988d11b941735","category":"Pub","checkinsCount":1623,"usersCount":1081,"tipCount":23,"visitsCount":1942,"url":"http://mondos.net","tier":2,"message":"Moderate","currency":"$","rating":6.4},{"name":"Yacht Club","phone":"3193376464","twitter":"icyachtclub","address":"13 S Linn St","lat":41.660711465137936,"lng":-91.5319013663693,"city_fetched":"Iowa City,US","state":"IA","country":"United States","canonicalUrl":"https://foursquare.com/v/yacht-club/4b84a025f964a520d33e31e3","categoryId":"4bf58dd8d48988d116941735","category":"Bar","checkinsCount":1395,"usersCount":574,"tipCount":9,"visitsCount":1408,"url":"http://www.iowacityyachtclub.org","tier":"","message":"","currency":"","rating":6.3},{"name":"Dave's Foxhead Tavern","address":"402 E Market St","lat":41.6636596140486,"lng":-91.52997189052645,"city_fetched":"Iowa City,US","state":"IA","country":"United States","canonicalUrl":"https://foursquare.com/v/daves-foxhead-tavern/4ba01dacf964a5204f5b37e3","categoryId":"4bf58dd8d48988d116941735","category":"Bar","checkinsCount":284,"usersCount":138,"tipCount":7,"visitsCount":284,"tier":"","message":"","currency":"","rating":6},{"name":"Summit Restaurant & Bar","phone":"3193547482","address":"10 S Clinton St","lat":41.66086862512809,"lng":-91.53454980790522,"city_fetched":"Iowa City,US","state":"IA","country":"United States","canonicalUrl":"https://foursquare.com/v/summit-restaurant--bar/4b47ada1f964a520473a26e3","categoryId":"4bf58dd8d48988d116941735","category":"Bar","checkinsCount":5918,"usersCount":1475,"tipCount":24,"visitsCount":5936,"url":"http://www.summitiowacity.com","tier":1,"message":"Cheap","currency":"$","rating":5.9},{"name":"Jobsite","lat":41.6503148,"lng":-91.53046606666666,"city_fetched":"Iowa City,US","state":"IA","country":"United States","canonicalUrl":"https://foursquare.com/v/jobsite/4d0c1ec05c46a093d6bd06b4","categoryId":"4bf58dd8d48988d118941735","category":"Dive Bar","checkinsCount":314,"usersCount":65,"tipCount":4,"visitsCount":348,"tier":"","message":"","currency":"","rating":5.6},{"name":"Fieldhouse","phone":"3193391516","address":"118 S Dubuque St","lat":41.65939114268842,"lng":-91.53302220470039,"city_fetched":"Iowa City,US","state":"IA","country":"United States","canonicalUrl":"https://foursquare.com/v/fieldhouse/4aff581ff964a5208d3722e3","categoryId":"4bf58dd8d48988d116941735","category":"Bar","checkinsCount":3082,"usersCount":1103,"tipCount":11,"visitsCount":3103,"tier":"","message":"","currency":"","rating":5.5}]