[{"name":"Polly's Underground Pub","address":"102 E B St","lat":45.817659533333334,"lng":-88.0666057,"city_fetched":"Iron Mountain","state":"MI","country":"United States","canonicalUrl":"https://foursquare.com/v/pollys-underground-pub/4c3ca7f617f2ef3be92381f4","category":"Bar","checkinsCount":133,"usersCount":64,"tipCount":5,"visitsCount":139,"tier":"","message":"","currency":"","rating":8.1},{"name":"Famers Sports Bar & Grill","phone":"9067742747","address":"N3332 Pine Mountain Rd","lat":45.839129991038156,"lng":-88.08878660202026,"city_fetched":"Iron Mountain","state":"MI","country":"United States","canonicalUrl":"https://foursquare.com/v/famers-sports-bar--grill/4e7530ccd1643f93b1d2c533","category":"Sports Bar","checkinsCount":273,"usersCount":145,"tipCount":5,"visitsCount":296,"tier":2,"message":"Moderate","currency":"$","rating":7.7},{"name":"Greenleaf's","phone":"9067744600","address":"1340 Carpenter Ave","lat":45.80881227466777,"lng":-88.06884606905403,"city_fetched":"Iron Mountain","state":"MI","country":"United States","canonicalUrl":"https://foursquare.com/v/greenleafs/4ba67366f964a520d85339e3","category":"Sports Bar","checkinsCount":146,"usersCount":142,"tipCount":4,"visitsCount":317,"tier":"","message":"","currency":"","rating":7.2}]