[{"name":"Hal and Mal's","phone":"6019480888","twitter":"halandmals","address":"200 Commerce St","lat":32.29807,"lng":-90.17986,"city_fetched":"Jackson,US","state":"MS","country":"United States","canonicalUrl":"https://foursquare.com/v/hal-and-mals/4b6458b4f964a5203eac2ae3","categoryId":"4bf58dd8d48988d116941735","category":"Bar","checkinsCount":2206,"usersCount":1021,"tipCount":25,"visitsCount":2394,"url":"http://www.halandmals.com","tier":1,"message":"Cheap","currency":"$","rating":9},{"name":"The Bulldog - Jackson","phone":"6019783502","address":"6111 Ridgewood Rd","lat":32.39549011097342,"lng":-90.14152407646179,"city_fetched":"Jackson,US","state":"MS","country":"United States","canonicalUrl":"https://foursquare.com/v/the-bulldog--jackson/4b4be094f964a52043aa26e3","categoryId":"4bf58dd8d48988d116941735","category":"Bar","checkinsCount":4325,"usersCount":1518,"tipCount":31,"visitsCount":4958,"url":"http://bulldog-jackson.draftfreak.com","tier":2,"message":"Moderate","currency":"$","rating":8.3},{"name":"Pi(e) Lounge at Sal & Mookies","phone":"6013681919","twitter":"pielounge","address":"565 Taylor St","lat":32.332621,"lng":-90.176314,"city_fetched":"Jackson,US","state":"MS","country":"United States","canonicalUrl":"https://foursquare.com/v/pie-lounge-at-sal--mookies/4b9d6f3ff964a52080ac36e3","categoryId":"4bf58dd8d48988d116941735","category":"Bar","checkinsCount":669,"usersCount":195,"tipCount":10,"visitsCount":672,"url":"http://salandmookies.com","tier":"","message":"","currency":"","rating":8.3},{"name":"Fondren Public","phone":"7692162589","twitter":"fondrenpublic","address":"2765 Old Canton Rd","lat":32.333574,"lng":-90.175412,"city_fetched":"Jackson,US","state":"MS","country":"United States","canonicalUrl":"https://foursquare.com/v/fondren-public/521bf0a011d29828a2305001","categoryId":"4bf58dd8d48988d117941735","category":"Beer Garden","checkinsCount":897,"usersCount":438,"tipCount":9,"visitsCount":1146,"url":"http://www.fondrenpublic.com","tier":2,"message":"Moderate","currency":"$","rating":8.3},{"name":"Fenian's Pub","phone":"6019480055","twitter":"fenianspub","address":"901 E Fortification St","lat":32.31202626239453,"lng":-90.17508119344711,"city_fetched":"Jackson,US","state":"MS","country":"United States","canonicalUrl":"https://foursquare.com/v/fenians-pub/4b47f150f964a520a94426e3","categoryId":"4bf58dd8d48988d11b941735","category":"Pub","checkinsCount":3618,"usersCount":864,"tipCount":14,"visitsCount":3810,"url":"http://www.fenianspub.com","tier":2,"message":"Moderate","currency":"$","rating":8.1},{"name":"F. Jones Corner","phone":"6019831148","twitter":"fjcornerjxn","address":"303 N Farish St","lat":32.303239249055096,"lng":-90.18869172554427,"neighborhood":"Downtown Jackson","city_fetched":"Jackson,US","state":"MS","country":"United States","canonicalUrl":"https://foursquare.com/v/f-jones-corner/4b4a31a3f964a5202d7e26e3","categoryId":"4bf58dd8d48988d116941735","category":"Bar","checkinsCount":915,"usersCount":346,"tipCount":11,"visitsCount":1010,"url":"http://www.fjonescorner.com","tier":"","message":"","currency":"","rating":8.1},{"name":"The Apothecary At Brent's Drugs","twitter":"apothecaryjxn","address":"655 Duling Ave","lat":32.33517905956038,"lng":-90.1746601403695,"city_fetched":"Jackson,US","state":"MS","country":"United States","canonicalUrl":"https://foursquare.com/v/the-apothecary-at-brents-drugs/51b7a242498eb16568a74713","categoryId":"4bf58dd8d48988d1d4941735","category":"Speakeasy","checkinsCount":392,"usersCount":244,"tipCount":10,"visitsCount":406,"url":"http://apothecaryjackson.com","tier":"","message":"","currency":"","rating":7.9},{"name":"Shucker's Oyster Bar","phone":"6018530105","address":"116 Conestoga Rd","lat":32.4236446405788,"lng":-90.09267707804943,"city_fetched":"Jackson,US","state":"MS","country":"United States","canonicalUrl":"https://foursquare.com/v/shuckers-oyster-bar/4c5e3d47d25320a14385c87a","categoryId":"4bf58dd8d48988d116941735","category":"Bar","checkinsCount":747,"usersCount":531,"tipCount":10,"visitsCount":1120,"url":"http://www.shuckersontherez.com","tier":"","message":"","currency":"","rating":7.9},{"name":"The Library","lat":32.320618250779894,"lng":-90.17674602754408,"city_fetched":"Jackson,US","state":"MS","country":"United States","canonicalUrl":"https://foursquare.com/v/the-library/515f509ee4b0ce22adcbdc95","categoryId":"4bf58dd8d48988d11e941735","category":"Cocktail Bar","checkinsCount":218,"usersCount":119,"tipCount":2,"visitsCount":247,"tier":"","message":"","currency":"","rating":7.7},{"name":"JCs","phone":"6013623108","address":"425 N Mart Plz","lat":32.350996,"lng":-90.17287373542786,"city_fetched":"Jackson,US","state":"MS","country":"United States","canonicalUrl":"https://foursquare.com/v/jcs/4b91d89bf964a5204adb33e3","categoryId":"4bf58dd8d48988d1d8941735","category":"Gay Bar","checkinsCount":464,"usersCount":96,"tipCount":2,"visitsCount":649,"tier":1,"message":"Cheap","currency":"$","rating":7.6},{"name":"Freelon's Bar & Grill","phone":"6019492535","address":"440 N Mill St","lat":32.30551829594503,"lng":-90.19050380388938,"neighborhood":"Downtown Jackson","city_fetched":"Jackson,US","state":"MS","country":"United States","canonicalUrl":"https://foursquare.com/v/freelons-bar--grill/4c36b7dc2c8020a191e28700","categoryId":"4bf58dd8d48988d11f941735","category":"Nightclub","checkinsCount":300,"usersCount":170,"tipCount":1,"visitsCount":420,"tier":"","message":"","currency":"","rating":7.5},{"name":"Time Out Sports Cafe","phone":"6019781839","address":"6270 Old Canton Rd","lat":32.388806,"lng":-90.113861,"city_fetched":"Jackson,US","state":"MS","country":"United States","canonicalUrl":"https://foursquare.com/v/time-out-sports-cafe/4b4a8efff964a5209a8a26e3","categoryId":"4bf58dd8d48988d11d941735","category":"Sports Bar","checkinsCount":1822,"usersCount":276,"tipCount":11,"visitsCount":1929,"url":"http://www.timeoutcafe.com","tier":"","message":"","currency":"","rating":7.4},{"name":"Fitzgerald's","phone":"6019572800","twitter":"hiltonhotels","address":"1001 E County Line Rd","lat":32.39934591030013,"lng":-90.14257635612273,"city_fetched":"Jackson,US","state":"MS","country":"United States","canonicalUrl":"https://foursquare.com/v/fitzgeralds/50ca02c6245f2d4aa8c2c8bb","categoryId":"4bf58dd8d48988d1d5941735","category":"Hotel Bar","checkinsCount":228,"usersCount":93,"tipCount":5,"visitsCount":228,"url":"http://www.hilton.com","tier":"","message":"","currency":"","rating":7.3},{"name":"Bottoms Up","lat":32.348526,"lng":-90.178681,"city_fetched":"Jackson,US","state":"MS","country":"United States","canonicalUrl":"https://foursquare.com/v/bottoms-up/4c943c546b35a143cef319dc","categoryId":"4bf58dd8d48988d1d8941735","category":"Gay Bar","checkinsCount":379,"usersCount":139,"tipCount":1,"visitsCount":419,"tier":"","message":"","currency":"","rating":7.3},{"name":"Mbar Jackson","lat":32.39597966279062,"lng":-90.13933151132196,"city_fetched":"Jackson,US","state":"MS","country":"United States","canonicalUrl":"https://foursquare.com/v/mbar-jackson/515f9ee7e4b00021fdab81eb","categoryId":"4bf58dd8d48988d11d941735","category":"Sports Bar","checkinsCount":311,"usersCount":181,"tipCount":5,"visitsCount":501,"tier":"","message":"","currency":"","rating":7.1},{"name":"Martin's Restaurant & Bar","phone":"6013549712","address":"214 S State St","lat":32.29763176530415,"lng":-90.18031425301464,"city_fetched":"Jackson,US","state":"MS","country":"United States","canonicalUrl":"https://foursquare.com/v/martins-restaurant--bar/4b57170df964a520022628e3","categoryId":"4bf58dd8d48988d116941735","category":"Bar","checkinsCount":1010,"usersCount":324,"tipCount":8,"visitsCount":1054,"url":"http://www.martinslounge.com","tier":"","message":"","currency":"","rating":7},{"name":"Kemistry","lat":32.33789,"lng":-90.160375,"city_fetched":"Jackson,US","state":"MS","country":"United States","canonicalUrl":"https://foursquare.com/v/kemistry/510de5e9e4b0c9eddc558880","categoryId":"4bf58dd8d48988d119941735","category":"Hookah Bar","checkinsCount":103,"usersCount":71,"tipCount":2,"visitsCount":170,"tier":"","message":"","currency":"","rating":6.8},{"name":"Last Call Sports Bar & Grill","phone":"6017132700","twitter":"lastcallsports","address":"1428 Old Square Rd","lat":32.362308704770186,"lng":-90.148198352426,"city_fetched":"Jackson,US","state":"MS","country":"United States","canonicalUrl":"https://foursquare.com/v/last-call-sports-bar--grill/4b68eec6f964a520ca932be3","categoryId":"4bf58dd8d48988d11d941735","category":"Sports Bar","checkinsCount":1191,"usersCount":354,"tipCount":9,"visitsCount":1543,"url":"http://www.lastcallsportsgrill.com","tier":"","message":"","currency":"","rating":6.7},{"name":"Pop's Saloon","address":"McDowell Rd Ext","lat":32.27015207259226,"lng":-90.19303321838379,"city_fetched":"Jackson,US","state":"MS","country":"United States","canonicalUrl":"https://foursquare.com/v/pops-saloon/4c09fe55a1b32d7f7eb098f0","categoryId":"4bf58dd8d48988d116941735","category":"Bar","checkinsCount":96,"usersCount":80,"tipCount":3,"visitsCount":106,"tier":"","message":"","currency":"","rating":6.4},{"name":"Club Magoos","address":"824 S State St","lat":32.28969458927283,"lng":-90.18209848906908,"city_fetched":"Jackson,US","state":"MS","country":"United States","canonicalUrl":"https://foursquare.com/v/club-magoos/4ea0e2d2b6347b9967266e1a","categoryId":"4bf58dd8d48988d116941735","category":"Bar","checkinsCount":771,"usersCount":332,"tipCount":9,"visitsCount":877,"tier":2,"message":"Moderate","currency":"$","rating":6.1},{"name":"Green Room","phone":"6017133444","address":"444 Bounds St","lat":32.37046765294697,"lng":-90.15063554048538,"city_fetched":"Jackson,US","state":"MS","country":"United States","canonicalUrl":"https://foursquare.com/v/green-room/4c06d1f0b4aa0f4755b36462","categoryId":"4bf58dd8d48988d11d941735","category":"Sports Bar","checkinsCount":678,"usersCount":160,"tipCount":4,"visitsCount":835,"url":"http://www.thegreenroomms.com","tier":"","message":"","currency":"","rating":6.1},{"name":"Danny's","phone":"6013538573","address":"995 S West St","lat":32.28676529837458,"lng":-90.18713235855103,"city_fetched":"Jackson,US","state":"MS","country":"United States","canonicalUrl":"https://foursquare.com/v/dannys/4bcfcc7dcaff95215bf1cdf0","categoryId":"4bf58dd8d48988d1d6941735","category":"Strip Club","checkinsCount":289,"usersCount":138,"tipCount":5,"visitsCount":330,"url":"http://www.dannyscabaret.net","tier":"","message":"","currency":"","rating":6.1},{"name":"Mc Bs'","address":"Lake Harbor","lat":32.41367976322462,"lng":-90.10498489005435,"city_fetched":"Jackson,US","state":"MS","country":"United States","canonicalUrl":"https://foursquare.com/v/mc-bs/4bac1fadf964a520b4e53ae3","categoryId":"4bf58dd8d48988d116941735","category":"Bar","checkinsCount":269,"usersCount":142,"tipCount":7,"visitsCount":269,"tier":"","message":"","currency":"","rating":6}]