[{"name":"Alewife Craft Beer Bottle Shop & Tasting Room","phone":"9045754951","twitter":"alewifebeer","address":"1035 Park St","lat":30.314524356104315,"lng":-81.68075323104858,"neighborhood":"Riverside","city_fetched":"Jacksonville,US","state":"FL","country":"United States","canonicalUrl":"https://foursquare.com/v/alewife-craft-beer-bottle-shop--tasting-room/5513299d498eed39d3520c16","categoryId":"4bf58dd8d48988d116941735","category":"Bar","checkinsCount":663,"usersCount":165,"tipCount":7,"visitsCount":708,"tier":"","message":"","currency":"","rating":9.2},{"name":"Riverside Liquors & Village Wine Shop","phone":"9043544617","address":"1251 King St","lat":30.31167041287044,"lng":-81.69402429237897,"neighborhood":"Riverside","city_fetched":"Jacksonville,US","state":"FL","country":"United States","canonicalUrl":"https://foursquare.com/v/riverside-liquors--village-wine-shop/4cb8f89790c9a143932b84d6","categoryId":"4bf58dd8d48988d116941735","category":"Bar","checkinsCount":1223,"usersCount":391,"tipCount":16,"visitsCount":1277,"url":"http://riversideliquors.biz","tier":2,"message":"Moderate","currency":"$","rating":9.1},{"name":"Aardwolf Brewing Company","phone":"9043010755","twitter":"aardwolfbar","address":"1461 Hendricks Ave","lat":30.310727279682965,"lng":-81.65454165200933,"neighborhood":"San Marco","city_fetched":"Jacksonville,US","state":"FL","country":"United States","canonicalUrl":"https://foursquare.com/v/aardwolf-brewing-company/50d51189e4b0dbf3fe0eef11","categoryId":"50327c8591d4c4b30a586d5d","category":"Brewery","checkinsCount":2706,"usersCount":1454,"tipCount":38,"visitsCount":3607,"url":"http://aardwolfbrewing.com","tier":1,"message":"Cheap","currency":"$","rating":9.1},{"name":"EverBank Touchdown Club","lat":30.32376834253885,"lng":-81.63665712913394,"city_fetched":"Jacksonville,US","state":"FL","country":"United States","canonicalUrl":"https://foursquare.com/v/everbank-touchdown-club/4c7054e0d274b60c3f6ed90d","categoryId":"4bf58dd8d48988d121941735","category":"Lounge","checkinsCount":660,"usersCount":464,"tipCount":8,"visitsCount":662,"tier":"","message":"","currency":"","rating":9.1},{"name":"Intuition Ale Works","phone":"9046837720","address":"720 King St","lat":30.317868,"lng":-81.697047,"neighborhood":"Riverside","city_fetched":"Jacksonville,US","state":"FL","country":"United States","canonicalUrl":"https://foursquare.com/v/intuition-ale-works/4ccc6a88ba79a1cd9a283bcb","categoryId":"50327c8591d4c4b30a586d5d","category":"Brewery","checkinsCount":6430,"usersCount":1937,"tipCount":26,"visitsCount":7110,"url":"http://www.intuitionaleworks.com","tier":1,"message":"Cheap","currency":"$","rating":9.1},{"name":"Black Sheep Rooftop","address":"1534 Oak St","lat":30.31266975402832,"lng":-81.68087768554688,"neighborhood":"Riverside","city_fetched":"Jacksonville,US","state":"FL","country":"United States","canonicalUrl":"https://foursquare.com/v/black-sheep-rooftop/50a6e4e2e4b0c708dc8f407c","categoryId":"4bf58dd8d48988d11e941735","category":"Cocktail Bar","checkinsCount":1907,"usersCount":1086,"tipCount":18,"visitsCount":1938,"url":"http://blacksheep5points.com","tier":3,"message":"Expensive","currency":"$","rating":8.9},{"name":"Dos Gatos","phone":"9043540666","address":"119 E. Forsyth St","lat":30.32677235046111,"lng":-81.65580405231965,"neighborhood":"Downtown Jacksonville","city_fetched":"Jacksonville,US","state":"FL","country":"United States","canonicalUrl":"https://foursquare.com/v/dos-gatos/4b4a7c57f964a520068926e3","categoryId":"4bf58dd8d48988d116941735","category":"Bar","checkinsCount":8341,"usersCount":2396,"tipCount":73,"visitsCount":8775,"url":"http://www.dosgatosjax.com","tier":2,"message":"Moderate","currency":"$","rating":8.8},{"name":"The Lemon Bar","phone":"9042462175","address":"120 Atlantic Blvd","lat":30.32402656043975,"lng":-81.39495849609375,"neighborhood":"Beaches","city_fetched":"Jacksonville,US","state":"FL","country":"United States","canonicalUrl":"https://foursquare.com/v/the-lemon-bar/4b5a2b18f964a5209cb128e3","categoryId":"4bf58dd8d48988d1d5941735","category":"Hotel Bar","checkinsCount":7061,"usersCount":3481,"tipCount":46,"visitsCount":7899,"url":"http://lemonbarjax.com","tier":1,"message":"Cheap","currency":"$","rating":8.8},{"name":"Bold City Brewing Co.","phone":"9043796551","address":"2670 Rosselle St","lat":30.31917,"lng":-81.69550459,"neighborhood":"Riverside","city_fetched":"Jacksonville,US","state":"FL","country":"United States","canonicalUrl":"https://foursquare.com/v/bold-city-brewing-co/4b620d3bf964a520a2322ae3","categoryId":"50327c8591d4c4b30a586d5d","category":"Brewery","checkinsCount":4612,"usersCount":1740,"tipCount":39,"visitsCount":5140,"url":"http://www.boldcitybrewery.com","tier":2,"message":"Moderate","currency":"$","rating":8.8},{"name":"Ovinte","phone":"9049007730","twitter":"ovintejax","address":"10208 Buckhead Branch Dr","lat":30.253784841444787,"lng":-81.52870805073948,"neighborhood":"Southeast Jacksonville","city_fetched":"Jacksonville,US","state":"FL","country":"United States","canonicalUrl":"https://foursquare.com/v/ovinte/50d10641e4b005b89763d607","categoryId":"4bf58dd8d48988d123941735","category":"Wine Bar","checkinsCount":1276,"usersCount":933,"tipCount":33,"visitsCount":1766,"url":"http://www.ovinte.com","tier":2,"message":"Moderate","currency":"$","rating":8.7},{"name":"The Volstead","address":"115 W Adams St","lat":30.328216756940524,"lng":-81.65944135706648,"neighborhood":"Downtown Jacksonville","city_fetched":"Jacksonville,US","state":"FL","country":"United States","canonicalUrl":"https://foursquare.com/v/the-volstead/52bfa24f498e5e4c2186584e","categoryId":"4bf58dd8d48988d1d4941735","category":"Speakeasy","checkinsCount":872,"usersCount":438,"tipCount":15,"visitsCount":1013,"url":"http://thevolsteadjax.com","tier":2,"message":"Moderate","currency":"$","rating":8.7},{"name":"Rain Dogs","phone":"9045551234","address":"1045 Park St","lat":30.314318379263586,"lng":-81.68076949488794,"neighborhood":"Riverside","city_fetched":"Jacksonville,US","state":"FL","country":"United States","canonicalUrl":"https://foursquare.com/v/rain-dogs/51ce3933498e55d00bb40f40","categoryId":"4bf58dd8d48988d116941735","category":"Bar","checkinsCount":1207,"usersCount":427,"tipCount":20,"visitsCount":1246,"tier":2,"message":"Moderate","currency":"$","rating":8.6},{"name":"Sidecar","address":"1406 Hendricks Ave","lat":30.312022642448113,"lng":-81.65500703088945,"neighborhood":"San Marco","city_fetched":"Jacksonville,US","state":"FL","country":"United States","canonicalUrl":"https://foursquare.com/v/sidecar/537d4db5498ec171ba22eafc","categoryId":"4bf58dd8d48988d11e941735","category":"Cocktail Bar","checkinsCount":664,"usersCount":450,"tipCount":5,"visitsCount":863,"url":"http://drinksidecar.com","tier":"","message":"","currency":"","rating":8.6},{"name":"World Of Beer","phone":"9045515929","address":"9700 Deer Lake Ct","lat":30.26455741,"lng":-81.55615314,"neighborhood":"Southeast Jacksonville","city_fetched":"Jacksonville,US","state":"FL","country":"United States","canonicalUrl":"https://foursquare.com/v/world-of-beer/55a99c14498ed4819a0726a2","categoryId":"4bf58dd8d48988d116941735","category":"Bar","checkinsCount":393,"usersCount":214,"tipCount":2,"visitsCount":473,"url":"http://worldofbeer.com/Locations/Southside","tier":"","message":"","currency":"","rating":8.5},{"name":"Wicked Barley","lat":30.218390189556324,"lng":-81.61121122883186,"neighborhood":"Southeast Jacksonville","city_fetched":"Jacksonville,US","state":"FL","country":"United States","canonicalUrl":"https://foursquare.com/v/wicked-barley/577e8df8498e345959f78f5c","categoryId":"50327c8591d4c4b30a586d5d","category":"Brewery","checkinsCount":104,"usersCount":125,"tipCount":1,"visitsCount":175,"tier":"","message":"","currency":"","rating":8.5},{"name":"Vino Volo Wine Bar, Retail and Food","phone":"9047414877","address":"Jacksonville International Airport Concourse C - Gate C1","lat":30.491354490913892,"lng":-81.68531991639256,"neighborhood":"Northside","city_fetched":"Jacksonville,US","state":"FL","country":"United States","canonicalUrl":"https://foursquare.com/v/vino-volo-wine-bar-retail-and-food/535ebc8b498e8862df1537b9","categoryId":"4bf58dd8d48988d123941735","category":"Wine Bar","checkinsCount":168,"usersCount":129,"tipCount":10,"visitsCount":170,"url":"http://www.vinovolo.com","tier":"","message":"","currency":"","rating":8.4},{"name":"Bud Light Party Zone","phone":"9046336000","address":"1 Everbank Field Dr","lat":30.323236786976132,"lng":-81.63763626147454,"city_fetched":"Jacksonville,US","state":"FL","country":"United States","canonicalUrl":"https://foursquare.com/v/bud-light-party-zone/4e32b8d56284e2699949c572","categoryId":"4bf58dd8d48988d11d941735","category":"Sports Bar","checkinsCount":694,"usersCount":497,"tipCount":3,"visitsCount":701,"url":"http://www.jaguars.com","tier":"","message":"","currency":"","rating":8.4},{"name":"Veterans United Craft Brewery","phone":"9042533326","twitter":"vubrew","address":"8999 Western Way #104","lat":30.200945341755027,"lng":-81.55696392059326,"neighborhood":"Southeast Jacksonville","city_fetched":"Jacksonville,US","state":"FL","country":"United States","canonicalUrl":"https://foursquare.com/v/veterans-united-craft-brewery/52dd986b11d258b544882b47","categoryId":"50327c8591d4c4b30a586d5d","category":"Brewery","checkinsCount":338,"usersCount":292,"tipCount":8,"visitsCount":496,"url":"http://www.vubrew.com","tier":1,"message":"Cheap","currency":"$","rating":8.2},{"name":"The Hourglass Pub","phone":"9044691719","twitter":"hourglasspub","address":"345 E Bay St","lat":30.32517640300781,"lng":-81.65296897079111,"neighborhood":"Downtown Jacksonville","city_fetched":"Jacksonville,US","state":"FL","country":"United States","canonicalUrl":"https://foursquare.com/v/the-hourglass-pub/539b9aca498ee67090bb96f9","categoryId":"4bf58dd8d48988d11b941735","category":"Pub","checkinsCount":287,"usersCount":207,"tipCount":5,"visitsCount":537,"url":"http://hourglasspub.com","tier":"","message":"","currency":"","rating":8.2},{"name":"BJ's Brewhouse & Restaurant","phone":"9047514935","twitter":"bjsrestaurant","address":"15022 Max Leggett Pkwy","lat":30.481897663668835,"lng":-81.63892034994765,"neighborhood":"Northside","city_fetched":"Jacksonville,US","state":"FL","country":"United States","canonicalUrl":"https://foursquare.com/v/bjs-brewhouse--restaurant/51db4834498e28287d9e3467","categoryId":"4bf58dd8d48988d11d941735","category":"Sports Bar","checkinsCount":1296,"usersCount":1297,"tipCount":32,"visitsCount":2080,"url":"http://www.bjsbrewhouse.com","tier":3,"message":"Expensive","currency":"$","rating":8.2},{"name":"Bayard Rooster","address":"12699 Phillips Hwy","lat":30.141330885034943,"lng":-81.51557929382716,"neighborhood":"Bayard","city_fetched":"Jacksonville,US","state":"FL","country":"United States","canonicalUrl":"https://foursquare.com/v/bayard-rooster/4becaa1e2cf820a13118b91c","categoryId":"4bf58dd8d48988d118941735","category":"Dive Bar","checkinsCount":469,"usersCount":232,"tipCount":9,"visitsCount":587,"url":"http://thebayardrooster.com","tier":"","message":"","currency":"","rating":8.2},{"name":"Jerrys Bar and Grill","phone":"9042206766","address":"13170 Atlantic Blvd","lat":30.31884702917831,"lng":-81.46216723542958,"neighborhood":"Greater Arlington","city_fetched":"Jacksonville,US","state":"FL","country":"United States","canonicalUrl":"https://foursquare.com/v/jerrys-bar-and-grill/4bda1e1f3904a5930839459e","categoryId":"4bf58dd8d48988d116941735","category":"Bar","checkinsCount":1448,"usersCount":610,"tipCount":17,"visitsCount":1657,"url":"http://jerryssportsgrille.com","tier":2,"message":"Moderate","currency":"$","rating":8.2},{"name":"Time Out Sports Grill","phone":"9042236999","address":"13799 Beach Blvd","lat":30.288370014553394,"lng":-81.45417228341103,"neighborhood":"Greater Arlington","city_fetched":"Jacksonville,US","state":"FL","country":"United States","canonicalUrl":"https://foursquare.com/v/time-out-sports-grill/4beaebea415e20a1a4a3e5bb","categoryId":"4bf58dd8d48988d116941735","category":"Bar","checkinsCount":4817,"usersCount":1505,"tipCount":46,"visitsCount":5328,"url":"http://timeoutsportsgrill.com","tier":1,"message":"Cheap","currency":"$","rating":8.2},{"name":"Fionn MacCool's","phone":"9043741547","address":"2 Independent Dr Ste 176","lat":30.32428441231131,"lng":-81.65921135630308,"neighborhood":"Downtown Jacksonville","city_fetched":"Jacksonville,US","state":"FL","country":"United States","canonicalUrl":"https://foursquare.com/v/fionn-maccools/4e98afb86c252a15c11bd6ac","categoryId":"4bf58dd8d48988d11b941735","category":"Pub","checkinsCount":4572,"usersCount":2858,"tipCount":56,"visitsCount":5162,"url":"http://www.macoolsjax.net","tier":2,"message":"Moderate","currency":"$","rating":8.1},{"name":"Birdies","phone":"9043564444","address":"1044 Park St","lat":30.314426,"lng":-81.68100816,"neighborhood":"Riverside","city_fetched":"Jacksonville,US","state":"FL","country":"United States","canonicalUrl":"https://foursquare.com/v/birdies/4b80cc53f964a520a78c30e3","categoryId":"4bf58dd8d48988d116941735","category":"Bar","checkinsCount":14878,"usersCount":1656,"tipCount":38,"visitsCount":15177,"tier":1,"message":"Cheap","currency":"$","rating":8.1},{"name":"Casbah Cafe","phone":"9049819966","address":"3628 Saint Johns Ave","lat":30.29584456357814,"lng":-81.70463069977481,"neighborhood":"Avondale","city_fetched":"Jacksonville,US","state":"FL","country":"United States","canonicalUrl":"https://foursquare.com/v/casbah-cafe/4b63bd45f964a5202b8f2ae3","categoryId":"4bf58dd8d48988d119941735","category":"Hookah Bar","checkinsCount":6611,"usersCount":2052,"tipCount":59,"visitsCount":6839,"url":"http://thecasbahcafe.com","tier":2,"message":"Moderate","currency":"$","rating":8.1},{"name":"Metro Entertainment Complex","phone":"9043887192","twitter":"metrojax","address":"859 Willow Branch Ave","lat":30.315081312699313,"lng":-81.70307511715724,"neighborhood":"Riverside","city_fetched":"Jacksonville,US","state":"FL","country":"United States","canonicalUrl":"https://foursquare.com/metrojax","categoryId":"4bf58dd8d48988d1d8941735","category":"Gay Bar","checkinsCount":6235,"usersCount":1330,"tipCount":29,"visitsCount":7158,"url":"http://www.metrojax.com","tier":1,"message":"Cheap","currency":"$","rating":8.1},{"name":"The Skyline Dining & Conference Center","phone":"9047919533","address":"50 N Laura St","lat":30.326926721629306,"lng":-81.6598478683028,"neighborhood":"Downtown Jacksonville","city_fetched":"Jacksonville,US","state":"FL","country":"United States","canonicalUrl":"https://foursquare.com/v/the-skyline-dining--conference-center/4b743d01f964a52018cf2de3","categoryId":"4bf58dd8d48988d121941735","category":"Lounge","checkinsCount":735,"usersCount":185,"tipCount":5,"visitsCount":748,"url":"http://www.aramarkcafe.com/layouts/canary_2010/locationhome.aspx?locationid=3466","tier":"","message":"","currency":"","rating":8},{"name":"Eclipse Nightclub","phone":"9043873582","address":"4219 Saint Johns Ave","lat":30.288801783333334,"lng":-81.713933,"city_fetched":"Jacksonville,US","state":"FL","country":"United States","canonicalUrl":"https://foursquare.com/v/eclipse-nightclub/4bde46870ee3a593f39b30b0","categoryId":"4bf58dd8d48988d11f941735","category":"Nightclub","checkinsCount":3902,"usersCount":751,"tipCount":18,"visitsCount":4232,"url":"http://eclipsejax.com","tier":2,"message":"Moderate","currency":"$","rating":8},{"name":"The Garage","phone":"9048947465","address":"2692 Post St","lat":30.313095,"lng":-81.695213,"neighborhood":"Riverside","city_fetched":"Jacksonville,US","state":"FL","country":"United States","canonicalUrl":"https://foursquare.com/v/the-garage/4f9ca329e4b0e5be3fef10db","categoryId":"4bf58dd8d48988d116941735","category":"Bar","checkinsCount":5319,"usersCount":1573,"tipCount":37,"visitsCount":5645,"url":"http://garagejax.com","tier":2,"message":"Moderate","currency":"$","rating":8},{"name":"EverBank Fantasy Football Lounge","twitter":"everbankfield","address":"East & West Upper Touchdown Club","lat":30.324058787542512,"lng":-81.63843881936535,"city_fetched":"Jacksonville,US","state":"FL","country":"United States","canonicalUrl":"https://foursquare.com/v/everbank-fantasy-football-lounge/50b7a66ce4b01e2f2189de16","categoryId":"4bf58dd8d48988d121941735","category":"Lounge","checkinsCount":116,"usersCount":34,"tipCount":3,"visitsCount":116,"tier":"","message":"","currency":"","rating":8},{"name":"Aromas Cigar Bar And Lounge","phone":"9049280515","address":"4372 Southside Blvd","lat":30.2670853,"lng":-81.55903,"neighborhood":"Southeast Jacksonville","city_fetched":"Jacksonville,US","state":"FL","country":"United States","canonicalUrl":"https://foursquare.com/v/aromas-cigar-bar-and-lounge/4b65a1b0f964a52028f72ae3","categoryId":"4bf58dd8d48988d121941735","category":"Lounge","checkinsCount":1632,"usersCount":807,"tipCount":16,"visitsCount":1813,"url":"http://www.aromascigars.com","tier":2,"message":"Moderate","currency":"$","rating":8},{"name":"Gold Club Jacksonville","phone":"9046455500","twitter":"goldclubjax","address":"320 General Doolittle Dr","lat":30.32790170748543,"lng":-81.51599194676096,"neighborhood":"East Arlington","city_fetched":"Jacksonville,US","state":"FL","country":"United States","canonicalUrl":"https://foursquare.com/v/gold-club-jacksonville/4be32f8acbdbef3b128c60d8","categoryId":"4bf58dd8d48988d1d6941735","category":"Strip Club","checkinsCount":903,"usersCount":612,"tipCount":5,"visitsCount":1237,"url":"http://jacksonvillegoldclub-hub.com","tier":"","message":"","currency":"","rating":8},{"name":"The Bearded Pig","lat":30.313045143331305,"lng":-81.65398533320375,"neighborhood":"San Marco","city_fetched":"Jacksonville,US","state":"FL","country":"United States","canonicalUrl":"https://foursquare.com/v/the-bearded-pig/570eb587498ea2905671ebd4","categoryId":"4bf58dd8d48988d117941735","category":"Beer Garden","checkinsCount":258,"usersCount":231,"tipCount":9,"visitsCount":380,"tier":"","message":"","currency":"","rating":8},{"name":"Miller's Jacksonville Ale House","phone":"9045652882","twitter":"millersalehouse","address":"9711 Deer Lake Ct","lat":30.265570171152355,"lng":-81.5564301609993,"neighborhood":"Southeast Jacksonville","city_fetched":"Jacksonville,US","state":"FL","country":"United States","canonicalUrl":"https://foursquare.com/v/millers-jacksonville-ale-house/4b40112cf964a5202eb525e3","categoryId":"50327c8591d4c4b30a586d5d","category":"Brewery","checkinsCount":9962,"usersCount":4481,"tipCount":62,"visitsCount":11872,"url":"http://www.millersalehouse.com","tier":2,"message":"Moderate","currency":"$","rating":8},{"name":"West Inn  Cantina","phone":"5006524865","address":"3644 Saint Johns Ave","lat":30.295683788350573,"lng":-81.70505834562418,"neighborhood":"Avondale","city_fetched":"Jacksonville,US","state":"FL","country":"United States","canonicalUrl":"https://foursquare.com/v/west-inn--cantina/4c94444103413704f6db70ef","categoryId":"4bf58dd8d48988d11e941735","category":"Cocktail Bar","checkinsCount":1574,"usersCount":466,"tipCount":3,"visitsCount":1621,"tier":1,"message":"Cheap","currency":"$","rating":7.9},{"name":"Seven Bridges Grille & Brewery","phone":"9049971999","twitter":"seven_bridges","address":"9735 Gate Pkwy N","lat":30.261524,"lng":-81.553796,"neighborhood":"Southeast Jacksonville","city_fetched":"Jacksonville,US","state":"FL","country":"United States","canonicalUrl":"https://foursquare.com/v/seven-bridges-grille--brewery/4b8702e0f964a5204fab31e3","categoryId":"50327c8591d4c4b30a586d5d","category":"Brewery","checkinsCount":7668,"usersCount":3646,"tipCount":60,"visitsCount":8999,"url":"http://www.7bridgesgrille.com","tier":2,"message":"Moderate","currency":"$","rating":7.9},{"name":"Shantytown Pub","phone":"9047988222","address":"22 W 6th St","lat":30.343007,"lng":-81.65484845638275,"neighborhood":"Springfield","city_fetched":"Jacksonville,US","state":"FL","country":"United States","canonicalUrl":"https://foursquare.com/v/shantytown-pub/4c7d2bd1d461a143134a7cf5","categoryId":"4bf58dd8d48988d11b941735","category":"Pub","checkinsCount":1445,"usersCount":429,"tipCount":9,"visitsCount":1581,"tier":1,"message":"Cheap","currency":"$","rating":7.9},{"name":"Island Girl Cigar Bar","phone":"9048546060","twitter":"islandgirlcigar","address":"7860 Gate Pkwy Ste 115","lat":30.235851,"lng":-81.51793235,"neighborhood":"Deerwood","city_fetched":"Jacksonville,US","state":"FL","country":"United States","canonicalUrl":"https://foursquare.com/v/island-girl-cigar-bar/4b591edff964a520967d28e3","categoryId":"4bf58dd8d48988d116941735","category":"Bar","checkinsCount":1324,"usersCount":535,"tipCount":18,"visitsCount":1450,"url":"http://www.islandgirlcigarbar.com","tier":2,"message":"Moderate","currency":"$","rating":7.8},{"name":"Centerfold's","lat":30.27862331477475,"lng":-81.6267955323153,"neighborhood":"Englewood","city_fetched":"Jacksonville,US","state":"FL","country":"United States","canonicalUrl":"https://foursquare.com/v/centerfolds/4c47c48a89a6c9b695829b88","categoryId":"4bf58dd8d48988d1d6941735","category":"Strip Club","checkinsCount":285,"usersCount":99,"tipCount":5,"visitsCount":292,"tier":"","message":"","currency":"","rating":7.8},{"name":"Zodiac Bar & Grill","phone":"9043548283","twitter":"zodiacgrill","address":"120 W Adams St","lat":30.328156167778083,"lng":-81.6596285664647,"neighborhood":"Downtown Jacksonville","city_fetched":"Jacksonville,US","state":"FL","country":"United States","canonicalUrl":"https://foursquare.com/v/zodiac-bar--grill/4b549c35f964a52096c227e3","categoryId":"4bf58dd8d48988d116941735","category":"Bar","checkinsCount":757,"usersCount":345,"tipCount":14,"visitsCount":770,"url":"http://www.thezodiacbarandgrill.com","tier":"","message":"","currency":"","rating":7.8},{"name":"Taproom","address":"9550 Baymeadows Ed","lat":30.219779065613597,"lng":-81.56002561107195,"neighborhood":"Southeast Jacksonville","city_fetched":"Jacksonville,US","state":"FL","country":"United States","canonicalUrl":"https://foursquare.com/v/taproom/4fd411dee4b00127ba2410cd","categoryId":"4bf58dd8d48988d117941735","category":"Beer Garden","checkinsCount":342,"usersCount":122,"tipCount":4,"visitsCount":352,"tier":"","message":"","currency":"","rating":7.8},{"name":"The Rogue","phone":"9044874220","address":"927 King St","lat":30.313623636387412,"lng":-81.69573605060577,"neighborhood":"Riverside","city_fetched":"Jacksonville,US","state":"FL","country":"United States","canonicalUrl":"https://foursquare.com/v/the-rogue/4c26560fdb51952140612c3a","categoryId":"4bf58dd8d48988d122941735","category":"Whisky Bar","checkinsCount":4813,"usersCount":929,"tipCount":20,"visitsCount":4835,"url":"http://roguejax.com","tier":2,"message":"Moderate","currency":"$","rating":7.7},{"name":"Gator's Dockside","phone":"9044480500","twitter":"gatorsdkside","address":"8650 Baymeadows Rd","lat":30.22010100101402,"lng":-81.5783086783799,"neighborhood":"Baymeadows Center","city_fetched":"Jacksonville,US","state":"FL","country":"United States","canonicalUrl":"https://foursquare.com/v/gators-dockside/4b784e17f964a520cfc32ee3","categoryId":"4bf58dd8d48988d11d941735","category":"Sports Bar","checkinsCount":2292,"usersCount":1274,"tipCount":28,"visitsCount":2720,"url":"http://www.gatorsdockside.com","tier":2,"message":"Moderate","currency":"$","rating":7.7},{"name":"Wall Street Deli","phone":"9043556969","address":"1050 Park St","lat":30.314293812713235,"lng":-81.6812721403577,"neighborhood":"Riverside","city_fetched":"Jacksonville,US","state":"FL","country":"United States","canonicalUrl":"https://foursquare.com/v/wall-street-deli/4bf8a4e75317a593433f007f","categoryId":"4bf58dd8d48988d116941735","category":"Bar","checkinsCount":2693,"usersCount":473,"tipCount":12,"visitsCount":2734,"url":"http://wallstreetdeli.com","tier":"","message":"","currency":"","rating":7.7},{"name":"The Parlour","address":"2000 San Marco Blvd","lat":30.303763220632938,"lng":-81.65410836560578,"neighborhood":"San Marco","city_fetched":"Jacksonville,US","state":"FL","country":"United States","canonicalUrl":"https://foursquare.com/v/the-parlour/5168bd1de4b02d0280827844","categoryId":"4bf58dd8d48988d1d4941735","category":"Speakeasy","checkinsCount":260,"usersCount":177,"tipCount":2,"visitsCount":265,"tier":"","message":"","currency":"","rating":7.6},{"name":"Dahlia's Pour House","twitter":"dahliasph","address":"2695 Post St","lat":30.313431450903117,"lng":-81.69530153274535,"neighborhood":"Riverside","city_fetched":"Jacksonville,US","state":"FL","country":"United States","canonicalUrl":"https://foursquare.com/dahliasph","categoryId":"4bf58dd8d48988d11d941735","category":"Sports Bar","checkinsCount":3857,"usersCount":1000,"tipCount":17,"visitsCount":3977,"url":"http://www.dahliaspourhouse.com","tier":1,"message":"Cheap","currency":"$","rating":7.6},{"name":"Park Place Lounge","phone":"9043896616","address":"931 King St","lat":30.313520979548006,"lng":-81.69547848647383,"neighborhood":"Riverside","city_fetched":"Jacksonville,US","state":"FL","country":"United States","canonicalUrl":"https://foursquare.com/v/park-place-lounge/4b4e931df964a520dbf126e3","categoryId":"4bf58dd8d48988d1d8941735","category":"Gay Bar","checkinsCount":5682,"usersCount":1051,"tipCount":36,"visitsCount":5957,"tier":1,"message":"Cheap","currency":"$","rating":7.6},{"name":"Anheuser-Busch Brewery Experiences","phone":"9046968373","twitter":"homeofbud","address":"111 Busch Dr","lat":30.431067694384517,"lng":-81.64792974777664,"neighborhood":"Northside","city_fetched":"Jacksonville,US","state":"FL","country":"United States","canonicalUrl":"https://foursquare.com/v/anheuserbusch-brewery-experiences/4c66c3987abde21e22506468","categoryId":"50327c8591d4c4b30a586d5d","category":"Brewery","checkinsCount":2381,"usersCount":1529,"tipCount":25,"visitsCount":3002,"url":"http://www.budweisertours.com","tier":1,"message":"Cheap","currency":"$","rating":7.6},{"name":"Yamas Hookah","twitter":"yamashookah","address":"9753 Deer Lake Ct","lat":30.266127328810555,"lng":-81.55530684894796,"neighborhood":"Southeast Jacksonville","city_fetched":"Jacksonville,US","state":"FL","country":"United States","canonicalUrl":"https://foursquare.com/v/yamas-hookah/5089b4a0e4b07f1e61f92218","categoryId":"4bf58dd8d48988d119941735","category":"Hookah Bar","checkinsCount":286,"usersCount":144,"tipCount":8,"visitsCount":286,"tier":"","message":"","currency":"","rating":7.6},{"name":"MVP Sports Grill","phone":"9042211090","address":"12777 alantic","lat":30.320264223758585,"lng":-81.47213101387024,"neighborhood":"Girvin","city_fetched":"Jacksonville,US","state":"FL","country":"United States","canonicalUrl":"https://foursquare.com/v/mvp-sports-grill/4b53e23bf964a520eead27e3","categoryId":"4bf58dd8d48988d116941735","category":"Bar","checkinsCount":1588,"usersCount":550,"tipCount":19,"visitsCount":1848,"tier":"","message":"","currency":"","rating":7.6},{"name":"Flask and Cannon","address":"524 1st St N","lat":30.293971,"lng":-81.390789,"neighborhood":"Beaches","city_fetched":"Jacksonville,US","state":"FL","country":"United States","canonicalUrl":"https://foursquare.com/v/flask-and-cannon/54f90a03498eccdf65df935e","categoryId":"4bf58dd8d48988d11e941735","category":"Cocktail Bar","checkinsCount":164,"usersCount":110,"tipCount":2,"visitsCount":171,"tier":"","message":"","currency":"","rating":7.6},{"name":"King Street District","address":"King Street","lat":30.312678515393202,"lng":-81.69553194894797,"neighborhood":"Riverside","city_fetched":"Jacksonville,US","state":"FL","country":"United States","canonicalUrl":"https://foursquare.com/v/king-street-district/4d30e0be5b31a093783607de","categoryId":"4bf58dd8d48988d11a941735","category":"Other Nightlife","checkinsCount":4837,"usersCount":342,"tipCount":4,"visitsCount":4887,"tier":"","message":"","currency":"","rating":7.6},{"name":"Mezze Bar and Grill","address":"Hendricks Ave","lat":30.304667571522245,"lng":-81.65300641596858,"neighborhood":"San Marco","city_fetched":"Jacksonville,US","state":"FL","country":"United States","canonicalUrl":"https://foursquare.com/v/mezze-bar-and-grill/5171e1fc498ee3a4394e6fc5","categoryId":"4bf58dd8d48988d119941735","category":"Hookah Bar","checkinsCount":296,"usersCount":152,"tipCount":11,"visitsCount":301,"url":"http://mezzejax.com","tier":"","message":"","currency":"","rating":7.5},{"name":"3 Lions Sports Pub & Grill","phone":"2467329373","address":"2467 Faye Rd","lat":30.43749,"lng":-81.580161,"neighborhood":"Oceanway","city_fetched":"Jacksonville,US","state":"FL","country":"United States","canonicalUrl":"https://foursquare.com/v/3-lions-sports-pub--grill/4b734221f964a520c1a42de3","categoryId":"4bf58dd8d48988d11d941735","category":"Sports Bar","checkinsCount":489,"usersCount":239,"tipCount":13,"visitsCount":491,"tier":"","message":"","currency":"","rating":7.5},{"name":"Sherwoods Liquors Inc","phone":"9043981142","address":"1105 San Marco Blvd","lat":30.314275187245762,"lng":-81.6604843748507,"city_fetched":"Jacksonville,US","state":"FL","country":"United States","canonicalUrl":"https://foursquare.com/v/sherwoods-liquors-inc/4be33cc9d27a20a1539e915b","categoryId":"4bf58dd8d48988d118941735","category":"Dive Bar","checkinsCount":1440,"usersCount":472,"tipCount":12,"visitsCount":1515,"tier":"","message":"","currency":"","rating":7.5},{"name":"LIT Downtown","phone":"9043590051","twitter":"litdowntown","address":"11 N Ocean St","lat":30.32628893852234,"lng":-81.65651679039001,"neighborhood":"Downtown Jacksonville","city_fetched":"Jacksonville,US","state":"FL","country":"United States","canonicalUrl":"https://foursquare.com/v/lit-downtown/4b626a39f964a520a7462ae3","categoryId":"4bf58dd8d48988d11f941735","category":"Nightclub","checkinsCount":1223,"usersCount":541,"tipCount":10,"visitsCount":1224,"url":"http://www.litdowntown.com","tier":"","message":"","currency":"","rating":7.5},{"name":"Mavericks","phone":"9043561110","twitter":"mavericksjax","address":"2 Independent Dr","lat":30.324910977993742,"lng":-81.66018605232239,"neighborhood":"Downtown Jacksonville","city_fetched":"Jacksonville,US","state":"FL","country":"United States","canonicalUrl":"https://foursquare.com/v/mavericks/4be57e7f477d9c74dca9e62d","categoryId":"4bf58dd8d48988d116941735","category":"Bar","checkinsCount":3572,"usersCount":1715,"tipCount":23,"visitsCount":3637,"url":"http://www.mavericksatthelanding.com","tier":2,"message":"Moderate","currency":"$","rating":7.5},{"name":"Jims place","phone":"9047250327","address":"7900 Arlington Expy","lat":30.327035316243688,"lng":-81.5752885847715,"neighborhood":"Woodland Acres","city_fetched":"Jacksonville,US","state":"FL","country":"United States","canonicalUrl":"https://foursquare.com/v/jims-place/4c82fb552f1c236ad4493f43","categoryId":"4bf58dd8d48988d11a941735","category":"Other Nightlife","checkinsCount":305,"usersCount":226,"tipCount":1,"visitsCount":503,"tier":"","message":"","currency":"","rating":7.5},{"name":"Marks Downtown Lounge and Bar","phone":"9043555099","twitter":"marksjax","address":"315 E Bay St Ste 101","lat":30.325347960481167,"lng":-81.65386764984609,"neighborhood":"Downtown Jacksonville","city_fetched":"Jacksonville,US","state":"FL","country":"United States","canonicalUrl":"https://foursquare.com/v/marks-downtown-lounge-and-bar/4bb3d760715eef3b51eb86bb","categoryId":"4bf58dd8d48988d116941735","category":"Bar","checkinsCount":2466,"usersCount":923,"tipCount":17,"visitsCount":2586,"url":"http://www.marksjax.com","tier":"","message":"","currency":"","rating":7.4},{"name":"Dive bar","phone":"9043599090","lat":30.325431449036113,"lng":-81.65348250300964,"neighborhood":"Downtown Jacksonville","city_fetched":"Jacksonville,US","state":"FL","country":"United States","canonicalUrl":"https://foursquare.com/v/dive-bar/4b77913bf964a520e7a12ee3","categoryId":"4bf58dd8d48988d118941735","category":"Dive Bar","checkinsCount":1627,"usersCount":752,"tipCount":11,"visitsCount":1704,"tier":"","message":"","currency":"","rating":7.4},{"name":"Burro Bar","phone":"9043534686","twitter":"burrobarjax","address":"100 E Adams St","lat":30.32730488492387,"lng":-81.65607690811157,"neighborhood":"Downtown Jacksonville","city_fetched":"Jacksonville,US","state":"FL","country":"United States","canonicalUrl":"https://foursquare.com/v/burro-bar/4d9e15ad7509b1f7717150a0","categoryId":"4bf58dd8d48988d116941735","category":"Bar","checkinsCount":3873,"usersCount":1110,"tipCount":25,"visitsCount":3921,"url":"http://burrobarjax.com","tier":1,"message":"Cheap","currency":"$","rating":7.4},{"name":"The Harbour","phone":"9042462555","address":"160 Mayport Rd","lat":30.325853714633297,"lng":-81.41971842082843,"neighborhood":"Beaches","city_fetched":"Jacksonville,US","state":"FL","country":"United States","canonicalUrl":"https://foursquare.com/v/the-harbour/4ba6d674f964a520a47239e3","categoryId":"4bf58dd8d48988d116941735","category":"Bar","checkinsCount":235,"usersCount":96,"tipCount":1,"visitsCount":265,"tier":"","message":"","currency":"","rating":7.4},{"name":"O'Brothers Irish Pub","phone":"9048549300","address":"1521 Margaret St","lat":30.31331667783647,"lng":-81.68107429095166,"neighborhood":"Riverside","city_fetched":"Jacksonville,US","state":"FL","country":"United States","canonicalUrl":"https://foursquare.com/v/obrothers-irish-pub/4b4f335df964a52011fd26e3","categoryId":"4bf58dd8d48988d11b941735","category":"Pub","checkinsCount":6672,"usersCount":2275,"tipCount":54,"visitsCount":6884,"url":"http://obrothersirishpub.com","tier":2,"message":"Moderate","currency":"$","rating":7.4},{"name":"St Nick's Lounge","lat":30.305280791054994,"lng":-81.63364474508826,"neighborhood":"St. Nicholas","city_fetched":"Jacksonville,US","state":"FL","country":"United States","canonicalUrl":"https://foursquare.com/v/st-nicks-lounge/4b5a770cf964a520c8c628e3","categoryId":"4bf58dd8d48988d121941735","category":"Lounge","checkinsCount":316,"usersCount":129,"tipCount":4,"visitsCount":337,"tier":"","message":"","currency":"","rating":7.3},{"name":"Downtown Cigar Lounge","address":"11 N Ocean St","lat":30.326385323339796,"lng":-81.6565047822229,"neighborhood":"Downtown Jacksonville","city_fetched":"Jacksonville,US","state":"FL","country":"United States","canonicalUrl":"https://foursquare.com/v/downtown-cigar-lounge/52d0d010498e36194cbb57aa","categoryId":"4bf58dd8d48988d121941735","category":"Lounge","checkinsCount":254,"usersCount":90,"tipCount":2,"visitsCount":293,"tier":1,"message":"Cheap","currency":"$","rating":7.3},{"name":"Cask","address":"1049 Park St","lat":30.314415811915918,"lng":-81.68080692605095,"neighborhood":"Riverside","city_fetched":"Jacksonville,US","state":"FL","country":"United States","canonicalUrl":"https://foursquare.com/v/cask/55b54008498ecdbad84b248b","categoryId":"4bf58dd8d48988d116941735","category":"Bar","checkinsCount":122,"usersCount":43,"tipCount":2,"visitsCount":122,"tier":"","message":"","currency":"","rating":7.3},{"name":"1904","phone":"9043560213","twitter":"1904jax","address":"19 N Ocean St","lat":30.326400401631798,"lng":-81.65639780098552,"neighborhood":"Downtown Jacksonville","city_fetched":"Jacksonville,US","state":"FL","country":"United States","canonicalUrl":"https://foursquare.com/v/1904/4f29d1b5e4b07412d34b1552","categoryId":"4bf58dd8d48988d121941735","category":"Lounge","checkinsCount":848,"usersCount":509,"tipCount":4,"visitsCount":902,"url":"http://www.1904musichall.com","tier":"","message":"","currency":"","rating":7.3},{"name":"Tilted Kilt Pub & Eatery","phone":"9043798612","twitter":"tiltedkiltpub","address":"9720 Deer Lake Ct","lat":30.264808000182313,"lng":-81.55559062957764,"neighborhood":"Southeast Jacksonville","city_fetched":"Jacksonville,US","state":"FL","country":"United States","canonicalUrl":"https://foursquare.com/v/tilted-kilt-pub--eatery/4d00df4f0457b1f795913378","categoryId":"4bf58dd8d48988d11d941735","category":"Sports Bar","checkinsCount":5719,"usersCount":2590,"tipCount":36,"visitsCount":5808,"url":"http://www.tiltedkilt.com","tier":2,"message":"Moderate","currency":"$","rating":7.3},{"name":"My Place Bar & Grill","phone":"9047375299","address":"9550 Baymeadows Rd","lat":30.219764639804456,"lng":-81.56003096704643,"neighborhood":"Southeast Jacksonville","city_fetched":"Jacksonville,US","state":"FL","country":"United States","canonicalUrl":"https://foursquare.com/v/my-place-bar--grill/4b5c6934f964a5208d2e29e3","categoryId":"4bf58dd8d48988d116941735","category":"Bar","checkinsCount":1019,"usersCount":453,"tipCount":7,"visitsCount":1072,"tier":"","message":"","currency":"","rating":7.2},{"name":"Austin Karaoke","phone":"9043991757","address":"5161 Beach Blvd","lat":30.29611771938291,"lng":-81.61275803084597,"neighborhood":"Greater Arlington","city_fetched":"Jacksonville,US","state":"FL","country":"United States","canonicalUrl":"https://foursquare.com/v/austin-karaoke/4b4a7f34f964a5204e8926e3","categoryId":"4bf58dd8d48988d120941735","category":"Karaoke Bar","checkinsCount":788,"usersCount":480,"tipCount":11,"visitsCount":850,"url":"http://austinroomkaraoke.com","tier":"","message":"","currency":"","rating":7.2},{"name":"Incahoots Night Club","phone":"9043536316","address":"711 Edison Ave","lat":30.32132232320159,"lng":-81.67575359344482,"city_fetched":"Jacksonville,US","state":"FL","country":"United States","canonicalUrl":"https://foursquare.com/v/incahoots-night-club/4b6d06bff964a520a3632ce3","categoryId":"4bf58dd8d48988d1d8941735","category":"Gay Bar","checkinsCount":5080,"usersCount":1156,"tipCount":18,"visitsCount":5632,"url":"http://www.incahootsjax.com","tier":"","message":"","currency":"","rating":7.2},{"name":"Silver Cow","phone":"9045865885","twitter":"silvercowjax","address":"1506 King St","lat":30.31037495639661,"lng":-81.69352054595947,"neighborhood":"Riverside","city_fetched":"Jacksonville,US","state":"FL","country":"United States","canonicalUrl":"https://foursquare.com/v/silver-cow/526d0201498e4c0e337ca4d5","categoryId":"4bf58dd8d48988d121941735","category":"Lounge","checkinsCount":686,"usersCount":226,"tipCount":10,"visitsCount":731,"url":"http://silvercowjax.com","tier":2,"message":"Moderate","currency":"$","rating":7.2},{"name":"Skyline Sports Bar & Lounge","phone":"9045176973","address":"923 University Blvd N","lat":30.37374919163767,"lng":-81.66501999473591,"neighborhood":"Brentwood","city_fetched":"Jacksonville,US","state":"FL","country":"United States","canonicalUrl":"https://foursquare.com/v/skyline-sports-bar--lounge/4d9bc0574fdab60c6be952f2","categoryId":"4bf58dd8d48988d11d941735","category":"Sports Bar","checkinsCount":2377,"usersCount":412,"tipCount":12,"visitsCount":2688,"tier":"","message":"","currency":"","rating":7.2},{"name":"Club TSI Discotheque","phone":"9044243531","twitter":"clubtsi","address":"333 E Bay St","lat":30.325438902347216,"lng":-81.65322038804956,"neighborhood":"Downtown Jacksonville","city_fetched":"Jacksonville,US","state":"FL","country":"United States","canonicalUrl":"https://foursquare.com/v/club-tsi-discotheque/4b52243ff964a520086b27e3","categoryId":"4bf58dd8d48988d11f941735","category":"Nightclub","checkinsCount":4101,"usersCount":1049,"tipCount":19,"visitsCount":4198,"url":"http://www.clubtsi.com","tier":2,"message":"Moderate","currency":"$","rating":7.2},{"name":"The Tent Hookah Lounge","lat":30.287485230436133,"lng":-81.49981104284758,"neighborhood":"Greater Arlington","city_fetched":"Jacksonville,US","state":"FL","country":"United States","canonicalUrl":"https://foursquare.com/v/the-tent-hookah-lounge/527b03c211d287dffbe2c4f1","categoryId":"4bf58dd8d48988d119941735","category":"Hookah Bar","checkinsCount":95,"usersCount":97,"tipCount":5,"visitsCount":157,"tier":"","message":"","currency":"","rating":7.2},{"name":"The Pub","phone":"9049921349","address":"13799 Beach Blvd Unit 101","lat":30.28823737922366,"lng":-81.45240605973021,"neighborhood":"Greater Arlington","city_fetched":"Jacksonville,US","state":"FL","country":"United States","canonicalUrl":"https://foursquare.com/v/the-pub/4c1da9edb9f876b07f147e46","categoryId":"4bf58dd8d48988d116941735","category":"Bar","checkinsCount":3106,"usersCount":475,"tipCount":6,"visitsCount":3364,"tier":"","message":"","currency":"","rating":7.1},{"name":"The Norm","phone":"9043849929","twitter":"normjax","address":"2952 Old Roosevelt Blvd","lat":30.313678299174796,"lng":-81.70341189554816,"neighborhood":"Riverside","city_fetched":"Jacksonville,US","state":"FL","country":"United States","canonicalUrl":"https://foursquare.com/v/the-norm/4cda25dc6ad1a093a4afe456","categoryId":"4bf58dd8d48988d1d8941735","category":"Gay Bar","checkinsCount":4034,"usersCount":441,"tipCount":13,"visitsCount":4119,"url":"http://www.thenewnormjax.com","tier":1,"message":"Cheap","currency":"$","rating":7.1},{"name":"Murray's Tavern","phone":"9047788675","address":"4535 120th St","lat":30.232433080673218,"lng":-81.699937,"city_fetched":"Jacksonville,US","state":"FL","country":"United States","canonicalUrl":"https://foursquare.com/v/murrays-tavern/4d29fb39467d6ea8e93bd495","categoryId":"4bf58dd8d48988d118941735","category":"Dive Bar","checkinsCount":722,"usersCount":102,"tipCount":10,"visitsCount":722,"tier":"","message":"","currency":"","rating":7},{"name":"The Brix Taphouse","phone":"9042414668","twitter":"brixtaphouse","address":"300 2nd St N","lat":30.291274338342443,"lng":-81.39135360717773,"neighborhood":"Beaches","city_fetched":"Jacksonville,US","state":"FL","country":"United States","canonicalUrl":"https://foursquare.com/v/the-brix-taphouse/4b5a5c24f964a520f8bf28e3","categoryId":"4bf58dd8d48988d116941735","category":"Bar","checkinsCount":7915,"usersCount":2928,"tipCount":29,"visitsCount":8535,"url":"http://jacksonvillebeachbar.com","tier":2,"message":"Moderate","currency":"$","rating":7},{"name":"Kala","twitter":"kalabarjax","address":"331 E Bay St","lat":30.325412436567927,"lng":-81.65348785228493,"neighborhood":"Downtown Jacksonville","city_fetched":"Jacksonville,US","state":"FL","country":"United States","canonicalUrl":"https://foursquare.com/kalabarjax","categoryId":"4bf58dd8d48988d116941735","category":"Bar","checkinsCount":254,"usersCount":143,"tipCount":3,"visitsCount":254,"tier":"","message":"","currency":"","rating":7},{"name":"Scoreboard Bar and Grill","phone":"9047446199","address":"6051 Merrill Rd","lat":30.354362584633286,"lng":-81.60236868651373,"neighborhood":"Arlington Manor","city_fetched":"Jacksonville,US","state":"FL","country":"United States","canonicalUrl":"https://foursquare.com/v/scoreboard-bar-and-grill/4cdb4d80a1bba35d061d94e5","categoryId":"4bf58dd8d48988d116941735","category":"Bar","checkinsCount":734,"usersCount":88,"tipCount":6,"visitsCount":734,"tier":"","message":"","currency":"","rating":7},{"name":"The Rogue Bathtub","lat":30.313554,"lng":-81.695692,"neighborhood":"Riverside","city_fetched":"Jacksonville,US","state":"FL","country":"United States","canonicalUrl":"https://foursquare.com/v/the-rogue-bathtub/4e7c173318388dda689c32d1","categoryId":"4bf58dd8d48988d121941735","category":"Lounge","checkinsCount":785,"usersCount":320,"tipCount":2,"visitsCount":785,"tier":"","message":"","currency":"","rating":7},{"name":"Cuba Libre","phone":"9043992262","address":"2578 Atlantic Blvd","lat":30.30538140088759,"lng":-81.63745434715005,"neighborhood":"Spring Park","city_fetched":"Jacksonville,US","state":"FL","country":"United States","canonicalUrl":"https://foursquare.com/v/cuba-libre/4d48d6534a6d8eec1025232d","categoryId":"4bf58dd8d48988d116941735","category":"Bar","checkinsCount":196,"usersCount":140,"tipCount":1,"visitsCount":200,"tier":"","message":"","currency":"","rating":6.9},{"name":"McB's","address":"6211 Saint Augustine Rd","lat":30.257964315835647,"lng":-81.62546842454071,"neighborhood":"San Jose","city_fetched":"Jacksonville,US","state":"FL","country":"United States","canonicalUrl":"https://foursquare.com/v/mcbs/4c22be219085d13aa5ea86cc","categoryId":"4bf58dd8d48988d120941735","category":"Karaoke Bar","checkinsCount":1010,"usersCount":225,"tipCount":7,"visitsCount":1179,"tier":"","message":"","currency":"","rating":6.8},{"name":"w xyz Bar & Lounge @AloftJaxTP","phone":"9049984448","twitter":"spg","address":"4812 Deer Lake Dr W","lat":30.259780606140488,"lng":-81.55489441181835,"neighborhood":"Southeast Jacksonville","city_fetched":"Jacksonville,US","state":"FL","country":"United States","canonicalUrl":"https://foursquare.com/v/w-xyz-bar--lounge-aloftjaxtp/4d6af9be2eaba35dcd74310d","categoryId":"4bf58dd8d48988d1d5941735","category":"Hotel Bar","checkinsCount":237,"usersCount":126,"tipCount":2,"visitsCount":237,"url":"http://www.aloftjacksonvilletapestrypark.com","tier":2,"message":"Moderate","currency":"$","rating":6.8},{"name":"Safar Sports Bar Billards","phone":"9047450335","address":"1825 University Blvd N","lat":30.339604,"lng":-81.60234,"neighborhood":"Arlington","city_fetched":"Jacksonville,US","state":"FL","country":"United States","canonicalUrl":"https://foursquare.com/v/safar-sports-bar-billards/537be3c6498e18d3f1424421","categoryId":"4bf58dd8d48988d119941735","category":"Hookah Bar","checkinsCount":61,"usersCount":64,"tipCount":3,"visitsCount":184,"tier":"","message":"","currency":"","rating":6.8},{"name":"AJ's Bar and Grill","phone":"9048059060","twitter":"ajsbarjax","address":"10244 Atlantic Blvd","lat":30.32241397,"lng":-81.53486251831055,"neighborhood":"Greater Arlington","city_fetched":"Jacksonville,US","state":"FL","country":"United States","canonicalUrl":"https://foursquare.com/ajsbarjax","categoryId":"4bf58dd8d48988d11e941735","category":"Cocktail Bar","checkinsCount":725,"usersCount":194,"tipCount":9,"visitsCount":725,"url":"http://www.ajsbarjax.com","tier":"","message":"","currency":"","rating":6.7},{"name":"Passions","phone":"9046415033","address":"9801 Beach Blvd","lat":30.28715153105935,"lng":-81.55713868516139,"neighborhood":"Greater Arlington","city_fetched":"Jacksonville,US","state":"FL","country":"United States","canonicalUrl":"https://foursquare.com/v/passions/4bcc9125fb84c9b68d99203e","categoryId":"4bf58dd8d48988d1d6941735","category":"Strip Club","checkinsCount":560,"usersCount":171,"tipCount":4,"visitsCount":626,"tier":"","message":"","currency":"","rating":6.6},{"name":"Harmonious Monks","phone":"9048803040","address":"10550 Old Saint Augustine Rd","lat":30.185229049847422,"lng":-81.60830486707457,"neighborhood":"Southeast Jacksonville","city_fetched":"Jacksonville,US","state":"FL","country":"United States","canonicalUrl":"https://foursquare.com/v/harmonious-monks/4b6381fff964a520657f2ae3","categoryId":"4bf58dd8d48988d116941735","category":"Bar","checkinsCount":1961,"usersCount":924,"tipCount":21,"visitsCount":2070,"url":"http://harmoniousmonks.com","tier":2,"message":"Moderate","currency":"$","rating":6.6},{"name":"Boston's Restaurant & Sports Bar","phone":"9047517499","twitter":"bostonscorp","address":"13070 City Station Dr","lat":30.47464183804516,"lng":-81.64403915405273,"neighborhood":"Northside","city_fetched":"Jacksonville,US","state":"FL","country":"United States","canonicalUrl":"https://foursquare.com/v/bostons-restaurant--sports-bar/4bb3da67715eef3bd0ef86bb","categoryId":"4bf58dd8d48988d11d941735","category":"Sports Bar","checkinsCount":2380,"usersCount":1554,"tipCount":38,"visitsCount":2596,"url":"http://www.bostons.com","tier":2,"message":"Moderate","currency":"$","rating":6.6},{"name":"Perfect Rack","phone":"9047387645","address":"1186 Edgewood Ave S","lat":30.30841,"lng":-81.71408318,"neighborhood":"Murray Hill","city_fetched":"Jacksonville,US","state":"FL","country":"United States","canonicalUrl":"https://foursquare.com/v/perfect-rack/4bdb084c2a3a0f477a0badb6","categoryId":"4bf58dd8d48988d11d941735","category":"Sports Bar","checkinsCount":734,"usersCount":165,"tipCount":3,"visitsCount":744,"tier":"","message":"","currency":"","rating":6.6},{"name":"Scores Gentlemen's Club","phone":"9047396966","twitter":"emperorsjax","address":"4923 University Blvd W","lat":30.266640146175256,"lng":-81.61795483670106,"neighborhood":"Englewood","city_fetched":"Jacksonville,US","state":"FL","country":"United States","canonicalUrl":"https://foursquare.com/v/scores-gentlemens-club/4c259ac0c11dc9b6479e2724","categoryId":"4bf58dd8d48988d1d6941735","category":"Strip Club","checkinsCount":519,"usersCount":291,"tipCount":6,"visitsCount":587,"url":"http://www.emperorsjacksonville.com","tier":"","message":"","currency":"","rating":6.6},{"name":"The Loft","phone":"9043069050","address":"925 King St","lat":30.31368981564257,"lng":-81.69568,"neighborhood":"Riverside","city_fetched":"Jacksonville,US","state":"FL","country":"United States","canonicalUrl":"https://foursquare.com/v/the-loft/4bc93770cc8cd13a5f63bbcf","categoryId":"4bf58dd8d48988d11e941735","category":"Cocktail Bar","checkinsCount":6180,"usersCount":1717,"tipCount":16,"visitsCount":6236,"tier":1,"message":"Cheap","currency":"$","rating":6.6},{"name":"Lamm At Large Sports Tavern","phone":"9046195541","address":"14286 Beach Blvd","lat":30.286558821735944,"lng":-81.43958508968353,"neighborhood":"Southeast Jacksonville","city_fetched":"Jacksonville,US","state":"FL","country":"United States","canonicalUrl":"https://foursquare.com/v/lamm-at-large-sports-tavern/4d1f6e44b69c6dcbe3266795","categoryId":"4bf58dd8d48988d11e941735","category":"Cocktail Bar","checkinsCount":1320,"usersCount":144,"tipCount":5,"visitsCount":1325,"tier":"","message":"","currency":"","rating":6.5},{"name":"Monkey's Uncle Tavern","phone":"9042601349","address":"10601 San Jose Blvd","lat":30.18685512268241,"lng":-81.6261533863425,"neighborhood":"Southeast Jacksonville","city_fetched":"Jacksonville,US","state":"FL","country":"United States","canonicalUrl":"https://foursquare.com/v/monkeys-uncle-tavern/4af5137bf964a52045f821e3","categoryId":"4bf58dd8d48988d116941735","category":"Bar","checkinsCount":2023,"usersCount":870,"tipCount":11,"visitsCount":2208,"tier":2,"message":"Moderate","currency":"$","rating":6.5},{"name":"Cheers Sports Bar & Grill","phone":"9042624337","address":"11475 San Jose Blvd","lat":30.164948,"lng":-81.63218957,"neighborhood":"Loretto","city_fetched":"Jacksonville,US","state":"FL","country":"United States","canonicalUrl":"https://foursquare.com/v/cheers-sports-bar--grill/4ba58b08f964a520ec1039e3","categoryId":"4bf58dd8d48988d116941735","category":"Bar","checkinsCount":1453,"usersCount":429,"tipCount":16,"visitsCount":1744,"url":"http://cheerssandusky.com","tier":"","message":"","currency":"","rating":6.5},{"name":"Bare Assets Gentlemen's Club","phone":"9047577370","address":"10749 N Main St","lat":30.431587829242694,"lng":-81.64405113240994,"neighborhood":"Northside","city_fetched":"Jacksonville,US","state":"FL","country":"United States","canonicalUrl":"https://foursquare.com/v/bare-assets-gentlemens-club/4d9661b5daec224bcdea153e","categoryId":"4bf58dd8d48988d1d6941735","category":"Strip Club","checkinsCount":1647,"usersCount":89,"tipCount":10,"visitsCount":1656,"tier":"","message":"","currency":"","rating":6.5},{"name":"Plush","phone":"9047431845","address":"845 University Blvd N","lat":30.328014092484278,"lng":-81.60226162752862,"neighborhood":"Arlington","city_fetched":"Jacksonville,US","state":"FL","country":"United States","canonicalUrl":"https://foursquare.com/v/plush/4c54da51479fc9283dbdce93","categoryId":"4bf58dd8d48988d11f941735","category":"Nightclub","checkinsCount":353,"usersCount":241,"tipCount":3,"visitsCount":353,"tier":"","message":"","currency":"","rating":6.4},{"name":"Cap'n Odies","phone":"9042418848","address":"2000 Mayport Rd.","lat":30.34682624959877,"lng":-81.41389078502348,"neighborhood":"Greater Arlington","city_fetched":"Jacksonville,US","state":"FL","country":"United States","canonicalUrl":"https://foursquare.com/v/capn-odies/4b7e2926f964a520dbe42fe3","categoryId":"4bf58dd8d48988d116941735","category":"Bar","checkinsCount":396,"usersCount":209,"tipCount":5,"visitsCount":583,"tier":"","message":"","currency":"","rating":6.4},{"name":"The Grotto","phone":"9043980726","address":"2012 San Marco Blvd","lat":30.303869431575944,"lng":-81.65383555435258,"neighborhood":"San Marco","city_fetched":"Jacksonville,US","state":"FL","country":"United States","canonicalUrl":"https://foursquare.com/v/the-grotto/4b3a16e6f964a520eb6025e3","categoryId":"4bf58dd8d48988d123941735","category":"Wine Bar","checkinsCount":1286,"usersCount":603,"tipCount":12,"visitsCount":1299,"url":"http://www.grottowine.com","tier":"","message":"","currency":"","rating":6.3},{"name":"Puff's Cigar Bar","address":"923 University Blvd N","lat":30.329011,"lng":-81.602019,"neighborhood":"Arlington","city_fetched":"Jacksonville,US","state":"Florida","country":"United States","canonicalUrl":"https://foursquare.com/v/puffs-cigar-bar/4ff37a4fe4b0cfb36e18a2f9","categoryId":"4bf58dd8d48988d11e941735","category":"Cocktail Bar","checkinsCount":87,"usersCount":93,"tipCount":2,"visitsCount":132,"tier":"","message":"","currency":"","rating":6.3},{"name":"American Legion Post 283","address":"Ft Caroline","lat":30.349701632333012,"lng":-81.52485004149035,"neighborhood":"Greater Arlington","city_fetched":"Jacksonville,US","state":"FL","country":"United States","canonicalUrl":"https://foursquare.com/v/american-legion-post-283/4d94fd95c19fb60c36555d65","categoryId":"4bf58dd8d48988d1d4941735","category":"Speakeasy","checkinsCount":728,"usersCount":74,"tipCount":11,"visitsCount":741,"tier":"","message":"","currency":"","rating":6.3},{"name":"Big Dawg Sports Restaurant (Beach & Kernan)","phone":"9045513059","twitter":"bigdawgswings","address":"12630- 4 Beach Blvd.","lat":30.286868701886004,"lng":-81.48639846658318,"neighborhood":"Southeast Jacksonville","city_fetched":"Jacksonville,US","state":"FL","country":"United States","canonicalUrl":"https://foursquare.com/v/big-dawg-sports-restaurant-beach--kernan/4e4005c9fa76455375d8a18a","categoryId":"4bf58dd8d48988d11d941735","category":"Sports Bar","checkinsCount":516,"usersCount":216,"tipCount":8,"visitsCount":516,"url":"http://www.bigdawgswings.com","tier":"","message":"","currency":"","rating":6.2},{"name":"Bikini Beach Gentleman's Club","phone":"9042415454","address":"2848 Mayport Rd.","lat":30.367221023917743,"lng":-81.41149198740385,"neighborhood":"Greater Arlington","city_fetched":"Jacksonville,US","state":"FL","country":"United States","canonicalUrl":"https://foursquare.com/v/bikini-beach-gentlemans-club/4e8fd99d30f81ec6ff407b82","categoryId":"4bf58dd8d48988d1d6941735","category":"Strip Club","checkinsCount":396,"usersCount":77,"tipCount":7,"visitsCount":456,"tier":"","message":"","currency":"","rating":6.2},{"name":"Layla's Of San Marco","phone":"9043984610","twitter":"laylasofsanmarc","address":"2016 Hendricks Ave","lat":30.3046491,"lng":-81.653108,"neighborhood":"San Marco","city_fetched":"Jacksonville,US","state":"FL","country":"United States","canonicalUrl":"https://foursquare.com/v/laylas-of-san-marco/4dc60143c65b89d3ca7e7153","categoryId":"4bf58dd8d48988d119941735","category":"Hookah Bar","checkinsCount":356,"usersCount":227,"tipCount":13,"visitsCount":356,"tier":"","message":"","currency":"","rating":6.1},{"name":"Locals Bar","phone":"9043962205","address":"1216 Kings Ave","lat":30.313306,"lng":-81.65394013333334,"neighborhood":"San Marco","city_fetched":"Jacksonville,US","state":"FL","country":"United States","canonicalUrl":"https://foursquare.com/v/locals-bar/4bb821877421a5931693c140","categoryId":"4bf58dd8d48988d116941735","category":"Bar","checkinsCount":385,"usersCount":214,"tipCount":6,"visitsCount":413,"tier":"","message":"","currency":"","rating":6.1},{"name":"Alibi`s","phone":"9043872555","address":"1194 Edgewood Ave S","lat":30.30827185193832,"lng":-81.71366953792679,"neighborhood":"Murray Hill","city_fetched":"Jacksonville,US","state":"FL","country":"United States","canonicalUrl":"https://foursquare.com/v/alibis/4de021f045dd3eae8766a6f4","categoryId":"4bf58dd8d48988d116941735","category":"Bar","checkinsCount":780,"usersCount":155,"tipCount":4,"visitsCount":791,"tier":"","message":"","currency":"","rating":6.1},{"name":"SUITE","phone":"9044939305","address":"4880 Big Island Dr Ste 1","lat":30.253024872029773,"lng":-81.53102159500122,"neighborhood":"Southeast Jacksonville","city_fetched":"Jacksonville,US","state":"FL","country":"United States","canonicalUrl":"https://foursquare.com/v/suite/4cc6f7adc844721e0fb2f701","categoryId":"4bf58dd8d48988d121941735","category":"Lounge","checkinsCount":4854,"usersCount":2211,"tipCount":17,"visitsCount":5215,"url":"http://suitejacksonville.com","tier":2,"message":"Moderate","currency":"$","rating":6.1},{"name":"Doll House","phone":"9043960932","address":"6105 Philips Hwy","lat":30.2605874,"lng":-81.61349059999999,"neighborhood":"Bowden","city_fetched":"Jacksonville,US","state":"FL","country":"United States","canonicalUrl":"https://foursquare.com/v/doll-house/4be332b7cbdbef3bc08c60d8","categoryId":"4bf58dd8d48988d11f941735","category":"Nightclub","checkinsCount":263,"usersCount":171,"tipCount":3,"visitsCount":284,"tier":"","message":"","currency":"","rating":6.1},{"name":"Boot Rack Saloon","address":"4751 Lenox Ave","lat":30.31695357333939,"lng":-81.72690775775838,"neighborhood":"Murray Hill","city_fetched":"Jacksonville,US","state":"FL","country":"United States","canonicalUrl":"https://foursquare.com/v/boot-rack-saloon/4c008caead46c9b649c18f66","categoryId":"4bf58dd8d48988d1d8941735","category":"Gay Bar","checkinsCount":1205,"usersCount":237,"tipCount":8,"visitsCount":1367,"tier":1,"message":"Cheap","currency":"$","rating":6.1},{"name":"Pure Night Club","phone":"8006941253","twitter":"purenightclubfl","address":"8206 Philips Hwy Suite 6&7","lat":30.220127815595617,"lng":-81.58696667558948,"neighborhood":"Baymeadows Center","city_fetched":"Jacksonville,US","state":"FL","country":"United States","canonicalUrl":"https://foursquare.com/v/pure-night-club/4e4ff5df1495fc2ca4066b83","categoryId":"4bf58dd8d48988d11f941735","category":"Nightclub","checkinsCount":1592,"usersCount":768,"tipCount":24,"visitsCount":1656,"url":"http://www.purenightclubjax.com","tier":"","message":"","currency":"","rating":6.1},{"name":"747 Bar","lat":30.4830295,"lng":-81.655992,"neighborhood":"Northside","city_fetched":"Jacksonville,US","state":"FL","country":"United States","canonicalUrl":"https://foursquare.com/v/747-bar/4c799e6093ef236a1752b00f","categoryId":"4bf58dd8d48988d116941735","category":"Bar","checkinsCount":223,"usersCount":144,"tipCount":4,"visitsCount":237,"tier":"","message":"","currency":"","rating":5.9},{"name":"Your Place BAR & Grille","phone":"9042219994","address":"13245 Atlantic Blvd Ste 2","lat":30.320692501584,"lng":-81.46033845164018,"neighborhood":"Girvin","city_fetched":"Jacksonville,US","state":"FL","country":"United States","canonicalUrl":"https://foursquare.com/v/your-place-bar--grille/4cc208b742d1b60caec60d13","categoryId":"4bf58dd8d48988d116941735","category":"Bar","checkinsCount":1452,"usersCount":281,"tipCount":9,"visitsCount":1457,"tier":"","message":"","currency":"","rating":5.8},{"name":"Jacksonville Sports Tavern","twitter":"jaxsportstavern","lat":30.325385746153685,"lng":-81.64400298281079,"city_fetched":"Jacksonville,US","state":"FL","country":"United States","canonicalUrl":"https://foursquare.com/v/jacksonville-sports-tavern/521932ca11d28b0616e6dee2","categoryId":"4bf58dd8d48988d11d941735","category":"Sports Bar","checkinsCount":287,"usersCount":169,"tipCount":3,"visitsCount":292,"tier":"","message":"","currency":"","rating":5.8},{"name":"Harmonious Monks","phone":"9043720815","address":"1st Street N.","lat":30.292093093828825,"lng":-81.39048451830578,"neighborhood":"Beaches","city_fetched":"Jacksonville,US","state":"FL","country":"United States","canonicalUrl":"https://foursquare.com/v/harmonious-monks/531287e3498eaa4c19a4a939","categoryId":"4bf58dd8d48988d120941735","category":"Karaoke Bar","checkinsCount":269,"usersCount":194,"tipCount":6,"visitsCount":279,"tier":"","message":"","currency":"","rating":5.6},{"name":"Budweiser Track Bar And Grill (JAX)","twitter":"hmshost","address":"Concourse C","lat":30.490631925574217,"lng":-81.68598828616017,"neighborhood":"Northside","city_fetched":"Jacksonville,US","state":"FL","country":"United States","canonicalUrl":"https://foursquare.com/v/budweiser-track-bar-and-grill-jax/4b96b4d1f964a52040df34e3","categoryId":"4bf58dd8d48988d11b941735","category":"Pub","checkinsCount":1249,"usersCount":1096,"tipCount":16,"visitsCount":1294,"tier":"","message":"","currency":"","rating":5.5},{"name":"AQUA Night Club & Lounge","phone":"9049972063","address":"11000 Beach Blvd","lat":30.285553212866247,"lng":-81.53238905005372,"neighborhood":"Southeast Jacksonville","city_fetched":"Jacksonville,US","state":"FL","country":"United States","canonicalUrl":"https://foursquare.com/v/aqua-night-club--lounge/4c09b790009a0f477757e8bf","categoryId":"4bf58dd8d48988d11f941735","category":"Nightclub","checkinsCount":425,"usersCount":302,"tipCount":3,"visitsCount":436,"url":"http://www.myspace.com/aquanightclubandlounge","tier":"","message":"","currency":"","rating":5.5},{"name":"City Hall Pub","phone":"9043566750","twitter":"jaxchp","address":"234 A Philip Randolph Blvd","lat":30.32528763021698,"lng":-81.6439548331805,"city_fetched":"Jacksonville,US","state":"FL","country":"United States","canonicalUrl":"https://foursquare.com/v/city-hall-pub/4b6e0393f964a5207da32ce3","categoryId":"4bf58dd8d48988d116941735","category":"Bar","checkinsCount":1355,"usersCount":838,"tipCount":7,"visitsCount":1356,"url":"http://cityhallpub.com","tier":"","message":"","currency":"","rating":5.4}]