[{"name":"Potent Potables","phone":"3368829463","twitter":"potentpotablenc","address":"115 E Main St","lat":35.994718078614575,"lng":-79.93567945559569,"city_fetched":"Jamestown,US","state":"NC","country":"United States","canonicalUrl":"https://foursquare.com/potentpotablenc","categoryId":"4bf58dd8d48988d123941735","category":"Wine Bar","checkinsCount":1337,"usersCount":363,"tipCount":13,"visitsCount":1746,"url":"http://potentpotablesnc.com","tier":2,"message":"Moderate","currency":"$","rating":9},{"name":"The Box Seat Sports Restaurant","phone":"3362970073","address":"5006 High Point Rd","lat":36.02552446,"lng":-79.876899,"city_fetched":"Jamestown,US","state":"NC","country":"United States","canonicalUrl":"https://foursquare.com/v/the-box-seat-sports-restaurant/4c535aa530f92d7f8edba0b8","categoryId":"4bf58dd8d48988d11d941735","category":"Sports Bar","checkinsCount":877,"usersCount":408,"tipCount":14,"visitsCount":1060,"tier":1,"message":"Cheap","currency":"$","rating":7.4},{"name":"Sutton Way Sports Bar","lat":36.02524497553488,"lng":-79.97057001066761,"city_fetched":"Jamestown,US","state":"NC","country":"United States","canonicalUrl":"https://foursquare.com/v/sutton-way-sports-bar/52349d31498eb85f10b0c8d5","categoryId":"4bf58dd8d48988d11d941735","category":"Sports Bar","checkinsCount":35,"usersCount":19,"tipCount":7,"visitsCount":36,"tier":"","message":"","currency":"","rating":5.8},{"name":"Suttonway Bar & Grill","phone":"3369057888","address":"3793 Samet Dr","lat":36.02538676803626,"lng":-79.97058093568567,"city_fetched":"Jamestown,US","state":"NC","country":"United States","canonicalUrl":"https://foursquare.com/v/suttonway-bar--grill/521252be11d2c18af8484f81","categoryId":"4bf58dd8d48988d116941735","category":"Bar","checkinsCount":85,"usersCount":37,"tipCount":3,"visitsCount":85,"tier":"","message":"","currency":"","rating":5.5}]