[{"name":"O'Riley & Conway's Irish Pub","phone":"6085544549","address":"214 W Milwaukee St","lat":42.681678240973056,"lng":-89.02632594108582,"city_fetched":"Janesville","state":"WI","country":"United States","canonicalUrl":"https://foursquare.com/v/oriley--conways-irish-pub/4c3f18086faac9b663140f76","category":"Pub","checkinsCount":1857,"usersCount":684,"tipCount":26,"visitsCount":2111,"tier":2,"message":"Moderate","currency":"$","rating":8.3},{"name":"Whiskey Ranch Bar and Grill","phone":"6085631554","address":"24 N Main St","lat":42.6837502,"lng":-89.0229416,"city_fetched":"Janesville","state":"WI","country":"United States","canonicalUrl":"https://foursquare.com/v/whiskey-ranch-bar-and-grill/547acd94498e8569fb56397b","category":"Bar","checkinsCount":103,"usersCount":128,"tipCount":0,"visitsCount":218,"url":"http://www.thewhiskeyranch.com","tier":"","message":"","currency":"","rating":7.9},{"name":"Watering Hole","address":"1700 N Washington St","lat":42.70122143910511,"lng":-89.03921941263579,"city_fetched":"Janesville","state":"WI","country":"United States","canonicalUrl":"https://foursquare.com/v/watering-hole/4c92a8d26cfea0933ab0b38b","category":"Sports Bar","checkinsCount":1257,"usersCount":284,"tipCount":5,"visitsCount":1362,"tier":"","message":"","currency":"","rating":7.8},{"name":"Hammys Roadside Bar","lat":42.64757923268241,"lng":-89.03023775437522,"city_fetched":"Janesville","state":"WI","country":"United States","canonicalUrl":"https://foursquare.com/v/hammys-roadside-bar/4c30d9b67cc0c9b63ef2ed9a","category":"Bar","checkinsCount":587,"usersCount":187,"tipCount":5,"visitsCount":748,"tier":2,"message":"Moderate","currency":"$","rating":7.6},{"name":"Texas Roadhouse","phone":"6087579700","twitter":"texasroadhouse","address":"3201 Deerfield Dr","lat":42.719337,"lng":-88.98397,"city_fetched":"Janesville","state":"WI","country":"United States","canonicalUrl":"https://foursquare.com/v/texas-roadhouse/4b7f35f4f964a520681f30e3","category":"Steakhouse","checkinsCount":2733,"usersCount":1611,"tipCount":20,"visitsCount":3382,"url":"http://texasroadhouse.com","tier":2,"message":"Moderate","currency":"$","rating":7.6},{"name":"Looking Glass","phone":"6087559828","address":"18 N Main St","lat":42.68340751354789,"lng":-89.02272898153147,"city_fetched":"Janesville","state":"WI","country":"United States","canonicalUrl":"https://foursquare.com/v/looking-glass/4baed42cf964a5206adb3be3","category":"Bar","checkinsCount":6575,"usersCount":481,"tipCount":15,"visitsCount":6758,"url":"http://theglassdowntown.com","tier":1,"message":"Cheap","currency":"$","rating":7.6},{"name":"708 Club","address":"708 S Jackson St","lat":42.67201839860046,"lng":-89.01809889937245,"city_fetched":"Janesville","state":"WI","country":"United States","canonicalUrl":"https://foursquare.com/v/708-club/4ca2a0607f84224bfc42be58","category":"Bar","checkinsCount":498,"usersCount":76,"tipCount":7,"visitsCount":498,"tier":"","message":"","currency":"","rating":7.2},{"name":"Afton Pub","address":"4910 Jefferson St.","lat":42.60885269637513,"lng":-89.07251604658735,"city_fetched":"Janesville","state":"WI","country":"United States","canonicalUrl":"https://foursquare.com/v/afton-pub/4c54a4c41b46c9b63b81e7ce","category":"Bar","checkinsCount":728,"usersCount":127,"tipCount":1,"visitsCount":786,"tier":"","message":"","currency":"","rating":7.2},{"name":"The Back Bar","phone":"6087410001","address":"1901 Beloit Ave","lat":42.650928034737326,"lng":-89.01137221655078,"city_fetched":"Janesville","state":"WI","country":"United States","canonicalUrl":"https://foursquare.com/v/the-back-bar/4bdd07014ffaa593d2a66ef7","category":"Bar","checkinsCount":1772,"usersCount":308,"tipCount":4,"visitsCount":1885,"url":"http://www.thebackbar.com","tier":"","message":"","currency":"","rating":7.1},{"name":"Main Street Saloon","phone":"6087581393","address":"117 N Main St","lat":42.683958,"lng":-89.02384872,"city_fetched":"Janesville","state":"WI","country":"United States","canonicalUrl":"https://foursquare.com/v/main-street-saloon/4baed8ebf964a520c1dc3be3","category":"Bar","checkinsCount":913,"usersCount":197,"tipCount":4,"visitsCount":935,"tier":"","message":"","currency":"","rating":7.1},{"name":"Russ' Park Place","phone":"6087545600","address":"1637 E Racine St","lat":42.67889396000106,"lng":-89.00072678038693,"city_fetched":"Janesville","state":"WI","country":"United States","canonicalUrl":"https://foursquare.com/v/russ-park-place/4c37e82f93db0f4788c52092","category":"Bar","checkinsCount":682,"usersCount":220,"tipCount":6,"visitsCount":709,"tier":"","message":"","currency":"","rating":7},{"name":"Game Day Sports Bar & Grill","phone":"6087582323","address":"966 S Jackson St","lat":42.66801414271938,"lng":-89.01816424689983,"city_fetched":"Janesville","state":"WI","country":"United States","canonicalUrl":"https://foursquare.com/v/game-day-sports-bar--grill/4d2e747690cb236a99046578","category":"Sports Bar","checkinsCount":3960,"usersCount":178,"tipCount":4,"visitsCount":4027,"tier":"","message":"","currency":"","rating":6.9},{"name":"Bobbleheads","phone":"6087528910","address":"Hwy 51","lat":42.64094877682026,"lng":-89.03034041298926,"city_fetched":"Janesville","state":"WI","country":"United States","canonicalUrl":"https://foursquare.com/v/bobbleheads/4c707ca7b3ce224b5d3674c6","category":"Bar","checkinsCount":2044,"usersCount":197,"tipCount":16,"visitsCount":2201,"url":"http://www.bobbleheadsbar.com","tier":"","message":"","currency":"","rating":6.8},{"name":"Wiggy's Saloon","phone":"6087549100","address":"9 N Parker Dr","lat":42.68375933901156,"lng":-89.02188421710902,"city_fetched":"Janesville","state":"WI","country":"United States","canonicalUrl":"https://foursquare.com/v/wiggys-saloon/4c79cbc9794e224b44ea6628","category":"Bar","checkinsCount":1893,"usersCount":259,"tipCount":6,"visitsCount":1914,"url":"http://www.gazlo.com","tier":"","message":"","currency":"","rating":6.7},{"name":"Sneakers Sports Bar & Grill","address":"1221 Woodman Rd","lat":42.70044936205182,"lng":-89.01115746741252,"city_fetched":"Janesville","state":"WI","country":"United States","canonicalUrl":"https://foursquare.com/v/sneakers-sports-bar--grill/4c56f8bccc96c9b68edc772e","category":"Bar","checkinsCount":1257,"usersCount":394,"tipCount":10,"visitsCount":1379,"tier":"","message":"","currency":"","rating":6.7},{"name":"Riley's Sports Bar & Grill","phone":"6085630410","address":"209 W Milwaukee St","lat":42.681374,"lng":-89.026074,"city_fetched":"Janesville","state":"WI","country":"United States","canonicalUrl":"https://foursquare.com/v/rileys-sports-bar--grill/4fdb8016e4b00bf10f447de6","category":"Restaurant","checkinsCount":772,"usersCount":139,"tipCount":4,"visitsCount":830,"url":"http://www.rileyssportsbar.com","tier":1,"message":"Cheap","currency":"$","rating":6.7},{"name":"Time Out","address":"East Milwaukee St.","lat":42.68322409421296,"lng":-89.02247428894043,"city_fetched":"Janesville","state":"WI","country":"United States","canonicalUrl":"https://foursquare.com/v/time-out/4bd5fbeacfa7b713e9cd26da","category":"American Restaurant","checkinsCount":2086,"usersCount":488,"tipCount":9,"visitsCount":2161,"tier":2,"message":"Moderate","currency":"$","rating":6.6},{"name":"RiversEdge Bowl","phone":"6087561201","address":"215 S River St","lat":42.67885477,"lng":-89.02166545,"city_fetched":"Janesville","state":"WI","country":"United States","canonicalUrl":"https://foursquare.com/v/riversedge-bowl/4c8d417e55fba093a0c966ab","category":"Bowling Alley","checkinsCount":648,"usersCount":253,"tipCount":6,"visitsCount":806,"url":"http://www.riversedge.2gobowl.com","tier":"","message":"","currency":"","rating":6.5},{"name":"East Point","address":"3501 E Milwaukee St","lat":42.69974823099792,"lng":-88.97591878110418,"city_fetched":"Janesville","state":"WI","country":"United States","canonicalUrl":"https://foursquare.com/v/east-point/4c8ad8da52a98cfa86ae30e9","category":"Bar","checkinsCount":1388,"usersCount":335,"tipCount":6,"visitsCount":1435,"tier":"","message":"","currency":"","rating":6.5},{"name":"Charlie's","address":"E. Racine","lat":42.67712652683258,"lng":-88.99691820144653,"city_fetched":"Janesville","state":"WI","country":"United States","canonicalUrl":"https://foursquare.com/v/charlies/4c32488d3896e21eb148e890","category":"Dive Bar","checkinsCount":163,"usersCount":94,"tipCount":3,"visitsCount":188,"tier":"","message":"","currency":"","rating":6.4},{"name":"Legends Taverns","phone":"6087551551","address":"11 N Main St","lat":42.683395012889456,"lng":-89.02289699890568,"city_fetched":"Janesville","state":"WI","country":"United States","canonicalUrl":"https://foursquare.com/v/legends-taverns/4bf8c6c78d30d13a9e610118","category":"Bar","checkinsCount":1350,"usersCount":242,"tipCount":1,"visitsCount":1368,"tier":1,"message":"Cheap","currency":"$","rating":6.1},{"name":"Road Dawg","address":"2401-2581 Morse St","lat":42.722455859184265,"lng":-88.99318993091583,"city_fetched":"Janesville","state":"WI","country":"United States","canonicalUrl":"https://foursquare.com/v/road-dawg/4be48e05d4f7c9b64d512420","category":"Bar","checkinsCount":346,"usersCount":187,"tipCount":5,"visitsCount":363,"tier":"","message":"","currency":"","rating":5.5},{"name":"Speakeasy","phone":"6085310012","address":"19 N High St","lat":42.68149,"lng":-89.0288633108139,"city_fetched":"Janesville","state":"WI","country":"United States","canonicalUrl":"https://foursquare.com/v/speakeasy/4bbffc8674a9a5931d8bcff6","category":"American Restaurant","checkinsCount":536,"usersCount":315,"tipCount":11,"visitsCount":536,"url":"http://www.gospeakeasylounge.com","tier":2,"message":"Moderate","currency":"$","rating":5.4},{"name":"Taasbag Sportsbar","phone":"6087545667","address":"2339 Milton Ave","lat":42.711473756428454,"lng":-89.0029214595278,"city_fetched":"Janesville","state":"WI","country":"United States","canonicalUrl":"https://foursquare.com/v/taasbag-sportsbar/4cca404ab8c8224b160f15ba","category":"Bar","checkinsCount":924,"usersCount":316,"tipCount":8,"visitsCount":999,"tier":"","message":"","currency":"","rating":5.3}]