[{"name":"Paddy Malone's Pub","phone":"5737615900","address":"700 W Main St","lat":38.583730155529466,"lng":-92.17901764257437,"neighborhood":"Downtown Jefferson City","city_fetched":"Jefferson","state":"MO","country":"United States","canonicalUrl":"https://foursquare.com/v/paddy-malones-pub/4b831076f964a5206af530e3","category":"Pub","checkinsCount":1100,"usersCount":456,"tipCount":21,"visitsCount":1300,"url":"http://paddymalonespub.com","tier":"","message":"","currency":"","rating":8.8},{"name":"Ecco Lounge","phone":"5736368751","address":"703 Jefferson St","lat":38.572547,"lng":-92.176888,"neighborhood":"Old Munichburg","city_fetched":"Jefferson","state":"MO","country":"United States","canonicalUrl":"https://foursquare.com/v/ecco-lounge/4baebb3df964a5200cd33be3","category":"Dive Bar","checkinsCount":491,"usersCount":250,"tipCount":7,"visitsCount":575,"url":"http://www.eccolounge.net","tier":2,"message":"Moderate","currency":"$","rating":8},{"name":"The Mission","phone":"5736446824","twitter":"themission","address":"915 E High St","lat":38.56922658,"lng":-92.16138303279877,"neighborhood":"Downtown Jefferson City","city_fetched":"Jefferson","state":"MO","country":"United States","canonicalUrl":"https://foursquare.com/v/the-mission/4bf8a4134a67c92805d325cf","category":"Nightclub","checkinsCount":185,"usersCount":90,"tipCount":2,"visitsCount":187,"url":"http://themissionjc.com","tier":"","message":"","currency":"","rating":7.9},{"name":"Prison Brews Brewery & Restaurant","phone":"5736350678","address":"305 Ash St","lat":38.568717,"lng":-92.161596,"neighborhood":"Downtown Jefferson City","city_fetched":"Jefferson","state":"MO","country":"United States","canonicalUrl":"https://foursquare.com/v/prison-brews-brewery--restaurant/4b73ab2af964a520ddb72de3","category":"Bar","checkinsCount":1610,"usersCount":1060,"tipCount":40,"visitsCount":1978,"url":"http://prisonbrews.com","tier":2,"message":"Moderate","currency":"$","rating":7.5},{"name":"Gumbo Bottoms Ale House","phone":"5736350074","address":"221 Madison St","lat":38.57646237312998,"lng":-92.1705667370689,"neighborhood":"Downtown Jefferson City","city_fetched":"Jefferson","state":"MO","country":"United States","canonicalUrl":"https://foursquare.com/v/gumbo-bottoms-ale-house/4b73ac40f964a52002b82de3","category":"Bar","checkinsCount":354,"usersCount":109,"tipCount":7,"visitsCount":360,"tier":"","message":"","currency":"","rating":7.4},{"name":"Spectators","phone":"5736329700","address":"232 E High St","lat":38.57532988499539,"lng":-92.17037379741669,"neighborhood":"Downtown Jefferson City","city_fetched":"Jefferson","state":"MO","country":"United States","canonicalUrl":"https://foursquare.com/v/spectators/4bdf7ce66198c9b69a8817ff","category":"Bar","checkinsCount":939,"usersCount":249,"tipCount":9,"visitsCount":1013,"tier":"","message":"","currency":"","rating":6.6},{"name":"J. Pfenny's Sports Grill & Pub","phone":"5736449999","address":"217 E High St","lat":38.57589152550764,"lng":-92.17054274470631,"neighborhood":"Downtown Jefferson City","city_fetched":"Jefferson","state":"MO","country":"United States","canonicalUrl":"https://foursquare.com/v/j-pfennys-sports-grill--pub/4da3286fb521224bf40518ee","category":"Sports Bar","checkinsCount":1749,"usersCount":666,"tipCount":28,"visitsCount":2101,"tier":"","message":"","currency":"","rating":6.5},{"name":"Sapphire's (@ top of DoubleTree)","lat":38.573678,"lng":-92.17219233512878,"neighborhood":"Downtown Jefferson City","city_fetched":"Jefferson","state":"MO","country":"United States","canonicalUrl":"https://foursquare.com/v/sapphires--top-of-doubletree/4b796be5f964a520adf82ee3","category":"Hotel Bar","checkinsCount":235,"usersCount":131,"tipCount":4,"visitsCount":236,"tier":"","message":"","currency":"","rating":5.5}]