[{"name":"Mellow Mushroom","phone":"4239286356","twitter":"mellowjc","address":"2929 N Roan St","lat":36.35922571439553,"lng":-82.38746370208972,"city_fetched":"Johnson City","state":"TN","country":"United States","canonicalUrl":"https://foursquare.com/mellowjc","category":"Pizza Place","checkinsCount":4243,"usersCount":1455,"tipCount":41,"visitsCount":4967,"url":"http://mellowmushroom.com/#/store/index/johnsoncity","tier":2,"message":"Moderate","currency":"$","rating":9.1},{"name":"Depot Street Brewing","address":"904 Depot St","lat":36.2860651,"lng":-82.4817203,"city_fetched":"Johnson City","state":"TN","country":"United States","canonicalUrl":"https://foursquare.com/v/depot-street-brewing/4bca25ac511f95210e29afc7","category":"Brewery","checkinsCount":309,"usersCount":136,"tipCount":7,"visitsCount":358,"url":"http://depotstreetbrewing.com","tier":2,"message":"Moderate","currency":"$","rating":8.3},{"name":"Yee-Haw Brewing Company","twitter":"yeehawbeer","address":"126 Buffalo St","lat":36.314685172206445,"lng":-82.35346165354939,"city_fetched":"Johnson City","state":"TN","country":"United States","canonicalUrl":"https://foursquare.com/v/yeehaw-brewing-company/55ba5df1498efb39a103431c","category":"Brewery","checkinsCount":194,"usersCount":129,"tipCount":3,"visitsCount":203,"url":"http://www.yeehawbrewing.com","tier":"","message":"","currency":"","rating":8.2},{"name":"50fifty Sports Tavern","phone":"4235675050","address":"2102 N Roan St","lat":36.34055291873474,"lng":-82.3734517814094,"city_fetched":"Johnson City","state":"TN","country":"United States","canonicalUrl":"https://foursquare.com/v/50fifty-sports-tavern/562fff97498e51b7e2fd5086","category":"Sports Bar","checkinsCount":79,"usersCount":51,"tipCount":1,"visitsCount":141,"url":"http://50fiftysportstavern.com","tier":"","message":"","currency":"","rating":8.1},{"name":"Electric Cowboy","address":"1805 N Roan St Ste F1","lat":36.33472730061636,"lng":-82.37472811601164,"city_fetched":"Johnson City","state":"TN","country":"United States","canonicalUrl":"https://foursquare.com/v/electric-cowboy/4c3e41300e0d0f47d54f157f","category":"Nightclub","checkinsCount":656,"usersCount":206,"tipCount":6,"visitsCount":695,"url":"http://electriccowboy.com","tier":"","message":"","currency":"","rating":7.7},{"name":"Johnson City Brewing Company","phone":"4239304186","twitter":"johnsoncitybrew","address":"300 E Main St #104","lat":36.31698147282584,"lng":-82.350267152141,"city_fetched":"Johnson City","state":"TN","country":"United States","canonicalUrl":"https://foursquare.com/v/johnson-city-brewing-company/5473940e498e2e61fb60c89e","category":"Brewery","checkinsCount":97,"usersCount":69,"tipCount":3,"visitsCount":108,"url":"http://johnsoncitybrewing.com","tier":"","message":"","currency":"","rating":7.7},{"name":"Capone's","phone":"4239282295","address":"227 E Main St","lat":36.31690358530589,"lng":-82.35159159001628,"city_fetched":"Johnson City","state":"TN","country":"United States","canonicalUrl":"https://foursquare.com/v/capones/4b620f12f964a5200e332ae3","category":"Music Venue","checkinsCount":1572,"usersCount":474,"tipCount":6,"visitsCount":1604,"tier":"","message":"","currency":"","rating":7.7},{"name":"Numan's","phone":"4239267665","address":"225 E Main St","lat":36.316918354810866,"lng":-82.35172933011425,"city_fetched":"Johnson City","state":"TN","country":"United States","canonicalUrl":"https://foursquare.com/v/numans/4b5e200ef964a520087f29e3","category":"Pool Hall","checkinsCount":1411,"usersCount":341,"tipCount":12,"visitsCount":1441,"url":"http://numanbilliards.com","tier":"","message":"","currency":"","rating":7.4},{"name":"Tipton Street Pub","phone":"4234340306","twitter":"tiptonpub","address":"110 Tipton St","lat":36.31551735,"lng":-82.35245668333333,"city_fetched":"Johnson City","state":"TN","country":"United States","canonicalUrl":"https://foursquare.com/tiptonpub","category":"Pub","checkinsCount":2219,"usersCount":425,"tipCount":11,"visitsCount":2244,"url":"http://tiptonstreetpub.com","tier":2,"message":"Moderate","currency":"$","rating":7.2},{"name":"Sonny's Marina & Cafe","phone":"4232834014","address":"130 Cabindale Rd.","lat":36.391237713768035,"lng":-82.39122832978877,"city_fetched":"Johnson City","state":"TN","country":"United States","canonicalUrl":"https://foursquare.com/v/sonnys-marina--cafe/4bd64dac6f649521dbc270ec","category":"Music Venue","checkinsCount":341,"usersCount":219,"tipCount":1,"visitsCount":359,"url":"http://sonnysmarina.com","tier":"","message":"","currency":"","rating":7.2},{"name":"Gourmet & Company","phone":"4239299007","twitter":"gourmetandco","address":"214 E Mountcastle Dr Ste 1J","lat":36.34202778339386,"lng":-82.36937,"city_fetched":"Johnson City","state":"TN","country":"United States","canonicalUrl":"https://foursquare.com/v/gourmet--company/4b5a4368f964a52076b828e3","category":"American Restaurant","checkinsCount":384,"usersCount":226,"tipCount":8,"visitsCount":535,"url":"http://gourmetandcompany.com","tier":3,"message":"Expensive","currency":"$","rating":7.1},{"name":"Hooters","phone":"4236101484","address":"2288 N Roan St","lat":36.345658011952516,"lng":-82.3757714095176,"city_fetched":"Johnson City","state":"TN","country":"United States","canonicalUrl":"https://foursquare.com/v/hooters/4b8c7dd9f964a5207ed332e3","category":"Wings Joint","checkinsCount":1776,"usersCount":830,"tipCount":19,"visitsCount":2075,"url":"http://www.hooters.com","tier":2,"message":"Moderate","currency":"$","rating":7.1},{"name":"Everette's Grill And Saloon","phone":"4232628581","address":"1121 N Roan St","lat":36.32400526309052,"lng":-82.36224975190812,"city_fetched":"Johnson City","state":"TN","country":"United States","canonicalUrl":"https://foursquare.com/v/everettes-grill-and-saloon/4ba40375f964a520c67738e3","category":"Gay Bar","checkinsCount":187,"usersCount":64,"tipCount":3,"visitsCount":227,"url":"http://everettes.net","tier":"","message":"","currency":"","rating":6.9},{"name":"Knight's Pizza","phone":"4239756483","twitter":"knightspizzajc","address":"1701 W State of Franklin Rd","lat":36.30241286079066,"lng":-82.37505116795337,"city_fetched":"Johnson City","state":"TN","country":"United States","canonicalUrl":"https://foursquare.com/v/knights-pizza/510096f5e4b0540092af6fb6","category":"Pizza Place","checkinsCount":784,"usersCount":364,"tipCount":6,"visitsCount":994,"tier":2,"message":"Moderate","currency":"$","rating":6.5},{"name":"New Beginnings","address":"2910 Bristol Hwy","lat":36.35884223229648,"lng":-82.38379418561566,"city_fetched":"Johnson City","state":"TN","country":"United States","canonicalUrl":"https://foursquare.com/v/new-beginnings/4b886d26f964a520edf631e3","category":"Nightclub","checkinsCount":1071,"usersCount":381,"tipCount":22,"visitsCount":1239,"tier":2,"message":"Moderate","currency":"$","rating":5.8}]