[{"name":"B&L Wine Cellars","phone":"8145362259","address":"900 Broad St","lat":40.342342891476996,"lng":-78.93355605520108,"city_fetched":"Johnstown","state":"PA","country":"United States","canonicalUrl":"https://foursquare.com/v/bl-wine-cellars/5144e31de4b0b5c8936659aa","category":"Winery","checkinsCount":118,"usersCount":55,"tipCount":2,"visitsCount":173,"url":"http://www.bandlwinecellars.com","tier":"","message":"","currency":"","rating":8.5},{"name":"Tulune's Southside Saloon","phone":"8145361001","address":"36 Bridge St","lat":40.294927617398805,"lng":-78.91589263064668,"city_fetched":"Johnstown","state":"PA","country":"United States","canonicalUrl":"https://foursquare.com/v/tulunes-southside-saloon/4bad70f3f964a52007513be3","category":"Bar","checkinsCount":1305,"usersCount":371,"tipCount":13,"visitsCount":1591,"url":"http://southsidesaloon.com","tier":"","message":"","currency":"","rating":8.1},{"name":"The Phoenix Tavern","phone":"8145363981","address":"308 2nd Ave.","lat":40.338401198387146,"lng":-78.92591567,"city_fetched":"Johnstown","state":"PA","country":"United States","canonicalUrl":"https://foursquare.com/v/the-phoenix-tavern/4c784ecd566db60c7047410e","category":"Bar","checkinsCount":392,"usersCount":199,"tipCount":3,"visitsCount":545,"tier":"","message":"","currency":"","rating":8.1},{"name":"TNC's Lounge","phone":"8145394340","address":"640 Bedford St","lat":40.31364222222639,"lng":-78.90769244004466,"city_fetched":"Johnstown","state":"PA","country":"United States","canonicalUrl":"https://foursquare.com/v/tncs-lounge/4c8ad6f12e333704fda0c741","category":"Bar","checkinsCount":476,"usersCount":122,"tipCount":2,"visitsCount":548,"url":"http://tncslounge.com","tier":"","message":"","currency":"","rating":7.8},{"name":"Murphy's","phone":"8145363635","address":"1189 Franklin St","lat":40.30311495,"lng":-78.92248,"city_fetched":"Johnstown","state":"PA","country":"United States","canonicalUrl":"https://foursquare.com/v/murphys/4bb28ca4eb3e95219d33ca0a","category":"Bar","checkinsCount":371,"usersCount":133,"tipCount":6,"visitsCount":374,"tier":"","message":"","currency":"","rating":7.8},{"name":"Scott's by Dam","phone":"8145351676","address":"327 Market St","lat":40.323913383333334,"lng":-78.92146321,"city_fetched":"Johnstown","state":"PA","country":"United States","canonicalUrl":"https://foursquare.com/v/scotts-by-dam/4b635f93f964a5204f752ae3","category":"Bar","checkinsCount":270,"usersCount":166,"tipCount":10,"visitsCount":277,"tier":"","message":"","currency":"","rating":7.6},{"name":"The Haven","phone":"8145369347","address":"117 Langhore ave","lat":40.30334209604976,"lng":-78.9229373904423,"city_fetched":"Johnstown","state":"PA","country":"United States","canonicalUrl":"https://foursquare.com/v/the-haven/4b368a26f964a520923725e3","category":"Bar","checkinsCount":904,"usersCount":402,"tipCount":9,"visitsCount":1094,"url":"http://thehavenbar.com","tier":"","message":"","currency":"","rating":7.6},{"name":"Habits","lat":40.30843553,"lng":-78.917056,"city_fetched":"Johnstown","state":"Pennsylvania","country":"United States","canonicalUrl":"https://foursquare.com/v/habits/4d8409f89324236ab9d8b10e","category":"Beer Garden","checkinsCount":114,"usersCount":53,"tipCount":5,"visitsCount":117,"tier":"","message":"","currency":"","rating":7.5},{"name":"Johnstown Inn","address":"1310 Frankstown Rd","lat":40.325588,"lng":-78.88381222,"city_fetched":"Johnstown","state":"PA","country":"United States","canonicalUrl":"https://foursquare.com/v/johnstown-inn/4b930e6cf964a520f13134e3","category":"Bar","checkinsCount":451,"usersCount":236,"tipCount":6,"visitsCount":611,"tier":"","message":"","currency":"","rating":7.4},{"name":"BigDogz Grill","phone":"8142666814","twitter":"bigdogz_grill","address":"1750 Bedford St","lat":40.30128305601754,"lng":-78.88723868587002,"city_fetched":"Johnstown","state":"PA","country":"United States","canonicalUrl":"https://foursquare.com/v/bigdogz-grill/4c7dace910916dcbbb512a96","category":"Bar","checkinsCount":1787,"usersCount":425,"tipCount":13,"visitsCount":1936,"url":"http://www.bigdogzgrill.com","tier":"","message":"","currency":"","rating":6.7}]