[{"name":"501 Steakhouse","phone":"8709726501","address":"2628 Phillips Dr","lat":35.80981255371985,"lng":-90.67420307323599,"city_fetched":"Jonesboro","state":"AR","country":"United States","canonicalUrl":"https://foursquare.com/v/501-steakhouse/4ae24e5df964a5200a8d21e3","category":"Bar","checkinsCount":271,"usersCount":139,"tipCount":13,"visitsCount":290,"url":"http://www.501steakhouse.com","tier":"","message":"","currency":"","rating":8},{"name":"Brickhouse Grill","phone":"8703362441","address":"218 S Main St","lat":35.841411213713826,"lng":-90.7047845354482,"city_fetched":"Jonesboro","state":"AR","country":"United States","canonicalUrl":"https://foursquare.com/v/brickhouse-grill/4ae24ea4f964a520108d21e3","category":"Bar","checkinsCount":651,"usersCount":330,"tipCount":9,"visitsCount":688,"url":"http://mightybrickhouse.com","tier":"","message":"","currency":"","rating":7.9},{"name":"Therapy","phone":"5015517436","address":"241 S Main St","lat":35.840677,"lng":-90.704881,"city_fetched":"Jonesboro","state":"AR","country":"United States","canonicalUrl":"https://foursquare.com/v/therapy/51b9cb3e498e42b7567abc40","category":"Wine Bar","checkinsCount":44,"usersCount":24,"tipCount":4,"visitsCount":44,"tier":"","message":"","currency":"","rating":7.8},{"name":"Cregeen's","phone":"8709729200","address":"201 S Main St","lat":35.8419318995401,"lng":-90.70496997658697,"city_fetched":"Jonesboro","state":"AR","country":"United States","canonicalUrl":"https://foursquare.com/v/cregeens/4c2104f64d4a20a1b0ac9b70","category":"Bar","checkinsCount":758,"usersCount":281,"tipCount":19,"visitsCount":793,"url":"http://cregeens.com","tier":"","message":"","currency":"","rating":7.5},{"name":"Godsey's","phone":"8703361988","address":"226 S Main St","lat":35.84117662697749,"lng":-90.70479380748488,"city_fetched":"Jonesboro","state":"AR","country":"United States","canonicalUrl":"https://foursquare.com/v/godseys/4ae9eb5cf964a520a3b721e3","category":"Bar","checkinsCount":886,"usersCount":405,"tipCount":23,"visitsCount":934,"url":"http://www.godseysgrill.com","tier":2,"message":"Moderate","currency":"$","rating":7.4},{"name":"Electric Cowboy","phone":"8702688863","address":"2801 Fair Park Blvd","lat":35.811009645746886,"lng":-90.67432351830776,"city_fetched":"Jonesboro","state":"AR","country":"United States","canonicalUrl":"https://foursquare.com/v/electric-cowboy/4ae24f05f964a520148d21e3","category":"Nightclub","checkinsCount":410,"usersCount":145,"tipCount":1,"visitsCount":442,"url":"http://electriccowboy.com","tier":"","message":"","currency":"","rating":6.4},{"name":"O'Charley's","phone":"8709337102","twitter":"ocharleys","address":"2312 E Parker Rd","lat":35.8063530921936,"lng":-90.676772,"city_fetched":"Jonesboro","state":"AR","country":"United States","canonicalUrl":"https://foursquare.com/v/ocharleys/4ac535cff964a520feb020e3","category":"Bar","checkinsCount":636,"usersCount":353,"tipCount":8,"visitsCount":754,"url":"http://www.ocharleys.com","tier":1,"message":"Cheap","currency":"$","rating":6.2}]