[{"name":"Macadoodles","phone":"4176267766","address":"3105 E 17th St","lat":37.07244554330773,"lng":-94.47603049656045,"city_fetched":"Joplin","state":"MO","country":"United States","canonicalUrl":"https://foursquare.com/v/macadoodles/4b6cdd27f964a520025a2ce3","category":"Winery","checkinsCount":1144,"usersCount":612,"tipCount":12,"visitsCount":1534,"url":"http://macadoodles.com","tier":"","message":"","currency":"","rating":8.4},{"name":"Blackthorn Pub","phone":"4176232485","address":"510 S Joplin Ave","lat":37.08635986513709,"lng":-94.5143511229171,"city_fetched":"Joplin","state":"MO","country":"United States","canonicalUrl":"https://foursquare.com/v/blackthorn-pub/4c12cd78b7b9c9286680a837","category":"Pub","checkinsCount":1926,"usersCount":307,"tipCount":10,"visitsCount":1989,"url":"http://www.blackthornpizza.com","tier":"","message":"","currency":"","rating":7.9},{"name":"Club 609","phone":"4176236090","address":"609 S Main St","lat":37.08504523249096,"lng":-94.51337478332302,"city_fetched":"Joplin","state":"MO","country":"United States","canonicalUrl":"https://foursquare.com/v/club-609/4bb3e83c87aa952187a6acd1","category":"American Restaurant","checkinsCount":813,"usersCount":287,"tipCount":9,"visitsCount":850,"url":"http://club609.com","tier":3,"message":"Expensive","currency":"$","rating":7.8},{"name":"Whiskey Dick's","phone":"4172063425","address":"1220 S. Wall","lat":37.07766128,"lng":-94.51677601,"city_fetched":"Joplin","state":"MO","country":"United States","canonicalUrl":"https://foursquare.com/v/whiskey-dicks/4e52f34dae606f5737998263","category":"Bar","checkinsCount":214,"usersCount":81,"tipCount":3,"visitsCount":242,"tier":"","message":"","currency":"","rating":7.6},{"name":"Red Hot & Blue  -  Barbecue, Burgers & Blues","phone":"4177827427","twitter":"redhotbluebbq","address":"2601 S Range Line Rd","lat":37.06206223024438,"lng":-94.47719224130934,"city_fetched":"Joplin","state":"MO","country":"United States","canonicalUrl":"https://foursquare.com/v/red-hot--blue----barbecue-burgers--blues/4b511746f964a520dd4127e3","category":"BBQ Joint","checkinsCount":542,"usersCount":393,"tipCount":12,"visitsCount":605,"url":"http://redhotandblue.com/joplin","tier":"","message":"","currency":"","rating":7.6},{"name":"Jb's Piano Bar","address":"112 S Main St","lat":37.09015572951392,"lng":-94.51352072987065,"city_fetched":"Joplin","state":"MO","country":"United States","canonicalUrl":"https://foursquare.com/v/jbs-piano-bar/4cccc22397d0224b195462b8","category":"Bar","checkinsCount":529,"usersCount":299,"tipCount":7,"visitsCount":625,"tier":"","message":"","currency":"","rating":7.4},{"name":"Pitcher's Sports Bar & Grill","address":"3320 Range Line","lat":37.0528425,"lng":-94.478929,"city_fetched":"Joplin","state":"MO","country":"United States","canonicalUrl":"https://foursquare.com/v/pitchers-sports-bar--grill/4e28c1137d8b6133619049cb","category":"Sports Bar","checkinsCount":406,"usersCount":284,"tipCount":6,"visitsCount":409,"tier":"","message":"","currency":"","rating":6.2}]