[{"name":"Alaskan Brewing Company","phone":"9077805866","address":"5429 Shaune Dr","lat":58.35669195050228,"lng":-134.48959204317293,"neighborhood":"Lemon Creek","city_fetched":"Juneau","state":"AK","country":"United States","canonicalUrl":"https://foursquare.com/v/alaskan-brewing-company/4b6e14a1f964a520fda82ce3","category":"Brewery","checkinsCount":890,"usersCount":818,"tipCount":16,"visitsCount":1100,"url":"https://alaskanbeer.com","tier":"","message":"","currency":"","rating":8.9},{"name":"Hangar On The Wharf","phone":"9075865018","twitter":"hangarwharf","address":"2 Marine Way Ste 106","lat":58.29925204350613,"lng":-134.4078540802002,"neighborhood":"Downtown Juneau","city_fetched":"Juneau","state":"AK","country":"United States","canonicalUrl":"https://foursquare.com/v/hangar-on-the-wharf/4bbf95cbf8219c74723cb010","category":"Seafood Restaurant","checkinsCount":2443,"usersCount":1484,"tipCount":34,"visitsCount":2803,"url":"http://www.hangaronthewharf.com","tier":2,"message":"Moderate","currency":"$","rating":8.3},{"name":"Imperial Billiard & Bar","phone":"9075861960","address":"241 Front St","lat":58.30047261013107,"lng":-134.40602481365204,"neighborhood":"Downtown Juneau","city_fetched":"Juneau","state":"AK","country":"United States","canonicalUrl":"https://foursquare.com/v/imperial-billiard--bar/4bbf940cf8219c746239b010","category":"Bar","checkinsCount":1061,"usersCount":442,"tipCount":6,"visitsCount":1137,"tier":"","message":"","currency":"","rating":8.3},{"name":"McGiviney's Sports Bar and Grill","address":"9105 Mendenhall Rd. #A","lat":58.37171173095703,"lng":-134.5869598388672,"neighborhood":"Mendenhall Valley","city_fetched":"Juneau","state":"AK","country":"United States","canonicalUrl":"https://foursquare.com/v/mcgivineys-sports-bar-and-grill/5201c8fd498eb75f776d17f4","category":"Sports Bar","checkinsCount":241,"usersCount":83,"tipCount":4,"visitsCount":264,"tier":2,"message":"Moderate","currency":"$","rating":8.2},{"name":"Red Dog Saloon","phone":"9074633658","address":"278 S Franklin St","lat":58.2987999,"lng":-134.403835,"neighborhood":"Downtown Juneau","city_fetched":"Juneau","state":"AK","country":"United States","canonicalUrl":"https://foursquare.com/v/red-dog-saloon/4bbec237b083a593d889a2e9","category":"Bar","checkinsCount":2768,"usersCount":2565,"tipCount":18,"visitsCount":3278,"url":"http://www.reddogsaloon.com","tier":"","message":"","currency":"","rating":8.2},{"name":"Twisted Fish Company Alaskan Grill","phone":"9074635033","twitter":"twstdfishalaska","address":"550 S Franklin St","lat":58.295579526193244,"lng":-134.39982766204886,"neighborhood":"Downtown Juneau","city_fetched":"Juneau","state":"AK","country":"United States","canonicalUrl":"https://foursquare.com/v/twisted-fish-company-alaskan-grill/4c4e35ad9efabe9a5c3db769","category":"Seafood Restaurant","checkinsCount":974,"usersCount":806,"tipCount":14,"visitsCount":1021,"url":"http://www.twistedfishcompany.com","tier":3,"message":"Expensive","currency":"$","rating":8},{"name":"The Island Pub","phone":"9073641595","address":"1102 2nd St","lat":58.27782748919045,"lng":-134.39493119716644,"neighborhood":"Douglas","city_fetched":"Juneau","state":"AK","country":"United States","canonicalUrl":"https://foursquare.com/v/the-island-pub/4bbf9733f8219c74263fb010","category":"Pub","checkinsCount":758,"usersCount":392,"tipCount":11,"visitsCount":940,"url":"http://theislandpub.com","tier":"","message":"","currency":"","rating":8},{"name":"Rockwell","phone":"9074634340","address":"109 S Franklin St","lat":58.30079619082629,"lng":-134.40603810970563,"neighborhood":"Downtown Juneau","city_fetched":"Juneau","state":"AK","country":"United States","canonicalUrl":"https://foursquare.com/v/rockwell/5008fcade4b04e15478105b3","category":"Gastropub","checkinsCount":374,"usersCount":160,"tipCount":7,"visitsCount":386,"url":"http://www.rockwelljuneau.com","tier":"","message":"","currency":"","rating":7.9},{"name":"The Alaskan Hotel and Bar","phone":"9075861000","address":"167 S Franklin St","lat":58.300334,"lng":-134.4051,"neighborhood":"Downtown Juneau","city_fetched":"Juneau","state":"AK","country":"United States","canonicalUrl":"https://foursquare.com/v/the-alaskan-hotel-and-bar/4b77b890f964a52024a82ee3","category":"Bar","checkinsCount":739,"usersCount":450,"tipCount":8,"visitsCount":767,"url":"http://www.thealaskanhotel.com","tier":"","message":"","currency":"","rating":7.6},{"name":"Triangle Club","phone":"9075863140","address":"251 Front St","lat":58.300578,"lng":-134.40574540000003,"neighborhood":"Downtown Juneau","city_fetched":"Juneau","state":"AK","country":"United States","canonicalUrl":"https://foursquare.com/v/triangle-club/4c786fe397028cfac4ffd7fe","category":"Dive Bar","checkinsCount":300,"usersCount":167,"tipCount":3,"visitsCount":307,"tier":"","message":"","currency":"","rating":7.3},{"name":"Viking Lounge & Pull Tabs","phone":"9075862159","address":"218 Front St","lat":58.300641,"lng":-134.407096,"neighborhood":"Downtown Juneau","city_fetched":"Juneau","state":"AK","country":"United States","canonicalUrl":"https://foursquare.com/v/viking-lounge--pull-tabs/4b9b698bf964a520b90536e3","category":"Dive Bar","checkinsCount":987,"usersCount":444,"tipCount":3,"visitsCount":1026,"tier":"","message":"","currency":"","rating":6.8},{"name":"Sandbar & Grill","phone":"9077894800","address":"2525 Industrial Blvd","lat":58.369217,"lng":-134.605109,"city_fetched":"Juneau","state":"AK","country":"United States","canonicalUrl":"https://foursquare.com/v/sandbar--grill/4b80f84ff964a520b69330e3","category":"Bar","checkinsCount":413,"usersCount":189,"tipCount":12,"visitsCount":484,"tier":"","message":"","currency":"","rating":6.6},{"name":"Rendezvous","phone":"9075861270","address":"184 S Franklin St","lat":58.30013716991896,"lng":-134.40516650676727,"neighborhood":"Downtown Juneau","city_fetched":"Juneau","state":"AK","country":"United States","canonicalUrl":"https://foursquare.com/v/rendezvous/4bbe9efe98f49521ab9cd163","category":"Dive Bar","checkinsCount":288,"usersCount":146,"tipCount":6,"visitsCount":288,"tier":"","message":"","currency":"","rating":6.5},{"name":"Flight Deck","phone":"9077232586","address":"2 Marine Way","lat":58.29941153526306,"lng":-134.40702792,"neighborhood":"Downtown Juneau","city_fetched":"Juneau","state":"AK","country":"United States","canonicalUrl":"https://foursquare.com/v/flight-deck/4c030e950d0e0f47341d029a","category":"Bar","checkinsCount":293,"usersCount":246,"tipCount":5,"visitsCount":294,"tier":"","message":"","currency":"","rating":6.3}]