[{"name":"Rock & Brews Paia","phone":"8085799011","twitter":"rockandbrews","address":"120 Hana Hwy, Suite 10 & 11","lat":20.916431,"lng":-156.380643,"city_fetched":"Kahului,US","state":"HI","country":"United States","canonicalUrl":"https://foursquare.com/v/rock--brews-paia/52e5a935498e73cc2d366d96","categoryId":"4bf58dd8d48988d116941735","category":"Bar","checkinsCount":590,"usersCount":563,"tipCount":5,"visitsCount":693,"url":"http://www.rockandbrews.com/paia","tier":"","message":"","currency":"","rating":7.6},{"name":"Charley's Restaurant & Saloon","phone":"8085798085","twitter":"charleysmaui","address":"142 Hana Hwy","lat":20.916426921125396,"lng":-156.38049167653006,"city_fetched":"Kahului,US","state":"HI","country":"United States","canonicalUrl":"https://foursquare.com/v/charleys-restaurant--saloon/4bb08852f964a520314a3ce3","categoryId":"4bf58dd8d48988d116941735","category":"Bar","checkinsCount":2313,"usersCount":1816,"tipCount":39,"visitsCount":2463,"url":"http://www.charleysmaui.com","tier":2,"message":"Moderate","currency":"$","rating":7.5},{"name":"McGrath's Hang Loose Lounge","phone":"8088776284","address":"333 Dairy Rd","lat":20.8834425215081,"lng":-156.45453631572096,"city_fetched":"Kahului,US","state":"HI","country":"United States","canonicalUrl":"https://foursquare.com/v/mcgraths-hang-loose-lounge/4c32e4e2452620a12ac4220f","categoryId":"4bf58dd8d48988d116941735","category":"Bar","checkinsCount":197,"usersCount":94,"tipCount":3,"visitsCount":204,"tier":"","message":"","currency":"","rating":6.6},{"name":"Kahului Ale House","phone":"8088779001","address":"355 E Kamehameha Ave","lat":20.890409397919438,"lng":-156.46217823028564,"city_fetched":"Kahului,US","state":"HI","country":"United States","canonicalUrl":"https://foursquare.com/v/kahului-ale-house/4b6752c0f964a520f9472be3","categoryId":"4bf58dd8d48988d116941735","category":"Bar","checkinsCount":1340,"usersCount":918,"tipCount":20,"visitsCount":1625,"url":"http://alehouse.net","tier":"","message":"","currency":"","rating":6.4}]