[{"name":"Bell's Eccentric Cafe & General Store","phone":"2693822332","twitter":"bellsbrewery","address":"355 E Kalamazoo Ave","lat":42.29511569855211,"lng":-85.57878613471985,"neighborhood":"Central Business District","city_fetched":"Kalamazoo,US","state":"MI","country":"United States","canonicalUrl":"https://foursquare.com/v/bells-eccentric-cafe--general-store/4a8f8efcf964a520761520e3","categoryId":"50327c8591d4c4b30a586d5d","category":"Brewery","checkinsCount":18043,"usersCount":9657,"tipCount":135,"visitsCount":21152,"url":"http://bellsbeer.com","tier":2,"message":"Moderate","currency":"$","rating":9.4},{"name":"Arcadia Brewing Company Kalamazoo","phone":"2693431925","twitter":"arcadiaales","address":"701 E Michigan Ave","lat":42.295193371856925,"lng":-85.57161960986647,"city_fetched":"Kalamazoo,US","state":"MI","country":"United States","canonicalUrl":"https://foursquare.com/v/arcadia-brewing-company-kalamazoo/534ed62d11d2d11c601da928","categoryId":"50327c8591d4c4b30a586d5d","category":"Brewery","checkinsCount":1696,"usersCount":1468,"tipCount":21,"visitsCount":2793,"url":"http://arcadiaales.com","tier":2,"message":"Moderate","currency":"$","rating":9},{"name":"Gonzo's BiggDogg Brewing","phone":"2692170603","twitter":"gonzosbiggdogg","address":"140 S Westnedge Ave","lat":42.29088963875486,"lng":-85.58998167514801,"neighborhood":"Central Business District","city_fetched":"Kalamazoo,US","state":"MI","country":"United States","canonicalUrl":"https://foursquare.com/v/gonzos-biggdogg-brewing/511305fee4b05a03949e7523","categoryId":"50327c8591d4c4b30a586d5d","category":"Brewery","checkinsCount":1811,"usersCount":1365,"tipCount":33,"visitsCount":2569,"url":"http://www.gonzosbiggdoggbrewing.com","tier":2,"message":"Moderate","currency":"$","rating":8.9},{"name":"The Wine Loft","phone":"2693439227","twitter":"wineloftwmich","address":"161 E Michigan Ave","lat":42.29180233295264,"lng":-85.5818384885788,"neighborhood":"Central Business District","city_fetched":"Kalamazoo,US","state":"MI","country":"United States","canonicalUrl":"https://foursquare.com/v/the-wine-loft/4b6e2cb6f964a520adaf2ce3","categoryId":"4bf58dd8d48988d123941735","category":"Wine Bar","checkinsCount":2673,"usersCount":1143,"tipCount":15,"visitsCount":2741,"url":"http://thewineloftkalamazoo.com","tier":2,"message":"Moderate","currency":"$","rating":8.9},{"name":"One Well Brewing","phone":"2694599240","twitter":"onewellbrewing","address":"4213 Portage St","lat":42.24862337529579,"lng":-85.55916197911544,"city_fetched":"Kalamazoo,US","state":"MI","country":"United States","canonicalUrl":"https://foursquare.com/v/one-well-brewing/5474029c498e837edeff007e","categoryId":"50327c8591d4c4b30a586d5d","category":"Brewery","checkinsCount":575,"usersCount":524,"tipCount":6,"visitsCount":1069,"url":"http://onewellbrewing.com","tier":"","message":"","currency":"","rating":8.8},{"name":"Louie's Trophy House Grill","phone":"2693859359","address":"440 E North St","lat":42.297887284260455,"lng":-85.57688444852829,"neighborhood":"Northside","city_fetched":"Kalamazoo,US","state":"MI","country":"United States","canonicalUrl":"https://foursquare.com/v/louies-trophy-house-grill/4bb6a7b52f70c9b674d18530","categoryId":"4bf58dd8d48988d116941735","category":"Bar","checkinsCount":2505,"usersCount":914,"tipCount":22,"visitsCount":3014,"url":"http://louieskzoo.com","tier":1,"message":"Cheap","currency":"$","rating":8.7},{"name":"Sky|Deck","phone":"2693846044","twitter":"the_skydeck","address":"300 E Michigan Ave Fl 6","lat":42.2923,"lng":-85.57998718333333,"neighborhood":"Central Business District","city_fetched":"Kalamazoo,US","state":"MI","country":"United States","canonicalUrl":"https://foursquare.com/v/skydeck/4bda24c4c79cc92826bc7de9","categoryId":"4bf58dd8d48988d116941735","category":"Bar","checkinsCount":1893,"usersCount":1014,"tipCount":7,"visitsCount":1900,"url":"http://skydeck.co","tier":"","message":"","currency":"","rating":8.5},{"name":"Texas Corners Brewing Company","address":"6970 Texas Dr","lat":42.20228780449179,"lng":-85.68656101164068,"city_fetched":"Kalamazoo,US","state":"MI","country":"United States","canonicalUrl":"https://foursquare.com/v/texas-corners-brewing-company/55170956498e8a03505de7fa","categoryId":"50327c8591d4c4b30a586d5d","category":"Brewery","checkinsCount":137,"usersCount":208,"tipCount":4,"visitsCount":317,"url":"http://texascornersbrewingcompany.com","tier":"","message":"","currency":"","rating":8.5},{"name":"Tibbs Brewing Company","phone":"8777627397","twitter":"tibbsbrewing","address":"402 S Burdick St","lat":42.28858006653697,"lng":-85.58320641517639,"neighborhood":"Central Business District","city_fetched":"Kalamazoo,US","state":"MI","country":"United States","canonicalUrl":"https://foursquare.com/v/tibbs-brewing-company/51c72cb7498ec34c57d3d487","categoryId":"50327c8591d4c4b30a586d5d","category":"Brewery","checkinsCount":673,"usersCount":533,"tipCount":9,"visitsCount":884,"url":"http://tibbsbrewing.com","tier":1,"message":"Cheap","currency":"$","rating":8.3},{"name":"Main St. Pub","phone":"2693429710","address":"4514 W Main St","lat":42.29685762564302,"lng":-85.6452888250351,"city_fetched":"Kalamazoo,US","state":"MI","country":"United States","canonicalUrl":"https://foursquare.com/v/main-st-pub/4b743b0af964a52092ce2de3","categoryId":"4bf58dd8d48988d11b941735","category":"Pub","checkinsCount":4251,"usersCount":1585,"tipCount":31,"visitsCount":4484,"url":"http://mainstpub.com","tier":2,"message":"Moderate","currency":"$","rating":8.2},{"name":"Green Top Tavern","phone":"2693821332","address":"250 E Michigan Ave.","lat":42.292199576431976,"lng":-85.58086422386242,"neighborhood":"Central Business District","city_fetched":"Kalamazoo,US","state":"MI","country":"United States","canonicalUrl":"https://foursquare.com/v/green-top-tavern/4b899a21f964a5204c4532e3","categoryId":"4bf58dd8d48988d118941735","category":"Dive Bar","checkinsCount":2171,"usersCount":932,"tipCount":15,"visitsCount":2336,"url":"http://greentoptavern.com","tier":1,"message":"Cheap","currency":"$","rating":8.1},{"name":"Old Dog Tavern","phone":"2693815677","address":"402 E Kalamazoo Ave","lat":42.294342,"lng":-85.57814240455627,"neighborhood":"Central Business District","city_fetched":"Kalamazoo,US","state":"MI","country":"United States","canonicalUrl":"https://foursquare.com/v/old-dog-tavern/4b9ad6cbf964a520dfda35e3","categoryId":"4bf58dd8d48988d116941735","category":"Bar","checkinsCount":2427,"usersCount":1208,"tipCount":25,"visitsCount":2730,"url":"http://olddogtavern.com","tier":1,"message":"Cheap","currency":"$","rating":8.1},{"name":"Central City Tap House","phone":"2694920100","twitter":"cctaphouse","address":"359 S Kalamazoo Mall","lat":42.289142,"lng":-85.58301197857654,"neighborhood":"Central Business District","city_fetched":"Kalamazoo,US","state":"MI","country":"United States","canonicalUrl":"https://foursquare.com/v/central-city-tap-house/4c51f5f8048b1b8dac31ca2f","categoryId":"4bf58dd8d48988d11b941735","category":"Pub","checkinsCount":4255,"usersCount":1548,"tipCount":43,"visitsCount":4533,"url":"http://www.millenniumrestaurants.com/taphouse/","tier":2,"message":"Moderate","currency":"$","rating":8.1},{"name":"O'Duffy's Pub","phone":"2693819771","address":"804 W Vine St","lat":42.28424244518969,"lng":-85.59351280331612,"neighborhood":"Vine","city_fetched":"Kalamazoo,US","state":"MI","country":"United States","canonicalUrl":"https://foursquare.com/v/oduffys-pub/4b592854f964a5206d7f28e3","categoryId":"4bf58dd8d48988d11b941735","category":"Pub","checkinsCount":1167,"usersCount":587,"tipCount":16,"visitsCount":1283,"url":"http://www.oduffyspub.com","tier":3,"message":"Expensive","currency":"$","rating":8.1},{"name":"Shakespeare's Pub","phone":"2694887782","twitter":"shakespub","address":"241 E Kalamazoo Ave","lat":42.29488196313654,"lng":-85.58070499230242,"neighborhood":"Central Business District","city_fetched":"Kalamazoo,US","state":"MI","country":"United States","canonicalUrl":"https://foursquare.com/v/shakespeares-pub/4b312085f964a520b60025e3","categoryId":"4bf58dd8d48988d11b941735","category":"Pub","checkinsCount":13297,"usersCount":4153,"tipCount":59,"visitsCount":14730,"url":"http://shakespearespub.com","tier":2,"message":"Moderate","currency":"$","rating":8},{"name":"Metro Night Club","phone":"2692769240","address":"411 N Westnedge Ave","lat":42.29502165861942,"lng":-85.59046386944948,"neighborhood":"Northside","city_fetched":"Kalamazoo,US","state":"MI","country":"United States","canonicalUrl":"https://foursquare.com/v/metro-night-club/4f49b232e4b0458781ccd4e3","categoryId":"4bf58dd8d48988d1d8941735","category":"Gay Bar","checkinsCount":312,"usersCount":151,"tipCount":5,"visitsCount":363,"url":"http://metrokzoo.com","tier":"","message":"","currency":"","rating":7.8},{"name":"Home Bar","phone":"2693453752","address":"592 Portage St","lat":42.286113203817756,"lng":-85.57604617038632,"neighborhood":"Central Business District","city_fetched":"Kalamazoo,US","state":"MI","country":"United States","canonicalUrl":"https://foursquare.com/v/home-bar/4c4744945438b713d714b77b","categoryId":"4bf58dd8d48988d116941735","category":"Bar","checkinsCount":397,"usersCount":163,"tipCount":5,"visitsCount":464,"tier":"","message":"","currency":"","rating":7.8},{"name":"Angels Gentlemens Club","phone":"2693442162","twitter":"angels_kzoo","address":"3215 King Hwy","lat":42.28621095239943,"lng":-85.54012571361808,"city_fetched":"Kalamazoo,US","state":"MI","country":"United States","canonicalUrl":"https://foursquare.com/angels_kzoo","categoryId":"4bf58dd8d48988d1d6941735","category":"Strip Club","checkinsCount":1025,"usersCount":365,"tipCount":2,"visitsCount":1408,"url":"http://www.angelskzoo.com","tier":"","message":"","currency":"","rating":7.8},{"name":"Blaze Hookah Lounge","phone":"2693816046","address":"2728 W Michigan Ave","lat":42.28284726320016,"lng":-85.62360982880674,"city_fetched":"Kalamazoo,US","state":"MI","country":"United States","canonicalUrl":"https://foursquare.com/v/blaze-hookah-lounge/4b9c400ff964a520f65836e3","categoryId":"4bf58dd8d48988d119941735","category":"Hookah Bar","checkinsCount":1227,"usersCount":449,"tipCount":13,"visitsCount":1258,"url":"http://kalamazoohookahlounge.com","tier":1,"message":"Cheap","currency":"$","rating":7.8},{"name":"The Mix","phone":"2693821300","address":"2804 W Michigan Ave","lat":42.282546,"lng":-85.623621,"city_fetched":"Kalamazoo,US","state":"MI","country":"United States","canonicalUrl":"https://foursquare.com/v/the-mix/52200e15498edd74bda1ee8e","categoryId":"4bf58dd8d48988d11f941735","category":"Nightclub","checkinsCount":240,"usersCount":117,"tipCount":3,"visitsCount":251,"url":"http://themixkzoo.wix.com","tier":"","message":"","currency":"","rating":7.8},{"name":"The Gatsby","phone":"2692901900","twitter":"thegatsbykzoo","address":"310 E Michigan Ave","lat":42.292324,"lng":-85.57985365390778,"neighborhood":"Central Business District","city_fetched":"Kalamazoo,US","state":"MI","country":"United States","canonicalUrl":"https://foursquare.com/v/the-gatsby/4e67d4d9d16433b90084486a","categoryId":"4bf58dd8d48988d11e941735","category":"Cocktail Bar","checkinsCount":1695,"usersCount":763,"tipCount":14,"visitsCount":1701,"url":"http://www.thegatsby.biz","tier":"","message":"","currency":"","rating":7.7},{"name":"London Grill","phone":"2693819212","address":"214 E Michigan Ave","lat":42.291797,"lng":-85.58151900323544,"neighborhood":"Central Business District","city_fetched":"Kalamazoo,US","state":"MI","country":"United States","canonicalUrl":"https://foursquare.com/v/london-grill/4ba197c6f964a520bdc237e3","categoryId":"4bf58dd8d48988d11b941735","category":"Pub","checkinsCount":977,"usersCount":522,"tipCount":14,"visitsCount":1001,"url":"http://www.london-grill.com","tier":3,"message":"Expensive","currency":"$","rating":7.6},{"name":"Olde Peninsula Brewpub & Restaurant","phone":"2693432739","twitter":"opbrewerdan","address":"200 E Michigan Ave","lat":42.29161288542541,"lng":-85.5816579804319,"neighborhood":"Central Business District","city_fetched":"Kalamazoo,US","state":"MI","country":"United States","canonicalUrl":"https://foursquare.com/v/olde-peninsula-brewpub--restaurant/4b50bc7bf964a520093027e3","categoryId":"50327c8591d4c4b30a586d5d","category":"Brewery","checkinsCount":5559,"usersCount":2962,"tipCount":53,"visitsCount":5654,"url":"http://oldepenkazoo.com","tier":2,"message":"Moderate","currency":"$","rating":7.5},{"name":"C J's Pub","phone":"2693420270","address":"1027 Schuster Ave","lat":42.28106693667943,"lng":-85.5531406745518,"neighborhood":"Edison","city_fetched":"Kalamazoo,US","state":"MI","country":"United States","canonicalUrl":"https://foursquare.com/v/c-js-pub/4c4a3c09f7cc1b8dec6d173e","categoryId":"4bf58dd8d48988d11b941735","category":"Pub","checkinsCount":2438,"usersCount":257,"tipCount":4,"visitsCount":2674,"tier":"","message":"","currency":"","rating":7.5},{"name":"Potter's","phone":"2693853922","address":"3600 Cork Street Ct","lat":42.25850365911481,"lng":-85.53489169385642,"city_fetched":"Kalamazoo,US","state":"MI","country":"United States","canonicalUrl":"https://foursquare.com/v/potters/4f908a7ae4b0d2203e1b4a1b","categoryId":"4bf58dd8d48988d1d5941735","category":"Hotel Bar","checkinsCount":178,"usersCount":70,"tipCount":4,"visitsCount":178,"tier":"","message":"","currency":"","rating":7.5},{"name":"Nob Hill Bar & Grill","phone":"2693492965","address":"4218 S Sprinkle Rd","lat":42.248851700720955,"lng":-85.53161144256592,"city_fetched":"Kalamazoo,US","state":"MI","country":"United States","canonicalUrl":"https://foursquare.com/v/nob-hill-bar--grill/4bbbf230e5b0d13a7dcc6e7c","categoryId":"4bf58dd8d48988d118941735","category":"Dive Bar","checkinsCount":1588,"usersCount":365,"tipCount":8,"visitsCount":1717,"url":"http://nobhillbarandgrill.com","tier":1,"message":"Cheap","currency":"$","rating":7.5},{"name":"Main St. Pub","phone":"2693447247","address":"5462 Gull Rd","lat":42.32182607408631,"lng":-85.52278261242292,"city_fetched":"Kalamazoo,US","state":"MI","country":"United States","canonicalUrl":"https://foursquare.com/v/main-st-pub/4bf5b4d14d5f20a1a1f897fe","categoryId":"4bf58dd8d48988d11b941735","category":"Pub","checkinsCount":2493,"usersCount":910,"tipCount":21,"visitsCount":2849,"url":"http://www.mainstpub.com","tier":2,"message":"Moderate","currency":"$","rating":7.4},{"name":"Harvey's on the Mall","phone":"2694927506","twitter":"harveys_kzoo","address":"416 S Burdick St","lat":42.2881711,"lng":-85.5833088,"neighborhood":"Vine","city_fetched":"Kalamazoo,US","state":"MI","country":"United States","canonicalUrl":"https://foursquare.com/v/harveys-on-the-mall/4b3009f8f964a520e7f424e3","categoryId":"4bf58dd8d48988d116941735","category":"Bar","checkinsCount":8295,"usersCount":2179,"tipCount":29,"visitsCount":8533,"url":"http://harveyskazoo.com","tier":2,"message":"Moderate","currency":"$","rating":7.3},{"name":"Brewster's Junction","phone":"2693440600","address":"5315 Portage Rd","lat":42.24264883161783,"lng":-85.55953860282898,"city_fetched":"Kalamazoo,US","state":"MI","country":"United States","canonicalUrl":"https://foursquare.com/v/brewsters-junction/4b888e06f964a520600032e3","categoryId":"4bf58dd8d48988d11d941735","category":"Sports Bar","checkinsCount":3416,"usersCount":1087,"tipCount":21,"visitsCount":3881,"url":"http://www.brewstersfoodandspirits.com","tier":"","message":"","currency":"","rating":7.3},{"name":"Boatyard Brewing Company","phone":"2698083455","twitter":"boatyardbrewing","address":"432 E Paterson St","lat":42.30318084447184,"lng":-85.57768431553643,"neighborhood":"Northside","city_fetched":"Kalamazoo,US","state":"MI","country":"United States","canonicalUrl":"https://foursquare.com/v/boatyard-brewing-company/50d88e51e4b0feaa598cb936","categoryId":"50327c8591d4c4b30a586d5d","category":"Brewery","checkinsCount":502,"usersCount":402,"tipCount":11,"visitsCount":789,"url":"http://boatyardbrewing.com","tier":"","message":"","currency":"","rating":7.1},{"name":"District Square","phone":"2699788451","twitter":"reedycorp","address":"139 S Edwards St","lat":42.29211582051696,"lng":-85.57913482189178,"neighborhood":"Central Business District","city_fetched":"Kalamazoo,US","state":"MI","country":"United States","canonicalUrl":"https://foursquare.com/v/district-square/4c35d9fb4308b713aeccc430","categoryId":"4bf58dd8d48988d116941735","category":"Bar","checkinsCount":1299,"usersCount":642,"tipCount":3,"visitsCount":1334,"url":"http://districtsquare.co","tier":"","message":"","currency":"","rating":7.1},{"name":"Rupert's Brew House","phone":"2693379911","twitter":"rupeykzoobrew","address":"773 W Michigan Ave","lat":42.29063963760198,"lng":-85.59425711631775,"neighborhood":"Central Business District","city_fetched":"Kalamazoo,US","state":"MI","country":"United States","canonicalUrl":"https://foursquare.com/v/ruperts-brew-house/5183ebf3498e367b4c49cd1e","categoryId":"50327c8591d4c4b30a586d5d","category":"Brewery","checkinsCount":667,"usersCount":549,"tipCount":20,"visitsCount":947,"tier":1,"message":"Cheap","currency":"$","rating":7.1},{"name":"Old Burdick's Downtown","phone":"2693430032","twitter":"oldburdicks","address":"100 W Michigan Ave","lat":42.291940822644236,"lng":-85.58344137788913,"neighborhood":"Central Business District","city_fetched":"Kalamazoo,US","state":"MI","country":"United States","canonicalUrl":"https://foursquare.com/v/old-burdicks-downtown/4b298066f964a520f19f24e3","categoryId":"4bf58dd8d48988d1d5941735","category":"Hotel Bar","checkinsCount":7601,"usersCount":3395,"tipCount":44,"visitsCount":7947,"url":"https://www.oldburdicks.com","tier":2,"message":"Moderate","currency":"$","rating":7},{"name":"Duck Inn Waddle Out","phone":"2693424447","address":"3214 Brookfield Ave","lat":42.27949444622346,"lng":-85.5403469289627,"city_fetched":"Kalamazoo,US","state":"MI","country":"United States","canonicalUrl":"https://foursquare.com/v/duck-inn-waddle-out/4ba6e964f964a520147739e3","categoryId":"4bf58dd8d48988d118941735","category":"Dive Bar","checkinsCount":1184,"usersCount":172,"tipCount":3,"visitsCount":1258,"tier":"","message":"","currency":"","rating":7},{"name":"Shifter's Bar and Grill","phone":"2695444500","address":"6857 W Main St","lat":42.294762662746784,"lng":-85.68445013400455,"city_fetched":"Kalamazoo,US","state":"MI","country":"United States","canonicalUrl":"https://foursquare.com/v/shifters-bar-and-grill/4c75aa19d8948cfad76e68da","categoryId":"4bf58dd8d48988d11d941735","category":"Sports Bar","checkinsCount":1534,"usersCount":458,"tipCount":7,"visitsCount":1631,"tier":"","message":"","currency":"","rating":6.9},{"name":"Waldo's Campus Tavern - Pilsen Klub","phone":"2693498674","address":"1408 W Michigan Ave","lat":42.286580033580925,"lng":-85.60459102212513,"neighborhood":"West Main HIll","city_fetched":"Kalamazoo,US","state":"MI","country":"United States","canonicalUrl":"https://foursquare.com/v/waldos-campus-tavern--pilsen-klub/4b0c17eaf964a520c43623e3","categoryId":"4bf58dd8d48988d118941735","category":"Dive Bar","checkinsCount":3345,"usersCount":1262,"tipCount":25,"visitsCount":3534,"url":"http://waldoscampustavern.com","tier":1,"message":"Cheap","currency":"$","rating":6.9},{"name":"Fletcher's Pub","phone":"2693723188","address":"7177 W Q Ave","lat":42.20054693383952,"lng":-85.68978667259216,"city_fetched":"Kalamazoo,US","state":"MI","country":"United States","canonicalUrl":"https://foursquare.com/v/fletchers-pub/4b855649f964a520875731e3","categoryId":"4bf58dd8d48988d11b941735","category":"Pub","checkinsCount":1194,"usersCount":616,"tipCount":12,"visitsCount":1497,"url":"http://fletcherspub.com","tier":"","message":"","currency":"","rating":6.9},{"name":"AFB Bar & Grill","phone":"2694591350","address":"2941 Howard St","lat":42.282787438763485,"lng":-85.6225707209153,"neighborhood":"Western Michigan University-KRPH","city_fetched":"Kalamazoo,US","state":"MI","country":"United States","canonicalUrl":"https://foursquare.com/v/afb-bar--grill/5356ff26498eb531f798d47f","categoryId":"4bf58dd8d48988d116941735","category":"Bar","checkinsCount":302,"usersCount":131,"tipCount":8,"visitsCount":414,"url":"http://www.afbbarandgrill.com","tier":"","message":"","currency":"","rating":6.8},{"name":"The Hangar Bar & Grill","phone":"2693449663","address":"4301 W Main St","lat":42.295833902119526,"lng":-85.64255833625793,"city_fetched":"Kalamazoo,US","state":"MI","country":"United States","canonicalUrl":"https://foursquare.com/v/the-hangar-bar--grill/4b880a5bf964a5201bdb31e3","categoryId":"4bf58dd8d48988d116941735","category":"Bar","checkinsCount":3107,"usersCount":1151,"tipCount":22,"visitsCount":3626,"tier":2,"message":"Moderate","currency":"$","rating":6.8},{"name":"Fletcher's Pub Oakland Drive","phone":"2693425208","twitter":"fletchersoakdr","address":"3013 Oakland Dr","lat":42.26115040070033,"lng":-85.61226546764374,"neighborhood":"Oakland-Winchell","city_fetched":"Kalamazoo,US","state":"MI","country":"United States","canonicalUrl":"https://foursquare.com/v/fletchers-pub-oakland-drive/4b80a138f964a520298230e3","categoryId":"4bf58dd8d48988d11d941735","category":"Sports Bar","checkinsCount":2614,"usersCount":542,"tipCount":12,"visitsCount":2680,"url":"http://www.fletcherspub.com","tier":"","message":"","currency":"","rating":6.7},{"name":"The Grotto at Capone's","phone":"2692767000","address":"2636 W Michigan Ave","lat":42.28156551153937,"lng":-85.6224524974823,"neighborhood":"Western Michigan University-KRPH","city_fetched":"Kalamazoo,US","state":"MI","country":"United States","canonicalUrl":"https://foursquare.com/v/the-grotto-at-capones/4b0c18e9f964a520ce3623e3","categoryId":"4bf58dd8d48988d116941735","category":"Bar","checkinsCount":10259,"usersCount":1680,"tipCount":32,"visitsCount":10393,"url":"http://www.thegrottoatcapones.com","tier":1,"message":"Cheap","currency":"$","rating":6.6},{"name":"Brite Eyes Cafe & Brewhouse","phone":"2692205001","twitter":"briteeyesbrew","address":"1156 S Burdick St","lat":42.27963564631378,"lng":-85.58316005716758,"neighborhood":"Vine","city_fetched":"Kalamazoo,US","state":"MI","country":"United States","canonicalUrl":"https://foursquare.com/v/brite-eyes-cafe--brewhouse/54a61f14498e077a28119a35","categoryId":"50327c8591d4c4b30a586d5d","category":"Brewery","checkinsCount":87,"usersCount":114,"tipCount":0,"visitsCount":155,"tier":"","message":"","currency":"","rating":6.6},{"name":"Library Kitchen & Taphouse","phone":"2693537049","address":"3725 W Michigan Ave","lat":42.276911860998204,"lng":-85.63602447509766,"city_fetched":"Kalamazoo,US","state":"MI","country":"United States","canonicalUrl":"https://foursquare.com/v/library-kitchen--taphouse/4d200da0f7a9a1438fa0299f","categoryId":"4bf58dd8d48988d116941735","category":"Bar","checkinsCount":6086,"usersCount":1596,"tipCount":25,"visitsCount":6535,"tier":1,"message":"Cheap","currency":"$","rating":6.6},{"name":"Little Darlings","phone":"2693445311","address":"1336 Ravine Rd","lat":42.307196158715804,"lng":-85.60447093550324,"city_fetched":"Kalamazoo,US","state":"MI","country":"United States","canonicalUrl":"https://foursquare.com/v/little-darlings/4c2680e4a852c928b2cae66c","categoryId":"4bf58dd8d48988d1d6941735","category":"Strip Club","checkinsCount":587,"usersCount":290,"tipCount":4,"visitsCount":644,"tier":"","message":"","currency":"","rating":6.5},{"name":"Old Burdick's West","phone":"2693721596","twitter":"oldburdicks","address":"2747 S 11th St","lat":42.26448721293656,"lng":-85.65415889024734,"city_fetched":"Kalamazoo,US","state":"MI","country":"United States","canonicalUrl":"https://foursquare.com/v/old-burdicks-west/4c00587834ccc9288f71e1cd","categoryId":"4bf58dd8d48988d1d5941735","category":"Hotel Bar","checkinsCount":1213,"usersCount":678,"tipCount":10,"visitsCount":1219,"url":"http://www.oldburdicks.com","tier":"","message":"","currency":"","rating":6.4},{"name":"Old Burdick's at Wings West","phone":"2694884500","twitter":"oldburdicks","address":"5076 Sports Dr","lat":42.24414996599284,"lng":-85.67464828491211,"city_fetched":"Kalamazoo,US","state":"MI","country":"United States","canonicalUrl":"https://foursquare.com/v/old-burdicks-at-wings-west/4bc4ef3f0969a5930c37636e","categoryId":"4bf58dd8d48988d11d941735","category":"Sports Bar","checkinsCount":1584,"usersCount":663,"tipCount":10,"visitsCount":1839,"url":"http://www.oldburdicks.comâ€Ž","tier":2,"message":"Moderate","currency":"$","rating":6.4},{"name":"Rugger's Up & Under","phone":"2693731412","address":"711 W Michigan Ave","lat":42.29114757541228,"lng":-85.5931131541729,"neighborhood":"Central Business District","city_fetched":"Kalamazoo,US","state":"MI","country":"United States","canonicalUrl":"https://foursquare.com/v/ruggers-up--under/4a8f91eaf964a5207e1520e3","categoryId":"4bf58dd8d48988d11d941735","category":"Sports Bar","checkinsCount":3649,"usersCount":1309,"tipCount":20,"visitsCount":4006,"url":"http://www.upandunderrugbysportspub.com","tier":1,"message":"Cheap","currency":"$","rating":6.3},{"name":"Deja Vu","phone":"2693448104","address":"1336 Ravine Rd","lat":42.30712990353172,"lng":-85.60445084911609,"city_fetched":"Kalamazoo,US","state":"MI","country":"United States","canonicalUrl":"https://foursquare.com/v/deja-vu/4bca9e42b6c49c7471f99091","categoryId":"4bf58dd8d48988d1d6941735","category":"Strip Club","checkinsCount":632,"usersCount":322,"tipCount":3,"visitsCount":672,"url":"http://dejavu-tacoma.com","tier":"","message":"","currency":"","rating":6.3},{"name":"Gallagher's Eatery & Pub","phone":"2693727177","address":"4210 Stadium Dr","lat":42.27113298198827,"lng":-85.64183848333333,"city_fetched":"Kalamazoo,US","state":"MI","country":"United States","canonicalUrl":"https://foursquare.com/v/gallaghers-eatery--pub/4b3e5809f964a5209e9b25e3","categoryId":"4bf58dd8d48988d11b941735","category":"Pub","checkinsCount":2774,"usersCount":1119,"tipCount":15,"visitsCount":2916,"url":"http://gallagherseatery.com","tier":2,"message":"Moderate","currency":"$","rating":5.8},{"name":"Wild Bull","phone":"2699788451","twitter":"wildbullkzoo","address":"139 S Edwards St","lat":42.29188499179203,"lng":-85.57965798491936,"neighborhood":"Central Business District","city_fetched":"Kalamazoo,US","state":"MI","country":"United States","canonicalUrl":"https://foursquare.com/v/wild-bull/4b0c1954f964a520da3623e3","categoryId":"4bf58dd8d48988d116941735","category":"Bar","checkinsCount":4694,"usersCount":1843,"tipCount":22,"visitsCount":4804,"url":"http://www.wildbull.co","tier":2,"message":"Moderate","currency":"$","rating":5.5}]