[{"name":"Hop's Downtown Grill","phone":"4067557687","address":"121 Main St","lat":48.197346953501786,"lng":-114.3131411075592,"city_fetched":"Kalispell,US","state":"MT","country":"United States","canonicalUrl":"https://foursquare.com/v/hops-downtown-grill/4ec96f33754a9223201175b7","categoryId":"4bf58dd8d48988d116941735","category":"Bar","checkinsCount":271,"usersCount":272,"tipCount":11,"visitsCount":328,"url":"http://www.hopsmontana.com","tier":"","message":"","currency":"","rating":8.7},{"name":"Moose's Saloon","phone":"4067552337","address":"173 N Main St","lat":48.20169415381935,"lng":-114.31461276970296,"city_fetched":"Kalispell,US","state":"MT","country":"United States","canonicalUrl":"https://foursquare.com/v/mooses-saloon/4bc69156db8fa5935aa29c37","categoryId":"4bf58dd8d48988d116941735","category":"Bar","checkinsCount":1222,"usersCount":751,"tipCount":25,"visitsCount":1396,"url":"http://www.moosessaloon.com","tier":1,"message":"Cheap","currency":"$","rating":8.4},{"name":"VFW","address":"330 1st Ave W","lat":48.19497421,"lng":-114.31457340717316,"city_fetched":"Kalispell,US","state":"MT","country":"United States","canonicalUrl":"https://foursquare.com/v/vfw/4c5e4ea22815c9288785b767","categoryId":"4bf58dd8d48988d116941735","category":"Bar","checkinsCount":268,"usersCount":86,"tipCount":1,"visitsCount":315,"tier":"","message":"","currency":"","rating":8.1},{"name":"Kalispell Brewing Co.","phone":"4067562739","address":"412 Main St","lat":48.19466838659297,"lng":-114.31257853158408,"city_fetched":"Kalispell,US","state":"MT","country":"United States","canonicalUrl":"https://foursquare.com/v/kalispell-brewing-co/52a28ac2498ee5268f22fc8b","categoryId":"50327c8591d4c4b30a586d5d","category":"Brewery","checkinsCount":344,"usersCount":161,"tipCount":6,"visitsCount":433,"url":"http://www.kalispellbrewing.com","tier":"","message":"","currency":"","rating":8.1},{"name":"Scotty's Bar","phone":"4067526470","address":"2205 US Highway 93 S","lat":48.17799509,"lng":-114.30034307,"city_fetched":"Kalispell,US","state":"MT","country":"United States","canonicalUrl":"https://foursquare.com/v/scottys-bar/4b946dcef964a5201d7934e3","categoryId":"4bf58dd8d48988d116941735","category":"Bar","checkinsCount":522,"usersCount":263,"tipCount":4,"visitsCount":656,"url":"http://scottysbar.com","tier":"","message":"","currency":"","rating":7.8},{"name":"Fatt Boys","phone":"4067528111","address":"1307 US Highway 2","lat":48.1991552,"lng":-114.336887,"city_fetched":"Kalispell,US","state":"MT","country":"United States","canonicalUrl":"https://foursquare.com/v/fatt-boys/4bc6abd804e8b713f069362d","categoryId":"4bf58dd8d48988d116941735","category":"Bar","checkinsCount":752,"usersCount":166,"tipCount":7,"visitsCount":913,"tier":"","message":"","currency":"","rating":7.4},{"name":"Dels","address":"100 Somers Drive","lat":48.08071171641603,"lng":-114.22612946027752,"city_fetched":"Kalispell,US","state":"MT","country":"United States","canonicalUrl":"https://foursquare.com/v/dels/4d928235fa1ef04d892259c7","categoryId":"4bf58dd8d48988d116941735","category":"Bar","checkinsCount":190,"usersCount":120,"tipCount":5,"visitsCount":293,"tier":"","message":"","currency":"","rating":7.3},{"name":"Scoreboard Pub","address":"75 Woodland Park Dr","lat":48.200423,"lng":-114.298592,"city_fetched":"Kalispell,US","state":"MT","country":"United States","canonicalUrl":"https://foursquare.com/v/scoreboard-pub/4c222e49497cb71358e56cd8","categoryId":"4bf58dd8d48988d11b941735","category":"Pub","checkinsCount":97,"usersCount":59,"tipCount":0,"visitsCount":158,"tier":"","message":"","currency":"","rating":6},{"name":"Tree Frog Tavern","phone":"4067563764","address":"1250 US Highway 2 W","lat":48.19933842629199,"lng":-114.33450022420027,"city_fetched":"Kalispell,US","state":"MT","country":"United States","canonicalUrl":"https://foursquare.com/v/tree-frog-tavern/5247617f11d21c70e3f4dd55","categoryId":"4bf58dd8d48988d116941735","category":"Bar","checkinsCount":59,"usersCount":43,"tipCount":4,"visitsCount":64,"tier":"","message":"","currency":"","rating":5.9}]