[{"name":"The Village Pub","phone":"8159397696","address":"235 W Broadway St","lat":41.14244151576713,"lng":-87.86417518489685,"city_fetched":"Kankakee","state":"IL","country":"United States","canonicalUrl":"https://foursquare.com/v/the-village-pub/4c6b66f469b4ef3b233c444e","category":"Bar","checkinsCount":436,"usersCount":126,"tipCount":5,"visitsCount":554,"tier":"","message":"","currency":"","rating":8.2},{"name":"The Looney Bin Tavern","address":"201 S Schuyler Ave","lat":41.14245455,"lng":-87.8599547,"city_fetched":"Kankakee","state":"IL","country":"United States","canonicalUrl":"https://foursquare.com/v/the-looney-bin-tavern/4d607eb429ef236ada39a659","category":"Bar","checkinsCount":155,"usersCount":81,"tipCount":2,"visitsCount":169,"tier":"","message":"","currency":"","rating":7.3},{"name":"Ale House Pub & Eatery","phone":"8156143661","address":"135 N Kinzie Ave","lat":41.14537178918139,"lng":-87.85121262073517,"city_fetched":"Kankakee","state":"IL","country":"United States","canonicalUrl":"https://foursquare.com/v/ale-house-pub--eatery/53251fea498ee054d46ceda6","category":"Pub","checkinsCount":164,"usersCount":89,"tipCount":0,"visitsCount":222,"tier":"","message":"","currency":"","rating":7}]