[{"name":"Kauai Beer Company","phone":"8082452337","twitter":"kauaibeer","address":"4265 Rice St","lat":21.972286047268646,"lng":-159.36471449385047,"city_fetched":"Kapaa,US","state":"HI","country":"United States","canonicalUrl":"https://foursquare.com/kauaibeer","categoryId":"50327c8591d4c4b30a586d5d","category":"Brewery","checkinsCount":669,"usersCount":623,"tipCount":14,"visitsCount":921,"url":"http://www.kauaibeer.com","tier":1,"message":"Cheap","currency":"$","rating":8.3},{"name":"Nawiliwili Tavern","address":"3488 Paena Loop","lat":21.961129,"lng":-159.352542,"city_fetched":"Kapaa,US","state":"HI","country":"United States","canonicalUrl":"https://foursquare.com/v/nawiliwili-tavern/4be7b9ec9a54a593ee2a0911","categoryId":"4bf58dd8d48988d116941735","category":"Bar","checkinsCount":429,"usersCount":242,"tipCount":5,"visitsCount":430,"tier":1,"message":"Cheap","currency":"$","rating":8},{"name":"Rob's Good Times Grill","phone":"8082460311","address":"4303 Rice St","lat":21.972667,"lng":-159.366132,"city_fetched":"Kapaa,US","state":"HI","country":"United States","canonicalUrl":"https://foursquare.com/v/robs-good-times-grill/4bb5ab17f562ef3b072e2f97","categoryId":"4bf58dd8d48988d116941735","category":"Bar","checkinsCount":1008,"usersCount":511,"tipCount":19,"visitsCount":1176,"url":"http://www.kauaisportsbarandgrill.com","tier":"","message":"","currency":"","rating":7.4},{"name":"Duke's Barefoot Bar","address":"3610 Rice St","lat":21.960732899504094,"lng":-159.35156161214354,"city_fetched":"Kapaa,US","state":"HI","country":"United States","canonicalUrl":"https://foursquare.com/v/dukes-barefoot-bar/534306f2498ecfafedc799a0","categoryId":"52e81612bcbc57f1066b7a0d","category":"Beach Bar","checkinsCount":274,"usersCount":218,"tipCount":9,"visitsCount":281,"tier":"","message":"","currency":"","rating":7.3},{"name":"The Sand Bar at Islander on the Beach","lat":22.052776,"lng":-159.327968,"city_fetched":"Kapaa,US","state":"HI","country":"United States","canonicalUrl":"https://foursquare.com/v/the-sand-bar-at-islander-on-the-beach/4c1f0a0db4e62d7f5f24df93","categoryId":"4bf58dd8d48988d116941735","category":"Bar","checkinsCount":428,"usersCount":82,"tipCount":5,"visitsCount":431,"tier":"","message":"","currency":"","rating":6.9},{"name":"Aupaka Terrace","address":"3610 Rice St","lat":21.961593151570874,"lng":-159.34936169048302,"city_fetched":"Kapaa,US","state":"HI","country":"United States","canonicalUrl":"https://foursquare.com/v/aupaka-terrace/4e17d980183880768f3b5ed8","categoryId":"4bf58dd8d48988d116941735","category":"Bar","checkinsCount":305,"usersCount":118,"tipCount":5,"visitsCount":305,"tier":"","message":"","currency":"","rating":6.2},{"name":"Shutters Lounge at Kauai Beach Resort","twitter":"aquahospitality","lat":22.010128198197002,"lng":-159.3382863592354,"city_fetched":"Kapaa,US","state":"HI","country":"United States","canonicalUrl":"https://foursquare.com/v/shutters-lounge-at-kauai-beach-resort/4cd107a99d87224b27a9583b","categoryId":"4bf58dd8d48988d1d5941735","category":"Hotel Bar","checkinsCount":312,"usersCount":179,"tipCount":7,"visitsCount":313,"url":"http://www.aquahospitality.com","tier":"","message":"","currency":"","rating":6.2},{"name":"Mea Inu Bar & Grill","phone":"8082458913","address":"3901 Mokulele Loop","lat":21.97794929814032,"lng":-159.3486691216741,"city_fetched":"Kapaa,US","state":"HI","country":"United States","canonicalUrl":"https://foursquare.com/v/mea-inu-bar--grill/4b4e6d85f964a52067ed26e3","categoryId":"4bf58dd8d48988d116941735","category":"Bar","checkinsCount":789,"usersCount":732,"tipCount":21,"visitsCount":789,"tier":"","message":"","currency":"","rating":5.2}]