[{"name":"Grape Juice","phone":"8307929463","twitter":"grapejuicekerr","address":"623 Water St","lat":30.04660553712108,"lng":-99.1420827805996,"city_fetched":"Kerrville","state":"TX","country":"United States","canonicalUrl":"https://foursquare.com/v/grape-juice/4b75860df964a52089112ee3","category":"American Restaurant","checkinsCount":836,"usersCount":418,"tipCount":25,"visitsCount":1124,"url":"http://grapejuiceonline.com","tier":2,"message":"Moderate","currency":"$","rating":8.1},{"name":"Guadalupe River Club Oyster Bar and Grill","phone":"8308963354","address":"1483 Junction Hwy","lat":30.06344,"lng":-99.17457640171051,"city_fetched":"Kerrville","state":"TX","country":"United States","canonicalUrl":"https://foursquare.com/v/guadalupe-river-club-oyster-bar-and-grill/4dd75b86814d524086167b6f","category":"Bar","checkinsCount":261,"usersCount":130,"tipCount":2,"visitsCount":276,"tier":"","message":"","currency":"","rating":7.5},{"name":"The 'Ol Waterin Hole","phone":"8302574653","address":"1109 Broadway","lat":30.0421142578125,"lng":-99.13557171821594,"city_fetched":"Kerrville","state":"TX","country":"United States","canonicalUrl":"https://foursquare.com/v/the-ol-waterin-hole/4be4fd462457a5937b11ab15","category":"Bar","checkinsCount":235,"usersCount":95,"tipCount":5,"visitsCount":257,"tier":"","message":"","currency":"","rating":6.8},{"name":"Nautilus","address":"2126 Sidney Baker St","lat":30.068795411252342,"lng":-99.11385370786861,"city_fetched":"Kerrville","state":"TX","country":"United States","canonicalUrl":"https://foursquare.com/v/nautilus/4e680d2ad16433b9009ced1b","category":"Bar","checkinsCount":297,"usersCount":60,"tipCount":4,"visitsCount":297,"tier":"","message":"","currency":"","rating":6.3}]