[{"name":"O'Brien's  Pub","lat":55.341004962724334,"lng":-131.64100803794642,"city_fetched":"Ketchikan","state":"AK","country":"United States","canonicalUrl":"https://foursquare.com/v/obriens--pub/5016e968e4b06a029f8a0ce2","category":"Pub","checkinsCount":117,"usersCount":68,"tipCount":5,"visitsCount":117,"tier":"","message":"","currency":"","rating":7.5},{"name":"The Asylum","lat":55.34350971666667,"lng":-131.6509153,"city_fetched":"Ketchikan","state":"AK","country":"United States","canonicalUrl":"https://foursquare.com/v/the-asylum/4bf6ea255ec320a1df0486d3","category":"Bar","checkinsCount":574,"usersCount":286,"tipCount":9,"visitsCount":593,"tier":"","message":"","currency":"","rating":7.4},{"name":"Fat Stan's Lounge & Liquor Store","lat":55.33995393254433,"lng":-131.643833260349,"city_fetched":"Ketchikan","state":"AK","country":"United States","canonicalUrl":"https://foursquare.com/v/fat-stans-lounge--liquor-store/4e232087483b041af1fd96dc","category":"Lounge","checkinsCount":756,"usersCount":304,"tipCount":7,"visitsCount":813,"tier":"","message":"","currency":"","rating":7.4},{"name":"Fish Pirate's Saloon","address":"76 Front St","lat":55.340478656460746,"lng":-131.64592247655696,"city_fetched":"Ketchikan","state":"AK","country":"United States","canonicalUrl":"https://foursquare.com/v/fish-pirates-saloon/4be98908b3352d7f0e1254d2","category":"Piano Bar","checkinsCount":594,"usersCount":587,"tipCount":9,"visitsCount":646,"tier":"","message":"","currency":"","rating":7.3},{"name":"Annabelle's Famous Keg And Chowder House","phone":"9072256009","address":"326 Front St","lat":55.342205261045166,"lng":-131.64818415126618,"city_fetched":"Ketchikan","state":"AK","country":"United States","canonicalUrl":"https://foursquare.com/v/annabelles-famous-keg-and-chowder-house/4ce30b64438b224bdc3180a3","category":"American Restaurant","checkinsCount":922,"usersCount":741,"tipCount":13,"visitsCount":1052,"url":"http://gilmorehotel.com","tier":"","message":"","currency":"","rating":7.2},{"name":"The Arctic Bar","phone":"9072254709","address":"509 Water St","lat":55.343119377280196,"lng":-131.65064359780055,"city_fetched":"Ketchikan","state":"AK","country":"United States","canonicalUrl":"https://foursquare.com/v/the-arctic-bar/4c3109057cc0c9b6743dee9a","category":"Bar","checkinsCount":448,"usersCount":315,"tipCount":2,"visitsCount":450,"url":"http://www.arcticbar.com","tier":"","message":"","currency":"","rating":6.8},{"name":"Sourdough Bar","phone":"9072252217","address":"301 Front St","lat":55.341898784261446,"lng":-131.64781956995992,"city_fetched":"Ketchikan","state":"AK","country":"United States","canonicalUrl":"https://foursquare.com/v/sourdough-bar/4c26f21b905a0f4778406460","category":"Liquor Store","checkinsCount":268,"usersCount":166,"tipCount":4,"visitsCount":277,"tier":"","message":"","currency":"","rating":6.1}]