[{"name":"Captain Tony's Saloon","phone":"3052941838","address":"428 Greene St","lat":24.558899721212704,"lng":-81.80541705746715,"city_fetched":"Key West,US","state":"FL","country":"United States","canonicalUrl":"https://foursquare.com/v/captain-tonys-saloon/4b55c807f964a520bbef27e3","categoryId":"4bf58dd8d48988d11b941735","category":"Pub","checkinsCount":7403,"usersCount":5350,"tipCount":69,"visitsCount":7492,"url":"http://www.capttonyssaloon.com","tier":1,"message":"Cheap","currency":"$","rating":8.9},{"name":"Schooner Wharf Bar","phone":"3052923302","address":"202 William St","lat":24.560941392964647,"lng":-81.80192470550537,"city_fetched":"Key West,US","state":"FL","country":"United States","canonicalUrl":"https://foursquare.com/v/schooner-wharf-bar/4b91d990f964a5207cdb33e3","categoryId":"4bf58dd8d48988d116941735","category":"Bar","checkinsCount":7878,"usersCount":5918,"tipCount":120,"visitsCount":8782,"url":"http://www.schoonerwharf.com","tier":2,"message":"Moderate","currency":"$","rating":8.7},{"name":"Irish Kevin's","phone":"3052921262","address":"211 Duval St","lat":24.55886199531231,"lng":-81.80482450586646,"city_fetched":"Key West,US","state":"FL","country":"United States","canonicalUrl":"https://foursquare.com/v/irish-kevins/4b4ac1fef964a520fb8d26e3","categoryId":"4bf58dd8d48988d116941735","category":"Bar","checkinsCount":11239,"usersCount":7392,"tipCount":93,"visitsCount":11555,"url":"http://www.irishkevins.com","tier":2,"message":"Moderate","currency":"$","rating":8.7},{"name":"Sloppy Joe's Bar","phone":"3052945717","address":"201 Duval St","lat":24.559043271951033,"lng":-81.80508074498394,"city_fetched":"Key West,US","state":"FL","country":"United States","canonicalUrl":"https://foursquare.com/v/sloppy-joes-bar/4b02f479f964a520644b22e3","categoryId":"4bf58dd8d48988d116941735","category":"Bar","checkinsCount":22901,"usersCount":18105,"tipCount":186,"visitsCount":24827,"url":"http://sloppyjoes.com","tier":2,"message":"Moderate","currency":"$","rating":8.7},{"name":"The Porch","phone":"3055176358","address":"429 Caroline St","lat":24.557880592623096,"lng":-81.80448819066629,"city_fetched":"Key West,US","state":"FL","country":"United States","canonicalUrl":"https://foursquare.com/v/the-porch/4c43a4c7f799e21e74d2aca2","categoryId":"4bf58dd8d48988d117941735","category":"Beer Garden","checkinsCount":5076,"usersCount":2554,"tipCount":67,"visitsCount":5184,"url":"http://www.theporchkw.com","tier":2,"message":"Moderate","currency":"$","rating":8.6},{"name":"The Green Parrot","phone":"3052946133","address":"601 Whitehead St","lat":24.554182177726283,"lng":-81.80309486841017,"city_fetched":"Key West,US","state":"FL","country":"United States","canonicalUrl":"https://foursquare.com/v/the-green-parrot/4b395826f964a520035b25e3","categoryId":"4bf58dd8d48988d118941735","category":"Dive Bar","checkinsCount":8883,"usersCount":6496,"tipCount":109,"visitsCount":10651,"url":"http://greenparrot.com","tier":2,"message":"Moderate","currency":"$","rating":8.6},{"name":"The Other Side","lat":24.557737349939597,"lng":-81.80429067149664,"city_fetched":"Key West,US","state":"FL","country":"United States","canonicalUrl":"https://foursquare.com/v/the-other-side/537a78c9498ed3c59ac5100d","categoryId":"4bf58dd8d48988d11e941735","category":"Cocktail Bar","checkinsCount":204,"usersCount":125,"tipCount":2,"visitsCount":209,"tier":"","message":"","currency":"","rating":8.6},{"name":"Vinos On Duval","address":"810 Duval St","lat":24.552618,"lng":-81.800392,"city_fetched":"Key West,US","state":"FL","country":"United States","canonicalUrl":"https://foursquare.com/v/vinos-on-duval/4cafef20db32f04d84d7bb4d","categoryId":"4bf58dd8d48988d123941735","category":"Wine Bar","checkinsCount":1199,"usersCount":800,"tipCount":17,"visitsCount":1318,"url":"http://vinosonduval.com","tier":"","message":"","currency":"","rating":8.6},{"name":"Tree Bar","phone":"3052965513","address":"202 Duval St","lat":24.558784108008183,"lng":-81.80504337683506,"city_fetched":"Key West,US","state":"FL","country":"United States","canonicalUrl":"https://foursquare.com/v/tree-bar/4b7502d8f964a520f4fa2de3","categoryId":"4bf58dd8d48988d116941735","category":"Bar","checkinsCount":1576,"usersCount":624,"tipCount":11,"visitsCount":1578,"tier":"","message":"","currency":"","rating":8.6},{"name":"Cork and Stogie","phone":"3055176419","twitter":"corkandstogie","address":"1218 Duval St","lat":24.54854752141813,"lng":-81.79740582701925,"city_fetched":"Key West,US","state":"FL","country":"United States","canonicalUrl":"https://foursquare.com/corkandstogie","categoryId":"4bf58dd8d48988d117941735","category":"Beer Garden","checkinsCount":958,"usersCount":547,"tipCount":18,"visitsCount":1091,"url":"http://www.corkandstogie.com","tier":"","message":"","currency":"","rating":8.5},{"name":"Hog's Breath Saloon","phone":"3052964222","twitter":"hogsbreathkw","address":"400 Front St","lat":24.559536092857762,"lng":-81.80605764840706,"city_fetched":"Key West,US","state":"FL","country":"United States","canonicalUrl":"https://foursquare.com/v/hogs-breath-saloon/4b343032f964a520ea2525e3","categoryId":"4bf58dd8d48988d116941735","category":"Bar","checkinsCount":13376,"usersCount":10483,"tipCount":105,"visitsCount":14446,"url":"http://hogsbreath.com/keywest/","tier":2,"message":"Moderate","currency":"$","rating":8.4},{"name":"Rum Bar at the Speakeasy Inn","phone":"3052962680","address":"1117 Duval St","lat":24.54970062716891,"lng":-81.79819400750041,"city_fetched":"Key West,US","state":"FL","country":"United States","canonicalUrl":"https://foursquare.com/v/rum-bar-at-the-speakeasy-inn/4bf01271f831c9282f8901f2","categoryId":"4bf58dd8d48988d1d5941735","category":"Hotel Bar","checkinsCount":3176,"usersCount":1863,"tipCount":48,"visitsCount":3597,"url":"http://speakeasyinn.com","tier":2,"message":"Moderate","currency":"$","rating":8.4},{"name":"Aqua","phone":"3052940555","address":"711 Duval St","lat":24.553628580162865,"lng":-81.80109826088665,"city_fetched":"Key West,US","state":"FL","country":"United States","canonicalUrl":"https://foursquare.com/v/aqua/4b78afbdf964a520c9dd2ee3","categoryId":"4bf58dd8d48988d1d8941735","category":"Gay Bar","checkinsCount":4242,"usersCount":2080,"tipCount":28,"visitsCount":4381,"url":"http://aquakeywest.com","tier":"","message":"","currency":"","rating":8.3},{"name":"Shots And Giggles","lat":24.55942329908858,"lng":-81.80449352901485,"city_fetched":"Key West,US","state":"FL","country":"United States","canonicalUrl":"https://foursquare.com/v/shots-and-giggles/4ecac889d3e32939cca5e689","categoryId":"4bf58dd8d48988d116941735","category":"Bar","checkinsCount":483,"usersCount":281,"tipCount":11,"visitsCount":494,"tier":"","message":"","currency":"","rating":8.3},{"name":"BottleCap","phone":"3052962807","twitter":"bottlecapkw","address":"1128 Simonton St","lat":24.55003,"lng":-81.7968,"city_fetched":"Key West,US","state":"FL","country":"United States","canonicalUrl":"https://foursquare.com/v/bottlecap/4b74d05ef964a5207ff32de3","categoryId":"4bf58dd8d48988d118941735","category":"Dive Bar","checkinsCount":877,"usersCount":437,"tipCount":8,"visitsCount":899,"url":"http://www.bottlecapkeywest.com","tier":1,"message":"Cheap","currency":"$","rating":8.2},{"name":"Fogarty's and Flying Monkey's","phone":"3052947525","twitter":"fogartyskw","address":"227 Duval St","lat":24.558216417415736,"lng":-81.80450230836868,"city_fetched":"Key West,US","state":"FL","country":"United States","canonicalUrl":"https://foursquare.com/fogartyskw","categoryId":"4bf58dd8d48988d116941735","category":"Bar","checkinsCount":11607,"usersCount":7931,"tipCount":139,"visitsCount":11912,"url":"http://www.fogartysofkeywest.com","tier":2,"message":"Moderate","currency":"$","rating":8.2},{"name":"Chicagos","address":"610 Greene St","lat":24.56014646731505,"lng":-81.80342051314636,"city_fetched":"Key West,US","state":"FL","country":"United States","canonicalUrl":"https://foursquare.com/v/chicagos/54e54f62498e179cb1bd272b","categoryId":"4bf58dd8d48988d122941735","category":"Whisky Bar","checkinsCount":75,"usersCount":67,"tipCount":6,"visitsCount":95,"tier":"","message":"","currency":"","rating":8.1},{"name":"Shores Bar","address":"508 South St","lat":24.547214808861213,"lng":-81.79529497820145,"city_fetched":"Key West,US","state":"FL","country":"United States","canonicalUrl":"https://foursquare.com/v/shores-bar/4ddac4ce1f6ec500df5a21ae","categoryId":"4bf58dd8d48988d11e941735","category":"Cocktail Bar","checkinsCount":228,"usersCount":135,"tipCount":2,"visitsCount":228,"tier":"","message":"","currency":"","rating":8.1},{"name":"Chart Room","address":"Pier House","lat":24.56115991778599,"lng":-81.8060843395748,"city_fetched":"Key West,US","state":"FL","country":"United States","canonicalUrl":"https://foursquare.com/v/chart-room/4c0ebc1a1281c9b6a97c1d1d","categoryId":"4bf58dd8d48988d1d4941735","category":"Speakeasy","checkinsCount":626,"usersCount":375,"tipCount":10,"visitsCount":680,"tier":"","message":"","currency":"","rating":8.1},{"name":"Agave 308 Tequila Bar","address":"308 Front St","lat":24.559039,"lng":-81.806384,"city_fetched":"Key West,US","state":"FL","country":"United States","canonicalUrl":"https://foursquare.com/v/agave-308-tequila-bar/50887d1ae4b07178d07a07e1","categoryId":"4bf58dd8d48988d11e941735","category":"Cocktail Bar","checkinsCount":504,"usersCount":357,"tipCount":14,"visitsCount":513,"tier":2,"message":"Moderate","currency":"$","rating":8},{"name":"Jack Flats","phone":"3052947955","address":"509 Duval St","lat":24.555703630093575,"lng":-81.80239677429199,"city_fetched":"Key West,US","state":"FL","country":"United States","canonicalUrl":"https://foursquare.com/v/jack-flats/4b68522af964a52085712be3","categoryId":"4bf58dd8d48988d11d941735","category":"Sports Bar","checkinsCount":5570,"usersCount":3277,"tipCount":77,"visitsCount":5805,"url":"http://jackflatskw.com","tier":2,"message":"Moderate","currency":"$","rating":8},{"name":"Bottlecap Groove Lounge","phone":"3052962807","twitter":"bottlecapkw","address":"1128 Simonton St","lat":24.550075291725822,"lng":-81.79681777954102,"city_fetched":"Key West,US","state":"FL","country":"United States","canonicalUrl":"https://foursquare.com/v/bottlecap-groove-lounge/4c903179352da1cdb4e50fb2","categoryId":"4bf58dd8d48988d116941735","category":"Bar","checkinsCount":841,"usersCount":306,"tipCount":8,"visitsCount":847,"url":"http://bottlecapkeywest.com","tier":"","message":"","currency":"","rating":7.9},{"name":"Tattoos & Scars Saloon","phone":"3055176610","address":"512 Greene St","lat":24.559586,"lng":-81.804378,"city_fetched":"Key West,US","state":"FL","country":"United States","canonicalUrl":"https://foursquare.com/v/tattoos--scars-saloon/4e738f73b0fb38bb72f363f6","categoryId":"4bf58dd8d48988d116941735","category":"Bar","checkinsCount":2522,"usersCount":950,"tipCount":11,"visitsCount":2537,"url":"http://www.tattoosandscarssaloon.com","tier":1,"message":"Cheap","currency":"$","rating":7.9},{"name":"Rum Barrel Bar & Grill","phone":"3052927862","twitter":"rumbarrelbar","address":"528 Front St","lat":24.560914449715618,"lng":-81.80484585916044,"city_fetched":"Key West,US","state":"FL","country":"United States","canonicalUrl":"https://foursquare.com/v/rum-barrel-bar--grill/4b7060c6f964a5207c162de3","categoryId":"4bf58dd8d48988d116941735","category":"Bar","checkinsCount":4441,"usersCount":3546,"tipCount":58,"visitsCount":5028,"url":"http://www.rumbarrel.com","tier":2,"message":"Moderate","currency":"$","rating":7.9},{"name":"Lagerheads","phone":"3055097444","address":"1 Simonton st","lat":24.561887741088867,"lng":-81.80562591552734,"city_fetched":"Key West,US","state":"FL","country":"United States","canonicalUrl":"https://foursquare.com/v/lagerheads/52ad0f5d498ef10d89c34064","categoryId":"52e81612bcbc57f1066b7a0d","category":"Beach Bar","checkinsCount":148,"usersCount":108,"tipCount":7,"visitsCount":150,"tier":2,"message":"Moderate","currency":"$","rating":7.9},{"name":"Fat Tuesday","phone":"3052969373","address":"305 Duval St","lat":24.557889513953285,"lng":-81.80423945188522,"city_fetched":"Key West,US","state":"FL","country":"United States","canonicalUrl":"https://foursquare.com/v/fat-tuesday/4b3c3232f964a520cc8225e3","categoryId":"4bf58dd8d48988d11e941735","category":"Cocktail Bar","checkinsCount":10665,"usersCount":7396,"tipCount":77,"visitsCount":10814,"url":"http://www.fattuesdaykeywest.com","tier":2,"message":"Moderate","currency":"$","rating":7.9},{"name":"wineO","lat":24.556216684323697,"lng":-81.8030094531581,"city_fetched":"Key West,US","state":"FL","country":"United States","canonicalUrl":"https://foursquare.com/v/wineo/532cd866498ec8516346b620","categoryId":"4bf58dd8d48988d123941735","category":"Wine Bar","checkinsCount":195,"usersCount":171,"tipCount":3,"visitsCount":197,"tier":"","message":"","currency":"","rating":7.8},{"name":"Don's Place","phone":"3052968837","address":"1000 Truman Ave","lat":24.554722897496877,"lng":-81.79322361946106,"city_fetched":"Key West,US","state":"FL","country":"United States","canonicalUrl":"https://foursquare.com/v/dons-place/4ba1d469f964a52035ce37e3","categoryId":"4bf58dd8d48988d118941735","category":"Dive Bar","checkinsCount":1045,"usersCount":357,"tipCount":1,"visitsCount":1073,"url":"http://donsplacekeywest.com","tier":"","message":"","currency":"","rating":7.8},{"name":"Sunset Tiki Bar & Grille","address":"617 Front St","lat":24.562470366666666,"lng":-81.80449962615967,"city_fetched":"Key West,US","state":"FL","country":"United States","canonicalUrl":"https://foursquare.com/v/sunset-tiki-bar--grille/4d26240695e8f04d8b1c404d","categoryId":"4bf58dd8d48988d11e941735","category":"Cocktail Bar","checkinsCount":1179,"usersCount":635,"tipCount":7,"visitsCount":1266,"url":"http://sunset-tiki.com","tier":"","message":"","currency":"","rating":7.7},{"name":"Bobby's Monkey Bar","address":"900 Simonton St","lat":24.552742847535796,"lng":-81.79865314344204,"city_fetched":"Key West,US","state":"FL","country":"United States","canonicalUrl":"https://foursquare.com/v/bobbys-monkey-bar/4b73651ff964a52064ac2de3","categoryId":"4bf58dd8d48988d120941735","category":"Karaoke Bar","checkinsCount":1053,"usersCount":657,"tipCount":12,"visitsCount":1316,"tier":"","message":"","currency":"","rating":7.7},{"name":"Lazy Gecko Bar","phone":"3052921903","address":"203 Duval St","lat":24.558929111346966,"lng":-81.8049899937322,"city_fetched":"Key West,US","state":"FL","country":"United States","canonicalUrl":"https://foursquare.com/v/lazy-gecko-bar/4b3548e9f964a520ea2b25e3","categoryId":"4bf58dd8d48988d116941735","category":"Bar","checkinsCount":7320,"usersCount":3281,"tipCount":46,"visitsCount":7334,"url":"http://www.thelazygecko.com","tier":1,"message":"Cheap","currency":"$","rating":7.6},{"name":"Pearl's Patio","phone":"3052921450","twitter":"pearlskeywest","address":"525 United St","lat":24.548908,"lng":-81.796778,"city_fetched":"Key West,US","state":"FL","country":"United States","canonicalUrl":"https://foursquare.com/pearlskeywest","categoryId":"4bf58dd8d48988d116941735","category":"Bar","checkinsCount":760,"usersCount":243,"tipCount":4,"visitsCount":760,"url":"http://www.pearlspatio.com","tier":"","message":"","currency":"","rating":7.6},{"name":"Pineapple Bar","address":"1319 Duval St","lat":24.5482,"lng":-81.79624,"city_fetched":"Key West,US","state":"FL","country":"United States","canonicalUrl":"https://foursquare.com/v/pineapple-bar/4f241180e4b04f6e68c32c91","categoryId":"4bf58dd8d48988d116941735","category":"Bar","checkinsCount":252,"usersCount":151,"tipCount":1,"visitsCount":252,"tier":"","message":"","currency":"","rating":7.6},{"name":"Garden Bar","address":"Duval Street","lat":24.552712,"lng":-81.801189,"city_fetched":"Key West,US","state":"FL","country":"United States","canonicalUrl":"https://foursquare.com/v/garden-bar/4d39b016bf6d548125cec5e1","categoryId":"4bf58dd8d48988d1d8941735","category":"Gay Bar","checkinsCount":712,"usersCount":131,"tipCount":1,"visitsCount":721,"tier":"","message":"","currency":"","rating":7.5},{"name":"801 Bourbon Bar","phone":"3052944737","twitter":"801keywest","address":"801 Duval St","lat":24.552880953607364,"lng":-81.80046021938324,"city_fetched":"Key West,US","state":"FL","country":"United States","canonicalUrl":"https://foursquare.com/v/801-bourbon-bar/4b19d5def964a52014e523e3","categoryId":"4bf58dd8d48988d1d8941735","category":"Gay Bar","checkinsCount":6792,"usersCount":2626,"tipCount":33,"visitsCount":6994,"url":"http://www.801bourbon.com","tier":2,"message":"Moderate","currency":"$","rating":7.5},{"name":"Waterfront Brewery","address":"201 William St","lat":24.56131750565924,"lng":-81.80109292229103,"city_fetched":"Key West,US","state":"FL","country":"United States","canonicalUrl":"https://foursquare.com/v/waterfront-brewery/55e76dd2498e0eda781b2d2b","categoryId":"50327c8591d4c4b30a586d5d","category":"Brewery","checkinsCount":710,"usersCount":778,"tipCount":7,"visitsCount":1088,"tier":"","message":"","currency":"","rating":7.5},{"name":"Durty Harry's","address":"208 Duval St","lat":24.558633419458655,"lng":-81.8053316449191,"city_fetched":"Key West,US","state":"FL","country":"United States","canonicalUrl":"https://foursquare.com/v/durty-harrys/4c031b7d9a7920a1a886cf79","categoryId":"4bf58dd8d48988d116941735","category":"Bar","checkinsCount":3251,"usersCount":2247,"tipCount":28,"visitsCount":3258,"url":"http://ricksbarkeywest.com","tier":"","message":"","currency":"","rating":7.5},{"name":"Bourbon St Pub","phone":"3052961992","address":"724 Duval St","lat":24.55300020330271,"lng":-81.8008313306296,"city_fetched":"Key West,US","state":"FL","country":"United States","canonicalUrl":"https://foursquare.com/v/bourbon-st-pub/4b19df10f964a52086e523e3","categoryId":"4bf58dd8d48988d1d8941735","category":"Gay Bar","checkinsCount":5577,"usersCount":2518,"tipCount":32,"visitsCount":5977,"tier":2,"message":"Moderate","currency":"$","rating":7.4},{"name":"Casa Marina Outside Bar","address":"1500 Reynolds St","lat":24.54736,"lng":-81.790199,"city_fetched":"Key West,US","state":"FL","country":"United States","canonicalUrl":"https://foursquare.com/v/casa-marina-outside-bar/4c897e5752a98cfac99424e9","categoryId":"4bf58dd8d48988d11e941735","category":"Cocktail Bar","checkinsCount":812,"usersCount":533,"tipCount":9,"visitsCount":813,"tier":"","message":"","currency":"","rating":7.4},{"name":"Rick's Bar","phone":"3052921421","address":"208 Duval St","lat":24.55878101984745,"lng":-81.80517149612339,"city_fetched":"Key West,US","state":"FL","country":"United States","canonicalUrl":"https://foursquare.com/v/ricks-bar/4b02f408f964a520604b22e3","categoryId":"4bf58dd8d48988d116941735","category":"Bar","checkinsCount":8991,"usersCount":5334,"tipCount":43,"visitsCount":9013,"tier":2,"message":"Moderate","currency":"$","rating":7.4},{"name":"Krawl Off Duval","phone":"3057354146","address":"506 Southard St","lat":24.55505487307365,"lng":-81.80170151969028,"city_fetched":"Key West,US","state":"FL","country":"United States","canonicalUrl":"https://foursquare.com/v/krawl-off-duval/4db09b77cda14b702a34dfb2","categoryId":"4bf58dd8d48988d116941735","category":"Bar","checkinsCount":1260,"usersCount":748,"tipCount":17,"visitsCount":1268,"tier":"","message":"","currency":"","rating":7.4},{"name":"Saloon 1 Bar","phone":"3052944737","address":"801 Duval St.","lat":24.552752138506047,"lng":-81.80042266845703,"city_fetched":"Key West,US","state":"FL","country":"United States","canonicalUrl":"https://foursquare.com/v/saloon-1-bar/4c70aca1d7fab1f726765fc9","categoryId":"4bf58dd8d48988d1d8941735","category":"Gay Bar","checkinsCount":778,"usersCount":273,"tipCount":2,"visitsCount":785,"tier":"","message":"","currency":"","rating":7.3},{"name":"JDL's Big Ten Pub","phone":"3052946277","lat":24.561344422407206,"lng":-81.79903219536878,"city_fetched":"Key West,US","state":"FL","country":"United States","canonicalUrl":"https://foursquare.com/v/jdls-big-ten-pub/4f231b72e4b0c41c513bf796","categoryId":"4bf58dd8d48988d11b941735","category":"Pub","checkinsCount":625,"usersCount":393,"tipCount":17,"visitsCount":644,"tier":"","message":"","currency":"","rating":7.3},{"name":"Orchid Bar @ Orchid Key Inn.","phone":"3052969915","address":"1004 Duval St","lat":24.550648258632705,"lng":-81.79948598735399,"city_fetched":"Key West,US","state":"FL","country":"United States","canonicalUrl":"https://foursquare.com/v/orchid-bar--orchid-key-inn/4eee552e77c82b92f90d62a2","categoryId":"4bf58dd8d48988d11e941735","category":"Cocktail Bar","checkinsCount":178,"usersCount":101,"tipCount":3,"visitsCount":179,"tier":"","message":"","currency":"","rating":7.2},{"name":"Island Dogs Bar","phone":"3055097136","twitter":"islanddogsbar","address":"505 Front St","lat":24.560594980379587,"lng":-81.80555641651154,"city_fetched":"Key West,US","state":"FL","country":"United States","canonicalUrl":"https://foursquare.com/v/island-dogs-bar/4b7f5087f964a520022730e3","categoryId":"4bf58dd8d48988d116941735","category":"Bar","checkinsCount":3449,"usersCount":2365,"tipCount":52,"visitsCount":3472,"url":"http://islanddogsbar.com","tier":"","message":"","currency":"","rating":7.2},{"name":"Rumor Lounge","lat":24.5589871993743,"lng":-81.80535299806542,"city_fetched":"Key West,US","state":"FL","country":"United States","canonicalUrl":"https://foursquare.com/v/rumor-lounge/4fe53956e4b0c9ca89861766","categoryId":"4bf58dd8d48988d121941735","category":"Lounge","checkinsCount":622,"usersCount":359,"tipCount":6,"visitsCount":622,"tier":"","message":"","currency":"","rating":7.2},{"name":"Tiki Bar Inn at Key West","address":"3420 N Roosevelt Blvd","lat":24.571149,"lng":-81.76196,"city_fetched":"Key West,US","state":"FL","country":"United States","canonicalUrl":"https://foursquare.com/v/tiki-bar-inn-at-key-west/4d2619af83ee6ea82bfd44e7","categoryId":"4bf58dd8d48988d1d5941735","category":"Hotel Bar","checkinsCount":240,"usersCount":165,"tipCount":4,"visitsCount":240,"tier":"","message":"","currency":"","rating":7.2},{"name":"Pool Bar at Bourbon Complex","address":"724 Duval St","lat":24.5528507,"lng":-81.80100730000001,"city_fetched":"Key West,US","state":"FL","country":"United States","canonicalUrl":"https://foursquare.com/v/pool-bar-at-bourbon-complex/4d589b4436d1721ea0fbf8b1","categoryId":"4bf58dd8d48988d1d8941735","category":"Gay Bar","checkinsCount":1010,"usersCount":333,"tipCount":6,"visitsCount":1014,"tier":"","message":"","currency":"","rating":7.1},{"name":"Garden Of Eden Bar","phone":"3052964565","address":"224 Duval St","lat":24.55817541298373,"lng":-81.80461631092437,"city_fetched":"Key West,US","state":"FL","country":"United States","canonicalUrl":"https://foursquare.com/v/garden-of-eden-bar/4b9c5915f964a520976136e3","categoryId":"4bf58dd8d48988d1d4941735","category":"Speakeasy","checkinsCount":2398,"usersCount":1913,"tipCount":24,"visitsCount":2406,"tier":2,"message":"Moderate","currency":"$","rating":7.1},{"name":"Red Garter Saloon","address":"208 Duval St","lat":24.558612618153997,"lng":-81.80512345141649,"city_fetched":"Key West,US","state":"FL","country":"United States","canonicalUrl":"https://foursquare.com/v/red-garter-saloon/4b3c3473f964a520e78225e3","categoryId":"4bf58dd8d48988d1d6941735","category":"Strip Club","checkinsCount":1496,"usersCount":752,"tipCount":10,"visitsCount":1497,"tier":"","message":"","currency":"","rating":7.1},{"name":"Navigator's Bar NAS Key West","lat":24.575227529702826,"lng":-81.70821750277717,"city_fetched":"Key West,US","state":"FL","country":"United States","canonicalUrl":"https://foursquare.com/v/navigators-bar-nas-key-west/4c0684be5753c928d7033bf1","categoryId":"4bf58dd8d48988d116941735","category":"Bar","checkinsCount":240,"usersCount":148,"tipCount":3,"visitsCount":284,"tier":"","message":"","currency":"","rating":7.1},{"name":"801 Cabaret Lounge","address":"803 Duval St","lat":24.55289038,"lng":-81.800531,"city_fetched":"Key West,US","state":"FL","country":"United States","canonicalUrl":"https://foursquare.com/v/801-cabaret-lounge/4c8ad3a71797236aaf7d6588","categoryId":"4bf58dd8d48988d1d8941735","category":"Gay Bar","checkinsCount":843,"usersCount":422,"tipCount":12,"visitsCount":847,"tier":"","message":"","currency":"","rating":7.1},{"name":"Shanna Key Irish Pub and Grill","phone":"3052958880","address":"1900 Flagler Ave","lat":24.555132302238796,"lng":-81.77969271173546,"city_fetched":"Key West,US","state":"FL","country":"United States","canonicalUrl":"https://foursquare.com/v/shanna-key-irish-pub-and-grill/4c37b96c2c8020a139988900","categoryId":"4bf58dd8d48988d11b941735","category":"Pub","checkinsCount":1475,"usersCount":502,"tipCount":11,"visitsCount":1672,"url":"http://www.shannakeyirishpub.com","tier":"","message":"","currency":"","rating":7},{"name":"Smallest Bar","phone":"3052948507","address":"124 Duval St","lat":24.559408985624582,"lng":-81.80550780819047,"city_fetched":"Key West,US","state":"FL","country":"United States","canonicalUrl":"https://foursquare.com/v/smallest-bar/4b9ae5c2f964a520c1e035e3","categoryId":"4bf58dd8d48988d116941735","category":"Bar","checkinsCount":2956,"usersCount":2568,"tipCount":28,"visitsCount":3010,"url":"http://oldcustomshouse.com","tier":"","message":"","currency":"","rating":6.9},{"name":"Turtle Kraals Tower Bar","lat":24.561610402686036,"lng":-81.80074591274226,"city_fetched":"Key West,US","state":"FL","country":"United States","canonicalUrl":"https://foursquare.com/v/turtle-kraals-tower-bar/511a8936e4b0dd11c91de1eb","categoryId":"4bf58dd8d48988d116941735","category":"Bar","checkinsCount":127,"usersCount":110,"tipCount":3,"visitsCount":127,"tier":"","message":"","currency":"","rating":6.8},{"name":"Conch Town Liquor & Lounge","phone":"3052964343","address":"3340 N Roosevelt Blvd","lat":24.57089912574056,"lng":-81.76354765892029,"city_fetched":"Key West,US","state":"FL","country":"United States","canonicalUrl":"https://foursquare.com/v/conch-town-liquor--lounge/4d4b366d3c1aa0930b8ec38f","categoryId":"4bf58dd8d48988d116941735","category":"Bar","checkinsCount":2060,"usersCount":227,"tipCount":8,"visitsCount":2066,"url":"http://conchtownliquorkeywest.com","tier":"","message":"","currency":"","rating":6.8},{"name":"Beach Bar & Grill at the Pier House","phone":"3052964600","address":"1 Duval St","lat":24.561549749462095,"lng":-81.80627651569579,"city_fetched":"Key West,US","state":"FL","country":"United States","canonicalUrl":"https://foursquare.com/v/beach-bar--grill-at-the-pier-house/4b9ac2cef964a52043d335e3","categoryId":"4bf58dd8d48988d116941735","category":"Bar","checkinsCount":444,"usersCount":284,"tipCount":3,"visitsCount":450,"tier":"","message":"","currency":"","rating":6.8},{"name":"The Top Bar","lat":24.556196,"lng":-81.80327955,"city_fetched":"Key West,US","state":"FL","country":"United States","canonicalUrl":"https://foursquare.com/v/the-top-bar/4bbd0d5fa8cf76b0cd55b1fd","categoryId":"4bf58dd8d48988d116941735","category":"Bar","checkinsCount":216,"usersCount":180,"tipCount":6,"visitsCount":216,"tier":"","message":"","currency":"","rating":6.7},{"name":"90 Mile Lounge","address":"300 Front St","lat":24.558776487596,"lng":-81.80653808794017,"city_fetched":"Key West,US","state":"FL","country":"United States","canonicalUrl":"https://foursquare.com/v/90-mile-lounge/50e5df56e4b0092c677eee2f","categoryId":"4bf58dd8d48988d121941735","category":"Lounge","checkinsCount":323,"usersCount":231,"tipCount":8,"visitsCount":326,"tier":"","message":"","currency":"","rating":6.6},{"name":"Se√±or Frog's","address":"221 Duval St","lat":24.55855729383187,"lng":-81.80464834095393,"city_fetched":"Key West,US","state":"FL","country":"United States","canonicalUrl":"https://foursquare.com/v/se%C3%B1or-frogs/56b3a99d498e4ff51acb296b","categoryId":"4bf58dd8d48988d116941735","category":"Bar","checkinsCount":131,"usersCount":126,"tipCount":1,"visitsCount":141,"tier":"","message":"","currency":"","rating":6.5},{"name":"Cowboy Bills Honky Tonk Saloon","phone":"3054402605","address":"618 Duval St","lat":24.55411119568803,"lng":-81.80187235314055,"city_fetched":"Key West,US","state":"FL","country":"United States","canonicalUrl":"https://foursquare.com/v/cowboy-bills-honky-tonk-saloon/4b55fd85f964a520b2fa27e3","categoryId":"4bf58dd8d48988d116941735","category":"Bar","checkinsCount":4014,"usersCount":2442,"tipCount":31,"visitsCount":4117,"url":"http://www.cowboybillskw.com","tier":"","message":"","currency":"","rating":6.3},{"name":"Blue Bar Pool Bar & Grill","lat":24.571409969952214,"lng":-81.75229797467979,"city_fetched":"Key West,US","state":"FL","country":"United States","canonicalUrl":"https://foursquare.com/v/blue-bar-pool-bar--grill/4c6419fa69a1c9b6d6b53ca4","categoryId":"4bf58dd8d48988d1d5941735","category":"Hotel Bar","checkinsCount":363,"usersCount":199,"tipCount":5,"visitsCount":367,"tier":"","message":"","currency":"","rating":6.3},{"name":"Seadog Tavern","lat":24.55372535157715,"lng":-81.80166948837406,"city_fetched":"Key West,US","state":"FL","country":"United States","canonicalUrl":"https://foursquare.com/v/seadog-tavern/52b8afae11d24e2f487c4e24","categoryId":"4bf58dd8d48988d11e941735","category":"Cocktail Bar","checkinsCount":102,"usersCount":73,"tipCount":4,"visitsCount":102,"tier":"","message":"","currency":"","rating":6.1},{"name":"Bare Assets","phone":"3052963979","address":"1029 Truman Ave","lat":24.555363892728206,"lng":-81.7926254208774,"city_fetched":"Key West,US","state":"FL","country":"United States","canonicalUrl":"https://foursquare.com/v/bare-assets/4c68189a1c91a593cd19ef07","categoryId":"4bf58dd8d48988d1d6941735","category":"Strip Club","checkinsCount":662,"usersCount":426,"tipCount":4,"visitsCount":794,"url":"http://bareassetskeywest.com","tier":"","message":"","currency":"","rating":6},{"name":"Last Call Beach Bar","address":"EYW Airport","lat":24.553777066861162,"lng":-81.7548674989851,"city_fetched":"Key West,US","state":"FL","country":"United States","canonicalUrl":"https://foursquare.com/v/last-call-beach-bar/4c9f3cb246978cfabf0ba97f","categoryId":"4bf58dd8d48988d116941735","category":"Bar","checkinsCount":1211,"usersCount":973,"tipCount":12,"visitsCount":1213,"tier":"","message":"","currency":"","rating":6},{"name":"Coyote Ugly Saloon - Key West","phone":"3052948459","twitter":"coyotelil","address":"218 Duval St","lat":24.558328637810806,"lng":-81.80485635995865,"city_fetched":"Key West,US","state":"FL","country":"United States","canonicalUrl":"https://foursquare.com/v/coyote-ugly-saloon--key-west/504000fee4b0b5223d014293","categoryId":"4bf58dd8d48988d122941735","category":"Whisky Bar","checkinsCount":1584,"usersCount":1348,"tipCount":13,"visitsCount":1599,"url":"http://www.coyoteuglysaloon.com","tier":2,"message":"Moderate","currency":"$","rating":5.9},{"name":"Mad Rooster","address":"221 Duval St","lat":24.558426,"lng":-81.804667,"city_fetched":"Key West,US","state":"FL","country":"United States","canonicalUrl":"https://foursquare.com/v/mad-rooster/4e740f8b483b0cf5ec222b9a","categoryId":"4bf58dd8d48988d116941735","category":"Bar","checkinsCount":629,"usersCount":574,"tipCount":17,"visitsCount":629,"tier":"","message":"","currency":"","rating":5.9}]