[{"name":"TRiO","phone":"2522610277","address":"3708 N Croatan Hwy Unit 1","lat":36.05956013470047,"lng":-75.68983737320889,"city_fetched":"Kill Devil Hills,US","state":"NC","country":"United States","canonicalUrl":"https://foursquare.com/v/trio/4e41989752b14b4dca4b2ccd","categoryId":"4bf58dd8d48988d123941735","category":"Wine Bar","checkinsCount":1338,"usersCount":891,"tipCount":29,"visitsCount":1691,"url":"http://obxtrio.com","tier":2,"message":"Moderate","currency":"$","rating":9},{"name":"Outer Banks Brewing Station","phone":"2524492739","twitter":"obxbrew","address":"600 South Croatan Highway","lat":36.03888,"lng":-75.67602,"city_fetched":"Kill Devil Hills,US","state":"NC","country":"United States","canonicalUrl":"https://foursquare.com/obxbrew","categoryId":"50327c8591d4c4b30a586d5d","category":"Brewery","checkinsCount":6506,"usersCount":5085,"tipCount":117,"visitsCount":7339,"url":"https://www.obbrewing.com/#BNOOrr","tier":1,"message":"Cheap","currency":"$","rating":8.8},{"name":"Lucky 12 Tavern","phone":"2522555825","address":"3308 S Virginia Dare Trl","lat":35.97418,"lng":-75.63392733333333,"city_fetched":"Kill Devil Hills,US","state":"NC","country":"United States","canonicalUrl":"https://foursquare.com/v/lucky-12-tavern/4bc15b1cb492d13aad0ca660","categoryId":"4bf58dd8d48988d116941735","category":"Bar","checkinsCount":1916,"usersCount":1323,"tipCount":36,"visitsCount":2428,"url":"http://lucky12tavern.com","tier":"","message":"","currency":"","rating":8.7},{"name":"Red Drum Grille & Taphouse","phone":"2524801095","address":"2412 S Virginia Dare Trl","lat":35.98840835,"lng":-75.6422,"city_fetched":"Kill Devil Hills,US","state":"NC","country":"United States","canonicalUrl":"https://foursquare.com/v/red-drum-grille--taphouse/4c9402836b35a143857c17dc","categoryId":"4bf58dd8d48988d11b941735","category":"Pub","checkinsCount":1153,"usersCount":971,"tipCount":31,"visitsCount":1399,"url":"http://reddrumtaphouse.com","tier":2,"message":"Moderate","currency":"$","rating":7.9},{"name":"Mulligan's","phone":"2524802000","address":"4005 S Croatan Hwy","lat":35.95656573068229,"lng":-75.62490894127401,"city_fetched":"Kill Devil Hills,US","state":"NC","country":"United States","canonicalUrl":"https://foursquare.com/v/mulligans/4ba17a85f964a52080ba37e3","categoryId":"4bf58dd8d48988d116941735","category":"Bar","checkinsCount":2392,"usersCount":1763,"tipCount":51,"visitsCount":2677,"url":"http://mulligansobx.com","tier":2,"message":"Moderate","currency":"$","rating":7.7},{"name":"Port O' Call","phone":"2524417484","address":"504 S Virginia Dare Trl","lat":36.01169274,"lng":-75.656276,"city_fetched":"Kill Devil Hills,US","state":"NC","country":"United States","canonicalUrl":"https://foursquare.com/v/port-o-call/4bc8f274937ca59325d9a492","categoryId":"4bf58dd8d48988d116941735","category":"Bar","checkinsCount":641,"usersCount":573,"tipCount":12,"visitsCount":708,"url":"http://obxportocall.com","tier":"","message":"","currency":"","rating":6.4},{"name":"Thumpers","lat":35.98559129903915,"lng":-75.63992777191352,"city_fetched":"Kill Devil Hills,US","state":"NC","country":"United States","canonicalUrl":"https://foursquare.com/v/thumpers/504aa98de4b073cb1515efb7","categoryId":"4bf58dd8d48988d116941735","category":"Bar","checkinsCount":109,"usersCount":91,"tipCount":5,"visitsCount":126,"tier":"","message":"","currency":"","rating":6.2},{"name":"BK Shuckers","phone":"2522617800","address":"2040 N Croatan Hwy.","lat":36.07126235961914,"lng":-75.69740295410156,"city_fetched":"Kill Devil Hills,US","state":"NC","country":"United States","canonicalUrl":"https://foursquare.com/v/bk-shuckers/519ad3be498e7868f57e89b6","categoryId":"4bf58dd8d48988d116941735","category":"Bar","checkinsCount":269,"usersCount":252,"tipCount":9,"visitsCount":310,"tier":"","message":"","currency":"","rating":5.9},{"name":"Mexi Cali Brewz Cantina & Spirits","phone":"2524800069","address":"1200 S Virginia Dare Trl","lat":36.00561713069429,"lng":-75.65257012410015,"city_fetched":"Kill Devil Hills,US","state":"NC","country":"United States","canonicalUrl":"https://foursquare.com/v/mexi-cali-brewz-cantina--spirits/4c09b672009a0f47cc55e8bf","categoryId":"4bf58dd8d48988d116941735","category":"Bar","checkinsCount":446,"usersCount":314,"tipCount":10,"visitsCount":446,"tier":"","message":"","currency":"","rating":5.8}]