[{"name":"The Shed","address":"212 Royal St","lat":30.942418215972236,"lng":-97.53413543479503,"city_fetched":"Killeen,US","state":"TX","country":"United States","canonicalUrl":"https://foursquare.com/v/the-shed/50036e83e4b07c8ae9dfdb3a","categoryId":"4bf58dd8d48988d118941735","category":"Dive Bar","checkinsCount":169,"usersCount":208,"tipCount":6,"visitsCount":300,"tier":"","message":"","currency":"","rating":8.5},{"name":"Carolina Ale House","phone":"2545018545","address":"3124 E Central Texas Expy","lat":31.085834129707017,"lng":-97.71181351481823,"city_fetched":"Killeen,US","state":"TX","country":"United States","canonicalUrl":"https://foursquare.com/v/carolina-ale-house/527e78ce498ecf5c5f255951","categoryId":"4bf58dd8d48988d11d941735","category":"Sports Bar","checkinsCount":747,"usersCount":442,"tipCount":21,"visitsCount":950,"url":"http://www.carolinaalehouse.com","tier":"","message":"","currency":"","rating":7.8},{"name":"Sean's Pub - Bar & Grill","phone":"2546982186","address":"1827 E FM 2410 Rd","lat":31.052271779403664,"lng":-97.6331473998841,"city_fetched":"Killeen,US","state":"TX","country":"United States","canonicalUrl":"https://foursquare.com/v/seans-pub--bar--grill/4c81870fdc018cfa50d0c66c","categoryId":"4bf58dd8d48988d118941735","category":"Dive Bar","checkinsCount":261,"usersCount":97,"tipCount":8,"visitsCount":291,"tier":"","message":"","currency":"","rating":7.8},{"name":"The Shisha Lounge","phone":"2544324701","address":"810 North WS Young Drive Suite 103","lat":31.120557886325997,"lng":-97.70939826965332,"city_fetched":"Killeen,US","state":"TX","country":"United States","canonicalUrl":"https://foursquare.com/v/the-shisha-lounge/4bae923df964a52008c23be3","categoryId":"4bf58dd8d48988d119941735","category":"Hookah Bar","checkinsCount":126,"usersCount":65,"tipCount":4,"visitsCount":134,"tier":"","message":"","currency":"","rating":7.4},{"name":"Sports City Grill","phone":"2548336454","twitter":"sportscitytx","address":"300 W Central Texas Expy","lat":31.071495705637382,"lng":-97.67577109185157,"city_fetched":"Killeen,US","state":"TX","country":"United States","canonicalUrl":"https://foursquare.com/v/sports-city-grill/4d25193619ff37046ee70a70","categoryId":"4bf58dd8d48988d116941735","category":"Bar","checkinsCount":474,"usersCount":135,"tipCount":6,"visitsCount":489,"url":"http://sportscitygrill-hub.com","tier":"","message":"","currency":"","rating":7.4},{"name":"Wild Country","address":"212 W Veterans Memorial Blvd","lat":31.09089552595235,"lng":-97.67029134023679,"city_fetched":"Killeen,US","state":"TX","country":"United States","canonicalUrl":"https://foursquare.com/v/wild-country/4df99c7fa809fe7742225fb7","categoryId":"4bf58dd8d48988d11f941735","category":"Nightclub","checkinsCount":644,"usersCount":459,"tipCount":5,"visitsCount":952,"tier":"","message":"","currency":"","rating":7.3},{"name":"Alexander's Distillery","phone":"8779475554","address":"602 Center Cir","lat":30.945288998159274,"lng":-97.53276030806148,"city_fetched":"Killeen,US","state":"TX","country":"United States","canonicalUrl":"https://foursquare.com/v/alexanders-distillery/4d40d16b1bd2a143764bf77c","categoryId":"4bf58dd8d48988d11e941735","category":"Cocktail Bar","checkinsCount":650,"usersCount":90,"tipCount":7,"visitsCount":659,"tier":"","message":"","currency":"","rating":7.2},{"name":"3 West Ale House","address":"7373 Honeysuckle","lat":31.119867204354946,"lng":-97.42026210703271,"city_fetched":"Killeen,US","state":"TX","country":"United States","canonicalUrl":"https://foursquare.com/v/3-west-ale-house/56aba89b498eb968097ddf63","categoryId":"56aa371ce4b08b9a8d57356c","category":"Beer Bar","checkinsCount":51,"usersCount":49,"tipCount":1,"visitsCount":104,"tier":"","message":"","currency":"","rating":7.1},{"name":"MJ's Bar & Grill","phone":"2545547008","address":"1310 S Fort Hood St","lat":31.104859078949982,"lng":-97.74890895912978,"city_fetched":"Killeen,US","state":"TX","country":"United States","canonicalUrl":"https://foursquare.com/v/mjs-bar--grill/4c1bc58763750f470671b567","categoryId":"4bf58dd8d48988d116941735","category":"Bar","checkinsCount":904,"usersCount":138,"tipCount":10,"visitsCount":940,"tier":"","message":"","currency":"","rating":7.1},{"name":"Hilton Garden Inn","address":"2704 O W Curry Dr","lat":31.086328519754353,"lng":-97.71442769452827,"city_fetched":"Killeen,US","state":"TX","country":"United States","canonicalUrl":"https://foursquare.com/v/hilton-garden-inn/4b97124bf964a5208af634e3","categoryId":"4bf58dd8d48988d1d5941735","category":"Hotel Bar","checkinsCount":742,"usersCount":342,"tipCount":4,"visitsCount":995,"tier":"","message":"","currency":"","rating":6.9},{"name":"Shadow Lounge","phone":"2546999472","address":"601 E Veterans Memorial Blvd","lat":31.087139,"lng":-97.65346177,"city_fetched":"Killeen,US","state":"TX","country":"United States","canonicalUrl":"https://foursquare.com/v/shadow-lounge/4bbff9c94cdfc9b61e569221","categoryId":"4bf58dd8d48988d116941735","category":"Bar","checkinsCount":333,"usersCount":85,"tipCount":2,"visitsCount":348,"url":"http://www.shadow-lounge.com","tier":"","message":"","currency":"","rating":6.3},{"name":"All Bottoms Up","phone":"2546990955","address":"1505 E Veterans Memorial Blvd","lat":31.085952,"lng":-97.64687493,"city_fetched":"Killeen,US","state":"TX","country":"United States","canonicalUrl":"https://foursquare.com/v/all-bottoms-up/4c11aa2717002d7ff1b6e609","categoryId":"4bf58dd8d48988d116941735","category":"Bar","checkinsCount":323,"usersCount":96,"tipCount":2,"visitsCount":328,"url":"http://www.myspace.com/allbottomsup","tier":"","message":"","currency":"","rating":6.1},{"name":"Tilted Kilt Killeen","phone":"2546343663","twitter":"tiltedkiltpub","address":"2900 E Central Texas Expy","lat":31.08735501766205,"lng":-97.71469345316291,"city_fetched":"Killeen,US","state":"TX","country":"United States","canonicalUrl":"https://foursquare.com/v/tilted-kilt-killeen/4c7acc443badb1f74b585354","categoryId":"4bf58dd8d48988d11b941735","category":"Pub","checkinsCount":1962,"usersCount":1051,"tipCount":30,"visitsCount":2322,"url":"http://www.tiltedkilt.com","tier":"","message":"","currency":"","rating":6.1},{"name":"Wet Willy's","phone":"2546990410","address":"512 439 Loop","lat":31.0910703736242,"lng":-97.6707523859879,"city_fetched":"Killeen,US","state":"TX","country":"United States","canonicalUrl":"https://foursquare.com/v/wet-willys/4c2d3fe9e307d13a73970dda","categoryId":"4bf58dd8d48988d11d941735","category":"Sports Bar","checkinsCount":707,"usersCount":280,"tipCount":2,"visitsCount":744,"tier":"","message":"","currency":"","rating":6}]