[{"name":"Keegan Ales","phone":"8453312739","twitter":"keeganales","address":"20 Saint James St","lat":41.931613,"lng":-74.012059,"city_fetched":"Kingston,US","state":"NY","country":"United States","canonicalUrl":"https://foursquare.com/v/keegan-ales/4b2c877ff964a520a2c724e3","categoryId":"50327c8591d4c4b30a586d5d","category":"Brewery","checkinsCount":4104,"usersCount":1824,"tipCount":44,"visitsCount":4870,"url":"http://keeganales.com","tier":2,"message":"Moderate","currency":"$","rating":9.1},{"name":"Stockade","phone":"8455142649","address":"313 Fair St","lat":41.93479125936771,"lng":-74.01952624929766,"city_fetched":"Kingston,US","state":"NY","country":"United States","canonicalUrl":"https://foursquare.com/v/stockade/4bf4830c6a31d13a3be5952e","categoryId":"4bf58dd8d48988d116941735","category":"Bar","checkinsCount":1616,"usersCount":799,"tipCount":33,"visitsCount":1811,"url":"http://stockadetavern.com","tier":"","message":"","currency":"","rating":8.9},{"name":"Brunette","phone":"8458020387","twitter":"brunettewinebar","address":"33 Broadway","lat":41.919053229876994,"lng":-73.9835223264927,"city_fetched":"Kingston,US","state":"NY","country":"United States","canonicalUrl":"https://foursquare.com/v/brunette/5552a468498e8b0ba23e504d","categoryId":"4bf58dd8d48988d123941735","category":"Wine Bar","checkinsCount":112,"usersCount":72,"tipCount":6,"visitsCount":137,"url":"http://www.brunettewinebar.com","tier":"","message":"","currency":"","rating":8.7},{"name":"The Anchor","phone":"8458538124","address":"744-746 Broadway","lat":41.932038,"lng":-74.010498,"city_fetched":"Kingston,US","state":"NY","country":"United States","canonicalUrl":"https://foursquare.com/v/the-anchor/5227e6688fb155f288070889","categoryId":"4bf58dd8d48988d11b941735","category":"Pub","checkinsCount":340,"usersCount":315,"tipCount":9,"visitsCount":545,"url":"http://theanchorkingston.com","tier":"","message":"","currency":"","rating":8.2},{"name":"Hurley Mountain Inn","phone":"8453311780","address":"106 Old Route 209","lat":41.926336,"lng":-74.06745,"city_fetched":"Kingston,US","state":"NY","country":"United States","canonicalUrl":"https://foursquare.com/v/hurley-mountain-inn/4b64c188f964a52097cd2ae3","categoryId":"4bf58dd8d48988d116941735","category":"Bar","checkinsCount":546,"usersCount":301,"tipCount":9,"visitsCount":691,"url":"http://www.hurleymountaininn.com","tier":"","message":"","currency":"","rating":7.5},{"name":"Mariner's Harbor","phone":"8453408051","address":"1 Broadway","lat":41.918027,"lng":-73.98305415,"city_fetched":"Kingston,US","state":"NY","country":"United States","canonicalUrl":"https://foursquare.com/v/mariners-harbor/4b93ede4f964a520855a34e3","categoryId":"4bf58dd8d48988d116941735","category":"Bar","checkinsCount":1472,"usersCount":796,"tipCount":20,"visitsCount":1548,"url":"http://marinersharbor.com","tier":"","message":"","currency":"","rating":7.4},{"name":"The Shelter","address":"47 E Market St #2","lat":41.92711069298662,"lng":-73.91120147231472,"city_fetched":"Kingston,US","state":"NY","country":"United States","canonicalUrl":"https://foursquare.com/v/the-shelter/52bf90d311d2d96998d5fbbb","categoryId":"4bf58dd8d48988d123941735","category":"Wine Bar","checkinsCount":148,"usersCount":102,"tipCount":2,"visitsCount":156,"url":"http://shelterwinebar.com","tier":"","message":"","currency":"","rating":7.3},{"name":"Snapper Magee's","phone":"8453393888","address":"59 N Front St","lat":41.9350295,"lng":-74.0211527,"city_fetched":"Kingston,US","state":"NY","country":"United States","canonicalUrl":"https://foursquare.com/v/snapper-magees/4b36d4c5f964a520203d25e3","categoryId":"4bf58dd8d48988d116941735","category":"Bar","checkinsCount":776,"usersCount":278,"tipCount":5,"visitsCount":785,"tier":"","message":"","currency":"","rating":7.1},{"name":"Ninety Nine Restaurant","phone":"8453364399","twitter":"99restaurants","address":"53 Massa Dr","lat":41.96241150261488,"lng":-73.9886817354489,"city_fetched":"Kingston,US","state":"NY","country":"United States","canonicalUrl":"https://foursquare.com/v/ninety-nine-restaurant/4b637528f964a520507b2ae3","categoryId":"4bf58dd8d48988d116941735","category":"Bar","checkinsCount":1337,"usersCount":461,"tipCount":13,"visitsCount":1431,"url":"http://www.facebook.com/99restaurants","tier":"","message":"","currency":"","rating":7}]