[{"name":"Racers","phone":"4108825212","address":"7732 Harford Rd","lat":39.3737515035356,"lng":-76.54317558857852,"city_fetched":"Kingsville,US","state":"MD","country":"United States","canonicalUrl":"https://foursquare.com/v/racers/4b2188b0f964a5206d3d24e3","categoryId":"4bf58dd8d48988d116941735","category":"Bar","checkinsCount":4394,"usersCount":779,"tipCount":25,"visitsCount":4754,"url":"http://www.racerscafe.com","tier":1,"message":"Cheap","currency":"$","rating":8.8},{"name":"Independent Brewing Co","lat":39.539836595677976,"lng":-76.35626396705393,"city_fetched":"Kingsville,US","state":"MD","country":"United States","canonicalUrl":"https://foursquare.com/v/independent-brewing-co/562bc7c8498ee3bd996e6edc","categoryId":"50327c8591d4c4b30a586d5d","category":"Brewery","checkinsCount":257,"usersCount":237,"tipCount":4,"visitsCount":479,"tier":"","message":"","currency":"","rating":8.5},{"name":"Dellis Bar and Grill","phone":"4109181600","address":"8776 Philadelphia Rd","lat":39.34106854365119,"lng":-76.48451507091522,"city_fetched":"Kingsville,US","state":"MD","country":"United States","canonicalUrl":"https://foursquare.com/v/dellis-bar-and-grill/4b78b788f964a52032df2ee3","categoryId":"4bf58dd8d48988d116941735","category":"Bar","checkinsCount":1555,"usersCount":780,"tipCount":24,"visitsCount":1941,"url":"http://dellisbarandgrill.com","tier":2,"message":"Moderate","currency":"$","rating":8.3},{"name":"Gunpowder Lodge","phone":"4102562626","address":"10092 Belair Rd","lat":39.42728947,"lng":-76.445563,"city_fetched":"Kingsville,US","state":"MD","country":"United States","canonicalUrl":"https://foursquare.com/v/gunpowder-lodge/4ba11917f964a520849737e3","categoryId":"4bf58dd8d48988d116941735","category":"Bar","checkinsCount":1657,"usersCount":861,"tipCount":16,"visitsCount":2064,"url":"http://www.thegunpowderlodge.com","tier":"","message":"","currency":"","rating":8.2},{"name":"DuClaw Brewing Co.","phone":"4105153222","address":"16A Bel Air South Pkwy","lat":39.49751721538407,"lng":-76.33111953735352,"city_fetched":"Kingsville,US","state":"MD","country":"United States","canonicalUrl":"https://foursquare.com/v/duclaw-brewing-co/4aeb084bf964a5205cbd21e3","categoryId":"50327c8591d4c4b30a586d5d","category":"Brewery","checkinsCount":6354,"usersCount":2422,"tipCount":56,"visitsCount":7351,"url":"http://duclaw.com","tier":2,"message":"Moderate","currency":"$","rating":8.1},{"name":"Chug-a-Mug Sports Bar & Grill","lat":39.348025,"lng":-76.393615,"city_fetched":"Kingsville,US","state":"MD","country":"United States","canonicalUrl":"https://foursquare.com/v/chugamug-sports-bar--grill/4fe74273e4b098f61f401b74","categoryId":"4bf58dd8d48988d11d941735","category":"Sports Bar","checkinsCount":412,"usersCount":159,"tipCount":6,"visitsCount":558,"tier":"","message":"","currency":"","rating":8},{"name":"DuClaw Brewing Co.","twitter":"duclawbrewing","address":"8901 Yellow Brick Rd","lat":39.34062047549954,"lng":-76.47919893264769,"city_fetched":"Kingsville,US","state":"MD","country":"United States","canonicalUrl":"https://foursquare.com/v/duclaw-brewing-co/50d0d2e145b0ee9e4a026018","categoryId":"50327c8591d4c4b30a586d5d","category":"Brewery","checkinsCount":95,"usersCount":95,"tipCount":0,"visitsCount":174,"tier":"","message":"","currency":"","rating":8},{"name":"Excape Night Club","phone":"4105747941","address":"10025 Pulaski Hwy","lat":39.36169316382543,"lng":-76.44327878952026,"city_fetched":"Kingsville,US","state":"MD","country":"United States","canonicalUrl":"https://foursquare.com/v/excape-night-club/4d4e22588af6721ea15f0d88","categoryId":"4bf58dd8d48988d1d6941735","category":"Strip Club","checkinsCount":681,"usersCount":236,"tipCount":6,"visitsCount":798,"tier":"","message":"","currency":"","rating":7.9},{"name":"Fatties Bar & Grill","address":"2-98 Vincent Ave.","lat":39.31349475843243,"lng":-76.46232151517636,"city_fetched":"Kingsville,US","state":"MD","country":"United States","canonicalUrl":"https://foursquare.com/v/fatties-bar--grill/4cc8ae0c4650a35dd9fe891e","categoryId":"4bf58dd8d48988d116941735","category":"Bar","checkinsCount":670,"usersCount":180,"tipCount":8,"visitsCount":739,"tier":"","message":"","currency":"","rating":7.7},{"name":"Freddies Ale House","phone":"4102548373","address":"7209 Harford Rd","lat":39.368350664500745,"lng":-76.54724547106262,"neighborhood":"Northeastern Baltimore","city_fetched":"Kingsville,US","state":"MD","country":"United States","canonicalUrl":"https://foursquare.com/v/freddies-ale-house/4b57b955f964a520e43d28e3","categoryId":"4bf58dd8d48988d116941735","category":"Bar","checkinsCount":2665,"usersCount":766,"tipCount":30,"visitsCount":2830,"url":"http://freddiesalehouse.com","tier":"","message":"","currency":"","rating":7.7},{"name":"Raven Inn","phone":"4104941776","address":"8644 Loch Raven Blvd","lat":39.39647742720229,"lng":-76.56338825898219,"city_fetched":"Kingsville,US","state":"MD","country":"United States","canonicalUrl":"https://foursquare.com/v/raven-inn/4bb41a710cbcef3bbebd582a","categoryId":"4bf58dd8d48988d118941735","category":"Dive Bar","checkinsCount":995,"usersCount":153,"tipCount":1,"visitsCount":1034,"tier":"","message":"","currency":"","rating":7.7},{"name":"Looney's Pub","phone":"4108037080","address":"312 S Main St","lat":39.53343848180934,"lng":-76.34657979011536,"city_fetched":"Kingsville,US","state":"MD","country":"United States","canonicalUrl":"https://foursquare.com/v/looneys-pub/4b36c434f964a520113c25e3","categoryId":"4bf58dd8d48988d11b941735","category":"Pub","checkinsCount":8247,"usersCount":2765,"tipCount":49,"visitsCount":10229,"url":"http://looneyspubmd.com","tier":2,"message":"Moderate","currency":"$","rating":7.6},{"name":"Tobacco Center & Cafe","phone":"4106611399","address":"1838 E Joppa Rd","lat":39.40017569758892,"lng":-76.55150149354132,"city_fetched":"Kingsville,US","state":"MD","country":"United States","canonicalUrl":"https://foursquare.com/v/tobacco-center--cafe/4cdf1f34825e721e56e46e45","categoryId":"4bf58dd8d48988d119941735","category":"Hookah Bar","checkinsCount":305,"usersCount":87,"tipCount":5,"visitsCount":308,"url":"http://tobaccocenters.com","tier":"","message":"","currency":"","rating":7.6},{"name":"YE Olde Emerald Tavern","phone":"4108703926","address":"8300 Harford Rd","lat":39.37917715379042,"lng":-76.53853542705176,"city_fetched":"Kingsville,US","state":"MD","country":"United States","canonicalUrl":"https://foursquare.com/v/ye-olde-emerald-tavern/4b679d8cf964a520e2572be3","categoryId":"4bf58dd8d48988d11d941735","category":"Sports Bar","checkinsCount":1542,"usersCount":515,"tipCount":12,"visitsCount":1745,"tier":"","message":"","currency":"","rating":7.5},{"name":"MaGerks Pub & Grill","phone":"4106387701","twitter":"magerkspub","address":"120 S Bond St","lat":39.53442729537748,"lng":-76.34930491447449,"city_fetched":"Kingsville,US","state":"MD","country":"United States","canonicalUrl":"https://foursquare.com/v/magerks-pub--grill/4b36e59af964a520ef3d25e3","categoryId":"4bf58dd8d48988d11b941735","category":"Pub","checkinsCount":4280,"usersCount":1683,"tipCount":43,"visitsCount":5095,"url":"http://magerks.com/baltimore","tier":2,"message":"Moderate","currency":"$","rating":7.5},{"name":"The Greene Turtle","phone":"4104973969","address":"8200 Perry Hall Blvd","lat":39.37479019555399,"lng":-76.4678681137244,"city_fetched":"Kingsville,US","state":"MD","country":"United States","canonicalUrl":"https://foursquare.com/v/the-greene-turtle/51352effe4b0504f677d4b82","categoryId":"4bf58dd8d48988d11d941735","category":"Sports Bar","checkinsCount":2645,"usersCount":1230,"tipCount":21,"visitsCount":2999,"url":"http://thegreeneturtle.com","tier":2,"message":"Moderate","currency":"$","rating":7.5},{"name":"Winter's Run Inn","phone":"4106762865","address":"1907 Philadelphia Rd","lat":39.4427932,"lng":-76.31584868333333,"city_fetched":"Kingsville,US","state":"MD","country":"United States","canonicalUrl":"https://foursquare.com/v/winters-run-inn/4c3796e82c8020a1244e8900","categoryId":"4bf58dd8d48988d118941735","category":"Dive Bar","checkinsCount":332,"usersCount":185,"tipCount":2,"visitsCount":439,"tier":"","message":"","currency":"","rating":7.4},{"name":"Bird River Inn","phone":"4103449220","address":"10529 Bird River Rd","lat":39.36714,"lng":-76.411168,"city_fetched":"Kingsville,US","state":"MD","country":"United States","canonicalUrl":"https://foursquare.com/v/bird-river-inn/4b9ec0a2f964a52001ff36e3","categoryId":"4bf58dd8d48988d116941735","category":"Bar","checkinsCount":212,"usersCount":126,"tipCount":3,"visitsCount":262,"tier":"","message":"","currency":"","rating":7.4},{"name":"Tilted Kilt Pub & Eatery","phone":"4104970792","twitter":"tiltedkiltpub","address":"8133 Honeygo Blvd","lat":39.37124118849416,"lng":-76.46516963839531,"city_fetched":"Kingsville,US","state":"MD","country":"United States","canonicalUrl":"https://foursquare.com/v/tilted-kilt-pub--eatery/4c6f38501f58199cbdec337c","categoryId":"4bf58dd8d48988d11b941735","category":"Pub","checkinsCount":7808,"usersCount":3322,"tipCount":76,"visitsCount":7935,"url":"http://www.tiltedkilt.com","tier":2,"message":"Moderate","currency":"$","rating":7.4},{"name":"The Batter's Box","phone":"4102566056","address":"9527 Belair Rd","lat":39.41012482705455,"lng":-76.46668764563867,"city_fetched":"Kingsville,US","state":"MD","country":"United States","canonicalUrl":"https://foursquare.com/v/the-batters-box/4bad89fff964a520e7593be3","categoryId":"4bf58dd8d48988d116941735","category":"Bar","checkinsCount":882,"usersCount":148,"tipCount":6,"visitsCount":1057,"tier":"","message":"","currency":"","rating":7.3},{"name":"McAvoy's","phone":"4108820500","address":"2531 Putty Hill Ave","lat":39.38918633545144,"lng":-76.54242481951265,"city_fetched":"Kingsville,US","state":"MD","country":"United States","canonicalUrl":"https://foursquare.com/v/mcavoys/4b96c478f964a5203ce334e3","categoryId":"4bf58dd8d48988d116941735","category":"Bar","checkinsCount":2582,"usersCount":614,"tipCount":14,"visitsCount":2927,"url":"http://mcavoysofparkville.com","tier":"","message":"","currency":"","rating":7.2},{"name":"Jerry D's Saloon","phone":"4106650525","address":"7808 Harford Rd","lat":39.37443719220949,"lng":-76.5426167458554,"city_fetched":"Kingsville,US","state":"MD","country":"United States","canonicalUrl":"https://foursquare.com/v/jerry-ds-saloon/4b5cce86f964a520014529e3","categoryId":"4bf58dd8d48988d116941735","category":"Bar","checkinsCount":1610,"usersCount":435,"tipCount":9,"visitsCount":1790,"url":"http://www.jerrydscatering.com","tier":"","message":"","currency":"","rating":7.2},{"name":"Firehouse Tavern","phone":"4106613555","twitter":"firehousetavern","address":"2800 E Joppa Rd","lat":39.39583193,"lng":-76.527159,"city_fetched":"Kingsville,US","state":"MD","country":"United States","canonicalUrl":"https://foursquare.com/v/firehouse-tavern/4be5f796d4f7c9b6b8372620","categoryId":"4bf58dd8d48988d116941735","category":"Bar","checkinsCount":1178,"usersCount":739,"tipCount":16,"visitsCount":1645,"url":"http://www.firehousetav.com","tier":"","message":"","currency":"","rating":7.1},{"name":"Sylvesters Bar And Grill","address":"7326 Golden Ring Rd","lat":39.32965241579813,"lng":-76.47369687093581,"city_fetched":"Kingsville,US","state":"MD","country":"United States","canonicalUrl":"https://foursquare.com/v/sylvesters-bar-and-grill/4c2bbdf577cfe21ea0fab4f1","categoryId":"4bf58dd8d48988d116941735","category":"Bar","checkinsCount":459,"usersCount":245,"tipCount":3,"visitsCount":639,"tier":"","message":"","currency":"","rating":7},{"name":"Della Rose's Tavern at White Marsh","phone":"4109338861","twitter":"dellaroses","address":"8153 Honeygo Blvd #A","lat":39.37113233032965,"lng":-76.46368503570557,"city_fetched":"Kingsville,US","state":"MD","country":"United States","canonicalUrl":"https://foursquare.com/v/della-roses-tavern-at-white-marsh/4b5be118f964a520531b29e3","categoryId":"4bf58dd8d48988d11d941735","category":"Sports Bar","checkinsCount":5107,"usersCount":1993,"tipCount":32,"visitsCount":5218,"url":"http://www.dellarosestavern.com","tier":1,"message":"Cheap","currency":"$","rating":7},{"name":"Middle River Inn","phone":"4106825151","address":"2230 Old Eastern Ave","lat":39.331909053822436,"lng":-76.43968646134851,"city_fetched":"Kingsville,US","state":"MD","country":"United States","canonicalUrl":"https://foursquare.com/v/middle-river-inn/4cc3815106c25481521f9147","categoryId":"4bf58dd8d48988d116941735","category":"Bar","checkinsCount":197,"usersCount":65,"tipCount":3,"visitsCount":204,"url":"http://mriliquorstore.com","tier":"","message":"","currency":"","rating":6.9},{"name":"Benchwarmers Pub","phone":"4109180013","address":"101 Middle River Rd","lat":39.33472236564869,"lng":-76.44478209167478,"city_fetched":"Kingsville,US","state":"MD","country":"United States","canonicalUrl":"https://foursquare.com/v/benchwarmers-pub/4c4ccd3ef5afa5938b4286d6","categoryId":"4bf58dd8d48988d116941735","category":"Bar","checkinsCount":1827,"usersCount":234,"tipCount":21,"visitsCount":1860,"url":"http://www.benchwarmerspubmd.com","tier":"","message":"","currency":"","rating":6.7},{"name":"Horseshoe Pub","phone":"4105107193","address":"12627 Belair Rd","lat":39.469423476723584,"lng":-76.40991090520971,"city_fetched":"Kingsville,US","state":"MD","country":"United States","canonicalUrl":"https://foursquare.com/v/horseshoe-pub/4ba7a56cf964a520bea539e3","categoryId":"4bf58dd8d48988d11b941735","category":"Pub","checkinsCount":715,"usersCount":233,"tipCount":5,"visitsCount":882,"tier":"","message":"","currency":"","rating":6.7},{"name":"Wargos","phone":"4108799747","address":"308 E Jarrettsville Rd","lat":39.579488642585154,"lng":-76.3651727249682,"city_fetched":"Kingsville,US","state":"MD","country":"United States","canonicalUrl":"https://foursquare.com/v/wargos/4af59fa6f964a5207afa21e3","categoryId":"4bf58dd8d48988d116941735","category":"Bar","checkinsCount":1126,"usersCount":255,"tipCount":14,"visitsCount":1386,"tier":2,"message":"Moderate","currency":"$","rating":6.6},{"name":"Memphis Belle","phone":"4105747200","twitter":"memphisbell3030","address":"3030 Eastern Blvd","lat":39.33666977755381,"lng":-76.40893898932953,"city_fetched":"Kingsville,US","state":"MD","country":"United States","canonicalUrl":"https://foursquare.com/v/memphis-belle/51aaa242498e09726c6a44a1","categoryId":"4bf58dd8d48988d116941735","category":"Bar","checkinsCount":105,"usersCount":72,"tipCount":3,"visitsCount":137,"tier":"","message":"","currency":"","rating":6.6},{"name":"Captains Cafe","address":"2843 Eastern Blvd","lat":39.3349036,"lng":-76.414289,"city_fetched":"Kingsville,US","state":"MD","country":"United States","canonicalUrl":"https://foursquare.com/v/captains-cafe/4bc66785bf29c9b6f8daf92a","categoryId":"4bf58dd8d48988d116941735","category":"Bar","checkinsCount":414,"usersCount":170,"tipCount":7,"visitsCount":516,"tier":"","message":"","currency":"","rating":6.3},{"name":"Fullerton Pub","phone":"4106615910","address":"8027 Belair Rd","lat":39.3763147101612,"lng":-76.50616255552876,"city_fetched":"Kingsville,US","state":"MD","country":"United States","canonicalUrl":"https://foursquare.com/v/fullerton-pub/4b456f51f964a520b00c26e3","categoryId":"4bf58dd8d48988d11b941735","category":"Pub","checkinsCount":1016,"usersCount":226,"tipCount":6,"visitsCount":1154,"tier":"","message":"","currency":"","rating":6.1},{"name":"Harvey's Pub","phone":"4106869747","address":"400 Myrth Ave","lat":39.31667770080057,"lng":-76.47443674294924,"city_fetched":"Kingsville,US","state":"MD","country":"United States","canonicalUrl":"https://foursquare.com/v/harveys-pub/4bef3c185e4aa59325c658bb","categoryId":"4bf58dd8d48988d120941735","category":"Karaoke Bar","checkinsCount":423,"usersCount":219,"tipCount":3,"visitsCount":480,"url":"http://harveyspub.com","tier":"","message":"","currency":"","rating":6.1},{"name":"Stonewall","phone":"4103357475","address":"11175 Pulaski Hwy","lat":39.38954575534963,"lng":-76.414691270348,"city_fetched":"Kingsville,US","state":"MD","country":"United States","canonicalUrl":"https://foursquare.com/v/stonewall/4bc3e2c04cdfc9b623109821","categoryId":"4bf58dd8d48988d118941735","category":"Dive Bar","checkinsCount":1217,"usersCount":198,"tipCount":9,"visitsCount":1320,"tier":"","message":"","currency":"","rating":5.9},{"name":"The Charred Rib at The Barn","phone":"4106682276","twitter":"the_charred_rib","address":"9527 Harford Rd.","lat":39.394139249107276,"lng":-76.5237557953356,"city_fetched":"Kingsville,US","state":"MD","country":"United States","canonicalUrl":"https://foursquare.com/v/the-charred-rib-at-the-barn/5165e34fe4b0203d5d54f675","categoryId":"4bf58dd8d48988d116941735","category":"Bar","checkinsCount":1007,"usersCount":579,"tipCount":14,"visitsCount":1407,"url":"http://www.thecharredribatthebarn.com","tier":"","message":"","currency":"","rating":5.8},{"name":"Dick's Halfway Inn","phone":"4108660101","address":"8013 Philadelphia Rd","lat":39.33735876938548,"lng":-76.50428791015628,"city_fetched":"Kingsville,US","state":"MD","country":"United States","canonicalUrl":"https://foursquare.com/v/dicks-halfway-inn/4b933646f964a5206d3b34e3","categoryId":"4bf58dd8d48988d116941735","category":"Bar","checkinsCount":413,"usersCount":218,"tipCount":7,"visitsCount":442,"tier":"","message":"","currency":"","rating":5.7},{"name":"BJ's Pub","phone":"4102560043","address":"4363 Ebenezer Rd","lat":39.39683046917564,"lng":-76.47615368163217,"city_fetched":"Kingsville,US","state":"MD","country":"United States","canonicalUrl":"https://foursquare.com/v/bjs-pub/4c18473e838020a1840de461","categoryId":"4bf58dd8d48988d116941735","category":"Bar","checkinsCount":488,"usersCount":119,"tipCount":2,"visitsCount":496,"tier":"","message":"","currency":"","rating":5.2}]