[{"name":"The Creamery Brewpub & Grill","phone":"5412735222","address":"1320 Main St","lat":42.22800137898991,"lng":-121.77649534702998,"city_fetched":"Klamath Falls","state":"OR","country":"United States","canonicalUrl":"https://foursquare.com/v/the-creamery-brewpub--grill/4bae93e5f964a520b5c23be3","category":"Brewery","checkinsCount":602,"usersCount":460,"tipCount":14,"visitsCount":705,"tier":"","message":"","currency":"","rating":7.7},{"name":"Mia & Pia's Pizzeria & Brewhouse","phone":"5418844880","address":"3545 Summers Ln","lat":42.193759,"lng":-121.737699,"city_fetched":"Klamath Falls","state":"OR","country":"United States","canonicalUrl":"https://foursquare.com/v/mia--pias-pizzeria--brewhouse/4bbcefc2a0a0c9b6b8011b0f","category":"Bar","checkinsCount":358,"usersCount":225,"tipCount":10,"visitsCount":494,"tier":"","message":"","currency":"","rating":7.2},{"name":"Black Dog Billiards","phone":"5418848373","address":"436 Main St","lat":42.22380856,"lng":-121.78330717,"city_fetched":"Klamath Falls","state":"OR","country":"United States","canonicalUrl":"https://foursquare.com/v/black-dog-billiards/4b80e0adf964a5202e9030e3","category":"Pool Hall","checkinsCount":109,"usersCount":54,"tipCount":3,"visitsCount":109,"tier":"","message":"","currency":"","rating":6.9},{"name":"Gino's Cafe & Sports Bar","phone":"5418846474","twitter":"iloveginos","address":"147 E Main St","lat":42.22777260348003,"lng":-121.7710944781189,"city_fetched":"Klamath Falls","state":"OR","country":"United States","canonicalUrl":"https://foursquare.com/iloveginos","category":"Burrito Place","checkinsCount":287,"usersCount":76,"tipCount":10,"visitsCount":298,"url":"http://www.iloveginos.com","tier":1,"message":"Cheap","currency":"$","rating":6.9},{"name":"Klamath Basin Brewing Co.","phone":"5412735222","address":"1320 Main St","lat":42.22798755435555,"lng":-121.77650527311108,"city_fetched":"Klamath Falls","state":"OR","country":"United States","canonicalUrl":"https://foursquare.com/v/klamath-basin-brewing-co/4f3263b119836c91c7d30afe","category":"Brewery","checkinsCount":148,"usersCount":132,"tipCount":4,"visitsCount":163,"url":"http://www.kbbrewing.com","tier":"","message":"","currency":"","rating":6.6}]