[{"name":"The Handle Bar","phone":"7654579889","address":"1252 N Main St","lat":40.49792743333333,"lng":-86.1311439,"city_fetched":"Kokomo,US","state":"IN","country":"United States","canonicalUrl":"https://foursquare.com/v/the-handle-bar/4bb516c76edc76b0a33b2f1c","categoryId":"4bf58dd8d48988d116941735","category":"Bar","checkinsCount":179,"usersCount":85,"tipCount":4,"visitsCount":179,"tier":"","message":"","currency":"","rating":8.2},{"name":"Cook McDoogal's Irish Pub","phone":"7654506143","address":"100 N Main St","lat":40.486578005359185,"lng":-86.1312111477942,"city_fetched":"Kokomo,US","state":"IN","country":"United States","canonicalUrl":"https://foursquare.com/v/cook-mcdoogals-irish-pub/4cec60cb62ef6dcb9ff0eb59","categoryId":"4bf58dd8d48988d11b941735","category":"Pub","checkinsCount":1045,"usersCount":422,"tipCount":20,"visitsCount":1109,"url":"http://cookmcdoogals.com","tier":2,"message":"Moderate","currency":"$","rating":8.2},{"name":"Neds Corner Pub","lat":40.476403,"lng":-86.13127,"city_fetched":"Kokomo,US","state":"IN","country":"United States","canonicalUrl":"https://foursquare.com/v/neds-corner-pub/4bca41c4511f95215073afc7","categoryId":"4bf58dd8d48988d116941735","category":"Bar","checkinsCount":163,"usersCount":87,"tipCount":5,"visitsCount":164,"tier":"","message":"","currency":"","rating":7.4},{"name":"Mulligans Sports Pub","address":"1134 Home Ave","lat":40.474035783333335,"lng":-86.12739705,"city_fetched":"Kokomo,US","state":"IN","country":"United States","canonicalUrl":"https://foursquare.com/v/mulligans-sports-pub/4b5bef2cf964a520e61d29e3","categoryId":"4bf58dd8d48988d116941735","category":"Bar","checkinsCount":450,"usersCount":150,"tipCount":6,"visitsCount":500,"url":"http://mulliganssportspubkokomo.com","tier":"","message":"","currency":"","rating":7.1},{"name":"The Social Experience","phone":"7654508881","twitter":"_the_social","address":"3040 S Lafountain St","lat":40.45147256395222,"lng":-86.12685112603035,"city_fetched":"Kokomo,US","state":"IN","country":"United States","canonicalUrl":"https://foursquare.com/v/the-social-experience/4bacece0f964a520551a3be3","categoryId":"4bf58dd8d48988d11f941735","category":"Nightclub","checkinsCount":721,"usersCount":247,"tipCount":6,"visitsCount":808,"url":"http://thesocialexperience.com","tier":"","message":"","currency":"","rating":5.5}]