[{"name":"Bodega Brew Pub","phone":"6087820677","twitter":"bodegabrewpub","address":"122 4th St S","lat":43.811597602097194,"lng":-91.25170192675577,"city_fetched":"La Crosse,US","state":"WI","country":"United States","canonicalUrl":"https://foursquare.com/v/bodega-brew-pub/4b391731f964a520f15525e3","categoryId":"4bf58dd8d48988d11b941735","category":"Pub","checkinsCount":5127,"usersCount":1774,"tipCount":36,"visitsCount":5544,"url":"http://bodegabrewpublax.com","tier":1,"message":"Cheap","currency":"$","rating":8.9},{"name":"Southside Oktoberfest Grounds","phone":"6087843378","address":"#1 Oktoberfest Strauss","lat":43.81823360391956,"lng":-91.25079989433289,"city_fetched":"La Crosse,US","state":"WI","country":"United States","canonicalUrl":"https://foursquare.com/v/southside-oktoberfest-grounds/4be627972457a5939997ac15","categoryId":"4bf58dd8d48988d117941735","category":"Beer Garden","checkinsCount":1452,"usersCount":834,"tipCount":4,"visitsCount":1712,"url":"http://oktoberfestusa.com","tier":"","message":"","currency":"","rating":8.5},{"name":"The Old Crow","address":"100 3rd St S","lat":43.81282136474656,"lng":-91.25263685630948,"city_fetched":"La Crosse,US","state":"WI","country":"United States","canonicalUrl":"https://foursquare.com/v/the-old-crow/54f77f45498e754ce4c2ab57","categoryId":"4bf58dd8d48988d122941735","category":"Whisky Bar","checkinsCount":329,"usersCount":213,"tipCount":6,"visitsCount":406,"url":"http://theoldcrow.com","tier":"","message":"","currency":"","rating":8.4},{"name":"Stein Haus","phone":"6085192421","address":"324 Jay St","lat":43.810985069116946,"lng":-91.25227039902867,"city_fetched":"La Crosse,US","state":"WI","country":"United States","canonicalUrl":"https://foursquare.com/v/stein-haus/5000d90ae4b09da8af76767b","categoryId":"4bf58dd8d48988d116941735","category":"Bar","checkinsCount":2028,"usersCount":440,"tipCount":15,"visitsCount":2422,"url":"http://steinhauslax.com","tier":1,"message":"Cheap","currency":"$","rating":8.1},{"name":"Chances R","phone":"6087825105","address":"417 J Street","lat":43.81111404088198,"lng":-91.25079990390476,"city_fetched":"La Crosse,US","state":"WI","country":"United States","canonicalUrl":"https://foursquare.com/v/chances-r/4b847bdef964a520253831e3","categoryId":"4bf58dd8d48988d1d8941735","category":"Gay Bar","checkinsCount":1164,"usersCount":259,"tipCount":10,"visitsCount":1519,"tier":"","message":"","currency":"","rating":8.1},{"name":"Turtle Stack Brewery","phone":"6085192284","address":"125 2nd St S","lat":43.81268520432604,"lng":-91.25414970099051,"city_fetched":"La Crosse,US","state":"WI","country":"United States","canonicalUrl":"https://foursquare.com/v/turtle-stack-brewery/5589fb77498e344d64108ac3","categoryId":"50327c8591d4c4b30a586d5d","category":"Brewery","checkinsCount":123,"usersCount":117,"tipCount":2,"visitsCount":177,"url":"http://www.turtlestackbrewery.com","tier":"","message":"","currency":"","rating":8},{"name":"Nutbush City Limits","phone":"6087830228","address":"3264 George St","lat":43.869822066666664,"lng":-91.23272824,"city_fetched":"La Crosse,US","state":"WI","country":"United States","canonicalUrl":"https://foursquare.com/v/nutbush-city-limits/4b65f1f8f964a520360a2be3","categoryId":"4bf58dd8d48988d116941735","category":"Bar","checkinsCount":1709,"usersCount":668,"tipCount":16,"visitsCount":2195,"tier":"","message":"","currency":"","rating":8},{"name":"Alpine Inn","phone":"6087848470","address":"W5717 Bliss Rd","lat":43.811894886277265,"lng":-91.19279175238265,"city_fetched":"La Crosse,US","state":"WI","country":"United States","canonicalUrl":"https://foursquare.com/v/alpine-inn/4bd374f8462cb713aa86de07","categoryId":"4bf58dd8d48988d118941735","category":"Dive Bar","checkinsCount":627,"usersCount":331,"tipCount":4,"visitsCount":709,"tier":"","message":"","currency":"","rating":7.9},{"name":"DJ's Vogue","phone":"6087799800","address":"Rose St.","lat":43.849803032281855,"lng":-91.23959200784651,"city_fetched":"La Crosse,US","state":"WI","country":"United States","canonicalUrl":"https://foursquare.com/v/djs-vogue/4bad4527f964a52040403be3","categoryId":"4bf58dd8d48988d116941735","category":"Bar","checkinsCount":846,"usersCount":169,"tipCount":3,"visitsCount":951,"url":"http://djsvogue.com","tier":1,"message":"Cheap","currency":"$","rating":7.9},{"name":"Ye Old Style Inn","address":"112 5th Ave S","lat":43.803744000004066,"lng":-91.2502173577803,"city_fetched":"La Crosse,US","state":"WI","country":"United States","canonicalUrl":"https://foursquare.com/v/ye-old-style-inn/4bca9ddfcc8cd13a1a28becf","categoryId":"4bf58dd8d48988d116941735","category":"Bar","checkinsCount":630,"usersCount":228,"tipCount":7,"visitsCount":781,"tier":"","message":"","currency":"","rating":7.8},{"name":"The Casino","phone":"6087821910","address":"304 Pearl St","lat":43.81183067778776,"lng":-91.25308318680479,"city_fetched":"La Crosse,US","state":"WI","country":"United States","canonicalUrl":"https://foursquare.com/v/the-casino/4e7d64e246906ba64f208e9b","categoryId":"4bf58dd8d48988d116941735","category":"Bar","checkinsCount":940,"usersCount":355,"tipCount":7,"visitsCount":953,"tier":"","message":"","currency":"","rating":7.8},{"name":"Pearl Street Brewery","address":"1401 Saint Andrew St","lat":43.8341966566935,"lng":-91.23627155074169,"city_fetched":"La Crosse,US","state":"WI","country":"United States","canonicalUrl":"https://foursquare.com/v/pearl-street-brewery/4b64bc82f964a52031cc2ae3","categoryId":"50327c8591d4c4b30a586d5d","category":"Brewery","checkinsCount":1162,"usersCount":489,"tipCount":16,"visitsCount":1337,"url":"http://pearlstreetbrewery.com/welcome/","tier":1,"message":"Cheap","currency":"$","rating":7.8},{"name":"The Starlite Lounge","phone":"6087960905","address":"222 Pearl St","lat":43.81200671195984,"lng":-91.25384452,"city_fetched":"La Crosse,US","state":"WI","country":"United States","canonicalUrl":"https://foursquare.com/v/the-starlite-lounge/4b80d63ef964a520798e30e3","categoryId":"4bf58dd8d48988d116941735","category":"Bar","checkinsCount":1555,"usersCount":783,"tipCount":24,"visitsCount":1582,"url":"http://buzzardbillys.com/la-crosse/the-starlite-lounge/","tier":2,"message":"Moderate","currency":"$","rating":7.8},{"name":"Sloopy's Bar & Grill","phone":"6087850245","twitter":"sloopyslax","address":"163 Copeland Ave","lat":43.82906267746983,"lng":-91.24980211257935,"city_fetched":"La Crosse,US","state":"WI","country":"United States","canonicalUrl":"https://foursquare.com/sloopyslax","categoryId":"4bf58dd8d48988d11d941735","category":"Sports Bar","checkinsCount":1664,"usersCount":461,"tipCount":16,"visitsCount":1832,"url":"http://www.sloopyslax.com","tier":2,"message":"Moderate","currency":"$","rating":7.7},{"name":"The Recovery Room Pub and Grill","phone":"6087828573","address":"901 7th St S","lat":43.80265994408399,"lng":-91.2471356353731,"city_fetched":"La Crosse,US","state":"WI","country":"United States","canonicalUrl":"https://foursquare.com/v/the-recovery-room-pub-and-grill/4b88b018f964a520be0832e3","categoryId":"4bf58dd8d48988d11b941735","category":"Pub","checkinsCount":1510,"usersCount":267,"tipCount":5,"visitsCount":1738,"tier":"","message":"","currency":"","rating":7.6},{"name":"Del's Bar","phone":"6087844990","address":"229 3rd St N","lat":43.81468024903107,"lng":-91.25149726867676,"city_fetched":"La Crosse,US","state":"WI","country":"United States","canonicalUrl":"https://foursquare.com/v/dels-bar/4be641b6bcef2d7fe80905e5","categoryId":"4bf58dd8d48988d116941735","category":"Bar","checkinsCount":1765,"usersCount":862,"tipCount":19,"visitsCount":1993,"tier":1,"message":"Cheap","currency":"$","rating":7.6},{"name":"The Wine Guyz","phone":"6087829463","address":"122 King St","lat":43.80988874606361,"lng":-91.25600559421697,"city_fetched":"La Crosse,US","state":"WI","country":"United States","canonicalUrl":"https://foursquare.com/v/the-wine-guyz/4b7e0479f964a52043df2fe3","categoryId":"4bf58dd8d48988d123941735","category":"Wine Bar","checkinsCount":509,"usersCount":231,"tipCount":5,"visitsCount":524,"tier":2,"message":"Moderate","currency":"$","rating":7.5},{"name":"Barrel Inn Bar and Grill","phone":"6087888442","address":"2005 West Ave S","lat":43.79132386,"lng":-91.23951301,"city_fetched":"La Crosse,US","state":"WI","country":"United States","canonicalUrl":"https://foursquare.com/v/barrel-inn-bar-and-grill/4bf9ed2f4a67c92880af27cf","categoryId":"4bf58dd8d48988d11d941735","category":"Sports Bar","checkinsCount":892,"usersCount":278,"tipCount":7,"visitsCount":1024,"tier":"","message":"","currency":"","rating":7.5},{"name":"JB's Speakeasy","address":"717 Rose St","lat":43.83535981806794,"lng":-91.2482019984715,"city_fetched":"La Crosse,US","state":"WI","country":"United States","canonicalUrl":"https://foursquare.com/v/jbs-speakeasy/4b6d0835f964a520ee632ce3","categoryId":"4bf58dd8d48988d116941735","category":"Bar","checkinsCount":422,"usersCount":106,"tipCount":6,"visitsCount":460,"tier":"","message":"","currency":"","rating":7.4},{"name":"Arterial Bar","phone":"6087829247","address":"1003 16th St S","lat":43.801257488682346,"lng":-91.2327447336157,"city_fetched":"La Crosse,US","state":"WI","country":"United States","canonicalUrl":"https://foursquare.com/v/arterial-bar/4bca94870687ef3b796fdccc","categoryId":"4bf58dd8d48988d116941735","category":"Bar","checkinsCount":796,"usersCount":352,"tipCount":7,"visitsCount":1126,"tier":"","message":"","currency":"","rating":7.4},{"name":"State Room","address":"128 3rd St.","lat":43.813590195869835,"lng":-91.25174420955243,"city_fetched":"La Crosse,US","state":"WI","country":"United States","canonicalUrl":"https://foursquare.com/v/state-room/4b6e44c8f964a5204bb52ce3","categoryId":"4bf58dd8d48988d116941735","category":"Bar","checkinsCount":1715,"usersCount":543,"tipCount":2,"visitsCount":1791,"tier":1,"message":"Cheap","currency":"$","rating":7.4},{"name":"The Helm","phone":"6087826324","address":"108 3rd St.","lat":43.81298389170361,"lng":-91.25236436212911,"city_fetched":"La Crosse,US","state":"WI","country":"United States","canonicalUrl":"https://foursquare.com/v/the-helm/4b5a92f4f964a52001cc28e3","categoryId":"4bf58dd8d48988d116941735","category":"Bar","checkinsCount":1793,"usersCount":541,"tipCount":7,"visitsCount":1838,"tier":1,"message":"Cheap","currency":"$","rating":7.2},{"name":"Cassbar","address":"620 Cass St","lat":43.808845702867885,"lng":-91.24797650974261,"city_fetched":"La Crosse,US","state":"WI","country":"United States","canonicalUrl":"https://foursquare.com/v/cassbar/4dc2059eb0fb490416a712b4","categoryId":"4bf58dd8d48988d116941735","category":"Bar","checkinsCount":588,"usersCount":173,"tipCount":7,"visitsCount":605,"tier":"","message":"","currency":"","rating":7.1},{"name":"Yesterdays","phone":"6087829289","address":"317 Pearl St","lat":43.811769282245315,"lng":-91.25257015228271,"city_fetched":"La Crosse,US","state":"WI","country":"United States","canonicalUrl":"https://foursquare.com/v/yesterdays/4b652e0bf964a520cce72ae3","categoryId":"4bf58dd8d48988d116941735","category":"Bar","checkinsCount":2700,"usersCount":354,"tipCount":10,"visitsCount":2768,"tier":"","message":"","currency":"","rating":7.1},{"name":"Flipside Pub & Grill","phone":"6087842242","address":"400 Lang Dr","lat":43.83149681992383,"lng":-91.23905718326569,"city_fetched":"La Crosse,US","state":"WI","country":"United States","canonicalUrl":"https://foursquare.com/v/flipside-pub--grill/4b9ebf71f964a520b1fe36e3","categoryId":"4bf58dd8d48988d11b941735","category":"Pub","checkinsCount":1623,"usersCount":569,"tipCount":13,"visitsCount":2091,"tier":2,"message":"Moderate","currency":"$","rating":7},{"name":"John's Bar","phone":"6087829394","address":"109 3rd St","lat":43.812759185213125,"lng":-91.25247711812719,"city_fetched":"La Crosse,US","state":"WI","country":"United States","canonicalUrl":"https://foursquare.com/v/johns-bar/4b5a9838f964a520f3cc28e3","categoryId":"4bf58dd8d48988d116941735","category":"Bar","checkinsCount":1547,"usersCount":521,"tipCount":10,"visitsCount":1556,"url":"http://www.ralphs.com","tier":1,"message":"Cheap","currency":"$","rating":7},{"name":"Shimmy's","phone":"6087843779","address":"1203 West Ave S","lat":43.7992911,"lng":-91.23962581157684,"city_fetched":"La Crosse,US","state":"WI","country":"United States","canonicalUrl":"https://foursquare.com/v/shimmys/4c257fdff1272d7f5f0a85c5","categoryId":"4bf58dd8d48988d116941735","category":"Bar","checkinsCount":236,"usersCount":96,"tipCount":4,"visitsCount":261,"tier":"","message":"","currency":"","rating":7},{"name":"Fox Hollow Golf Course","phone":"6087864653","twitter":"foxhollowgb","address":"N3287 County Road Oa","lat":43.7980093036875,"lng":-91.2193464795556,"city_fetched":"La Crosse,US","state":"WI","country":"United States","canonicalUrl":"https://foursquare.com/v/fox-hollow-golf-course/4c49a5296f1420a110bae455","categoryId":"56aa371ce4b08b9a8d57356c","category":"Beer Bar","checkinsCount":712,"usersCount":202,"tipCount":8,"visitsCount":807,"url":"http://www.foxhollowgolfandbanquets.com","tier":1,"message":"Cheap","currency":"$","rating":7},{"name":"Sports Nut","phone":"6087841811","address":"801 Rose St","lat":43.835803270339966,"lng":-91.2483458,"city_fetched":"La Crosse,US","state":"WI","country":"United States","canonicalUrl":"https://foursquare.com/v/sports-nut/4c7f011ff4cf9c74725aa0a0","categoryId":"4bf58dd8d48988d11d941735","category":"Sports Bar","checkinsCount":842,"usersCount":247,"tipCount":6,"visitsCount":977,"tier":"","message":"","currency":"","rating":6.9},{"name":"Players","phone":"6087844200","address":"Jay street","lat":43.810985244444446,"lng":-91.25184175,"city_fetched":"La Crosse,US","state":"WI","country":"United States","canonicalUrl":"https://foursquare.com/v/players/4b77a25bf964a520e8a42ee3","categoryId":"4bf58dd8d48988d1d8941735","category":"Gay Bar","checkinsCount":1020,"usersCount":274,"tipCount":4,"visitsCount":1083,"tier":"","message":"","currency":"","rating":6.9},{"name":"Golden Tap","address":"520 State St","lat":43.81244574318141,"lng":-91.24827246394771,"city_fetched":"La Crosse,US","state":"WI","country":"United States","canonicalUrl":"https://foursquare.com/v/golden-tap/551f1bc4498e1c39503917ef","categoryId":"4bf58dd8d48988d116941735","category":"Bar","checkinsCount":125,"usersCount":169,"tipCount":1,"visitsCount":302,"tier":"","message":"","currency":"","rating":6.8},{"name":"Overtime sportbar","address":"1922 Ward Ave","lat":43.783131,"lng":-91.226973,"city_fetched":"La Crosse,US","state":"WI","country":"United States","canonicalUrl":"https://foursquare.com/v/overtime-sportbar/51edc590498e8317b1bbb966","categoryId":"4bf58dd8d48988d11d941735","category":"Sports Bar","checkinsCount":183,"usersCount":55,"tipCount":3,"visitsCount":217,"tier":"","message":"","currency":"","rating":6.7},{"name":"The Mink Farm","lat":43.761704,"lng":-91.158971,"city_fetched":"La Crosse,US","state":"WI","country":"United States","canonicalUrl":"https://foursquare.com/v/the-mink-farm/56bf8108cd10414e966010ff","categoryId":"53e510b7498ebcb1801b55d4","category":"Night Market","checkinsCount":1,"usersCount":1,"tipCount":1,"visitsCount":1,"tier":"","message":"","currency":"","rating":6.6},{"name":"Between The Bluffs Wine Beer Cheese Festival","lat":43.81813336752523,"lng":-91.25220932312618,"city_fetched":"La Crosse,US","state":"WI","country":"United States","canonicalUrl":"https://foursquare.com/v/between-the-bluffs-wine-beer-cheese-festival/4f9c5313e4b04f3d094a4d49","categoryId":"4bf58dd8d48988d117941735","category":"Beer Garden","checkinsCount":70,"usersCount":63,"tipCount":3,"visitsCount":80,"tier":"","message":"","currency":"","rating":6.6},{"name":"Coconut Joe's","phone":"6087842337","address":"128 3rd St.","lat":43.812001699999996,"lng":-91.25326562,"city_fetched":"La Crosse,US","state":"WI","country":"United States","canonicalUrl":"https://foursquare.com/v/coconut-joes/4b6e7408f964a52005be2ce3","categoryId":"4bf58dd8d48988d11f941735","category":"Nightclub","checkinsCount":1641,"usersCount":636,"tipCount":15,"visitsCount":1656,"tier":1,"message":"Cheap","currency":"$","rating":6.5},{"name":"Bennett O'Riley's Pub","phone":"6087822051","address":"213 3rd St S","lat":43.811528335198034,"lng":-91.25341676322032,"city_fetched":"La Crosse,US","state":"WI","country":"United States","canonicalUrl":"https://foursquare.com/v/bennett-orileys-pub/4b46aabbf964a5208d2626e3","categoryId":"4bf58dd8d48988d11b941735","category":"Pub","checkinsCount":1035,"usersCount":385,"tipCount":8,"visitsCount":1053,"tier":"","message":"","currency":"","rating":6.4},{"name":"Who's On Third","phone":"6087829467","address":"126 3rd St.","lat":43.81359168316298,"lng":-91.25194152983322,"city_fetched":"La Crosse,US","state":"WI","country":"United States","canonicalUrl":"https://foursquare.com/v/whos-on-third/4c22b17913c00f474ffa87de","categoryId":"4bf58dd8d48988d116941735","category":"Bar","checkinsCount":1222,"usersCount":520,"tipCount":7,"visitsCount":1258,"tier":"","message":"","currency":"","rating":6.4},{"name":"Happenings On Third","address":"215 3rd st.","lat":43.81153403100295,"lng":-91.2532993064337,"city_fetched":"La Crosse,US","state":"WI","country":"United States","canonicalUrl":"https://foursquare.com/v/happenings-on-third/4c352de0213c2d7f25d3395d","categoryId":"4bf58dd8d48988d116941735","category":"Bar","checkinsCount":602,"usersCount":119,"tipCount":2,"visitsCount":614,"tier":"","message":"","currency":"","rating":6.4},{"name":"The Library Bar","phone":"6087848020","address":"123 3rd St","lat":43.8121331608532,"lng":-91.25290274620056,"city_fetched":"La Crosse,US","state":"WI","country":"United States","canonicalUrl":"https://foursquare.com/v/the-library-bar/4b6a4c6ef964a52049d12be3","categoryId":"4bf58dd8d48988d116941735","category":"Bar","checkinsCount":1334,"usersCount":676,"tipCount":3,"visitsCount":1345,"tier":"","message":"","currency":"","rating":6.3},{"name":"The Cavalier Lounge","address":"114 5th Avenue North","lat":43.81219172954034,"lng":-91.24956435197642,"city_fetched":"La Crosse,US","state":"WI","country":"United States","canonicalUrl":"https://foursquare.com/v/the-cavalier-lounge/4b679971f964a5200c572be3","categoryId":"4bf58dd8d48988d116941735","category":"Bar","checkinsCount":375,"usersCount":203,"tipCount":9,"visitsCount":389,"tier":"","message":"","currency":"","rating":6.3},{"name":"Bucky's Burger Barn","phone":"6087829155","address":"424 Copeland Ave","lat":43.8318904,"lng":-91.24916911125183,"city_fetched":"La Crosse,US","state":"WI","country":"United States","canonicalUrl":"https://foursquare.com/v/buckys-burger-barn/4bede217767dc9b647a5d3e9","categoryId":"4bf58dd8d48988d11d941735","category":"Sports Bar","checkinsCount":304,"usersCount":79,"tipCount":6,"visitsCount":304,"tier":"","message":"","currency":"","rating":6.2},{"name":"Eagle's Nest","phone":"6087827764","twitter":"eaglesnestbar","address":"1920 Campbell Rd","lat":43.81351185,"lng":-91.22751027,"city_fetched":"La Crosse,US","state":"WI","country":"United States","canonicalUrl":"https://foursquare.com/v/eagles-nest/4be494282468c92828fbfe42","categoryId":"4bf58dd8d48988d116941735","category":"Bar","checkinsCount":954,"usersCount":429,"tipCount":6,"visitsCount":1030,"url":"http://www.myeaglesnest.net","tier":2,"message":"Moderate","currency":"$","rating":6.1},{"name":"L&M Tavern","phone":"6087847285","address":"631 Copeland Ave","lat":43.834598,"lng":-91.249551,"city_fetched":"La Crosse,US","state":"WI","country":"United States","canonicalUrl":"https://foursquare.com/v/lm-tavern/4b5bee40f964a520c61d29e3","categoryId":"4bf58dd8d48988d116941735","category":"Bar","checkinsCount":1324,"usersCount":56,"tipCount":6,"visitsCount":1467,"tier":"","message":"","currency":"","rating":6.1},{"name":"Snuffys","phone":"6087889070","address":"1201-1211 Travis St.","lat":43.79237733759176,"lng":-91.23939474562458,"city_fetched":"La Crosse,US","state":"WI","country":"United States","canonicalUrl":"https://foursquare.com/v/snuffys/4c9d75ec03133704b98a5fd5","categoryId":"4bf58dd8d48988d116941735","category":"Bar","checkinsCount":287,"usersCount":184,"tipCount":1,"visitsCount":343,"tier":"","message":"","currency":"","rating":6.1},{"name":"Boot HIll Pub","phone":"6087823826","address":"1501 Saint Andrew St","lat":43.83379556129497,"lng":-91.2353839483249,"city_fetched":"La Crosse,US","state":"WI","country":"United States","canonicalUrl":"https://foursquare.com/v/boot-hill-pub/4b89bbc6f964a520394d32e3","categoryId":"4bf58dd8d48988d116941735","category":"Bar","checkinsCount":320,"usersCount":148,"tipCount":5,"visitsCount":322,"tier":"","message":"","currency":"","rating":6.1},{"name":"Bootlegger's","phone":"6085191596","address":"214 Main St","lat":43.81294854138182,"lng":-91.25331340123073,"city_fetched":"La Crosse,US","state":"WI","country":"United States","canonicalUrl":"https://foursquare.com/v/bootleggers/52c23ddb498eb77c641451d1","categoryId":"4bf58dd8d48988d116941735","category":"Bar","checkinsCount":48,"usersCount":25,"tipCount":2,"visitsCount":49,"tier":"","message":"","currency":"","rating":6},{"name":"Animal House","phone":"6087823990","address":"110 3rd St.","lat":43.81305217994574,"lng":-91.25230328608991,"city_fetched":"La Crosse,US","state":"WI","country":"United States","canonicalUrl":"https://foursquare.com/v/animal-house/4c265020905a0f47840f6360","categoryId":"4bf58dd8d48988d116941735","category":"Bar","checkinsCount":1671,"usersCount":675,"tipCount":8,"visitsCount":1691,"tier":1,"message":"Cheap","currency":"$","rating":6},{"name":"Cheap Shots","phone":"6087844793","address":"318 Pearl St","lat":43.811744796728455,"lng":-91.25244892909927,"city_fetched":"La Crosse,US","state":"WI","country":"United States","canonicalUrl":"https://foursquare.com/v/cheap-shots/4b7f6ae8f964a5207f2d30e3","categoryId":"4bf58dd8d48988d116941735","category":"Bar","checkinsCount":1054,"usersCount":491,"tipCount":6,"visitsCount":1062,"tier":"","message":"","currency":"","rating":5.9},{"name":"Shooter's","phone":"6087829007","address":"120 3rd St S","lat":43.81216713320298,"lng":-91.25301271325327,"city_fetched":"La Crosse,US","state":"WI","country":"United States","canonicalUrl":"https://foursquare.com/v/shooters/4b99e0e9f964a5206f9535e3","categoryId":"4bf58dd8d48988d116941735","category":"Bar","checkinsCount":348,"usersCount":182,"tipCount":2,"visitsCount":348,"tier":"","message":"","currency":"","rating":5.9},{"name":"Heroes Bar & Grill","phone":"6087834376","address":"101 Sky Harbour Dr","lat":43.86034458872082,"lng":-91.26100986689362,"city_fetched":"La Crosse,US","state":"WI","country":"United States","canonicalUrl":"https://foursquare.com/v/heroes-bar--grill/4ce19d11567d2d433f1fa31c","categoryId":"4bf58dd8d48988d11d941735","category":"Sports Bar","checkinsCount":293,"usersCount":131,"tipCount":4,"visitsCount":299,"url":"http://www.daysinnlacrosse.com/heroes-bar-grill.html","tier":"","message":"","currency":"","rating":5.8},{"name":"Varsity Club","phone":"6087885500","address":"1922 Ward Ave.","lat":43.78308916645787,"lng":-91.22693622887515,"city_fetched":"La Crosse,US","state":"WI","country":"United States","canonicalUrl":"https://foursquare.com/v/varsity-club/4dc4ac9952b1e8f9f7c193dd","categoryId":"4bf58dd8d48988d116941735","category":"Bar","checkinsCount":369,"usersCount":208,"tipCount":4,"visitsCount":369,"tier":"","message":"","currency":"","rating":5.8},{"name":"Chucks","phone":"6087850371","address":"1101 La Crosse St","lat":43.8172922566858,"lng":-91.24082256931698,"city_fetched":"La Crosse,US","state":"WI","country":"United States","canonicalUrl":"https://foursquare.com/v/chucks/4cccfc0d566aa093d15225fd","categoryId":"4bf58dd8d48988d116941735","category":"Bar","checkinsCount":370,"usersCount":172,"tipCount":3,"visitsCount":389,"tier":"","message":"","currency":"","rating":5.8},{"name":"Brothers Bar & Grill","phone":"6087840522","address":"306 Pearl St","lat":43.81179517607174,"lng":-91.25298922209572,"city_fetched":"La Crosse,US","state":"WI","country":"United States","canonicalUrl":"https://foursquare.com/v/brothers-bar--grill/4b836939f964a520ae0531e3","categoryId":"4bf58dd8d48988d116941735","category":"Bar","checkinsCount":1815,"usersCount":802,"tipCount":4,"visitsCount":1838,"tier":"","message":"","currency":"","rating":5.8},{"name":"City Brewing Company","phone":"6087854200","address":"925 3rd St S","lat":43.802971907676245,"lng":-91.25345904774392,"city_fetched":"La Crosse,US","state":"WI","country":"United States","canonicalUrl":"https://foursquare.com/v/city-brewing-company/4bb387904019a593970f38b8","categoryId":"50327c8591d4c4b30a586d5d","category":"Brewery","checkinsCount":584,"usersCount":139,"tipCount":4,"visitsCount":586,"url":"http://www.citybrewery.com","tier":"","message":"","currency":"","rating":5.5},{"name":"Popcorn tavern","address":"308 4th St S","lat":43.81086357655147,"lng":-91.2518334733741,"city_fetched":"La Crosse,US","state":"WI","country":"United States","canonicalUrl":"https://foursquare.com/v/popcorn-tavern/4b6642ecf964a520271b2be3","categoryId":"4bf58dd8d48988d116941735","category":"Bar","checkinsCount":326,"usersCount":182,"tipCount":5,"visitsCount":327,"tier":1,"message":"Cheap","currency":"$","rating":5.5},{"name":"SawTooth Sam's Saloon","phone":"6087842337","address":"223 Pearl St","lat":43.81214599388519,"lng":-91.25351072888616,"city_fetched":"La Crosse,US","state":"WI","country":"United States","canonicalUrl":"https://foursquare.com/v/sawtooth-sams-saloon/4f88cee3e4b0ddfd81b0007d","categoryId":"4bf58dd8d48988d116941735","category":"Bar","checkinsCount":780,"usersCount":310,"tipCount":20,"visitsCount":785,"tier":"","message":"","currency":"","rating":5.1}]