[{"name":"The Looney Bin Bar And Grill","phone":"6033662300","address":"554 Endicott St N","lat":43.61299392559028,"lng":-71.4777020507785,"city_fetched":"Laconia","state":"NH","country":"United States","canonicalUrl":"https://foursquare.com/v/the-looney-bin-bar-and-grill/4bdc713a3904a593d4324e9e","category":"Bar","checkinsCount":512,"usersCount":168,"tipCount":3,"visitsCount":541,"url":"http://looneybinbar.com","tier":"","message":"","currency":"","rating":8.2},{"name":"T-Bones Great American Eatery","phone":"6035287800","address":"1182 Union Ave","lat":43.557767658899806,"lng":-71.45506167606564,"city_fetched":"Laconia","state":"NH","country":"United States","canonicalUrl":"https://foursquare.com/v/tbones-great-american-eatery/4bc76f8e14d79521de6167e9","category":"American Restaurant","checkinsCount":1671,"usersCount":701,"tipCount":10,"visitsCount":1802,"url":"http://www.t-bones.com/category/laconia.html","tier":2,"message":"Moderate","currency":"$","rating":7.8},{"name":"The NASWA Resort - Beach Bar & Grill","phone":"6033664341","twitter":"naswaresort","address":"1086 Weirs Blvd","lat":43.59942223793133,"lng":-71.45585261776695,"city_fetched":"Laconia","state":"NH","country":"United States","canonicalUrl":"https://foursquare.com/v/the-naswa-resort--beach-bar--grill/4c1579cfa5eb76b02476c3b7","category":"Resort","checkinsCount":1278,"usersCount":849,"tipCount":16,"visitsCount":1645,"tier":"","message":"","currency":"","rating":7.5},{"name":"Tower Hill Tavern","address":"264 Lakeside Ave.","lat":43.60827672243355,"lng":-71.46028894696306,"city_fetched":"Laconia","state":"NH","country":"United States","canonicalUrl":"https://foursquare.com/v/tower-hill-tavern/4c1c2afefcf8c9b625b7a90b","category":"Bar","checkinsCount":410,"usersCount":307,"tipCount":3,"visitsCount":412,"tier":"","message":"","currency":"","rating":7.2},{"name":"405 Pub And Grill","lat":43.536735,"lng":-71.463479,"city_fetched":"Laconia","state":"NH","country":"United States","canonicalUrl":"https://foursquare.com/v/405-pub-and-grill/52728e7b11d291691cbbf780","category":"Bar","checkinsCount":157,"usersCount":94,"tipCount":5,"visitsCount":223,"tier":2,"message":"Moderate","currency":"$","rating":7.2},{"name":"D.A. Long Tavern at Funspot","phone":"6033664377","address":"579 Endicott Street N.","lat":43.61495102209688,"lng":-71.47833824157715,"city_fetched":"Laconia","state":"NH","country":"United States","canonicalUrl":"https://foursquare.com/v/da-long-tavern-at-funspot/4d851c527e8ef04d093b1abe","category":"Bar","checkinsCount":293,"usersCount":74,"tipCount":1,"visitsCount":298,"url":"http://www.funspotnh.com/tavern.htm","tier":"","message":"","currency":"","rating":6.8},{"name":"Hector's Bar And Grill","lat":43.5274320197633,"lng":-71.4724546467613,"city_fetched":"Laconia","state":"NH","country":"United States","canonicalUrl":"https://foursquare.com/v/hectors-bar-and-grill/4b92f0bdf964a520c72834e3","category":"Cocktail Bar","checkinsCount":217,"usersCount":100,"tipCount":3,"visitsCount":256,"tier":"","message":"","currency":"","rating":6},{"name":"Shooter's Tavern","phone":"6035282444","address":"190 Daniel Webster Hwy","lat":43.51048225406557,"lng":-71.49825715540752,"city_fetched":"Laconia","state":"NH","country":"United States","canonicalUrl":"https://foursquare.com/v/shooters-tavern/4b75ff99f964a52074352ee3","category":"Sports Bar","checkinsCount":661,"usersCount":387,"tipCount":13,"visitsCount":870,"url":"http://www.shootersnh.com","tier":"","message":"","currency":"","rating":5.9}]