[{"name":"Legends on Johnston","address":"4559 Johnston St","lat":30.188962524325955,"lng":-92.06314239407862,"city_fetched":"Lafayette,US","state":"LA","country":"United States","canonicalUrl":"https://foursquare.com/v/legends-on-johnston/4c004ba837850f473116983f","categoryId":"4bf58dd8d48988d116941735","category":"Bar","checkinsCount":845,"usersCount":404,"tipCount":7,"visitsCount":1074,"tier":2,"message":"Moderate","currency":"$","rating":8.6},{"name":"Dix \"Almost Famous\" Daiquiris","phone":"3374563981","address":"101 Liberty Ave","lat":30.16213,"lng":-92.042321,"city_fetched":"Lafayette,US","state":"LA","country":"United States","canonicalUrl":"https://foursquare.com/v/dix-almost-famous-daiquiris/4b7ae650f964a520bc442fe3","categoryId":"4bf58dd8d48988d116941735","category":"Bar","checkinsCount":899,"usersCount":495,"tipCount":14,"visitsCount":1133,"tier":2,"message":"Moderate","currency":"$","rating":8.5},{"name":"Corner Bar","phone":"3374563063","address":"3103 Johnston St","lat":30.20305024434368,"lng":-92.04784101684952,"city_fetched":"Lafayette,US","state":"LA","country":"United States","canonicalUrl":"https://foursquare.com/v/corner-bar/4bfde583bf6576b0b409aeb8","categoryId":"4bf58dd8d48988d116941735","category":"Bar","checkinsCount":1456,"usersCount":496,"tipCount":9,"visitsCount":1622,"url":"http://cornerbarla.com","tier":"","message":"","currency":"","rating":8.5},{"name":"Marcello's Wine Market Cafe","phone":"3372351002","twitter":"marcelloswine","address":"340 Kaliste Saloom Rd Ste C","lat":30.184024,"lng":-92.016589,"city_fetched":"Lafayette,US","state":"LA","country":"United States","canonicalUrl":"https://foursquare.com/v/marcellos-wine-market-cafe/4b77382df964a52006892ee3","categoryId":"4bf58dd8d48988d123941735","category":"Wine Bar","checkinsCount":389,"usersCount":325,"tipCount":9,"visitsCount":645,"tier":"","message":"","currency":"","rating":8.4},{"name":"Hooters Lafayette","phone":"3372169464","twitter":"hooterslfyt","address":"3221 Ambassador Caffery Pkwy","lat":30.185293003612735,"lng":-92.07451293817884,"city_fetched":"Lafayette,US","state":"LA","country":"United States","canonicalUrl":"https://foursquare.com/v/hooters-lafayette/4b6e45a4f964a52082b52ce3","categoryId":"4bf58dd8d48988d116941735","category":"Bar","checkinsCount":832,"usersCount":423,"tipCount":9,"visitsCount":925,"url":"http://hootersoflouisiana.com","tier":2,"message":"Moderate","currency":"$","rating":8.3},{"name":"Parish Brewing Co.","twitter":"parishbrewing","address":"229 Jared Dr","lat":30.15909844248407,"lng":-91.9484790797856,"city_fetched":"Lafayette,US","state":"LA","country":"United States","canonicalUrl":"https://foursquare.com/v/parish-brewing-co/4e3466641838f851899b188e","categoryId":"50327c8591d4c4b30a586d5d","category":"Brewery","checkinsCount":345,"usersCount":271,"tipCount":1,"visitsCount":500,"url":"http://www.parishbeer.com","tier":"","message":"","currency":"","rating":8.2},{"name":"Bayou Teche Brewery","phone":"3377545122","address":"1106 Bushville Hwy","lat":30.39174114628792,"lng":-91.92491288574338,"city_fetched":"Lafayette,US","state":"LA","country":"United States","canonicalUrl":"https://foursquare.com/v/bayou-teche-brewery/4cc9d4407151721e783b6937","categoryId":"50327c8591d4c4b30a586d5d","category":"Brewery","checkinsCount":194,"usersCount":217,"tipCount":3,"visitsCount":309,"url":"http://bayoutechebrewing.com","tier":"","message":"","currency":"","rating":8},{"name":"The Green Room","phone":"3372334255","address":"229 Jefferson St","lat":30.226895691273736,"lng":-92.01679015369699,"city_fetched":"Lafayette,US","state":"LA","country":"United States","canonicalUrl":"https://foursquare.com/v/the-green-room/4af3fdc5f964a520c5ef21e3","categoryId":"4bf58dd8d48988d116941735","category":"Bar","checkinsCount":2794,"usersCount":643,"tipCount":11,"visitsCount":3061,"url":"http://www.greenroomdowntown.com","tier":"","message":"","currency":"","rating":7.9},{"name":"Artmosphere","phone":"3372333331","address":"902 Johnston St","lat":30.220468,"lng":-92.017134,"city_fetched":"Lafayette,US","state":"LA","country":"United States","canonicalUrl":"https://foursquare.com/v/artmosphere/4b2d289cf964a520c9cf24e3","categoryId":"4bf58dd8d48988d119941735","category":"Hookah Bar","checkinsCount":1423,"usersCount":521,"tipCount":15,"visitsCount":1572,"url":"http://www.myspace.com/artmosphere","tier":2,"message":"Moderate","currency":"$","rating":7.9},{"name":"Corner Bar","phone":"3374514149","address":"1700 Chemin Metairie Pkwy","lat":30.106199468740957,"lng":-92.01620197015072,"city_fetched":"Lafayette,US","state":"LA","country":"United States","canonicalUrl":"https://foursquare.com/v/corner-bar/51572fc0e4b0a9d4c640eb33","categoryId":"4bf58dd8d48988d116941735","category":"Bar","checkinsCount":293,"usersCount":117,"tipCount":2,"visitsCount":417,"url":"http://cornerbarla.com","tier":"","message":"","currency":"","rating":7.8},{"name":"Daiquiris Supreme","phone":"3379891879","address":"4680 Johnston St","lat":30.190500513845247,"lng":-92.06239563018879,"city_fetched":"Lafayette,US","state":"LA","country":"United States","canonicalUrl":"https://foursquare.com/v/daiquiris-supreme/4b305116f964a520ddf824e3","categoryId":"4bf58dd8d48988d116941735","category":"Bar","checkinsCount":1183,"usersCount":687,"tipCount":9,"visitsCount":1470,"tier":"","message":"","currency":"","rating":7.6},{"name":"Legends on Bertrand","phone":"3372378765","address":"215 Bertrand Dr","lat":30.207709,"lng":-92.042357,"city_fetched":"Lafayette,US","state":"LA","country":"United States","canonicalUrl":"https://foursquare.com/v/legends-on-bertrand/4bc93871cc8cd13a5065bbcf","categoryId":"4bf58dd8d48988d11d941735","category":"Sports Bar","checkinsCount":594,"usersCount":303,"tipCount":4,"visitsCount":833,"url":"http://legendsoflafayette.com","tier":"","message":"","currency":"","rating":7.6},{"name":"Jefferson Street Pub","phone":"3372325040","address":"500 Jefferson St","lat":30.224031341969766,"lng":-92.0189094543457,"city_fetched":"Lafayette,US","state":"LA","country":"United States","canonicalUrl":"https://foursquare.com/v/jefferson-street-pub/4b74d607f964a520a0f42de3","categoryId":"4bf58dd8d48988d116941735","category":"Bar","checkinsCount":713,"usersCount":369,"tipCount":4,"visitsCount":786,"tier":"","message":"","currency":"","rating":7.5},{"name":"Cowboys Saloon","lat":30.25050233944937,"lng":-92.0666130953099,"city_fetched":"Lafayette,US","state":"LA","country":"United States","canonicalUrl":"https://foursquare.com/v/cowboys-saloon/4b7c9f12f964a520339e2fe3","categoryId":"4bf58dd8d48988d122941735","category":"Whisky Bar","checkinsCount":368,"usersCount":183,"tipCount":2,"visitsCount":456,"tier":"","message":"","currency":"","rating":7.4},{"name":"Tonic, Lafayette","address":"2013 W Pinhook Rd","lat":30.186772400516325,"lng":-92.01155894055967,"city_fetched":"Lafayette,US","state":"LA","country":"United States","canonicalUrl":"https://foursquare.com/v/tonic-lafayette/4c9032486fbf224b75f2518f","categoryId":"4bf58dd8d48988d1d8941735","category":"Gay Bar","checkinsCount":591,"usersCount":156,"tipCount":2,"visitsCount":597,"url":"http://toniclafayette.com","tier":"","message":"","currency":"","rating":7.4},{"name":"new orleans original daquiris","phone":"3379892259","address":"5601 Johnston St","lat":30.1775649,"lng":-92.074185,"city_fetched":"Lafayette,US","state":"LA","country":"United States","canonicalUrl":"https://foursquare.com/v/new-orleans-original-daquiris/4b777503f964a520939b2ee3","categoryId":"4bf58dd8d48988d116941735","category":"Bar","checkinsCount":419,"usersCount":232,"tipCount":6,"visitsCount":448,"tier":"","message":"","currency":"","rating":7.4},{"name":"Antlers Downtown","phone":"3372348877","address":"555 Jefferson St","lat":30.224321,"lng":-92.018498,"city_fetched":"Lafayette,US","state":"LA","country":"United States","canonicalUrl":"https://foursquare.com/v/antlers-downtown/4b4b60def964a520609926e3","categoryId":"4bf58dd8d48988d116941735","category":"Bar","checkinsCount":146,"usersCount":95,"tipCount":6,"visitsCount":153,"url":"http://antlersdowntown.com","tier":"","message":"","currency":"","rating":7.3},{"name":"Green Oaks Lounge","phone":"3379849071","address":"400 Guilbeau Rd","lat":30.197613703392957,"lng":-92.06846584212806,"city_fetched":"Lafayette,US","state":"LA","country":"United States","canonicalUrl":"https://foursquare.com/v/green-oaks-lounge/4bede5e6e24d20a196327214","categoryId":"4bf58dd8d48988d116941735","category":"Bar","checkinsCount":206,"usersCount":96,"tipCount":2,"visitsCount":307,"tier":"","message":"","currency":"","rating":7.3},{"name":"Marley's","phone":"3372352004","address":"407 Jefferson St","lat":30.226239,"lng":-92.017432,"city_fetched":"Lafayette,US","state":"LA","country":"United States","canonicalUrl":"https://foursquare.com/v/marleys/4b4cf6fef964a520c2c526e3","categoryId":"4bf58dd8d48988d116941735","category":"Bar","checkinsCount":1047,"usersCount":417,"tipCount":7,"visitsCount":1062,"tier":"","message":"","currency":"","rating":7.2},{"name":"Frozen Sun Daiquiris","address":"1517 Ambassador Caffery Pkwy","lat":30.220101,"lng":-92.075338,"city_fetched":"Lafayette,US","state":"LA","country":"United States","canonicalUrl":"https://foursquare.com/v/frozen-sun-daiquiris/4bdce22c2a3a0f4740d7b4b6","categoryId":"4bf58dd8d48988d116941735","category":"Bar","checkinsCount":129,"usersCount":86,"tipCount":4,"visitsCount":148,"tier":"","message":"","currency":"","rating":7.2},{"name":"BJ's Restaurant & Brewhouse","phone":"3377616300","address":"4511 Ambassador Caffery Pkwy","lat":30.15536183205329,"lng":-92.04643893232394,"city_fetched":"Lafayette,US","state":"LA","country":"United States","canonicalUrl":"https://foursquare.com/v/bjs-restaurant--brewhouse/56fc23ec498eeb03d867290e","categoryId":"50327c8591d4c4b30a586d5d","category":"Brewery","checkinsCount":73,"usersCount":151,"tipCount":0,"visitsCount":269,"url":"http://www.bjsrestaurants.com/locations/la/lafayette","tier":"","message":"","currency":"","rating":7.2},{"name":"Legends Annex","phone":"3375043282","lat":30.225939,"lng":-92.017272,"city_fetched":"Lafayette,US","state":"LA","country":"United States","canonicalUrl":"https://foursquare.com/v/legends-annex/4bdc9522c79cc928693987e9","categoryId":"4bf58dd8d48988d11d941735","category":"Sports Bar","checkinsCount":550,"usersCount":172,"tipCount":2,"visitsCount":557,"tier":"","message":"","currency":"","rating":7.1},{"name":"Fast Eddies","twitter":"fasteddies_","lat":30.212674,"lng":-92.048126,"city_fetched":"Lafayette,US","state":"LA","country":"United States","canonicalUrl":"https://foursquare.com/v/fast-eddies/4b80aa67f964a520b88430e3","categoryId":"4bf58dd8d48988d11d941735","category":"Sports Bar","checkinsCount":340,"usersCount":177,"tipCount":1,"visitsCount":400,"url":"http://fasteddiesbilliards.com","tier":"","message":"","currency":"","rating":6.8},{"name":"NiteTown","phone":"3375938551","address":"524 Jefferson St","lat":30.22511,"lng":-92.0188,"city_fetched":"Lafayette,US","state":"LA","country":"United States","canonicalUrl":"https://foursquare.com/v/nitetown/4b48d768f964a520865926e3","categoryId":"4bf58dd8d48988d116941735","category":"Bar","checkinsCount":449,"usersCount":205,"tipCount":3,"visitsCount":459,"url":"http://nitetowndowntown.com","tier":"","message":"","currency":"","rating":6.7},{"name":"Legends Downtown","phone":"3372619494","address":"413 Jefferson St","lat":30.226135,"lng":-92.01749965,"city_fetched":"Lafayette,US","state":"LA","country":"United States","canonicalUrl":"https://foursquare.com/v/legends-downtown/4bb80a717421a5932876c140","categoryId":"4bf58dd8d48988d116941735","category":"Bar","checkinsCount":803,"usersCount":371,"tipCount":6,"visitsCount":865,"tier":"","message":"","currency":"","rating":6.7},{"name":"Bulldog Sports and Imports","lat":30.218307,"lng":-92.017577,"city_fetched":"Lafayette,US","state":"LA","country":"United States","canonicalUrl":"https://foursquare.com/v/bulldog-sports-and-imports/4eb17893f5b931e2ae42433e","categoryId":"4bf58dd8d48988d116941735","category":"Bar","checkinsCount":168,"usersCount":64,"tipCount":2,"visitsCount":168,"tier":"","message":"","currency":"","rating":6.5},{"name":"City Bar Downtown","address":"324 Jefferson St","lat":30.226767,"lng":-92.017466,"city_fetched":"Lafayette,US","state":"LA","country":"United States","canonicalUrl":"https://foursquare.com/v/city-bar-downtown/4b4cf6c2f964a520b8c526e3","categoryId":"4bf58dd8d48988d116941735","category":"Bar","checkinsCount":1261,"usersCount":487,"tipCount":9,"visitsCount":1287,"tier":"","message":"","currency":"","rating":6.4},{"name":"The Tap Room","twitter":"taproomla","address":"201 Settlers Trace Blvd","lat":30.169037027072157,"lng":-92.03767809906518,"city_fetched":"Lafayette,US","state":"LA","country":"United States","canonicalUrl":"https://foursquare.com/v/the-tap-room/4b32e727f964a520cc1525e3","categoryId":"4bf58dd8d48988d117941735","category":"Beer Garden","checkinsCount":1095,"usersCount":605,"tipCount":6,"visitsCount":1440,"url":"http://lataproom.com","tier":2,"message":"Moderate","currency":"$","rating":6.3},{"name":"The Office","address":"307 Jefferson St","lat":30.22675311244638,"lng":-92.01679971772136,"city_fetched":"Lafayette,US","state":"LA","country":"United States","canonicalUrl":"https://foursquare.com/v/the-office/4b47cf3cf964a520b33f26e3","categoryId":"4bf58dd8d48988d116941735","category":"Bar","checkinsCount":591,"usersCount":264,"tipCount":5,"visitsCount":595,"tier":"","message":"","currency":"","rating":6.2},{"name":"The Keg","phone":"3372648534","address":"115 McKinley St","lat":30.21631344893486,"lng":-92.01314641004961,"city_fetched":"Lafayette,US","state":"LA","country":"United States","canonicalUrl":"https://foursquare.com/v/the-keg/4b4cf766f964a520cec526e3","categoryId":"4bf58dd8d48988d116941735","category":"Bar","checkinsCount":465,"usersCount":134,"tipCount":6,"visitsCount":469,"tier":"","message":"","currency":"","rating":6.2},{"name":"Main Street Bar & Grill","lat":30.168399529853207,"lng":-92.03661600695338,"city_fetched":"Lafayette,US","state":"LA","country":"United States","canonicalUrl":"https://foursquare.com/v/main-street-bar--grill/518d7f9f498e338210d5efa6","categoryId":"4bf58dd8d48988d11d941735","category":"Sports Bar","checkinsCount":130,"usersCount":56,"tipCount":5,"visitsCount":130,"tier":"","message":"","currency":"","rating":6.1},{"name":"Bulldog Poolhall","phone":"3372332210","address":"109 General Mouton Ave","lat":30.218358,"lng":-92.017398,"city_fetched":"Lafayette,US","state":"LA","country":"United States","canonicalUrl":"https://foursquare.com/v/bulldog-poolhall/4b48e86ef964a520e05c26e3","categoryId":"4bf58dd8d48988d116941735","category":"Bar","checkinsCount":734,"usersCount":212,"tipCount":9,"visitsCount":744,"tier":"","message":"","currency":"","rating":6.1},{"name":"Max's Pool Hall","lat":30.18767,"lng":-92.014682,"city_fetched":"Lafayette,US","state":"LA","country":"United States","canonicalUrl":"https://foursquare.com/v/maxs-pool-hall/4b4ff86cf964a5208b1a27e3","categoryId":"4bf58dd8d48988d116941735","category":"Bar","checkinsCount":304,"usersCount":113,"tipCount":4,"visitsCount":312,"tier":"","message":"","currency":"","rating":6},{"name":"Arcadian Bar and Grill","phone":"3378893333","address":"302 Jefferson St #A","lat":30.226957132036656,"lng":-92.01696230645001,"city_fetched":"Lafayette,US","state":"LA","country":"United States","canonicalUrl":"https://foursquare.com/v/arcadian-bar-and-grill/52731805498ed32cc0e1f5cb","categoryId":"4bf58dd8d48988d116941735","category":"Bar","checkinsCount":182,"usersCount":89,"tipCount":2,"visitsCount":189,"tier":2,"message":"Moderate","currency":"$","rating":5.7},{"name":"Scandals at the Crowne Plaza","phone":"3374563063","address":"1801 W Pinhook Rd","lat":30.193266169704895,"lng":-92.014681336539,"city_fetched":"Lafayette,US","state":"LA","country":"United States","canonicalUrl":"https://foursquare.com/v/scandals-at-the-crowne-plaza/4db8d01d4b22a2fe44e5d3f8","categoryId":"4bf58dd8d48988d116941735","category":"Bar","checkinsCount":217,"usersCount":139,"tipCount":3,"visitsCount":230,"tier":"","message":"","currency":"","rating":5.2}]