[{"name":"College Street Brewhouse & Pub","phone":"9288542739","address":"1940 College Dr","lat":34.50740537437733,"lng":-114.34723734855652,"city_fetched":"Lake Havasu City","state":"AZ","country":"United States","canonicalUrl":"https://foursquare.com/v/college-street-brewhouse--pub/4e4adb2de4cde30b727c9f73","category":"Brewery","checkinsCount":1601,"usersCount":550,"tipCount":21,"visitsCount":2114,"url":"http://collegestreetbrewhouseandpub.com","tier":2,"message":"Moderate","currency":"$","rating":8.8},{"name":"Mudshark Brewing Company","phone":"9284532981","address":"210 Swanson Ave","lat":34.46868065555752,"lng":-114.34113328424732,"city_fetched":"Lake Havasu City","state":"AZ","country":"United States","canonicalUrl":"https://foursquare.com/v/mudshark-brewing-company/4bcba07668f976b024896183","category":"Brewery","checkinsCount":1325,"usersCount":775,"tipCount":22,"visitsCount":1646,"url":"http://www.mudsharkbrewingco.com","tier":2,"message":"Moderate","currency":"$","rating":8.7},{"name":"Martini Bay","phone":"9288550888","address":"1477 Queens Bay","lat":34.4712550023763,"lng":-114.34553146362305,"city_fetched":"Lake Havasu City","state":"AZ","country":"United States","canonicalUrl":"https://foursquare.com/v/martini-bay/4c2ed221213c2d7f27f42f5d","category":"Nightclub","checkinsCount":792,"usersCount":415,"tipCount":6,"visitsCount":841,"url":"http://martinibay.com","tier":3,"message":"Expensive","currency":"$","rating":8.3},{"name":"Barley Brothers Restaurant & Brewery","phone":"9285057837","address":"1425 McCulloch Blvd N","lat":34.47095427311298,"lng":-114.3489271402359,"city_fetched":"Lake Havasu City","state":"AZ","country":"United States","canonicalUrl":"https://foursquare.com/v/barley-brothers-restaurant--brewery/4bca454db6c49c74e4359091","category":"Brewery","checkinsCount":1775,"usersCount":995,"tipCount":25,"visitsCount":2043,"url":"http://www.barleybrothers.com","tier":"","message":"","currency":"","rating":8},{"name":"The Office Cocktail Lounge","phone":"9288559583","address":"2180 Acoma Blvd W","lat":34.49666509872671,"lng":-114.33513264241999,"city_fetched":"Lake Havasu City","state":"AZ","country":"United States","canonicalUrl":"https://foursquare.com/v/the-office-cocktail-lounge/4c1841f9838020a1bd05e461","category":"Bar","checkinsCount":397,"usersCount":161,"tipCount":4,"visitsCount":570,"tier":"","message":"","currency":"","rating":7.9},{"name":"Flying X","phone":"9288543599","twitter":"flyingxsaloon","address":"2030 McCulloch Blvd N","lat":34.476215,"lng":-114.331117,"city_fetched":"Lake Havasu City","state":"AZ","country":"United States","canonicalUrl":"https://foursquare.com/v/flying-x/51c3ad4f498e2a9935548390","category":"Bar","checkinsCount":310,"usersCount":199,"tipCount":5,"visitsCount":452,"url":"http://flyingxsaloon.com","tier":"","message":"","currency":"","rating":7.7},{"name":"McKee's Pub & Grill","phone":"9284538400","twitter":"mckees5stardive","address":"2112 McCulloch Blvd N","lat":34.47530686855316,"lng":-114.32853377,"city_fetched":"Lake Havasu City","state":"AZ","country":"United States","canonicalUrl":"https://foursquare.com/v/mckees-pub--grill/4ba151a8f964a52026ac37e3","category":"Pub","checkinsCount":703,"usersCount":269,"tipCount":6,"visitsCount":760,"url":"http://mckees5stardivebar.com","tier":"","message":"","currency":"","rating":7.3},{"name":"Desert Martini","phone":"9288551818","address":"2120 McCulloch Blvd N","lat":34.47523205339372,"lng":-114.3282555914298,"city_fetched":"Lake Havasu City","state":"AZ","country":"United States","canonicalUrl":"https://foursquare.com/v/desert-martini/4bf2207e324cc9b6b4d8cc92","category":"Dive Bar","checkinsCount":537,"usersCount":143,"tipCount":5,"visitsCount":547,"tier":"","message":"","currency":"","rating":7.2},{"name":"Mad Dogs Bar & Grill","phone":"9285055253","address":"2048 McCulloch Blvd N","lat":34.47594342,"lng":-114.33070921666666,"city_fetched":"Lake Havasu City","state":"AZ","country":"United States","canonicalUrl":"https://foursquare.com/v/mad-dogs-bar--grill/4d76d5f44e81a143d7c4a6e4","category":"Bar","checkinsCount":651,"usersCount":298,"tipCount":11,"visitsCount":692,"tier":"","message":"","currency":"","rating":6.7},{"name":"The Turtle Beach Bar","phone":"8008922141","twitter":"nauticalresort","address":"1000 McCulloch Blvd N","lat":34.459356799304366,"lng":-114.3486020469023,"city_fetched":"Lake Havasu City","state":"AZ","country":"United States","canonicalUrl":"https://foursquare.com/v/the-turtle-beach-bar/4bd20633046076b0360d7371","category":"Bar","checkinsCount":1092,"usersCount":717,"tipCount":8,"visitsCount":1216,"tier":"","message":"","currency":"","rating":6.4},{"name":"Heat Hotel","phone":"9288542833","twitter":"heathotel","address":"1420 McCulloch Blvd N","lat":34.47054740238484,"lng":-114.34810638427734,"city_fetched":"Lake Havasu City","state":"AZ","country":"United States","canonicalUrl":"https://foursquare.com/v/heat-hotel/4bd1db915e0cce72a016a284","category":"Hotel","checkinsCount":1103,"usersCount":383,"tipCount":7,"visitsCount":1120,"tier":"","message":"","currency":"","rating":6.4},{"name":"BJ's Cabana & Karaoke Bar","phone":"9288542122","address":"2122 McCulloch Blvd N","lat":34.47507083415985,"lng":-114.32822093,"city_fetched":"Lake Havasu City","state":"AZ","country":"United States","canonicalUrl":"https://foursquare.com/v/bjs-cabana--karaoke-bar/4bf2475f78cec9281f51bb86","category":"Karaoke Bar","checkinsCount":1511,"usersCount":440,"tipCount":11,"visitsCount":1673,"tier":"","message":"","currency":"","rating":6.3},{"name":"Kokomo's","phone":"9288550888","address":"1477 Queens Bay","lat":34.470848133114266,"lng":-114.34589624404907,"city_fetched":"Lake Havasu City","state":"AZ","country":"United States","canonicalUrl":"https://foursquare.com/v/kokomos/4b9b2e9df964a52061f835e3","category":"Nightclub","checkinsCount":876,"usersCount":599,"tipCount":5,"visitsCount":887,"tier":"","message":"","currency":"","rating":6}]