[{"name":"Red Door Wine Market","phone":"8639379314","twitter":"red_door_wine","address":"733 E Palmetto St","lat":28.036739599289394,"lng":-81.94912433624268,"neighborhood":"Lake Morton Historic District","city_fetched":"Lakeland","state":"FL","country":"United States","canonicalUrl":"https://foursquare.com/red_door_wine","category":"Wine Bar","checkinsCount":2344,"usersCount":712,"tipCount":27,"visitsCount":2480,"url":"http://reddoorwinemarket.com","tier":2,"message":"Moderate","currency":"$","rating":9},{"name":"Lakeland Brewing Company","phone":"8639403600","address":"640 E. Main St","lat":28.045862046129702,"lng":-81.95039422739887,"neighborhood":"Downtown Lakeland","city_fetched":"Lakeland","state":"FL","country":"United States","canonicalUrl":"https://foursquare.com/v/lakeland-brewing-company/550d8ad0498eb8258526d240","category":"Brewery","checkinsCount":231,"usersCount":240,"tipCount":3,"visitsCount":375,"url":"http://lakelandbrewingcompany.com","tier":"","message":"","currency":"","rating":8.7},{"name":"Patio850","phone":"8639402030","address":"850 S Tennessee Ave","lat":28.0333413016669,"lng":-81.95580161142928,"neighborhood":"Lake Morton Historic District","city_fetched":"Lakeland","state":"FL","country":"United States","canonicalUrl":"https://foursquare.com/v/patio850/50c14f78e4b0dfcd54ca1ca7","category":"Gastropub","checkinsCount":535,"usersCount":283,"tipCount":12,"visitsCount":630,"url":"http://patio850.com","tier":2,"message":"Moderate","currency":"$","rating":8.4},{"name":"The Brass Tap","phone":"8636809994","address":"1515 Town Center Dr","lat":28.00091297740109,"lng":-81.98007392014622,"neighborhood":"Lakeside Village","city_fetched":"Lakeland","state":"FL","country":"United States","canonicalUrl":"https://foursquare.com/v/the-brass-tap/514b4679e4b0e87606728761","category":"Beer Garden","checkinsCount":2931,"usersCount":1062,"tipCount":24,"visitsCount":3601,"url":"http://brasstapbeerbar.com/Lakeland/","tier":2,"message":"Moderate","currency":"$","rating":8.3},{"name":"Brew Hub","phone":"6365322700","twitter":"thebrewhub","address":"3900 Frontage Rd S","lat":28.04450324023034,"lng":-82.02396917730952,"neighborhood":"Winston","city_fetched":"Lakeland","state":"FL","country":"United States","canonicalUrl":"https://foursquare.com/v/brew-hub/53cd3068498e4ee83ee74346","category":"Brewery","checkinsCount":786,"usersCount":665,"tipCount":12,"visitsCount":1244,"url":"http://brewhub.com","tier":"","message":"","currency":"","rating":8.1},{"name":"Ybor Cigars And Spirits","phone":"8636196799","address":"5263 S Florida Ave","lat":27.970741498447886,"lng":-81.9633712702654,"city_fetched":"Lakeland","state":"FL","country":"United States","canonicalUrl":"https://foursquare.com/v/ybor-cigars-and-spirits/4bd39606a8b3a5937c696a5f","category":"Bar","checkinsCount":589,"usersCount":219,"tipCount":8,"visitsCount":597,"url":"http://yborcigarsplus.com","tier":"","message":"","currency":"","rating":8},{"name":"Linksters","phone":"8636837195","address":"209 E Main St","lat":28.043955320693396,"lng":-81.95590496063232,"neighborhood":"Downtown Lakeland","city_fetched":"Lakeland","state":"FL","country":"United States","canonicalUrl":"https://foursquare.com/v/linksters/4b2fdd94f964a5208df124e3","category":"Bar","checkinsCount":4427,"usersCount":905,"tipCount":23,"visitsCount":4534,"url":"http://linksterstaproom.com","tier":1,"message":"Cheap","currency":"$","rating":8},{"name":"Fresco's Bakery And Bistro","phone":"8636835267","twitter":"frescsobakery","address":"132 S Kentucky Ave","lat":28.043105,"lng":-81.95503056049347,"neighborhood":"Downtown Lakeland","city_fetched":"Lakeland","state":"FL","country":"United States","canonicalUrl":"https://foursquare.com/v/frescos-bakery-and-bistro/4b62fcbbf964a520625c2ae3","category":"American Restaurant","checkinsCount":2751,"usersCount":1017,"tipCount":35,"visitsCount":2949,"url":"http://www.frescoslakeland.com","tier":2,"message":"Moderate","currency":"$","rating":8},{"name":"Hookah Palace","phone":"8636881818","address":"122 S Kentucky Ave","lat":28.043295030200426,"lng":-81.95495457007425,"neighborhood":"Downtown Lakeland","city_fetched":"Lakeland","state":"FL","country":"United States","canonicalUrl":"https://foursquare.com/v/hookah-palace/4b5f3bd9f964a5201daf29e3","category":"Hookah Bar","checkinsCount":1832,"usersCount":527,"tipCount":13,"visitsCount":1877,"url":"http://myhookahpalace.com","tier":"","message":"","currency":"","rating":8},{"name":"Winners Circle Sports Bar","phone":"8636449464","address":"4215 S Florida Ave","lat":27.988786733333335,"lng":-81.95730518,"city_fetched":"Lakeland","state":"FL","country":"United States","canonicalUrl":"https://foursquare.com/v/winners-circle-sports-bar/4cdf3dc394c3b60c5ab66aea","category":"Sports Bar","checkinsCount":2525,"usersCount":814,"tipCount":29,"visitsCount":2705,"url":"http://www.winnerscirclesportsbar.com","tier":2,"message":"Moderate","currency":"$","rating":7.9},{"name":"Tony's Studio B","phone":"8636883469","twitter":"tonys_studio_b","address":"213 E Bay St","lat":28.04683389862362,"lng":-81.95558309555054,"neighborhood":"Downtown Lakeland","city_fetched":"Lakeland","state":"FL","country":"United States","canonicalUrl":"https://foursquare.com/v/tonys-studio-b/5160720d45b0b93624975cfd","category":"Wine Bar","checkinsCount":216,"usersCount":106,"tipCount":7,"visitsCount":235,"url":"http://tonystudiob.com","tier":"","message":"","currency":"","rating":7.8},{"name":"Linkster's Tap Room","phone":"8636065926","address":"5125 US-98 N","lat":28.109692598755544,"lng":-81.97353925511312,"city_fetched":"Lakeland","state":"FL","country":"United States","canonicalUrl":"https://foursquare.com/v/linksters-tap-room/4d9b6a4f3a32a09321619219","category":"Bar","checkinsCount":857,"usersCount":296,"tipCount":6,"visitsCount":1051,"url":"http://linksterstaproom.com","tier":"","message":"","currency":"","rating":7.6},{"name":"Hooters","phone":"8638597772","twitter":"hooters","address":"3400 U.S. 98","lat":28.085838689673913,"lng":-81.97202133878177,"city_fetched":"Lakeland","state":"FL","country":"United States","canonicalUrl":"https://foursquare.com/v/hooters/4b724f55f964a52065772de3","category":"Wings Joint","checkinsCount":3856,"usersCount":2274,"tipCount":31,"visitsCount":4409,"url":"http://www.hooters.com","tier":1,"message":"Cheap","currency":"$","rating":7.6},{"name":"Pulse Nightclub","phone":"8636676054","twitter":"pulselakeland","address":"1030 E Main St","lat":28.04442888826658,"lng":-81.94385155192428,"city_fetched":"Lakeland","state":"FL","country":"United States","canonicalUrl":"https://foursquare.com/pulselakeland","category":"Nightclub","checkinsCount":780,"usersCount":243,"tipCount":11,"visitsCount":890,"tier":"","message":"","currency":"","rating":7.5},{"name":"Gator's Dockside","phone":"8636197619","twitter":"gatorsdkside","address":"5147 US Highway 98 S","lat":27.970690536081637,"lng":-81.88382107930885,"city_fetched":"Lakeland","state":"FL","country":"United States","canonicalUrl":"https://foursquare.com/v/gators-dockside/4b510746f964a520783e27e3","category":"Sports Bar","checkinsCount":5546,"usersCount":1425,"tipCount":32,"visitsCount":6141,"url":"http://gatorsdockside.com","tier":2,"message":"Moderate","currency":"$","rating":7.4},{"name":"Natalie's At The Heights","lat":28.010250009473143,"lng":-81.94550858833001,"city_fetched":"Lakeland","state":"FL","country":"United States","canonicalUrl":"https://foursquare.com/v/natalies-at-the-heights/5101b001e4b0a24b4c6909b6","category":"Sports Bar","checkinsCount":447,"usersCount":60,"tipCount":3,"visitsCount":470,"tier":"","message":"","currency":"","rating":7.4},{"name":"Boots N Buckles Saloon","phone":"8638152668","twitter":"bootsnbuckles1","address":"4951 US Highway 98 N","lat":28.104779016040045,"lng":-81.97247405400705,"city_fetched":"Lakeland","state":"FL","country":"United States","canonicalUrl":"https://foursquare.com/bootsnbuckles1","category":"Nightclub","checkinsCount":2669,"usersCount":764,"tipCount":6,"visitsCount":2895,"url":"http://bootsnbuckles-hub.com","tier":1,"message":"Cheap","currency":"$","rating":7.4},{"name":"Grapevine Wine & Spirits","phone":"8636482002","address":"4738 S Florida Ave","lat":27.977746779133568,"lng":-81.95659004352945,"city_fetched":"Lakeland","state":"FL","country":"United States","canonicalUrl":"https://foursquare.com/v/grapevine-wine--spirits/4b43ab3df964a520c4e525e3","category":"Wine Shop","checkinsCount":429,"usersCount":173,"tipCount":4,"visitsCount":449,"url":"http://www.grapevinelakeland.com","tier":"","message":"","currency":"","rating":7.3},{"name":"Mojo's","phone":"8635839119","twitter":"getmojod","address":"1853 E Memorial Blvd","lat":28.049613302550263,"lng":-81.9269060468885,"city_fetched":"Lakeland","state":"FL","country":"United States","canonicalUrl":"https://foursquare.com/v/mojos/4bb69b781344b71372d19d04","category":"Bar","checkinsCount":1131,"usersCount":657,"tipCount":26,"visitsCount":1520,"url":"http://www.getmojod.com","tier":1,"message":"Cheap","currency":"$","rating":7.2},{"name":"Paddy Wagon Irish Pub","phone":"8639378925","address":"4204 S Florida Ave","lat":27.989160502568087,"lng":-81.95586553867633,"city_fetched":"Lakeland","state":"FL","country":"United States","canonicalUrl":"https://foursquare.com/v/paddy-wagon-irish-pub/4d1bbaffddc85481fd6ac260","category":"Pub","checkinsCount":1477,"usersCount":427,"tipCount":12,"visitsCount":1601,"tier":2,"message":"Moderate","currency":"$","rating":7.2},{"name":"Miller's Lakeland Ale House","phone":"8637099262","address":"5650 S Florida Ave","lat":27.963418481788835,"lng":-81.96528353585367,"city_fetched":"Lakeland","state":"FL","country":"United States","canonicalUrl":"https://foursquare.com/v/millers-lakeland-ale-house/4b91b05ef964a52010d033e3","category":"American Restaurant","checkinsCount":3034,"usersCount":1407,"tipCount":26,"visitsCount":3614,"url":"http://www.millersalehouse.com","tier":2,"message":"Moderate","currency":"$","rating":7.2},{"name":"Linkster's Highland City","phone":"8639379313","address":"5125 US Hwy 98 S","lat":27.973102897221185,"lng":-81.88389301300049,"city_fetched":"Lakeland","state":"FL","country":"United States","canonicalUrl":"https://foursquare.com/v/linksters-highland-city/4c032e7cf56c2d7f7b9f1c66","category":"Bar","checkinsCount":1019,"usersCount":279,"tipCount":8,"visitsCount":1027,"tier":"","message":"","currency":"","rating":7.2},{"name":"The Terrace Hotel","phone":"8636880800","address":"329 E Main St","lat":28.04397324972317,"lng":-81.95446445356734,"neighborhood":"Downtown Lakeland","city_fetched":"Lakeland","state":"FL","country":"United States","canonicalUrl":"https://foursquare.com/v/the-terrace-hotel/4b5f4603f964a52051b129e3","category":"Hotel","checkinsCount":1318,"usersCount":698,"tipCount":14,"visitsCount":1402,"url":"http://terracehotel.com","tier":"","message":"","currency":"","rating":7},{"name":"Buffalo Wild Wings","phone":"8638537722","twitter":"bwwings","address":"3750 Highway 98","lat":28.08986050961593,"lng":-81.97449259678564,"neighborhood":"Lakeland Square","city_fetched":"Lakeland","state":"FL","country":"United States","canonicalUrl":"https://foursquare.com/v/buffalo-wild-wings/4d2f5fe1ad3a8cfac7439dbd","category":"Restaurant","checkinsCount":4099,"usersCount":2315,"tipCount":45,"visitsCount":4623,"url":"http://www.buffalowildwings.com","tier":1,"message":"Cheap","currency":"$","rating":7},{"name":"Molly McHugh's","phone":"8636866231","address":"111 S Kentucky Ave","lat":28.043614431362858,"lng":-81.95531755685806,"neighborhood":"Downtown Lakeland","city_fetched":"Lakeland","state":"FL","country":"United States","canonicalUrl":"https://foursquare.com/v/molly-mchughs/4b772ef5f964a520aa852ee3","category":"Pub","checkinsCount":3009,"usersCount":1019,"tipCount":15,"visitsCount":3081,"url":"http://mollymchughs.com","tier":"","message":"","currency":"","rating":6.9}]