[{"name":"The Fridge","phone":"7174906825","address":"534 N Mulberry St","lat":40.046451,"lng":-76.312189,"neighborhood":"Stadium District","city_fetched":"Lancaster,US","state":"PA","country":"United States","canonicalUrl":"https://foursquare.com/v/the-fridge/4e4a9b56aeb7de71b3989b52","categoryId":"4bf58dd8d48988d117941735","category":"Beer Garden","checkinsCount":5595,"usersCount":1492,"tipCount":51,"visitsCount":6776,"url":"http://www.beerfridgelancaster.com","tier":2,"message":"Moderate","currency":"$","rating":9.4},{"name":"Spring House Brewing Company","phone":"7179842530","address":"209 Hazel St","lat":40.02969445108901,"lng":-76.30815422754267,"city_fetched":"Lancaster,US","state":"PA","country":"United States","canonicalUrl":"https://foursquare.com/v/spring-house-brewing-company/559ed172498e3287ca23bcf5","categoryId":"50327c8591d4c4b30a586d5d","category":"Brewery","checkinsCount":546,"usersCount":552,"tipCount":8,"visitsCount":1072,"url":"http://www.springhousebeer.com","tier":"","message":"","currency":"","rating":9.4},{"name":"Lancaster Brewing Company","phone":"7173916258","twitter":"lancasterbrew","address":"302 N Plum St","lat":40.04382012471156,"lng":-76.29822366333534,"city_fetched":"Lancaster,US","state":"PA","country":"United States","canonicalUrl":"https://foursquare.com/v/lancaster-brewing-company/4a859a27f964a5209afe1fe3","categoryId":"50327c8591d4c4b30a586d5d","category":"Brewery","checkinsCount":6952,"usersCount":4046,"tipCount":84,"visitsCount":8027,"url":"http://lancasterbrewing.com","tier":2,"message":"Moderate","currency":"$","rating":9.1},{"name":"Bulls Head Public House","phone":"7176262115","twitter":"bullsheadlititz","address":"14 E Main St","lat":40.15710407923792,"lng":-76.30654819564093,"city_fetched":"Lancaster,US","state":"PA","country":"United States","canonicalUrl":"https://foursquare.com/v/bulls-head-public-house/4b9ad056f964a52059d835e3","categoryId":"4bf58dd8d48988d11b941735","category":"Pub","checkinsCount":3587,"usersCount":1447,"tipCount":34,"visitsCount":4022,"url":"http://www.bullsheadpublichouse.com","tier":2,"message":"Moderate","currency":"$","rating":9},{"name":"Lancaster Dispensing Company","phone":"7172994602","address":"33 N Market St","lat":40.03862695135258,"lng":-76.30693274025631,"neighborhood":"Gallery Row","city_fetched":"Lancaster,US","state":"PA","country":"United States","canonicalUrl":"https://foursquare.com/v/lancaster-dispensing-company/4a8601acf964a520130020e3","categoryId":"4bf58dd8d48988d116941735","category":"Bar","checkinsCount":5160,"usersCount":1700,"tipCount":26,"visitsCount":5257,"url":"http://dispensingco.com","tier":2,"message":"Moderate","currency":"$","rating":8.7},{"name":"Iron Hill Brewery & Restaurant","phone":"7172919800","twitter":"ironhillbrewery","address":"781 Harrisburg Ave","lat":40.05074599448695,"lng":-76.31880218070093,"neighborhood":"Stadium District","city_fetched":"Lancaster,US","state":"PA","country":"United States","canonicalUrl":"https://foursquare.com/v/iron-hill-brewery--restaurant/4a88138ef964a520180520e3","categoryId":"50327c8591d4c4b30a586d5d","category":"Brewery","checkinsCount":7881,"usersCount":4053,"tipCount":76,"visitsCount":9147,"url":"http://ironhillbrewery.com","tier":2,"message":"Moderate","currency":"$","rating":8.7},{"name":"St. Boniface Craft Brewing Company","phone":"7174666900","address":"1701 W Main St","lat":40.20021545313511,"lng":-76.20529174804686,"city_fetched":"Lancaster,US","state":"PA","country":"United States","canonicalUrl":"https://foursquare.com/v/st-boniface-craft-brewing-company/4d49de157d36f04dbb0e16e5","categoryId":"50327c8591d4c4b30a586d5d","category":"Brewery","checkinsCount":978,"usersCount":541,"tipCount":18,"visitsCount":1320,"url":"http://www.stbonifacebrewing.com","tier":1,"message":"Cheap","currency":"$","rating":8.7},{"name":"Annie Bailey's Irish Pub","phone":"7173934000","twitter":"anniebaileys","address":"28 E King St","lat":40.037775271747684,"lng":-76.3042918011636,"neighborhood":"Lancaster Central Business District","city_fetched":"Lancaster,US","state":"PA","country":"United States","canonicalUrl":"https://foursquare.com/v/annie-baileys-irish-pub/4a872ccdf964a520080320e3","categoryId":"4bf58dd8d48988d11b941735","category":"Pub","checkinsCount":9281,"usersCount":3354,"tipCount":48,"visitsCount":9805,"url":"http://www.anniebaileysirishpub.com","tier":2,"message":"Moderate","currency":"$","rating":8.5},{"name":"American Bar & Grill","phone":"7173948021","address":"1081 N Plum St","lat":40.05440710616078,"lng":-76.29972799915014,"city_fetched":"Lancaster,US","state":"PA","country":"United States","canonicalUrl":"https://foursquare.com/v/american-bar--grill/4bd1e272caff95217d8ed1f0","categoryId":"4bf58dd8d48988d116941735","category":"Bar","checkinsCount":2861,"usersCount":974,"tipCount":38,"visitsCount":3541,"url":"http://www.abglancaster.com","tier":2,"message":"Moderate","currency":"$","rating":8.5},{"name":"Quips Pub","phone":"7173973903","address":"457 New Holland Ave","lat":40.046607,"lng":-76.296682,"neighborhood":"Ross","city_fetched":"Lancaster,US","state":"PA","country":"United States","canonicalUrl":"https://foursquare.com/v/quips-pub/4b1b14b2f964a520cbf723e3","categoryId":"4bf58dd8d48988d11b941735","category":"Pub","checkinsCount":4401,"usersCount":1292,"tipCount":48,"visitsCount":5281,"url":"http://www.quipspub.com","tier":1,"message":"Cheap","currency":"$","rating":8.4},{"name":"Isaac's Pickle Bar","phone":"7173945544","twitter":"isaacsdeli","address":"25 N. Queen St.","lat":40.0386212,"lng":-76.30566336,"neighborhood":"Market District","city_fetched":"Lancaster,US","state":"PA","country":"United States","canonicalUrl":"https://foursquare.com/v/isaacs-pickle-bar/4b7da19df964a52007cb2fe3","categoryId":"4bf58dd8d48988d116941735","category":"Bar","checkinsCount":2084,"usersCount":861,"tipCount":49,"visitsCount":2157,"url":"http://www.isaacsdeli.com","tier":2,"message":"Moderate","currency":"$","rating":8.2},{"name":"The Pillar Lounge","phone":"6107800452","address":"317 N Queen St","lat":40.043292,"lng":-76.30629,"neighborhood":"Lancaster Central Business District","city_fetched":"Lancaster,US","state":"PA","country":"United States","canonicalUrl":"https://foursquare.com/v/the-pillar-lounge/4be1879eaabe95219c0b9f23","categoryId":"4bf58dd8d48988d119941735","category":"Hookah Bar","checkinsCount":497,"usersCount":234,"tipCount":10,"visitsCount":500,"url":"http://pillarlounge.com","tier":"","message":"","currency":"","rating":8.1},{"name":"Federal Taphouse","phone":"7174906932","twitter":"fedtaplanc","address":"201 N Queen St","lat":40.04124407362627,"lng":-76.30618627028157,"neighborhood":"Lancaster Central Business District","city_fetched":"Lancaster,US","state":"PA","country":"United States","canonicalUrl":"https://foursquare.com/v/federal-taphouse/51b9d8c6498e48dd0f8df10d","categoryId":"4bf58dd8d48988d116941735","category":"Bar","checkinsCount":3335,"usersCount":1805,"tipCount":50,"visitsCount":4414,"url":"http://www.federaltaphouse.com","tier":2,"message":"Moderate","currency":"$","rating":8.1},{"name":"Arooga's Rt 462","phone":"7172609464","twitter":"aroogas","address":"125 S Centerville Rd","lat":40.040095308458376,"lng":-76.38919397778677,"city_fetched":"Lancaster,US","state":"PA","country":"United States","canonicalUrl":"https://foursquare.com/v/aroogas-rt-462/552d7370498eda869d424169","categoryId":"4bf58dd8d48988d11d941735","category":"Sports Bar","checkinsCount":358,"usersCount":352,"tipCount":5,"visitsCount":773,"url":"http://www.aroogas.com","tier":"","message":"","currency":"","rating":8},{"name":"Friendly Greek Bottle Shop","phone":"7173936669","address":"549 New Holland Ave","lat":40.048011039847395,"lng":-76.2949717515363,"neighborhood":"Ross","city_fetched":"Lancaster,US","state":"PA","country":"United States","canonicalUrl":"https://foursquare.com/v/friendly-greek-bottle-shop/4b89d6faf964a5206d5032e3","categoryId":"4bf58dd8d48988d116941735","category":"Bar","checkinsCount":847,"usersCount":389,"tipCount":9,"visitsCount":1312,"url":"http://friendlyg.com","tier":2,"message":"Moderate","currency":"$","rating":7.9},{"name":"Taproom By Spring House Brewing Co.","phone":"7173994009","twitter":"springhousebeer","address":"25 W King St","lat":40.037993360437994,"lng":-76.30666129711379,"neighborhood":"Market District","city_fetched":"Lancaster,US","state":"PA","country":"United States","canonicalUrl":"https://foursquare.com/v/taproom-by-spring-house-brewing-co/4d4876cff046a1cd64f911f6","categoryId":"50327c8591d4c4b30a586d5d","category":"Brewery","checkinsCount":6587,"usersCount":2069,"tipCount":58,"visitsCount":6848,"url":"http://springhousebeer.com/taproom.htm","tier":2,"message":"Moderate","currency":"$","rating":7.9},{"name":"Altana","lat":40.038040615289425,"lng":-76.30443318038736,"neighborhood":"Lancaster Central Business District","city_fetched":"Lancaster,US","state":"PA","country":"United States","canonicalUrl":"https://foursquare.com/v/altana/55c166fd498e7e2d311ec3ea","categoryId":"4bf58dd8d48988d121941735","category":"Lounge","checkinsCount":184,"usersCount":70,"tipCount":2,"visitsCount":185,"tier":"","message":"","currency":"","rating":7.7},{"name":"Rendezvous Lounge","phone":"7172074033","address":"2 E. King St.","lat":40.037988820552776,"lng":-76.30532669360689,"neighborhood":"Market District","city_fetched":"Lancaster,US","state":"PA","country":"United States","canonicalUrl":"https://foursquare.com/v/rendezvous-lounge/4b772ebff964a52095852ee3","categoryId":"4bf58dd8d48988d1d5941735","category":"Hotel Bar","checkinsCount":1298,"usersCount":536,"tipCount":4,"visitsCount":1307,"url":"http://pennsquaregrille.com/lounge.html","tier":3,"message":"Expensive","currency":"$","rating":7.6},{"name":"Cat's Meow","phone":"7176643370","address":"215 S Charlotte St","lat":40.158521118158056,"lng":-76.39182191950226,"city_fetched":"Lancaster,US","state":"PA","country":"United States","canonicalUrl":"https://foursquare.com/v/cats-meow/4bb274dd42959c74f7db202c","categoryId":"4bf58dd8d48988d116941735","category":"Bar","checkinsCount":1309,"usersCount":533,"tipCount":14,"visitsCount":1518,"tier":2,"message":"Moderate","currency":"$","rating":7.6},{"name":"Wacker Brewing","address":"417 West Grant St","lat":40.038168660491664,"lng":-76.31367905534567,"city_fetched":"Lancaster,US","state":"PA","country":"United States","canonicalUrl":"https://foursquare.com/v/wacker-brewing/5455229a498efbb0dc373399","categoryId":"50327c8591d4c4b30a586d5d","category":"Brewery","checkinsCount":248,"usersCount":103,"tipCount":0,"visitsCount":271,"tier":"","message":"","currency":"","rating":7.6},{"name":"The Sandwich Factory Sports Lounge","phone":"7175818180","address":"2520 Lititz Pike","lat":40.095266,"lng":-76.305161,"city_fetched":"Lancaster,US","state":"PA","country":"United States","canonicalUrl":"https://foursquare.com/v/the-sandwich-factory-sports-lounge/4b815bf3f964a52066a130e3","categoryId":"4bf58dd8d48988d11d941735","category":"Sports Bar","checkinsCount":504,"usersCount":501,"tipCount":11,"visitsCount":1023,"url":"http://thesandwichfactorysportslounge.com","tier":"","message":"","currency":"","rating":7.5},{"name":"Marion Court Room","phone":"7173991970","address":"7 Marion Ct","lat":40.040233732948984,"lng":-76.30495345463731,"neighborhood":"Lancaster Central Business District","city_fetched":"Lancaster,US","state":"PA","country":"United States","canonicalUrl":"https://foursquare.com/v/marion-court-room/4b5bb6a6f964a520a41129e3","categoryId":"4bf58dd8d48988d116941735","category":"Bar","checkinsCount":4073,"usersCount":1466,"tipCount":15,"visitsCount":4547,"url":"http://www.marioncourtroom.com","tier":2,"message":"Moderate","currency":"$","rating":7.4},{"name":"The Deck","phone":"7177213325","address":"222 N Reading Rd","lat":40.189203043255056,"lng":-76.18120282888412,"city_fetched":"Lancaster,US","state":"PA","country":"United States","canonicalUrl":"https://foursquare.com/v/the-deck/4bb2a920eb3e9521b560ca0a","categoryId":"4bf58dd8d48988d116941735","category":"Bar","checkinsCount":2507,"usersCount":467,"tipCount":13,"visitsCount":2738,"url":"http://www.dutchmaiddeck.com","tier":2,"message":"Moderate","currency":"$","rating":7.4},{"name":"JoBoy's Brew Pub","phone":"7175688330","address":"27-31 E Main St","lat":40.157114217257615,"lng":-76.30614668463565,"city_fetched":"Lancaster,US","state":"PA","country":"United States","canonicalUrl":"https://foursquare.com/v/joboys-brew-pub/53b8682a498e83df908d0c59","categoryId":"4bf58dd8d48988d11b941735","category":"Pub","checkinsCount":351,"usersCount":302,"tipCount":8,"visitsCount":428,"url":"http://joboysbrewpub.com","tier":"","message":"","currency":"","rating":7.3},{"name":"Rumplebrewskin's","phone":"7173929645","twitter":"rumplebrewskins","address":"834 N Plum St","lat":40.051854791324956,"lng":-76.2995753041845,"neighborhood":"Ross","city_fetched":"Lancaster,US","state":"PA","country":"United States","canonicalUrl":"https://foursquare.com/v/rumplebrewskins/4f458befe4b007cd8c625663","categoryId":"4bf58dd8d48988d116941735","category":"Bar","checkinsCount":1378,"usersCount":326,"tipCount":16,"visitsCount":1619,"url":"http://www.rumplebrewskins.com","tier":2,"message":"Moderate","currency":"$","rating":7.3},{"name":"Mick's All American Pub","phone":"7178243292","address":"1411 Columbia Ave","lat":40.0382857,"lng":-76.3422404,"city_fetched":"Lancaster,US","state":"PA","country":"United States","canonicalUrl":"https://foursquare.com/v/micks-all-american-pub/4f8a1d4de4b029818ae8cc36","categoryId":"4bf58dd8d48988d11b941735","category":"Pub","checkinsCount":1132,"usersCount":463,"tipCount":8,"visitsCount":1311,"url":"http://micksallamericanpub.com","tier":2,"message":"Moderate","currency":"$","rating":7.2},{"name":"American Legion Post 34","address":"1388 Arcadia Rd","lat":40.067887001180466,"lng":-76.325819297643,"city_fetched":"Lancaster,US","state":"PA","country":"United States","canonicalUrl":"https://foursquare.com/v/american-legion-post-34/4c72fcb1376da093f4f0a7c6","categoryId":"4bf58dd8d48988d116941735","category":"Bar","checkinsCount":228,"usersCount":126,"tipCount":0,"visitsCount":257,"tier":"","message":"","currency":"","rating":7.1},{"name":"Dirty Ol Tavern","address":"917 S Prince St","lat":40.02268331008537,"lng":-76.30454628365824,"city_fetched":"Lancaster,US","state":"PA","country":"United States","canonicalUrl":"https://foursquare.com/v/dirty-ol-tavern/4c41f93f3735be9a484019a4","categoryId":"4bf58dd8d48988d118941735","category":"Dive Bar","checkinsCount":175,"usersCount":143,"tipCount":2,"visitsCount":198,"tier":"","message":"","currency":"","rating":7.1},{"name":"The Olde Lincoln House","phone":"7177333490","address":"1398 W Main St","lat":40.19617222605514,"lng":-76.20129973455407,"city_fetched":"Lancaster,US","state":"PA","country":"United States","canonicalUrl":"https://foursquare.com/v/the-olde-lincoln-house/4c6ef11ddf6b8cfa08aab34d","categoryId":"4bf58dd8d48988d11b941735","category":"Pub","checkinsCount":847,"usersCount":280,"tipCount":4,"visitsCount":1027,"url":"http://www.oldelincolnhouse.com","tier":"","message":"","currency":"","rating":7.1},{"name":"Crush","phone":"7172997090","address":"50 W Grant St","lat":40.038664,"lng":-76.30712638,"neighborhood":"Gallery Row","city_fetched":"Lancaster,US","state":"PA","country":"United States","canonicalUrl":"https://foursquare.com/v/crush/4b624674f964a520d23f2ae3","categoryId":"4bf58dd8d48988d123941735","category":"Wine Bar","checkinsCount":352,"usersCount":95,"tipCount":5,"visitsCount":356,"tier":"","message":"","currency":"","rating":7.1},{"name":"Hamilton Club of Lancaster","phone":"7173976296","address":"E. Orange St","lat":40.039808043839294,"lng":-76.30343786745848,"city_fetched":"Lancaster,US","state":"PA","country":"United States","canonicalUrl":"https://foursquare.com/v/hamilton-club-of-lancaster/4bfe56d04cf820a1d1afedf4","categoryId":"4bf58dd8d48988d116941735","category":"Bar","checkinsCount":279,"usersCount":172,"tipCount":0,"visitsCount":286,"url":"http://www.hamiltonclub.org","tier":"","message":"","currency":"","rating":7},{"name":"Mick's All American Pub","phone":"7175178288","address":"543 Airport Rd","lat":40.114353121064795,"lng":-76.29095058215422,"city_fetched":"Lancaster,US","state":"PA","country":"United States","canonicalUrl":"https://foursquare.com/v/micks-all-american-pub/52e14ab1498e62dd97a336ca","categoryId":"4bf58dd8d48988d11b941735","category":"Pub","checkinsCount":417,"usersCount":265,"tipCount":5,"visitsCount":513,"url":"http://micksallamericanpub.com","tier":2,"message":"Moderate","currency":"$","rating":7},{"name":"Molly's Pub","phone":"7173960225","address":"253 E Chestnut St","lat":40.04187893984543,"lng":-76.29998249037038,"city_fetched":"Lancaster,US","state":"PA","country":"United States","canonicalUrl":"https://foursquare.com/v/mollys-pub/4a880a8bf964a520080520e3","categoryId":"4bf58dd8d48988d11b941735","category":"Pub","checkinsCount":3036,"usersCount":668,"tipCount":19,"visitsCount":3136,"url":"http://www.mollyspub.com","tier":"","message":"","currency":"","rating":6.9},{"name":"Stubby's Bar and Grille","phone":"7173941635","address":"254 E Frederick St","lat":40.048335764810616,"lng":-76.3012021780014,"neighborhood":"Ross","city_fetched":"Lancaster,US","state":"PA","country":"United States","canonicalUrl":"https://foursquare.com/v/stubbys-bar-and-grille/4a880be8f964a5200d0520e3","categoryId":"4bf58dd8d48988d116941735","category":"Bar","checkinsCount":4651,"usersCount":821,"tipCount":31,"visitsCount":5104,"url":"http://www.stubbysbarandgrille.com","tier":1,"message":"Cheap","currency":"$","rating":6.9},{"name":"The Elks Club","phone":"7173977704","address":"219 N Duke St","lat":40.0419367996422,"lng":-76.30402600781625,"city_fetched":"Lancaster,US","state":"PA","country":"United States","canonicalUrl":"https://foursquare.com/v/the-elks-club/4b6e08b4f964a5200aa52ce3","categoryId":"4bf58dd8d48988d116941735","category":"Bar","checkinsCount":1011,"usersCount":149,"tipCount":5,"visitsCount":1018,"tier":"","message":"","currency":"","rating":6.7},{"name":"Hurricane Pizza Grill","phone":"7176846000","address":"4031 Columbia Ave","lat":40.03474688235441,"lng":-76.4612935045684,"city_fetched":"Lancaster,US","state":"PA","country":"United States","canonicalUrl":"https://foursquare.com/v/hurricane-pizza-grill/4fd91192e4b0a6140921b642","categoryId":"4bf58dd8d48988d116941735","category":"Bar","checkinsCount":575,"usersCount":267,"tipCount":12,"visitsCount":766,"url":"http://www.hurricanepizza.com","tier":2,"message":"Moderate","currency":"$","rating":6.6},{"name":"Lizard Lounge","phone":"7172999684","address":"223 N Water St","lat":40.041604027954556,"lng":-76.30901944091637,"neighborhood":"Gallery Row","city_fetched":"Lancaster,US","state":"PA","country":"United States","canonicalUrl":"https://foursquare.com/v/lizard-lounge/4e2f6b7452b111a1e3840337","categoryId":"4bf58dd8d48988d121941735","category":"Lounge","checkinsCount":1546,"usersCount":354,"tipCount":6,"visitsCount":1561,"url":"http://www.chameleonclub.net","tier":"","message":"","currency":"","rating":6.5},{"name":"Rainmaker's Association Lodge","phone":"7173920531","address":"700 E Chestnut St","lat":40.042361112963114,"lng":-76.29130689320074,"neighborhood":"East Side","city_fetched":"Lancaster,US","state":"PA","country":"United States","canonicalUrl":"https://foursquare.com/v/rainmakers-association-lodge/4c1f878e8b3aa593ca949d5f","categoryId":"4bf58dd8d48988d116941735","category":"Bar","checkinsCount":902,"usersCount":110,"tipCount":2,"visitsCount":919,"tier":"","message":"","currency":"","rating":6.4},{"name":"Chancey's Pub","phone":"6049624678","address":"6049 Main St","lat":40.10068237781525,"lng":-76.35406385,"city_fetched":"Lancaster,US","state":"PA","country":"United States","canonicalUrl":"https://foursquare.com/v/chanceys-pub/4b4650edf964a520631d26e3","categoryId":"4bf58dd8d48988d11b941735","category":"Pub","checkinsCount":1284,"usersCount":396,"tipCount":12,"visitsCount":1440,"url":"http://www.chanceyspub.net","tier":"","message":"","currency":"","rating":6.4},{"name":"Hildy's Tavern","phone":"7173972495","address":"448 W Frederick St","lat":40.04631021729859,"lng":-76.31588459014893,"city_fetched":"Lancaster,US","state":"PA","country":"United States","canonicalUrl":"https://foursquare.com/v/hildys-tavern/4b6dfe1bf964a520c6a12ce3","categoryId":"4bf58dd8d48988d118941735","category":"Dive Bar","checkinsCount":484,"usersCount":231,"tipCount":4,"visitsCount":585,"tier":"","message":"","currency":"","rating":6.3},{"name":"House of Pasta","phone":"7173970393","twitter":"houseofpastapa","address":"1110 Millersville Pike","lat":40.02871529763059,"lng":-76.32410287857056,"city_fetched":"Lancaster,US","state":"PA","country":"United States","canonicalUrl":"https://foursquare.com/v/house-of-pasta/4b7ae625f964a520b0442fe3","categoryId":"4bf58dd8d48988d116941735","category":"Bar","checkinsCount":1012,"usersCount":248,"tipCount":6,"visitsCount":1025,"url":"http://houseofpasta-hub.com","tier":"","message":"","currency":"","rating":6.3},{"name":"Villa Nova East","phone":"7172994459","address":"1310 Harrisburg Ave","lat":40.05616935187226,"lng":-76.3303256629667,"city_fetched":"Lancaster,US","state":"PA","country":"United States","canonicalUrl":"https://foursquare.com/v/villa-nova-east/4c2eb4ca3ffc952179638ff5","categoryId":"4bf58dd8d48988d116941735","category":"Bar","checkinsCount":873,"usersCount":223,"tipCount":8,"visitsCount":1000,"tier":"","message":"","currency":"","rating":6.2},{"name":"The Brickyard Restaurant and Sports Bar","phone":"7175096090","address":"415 N Prince St","lat":40.044708254369546,"lng":-76.30867448723951,"neighborhood":"Stadium District","city_fetched":"Lancaster,US","state":"PA","country":"United States","canonicalUrl":"https://foursquare.com/v/the-brickyard-restaurant-and-sports-bar/4a88091af964a520fc0420e3","categoryId":"4bf58dd8d48988d11d941735","category":"Sports Bar","checkinsCount":4979,"usersCount":1564,"tipCount":20,"visitsCount":5297,"url":"http://www.brickyardsportspub.com/the-brickyard-restaurant-menu.html","tier":2,"message":"Moderate","currency":"$","rating":6.1},{"name":"Arabian Knight's Hookah Lounge","address":"52 N Queen St Ste 5A","lat":40.039258703759174,"lng":-76.30655950579253,"neighborhood":"Market District","city_fetched":"Lancaster,US","state":"PA","country":"United States","canonicalUrl":"https://foursquare.com/v/arabian-knights-hookah-lounge/500b80b2e4b0baf2d787fbc4","categoryId":"4bf58dd8d48988d119941735","category":"Hookah Bar","checkinsCount":194,"usersCount":139,"tipCount":8,"visitsCount":195,"tier":"","message":"","currency":"","rating":6.1},{"name":"O'Halloran's Irish Pub & Eatery","phone":"7173933051","address":"746 High St.","lat":40.03075266356739,"lng":-76.31756901741028,"neighborhood":"Cabbage Hill","city_fetched":"Lancaster,US","state":"PA","country":"United States","canonicalUrl":"https://foursquare.com/v/ohallorans-irish-pub--eatery/4bb29a782397b7138d4737b3","categoryId":"4bf58dd8d48988d116941735","category":"Bar","checkinsCount":607,"usersCount":184,"tipCount":6,"visitsCount":676,"tier":"","message":"","currency":"","rating":6.1},{"name":"Courtside Lounge","phone":"7175091818","address":"37 E Orange St","lat":40.039852,"lng":-76.304955,"neighborhood":"Lancaster Central Business District","city_fetched":"Lancaster,US","state":"PA","country":"United States","canonicalUrl":"https://foursquare.com/v/courtside-lounge/4bd50b6d5631c9b684a2a330","categoryId":"4bf58dd8d48988d11d941735","category":"Sports Bar","checkinsCount":845,"usersCount":135,"tipCount":1,"visitsCount":846,"tier":"","message":"","currency":"","rating":6.1},{"name":"Villa Nova West","phone":"7172952344","address":"2833 Columbia Ave","lat":40.041454672860915,"lng":-76.38396054394732,"city_fetched":"Lancaster,US","state":"PA","country":"United States","canonicalUrl":"https://foursquare.com/v/villa-nova-west/4ba24729f964a52031e937e3","categoryId":"4bf58dd8d48988d11d941735","category":"Sports Bar","checkinsCount":1175,"usersCount":509,"tipCount":11,"visitsCount":1362,"tier":"","message":"","currency":"","rating":6},{"name":"Yorgos Restaurant & Lounge","phone":"7173946977","address":"66 N Queen St","lat":40.03951808147485,"lng":-76.30605620311503,"neighborhood":"Lancaster Central Business District","city_fetched":"Lancaster,US","state":"PA","country":"United States","canonicalUrl":"https://foursquare.com/v/yorgos-restaurant--lounge/4b3958c8f964a5200f5b25e3","categoryId":"4bf58dd8d48988d116941735","category":"Bar","checkinsCount":2523,"usersCount":1075,"tipCount":33,"visitsCount":2713,"tier":2,"message":"Moderate","currency":"$","rating":6},{"name":"Jukebox","phone":"7173949978","address":"New Holland Pike","lat":40.07045787705807,"lng":-76.2700962449061,"city_fetched":"Lancaster,US","state":"PA","country":"United States","canonicalUrl":"https://foursquare.com/v/jukebox/4bef6a4cc80dc9283ff727e3","categoryId":"4bf58dd8d48988d11f941735","category":"Nightclub","checkinsCount":346,"usersCount":244,"tipCount":8,"visitsCount":408,"url":"http://www.jukeboxnightclub.com","tier":"","message":"","currency":"","rating":5.9},{"name":"Tally Ho Tavern","phone":"7172990661","address":"201 W Orange St","lat":40.039293,"lng":-76.308881,"neighborhood":"Lancaster Central Business District","city_fetched":"Lancaster,US","state":"PA","country":"United States","canonicalUrl":"https://foursquare.com/v/tally-ho-tavern/4b6cff8cf964a52047622ce3","categoryId":"4bf58dd8d48988d1d8941735","category":"Gay Bar","checkinsCount":731,"usersCount":287,"tipCount":7,"visitsCount":746,"tier":"","message":"","currency":"","rating":5.9},{"name":"Country Garden Six-Pack","address":"876 Manor St","lat":40.03028238139442,"lng":-76.32148806702239,"city_fetched":"Lancaster,US","state":"PA","country":"United States","canonicalUrl":"https://foursquare.com/v/country-garden-sixpack/4b830107f964a52017f230e3","categoryId":"4bf58dd8d48988d117941735","category":"Beer Garden","checkinsCount":337,"usersCount":136,"tipCount":4,"visitsCount":394,"tier":"","message":"","currency":"","rating":5.6},{"name":"Roseville Tavern","phone":"7175691531","address":"1860 Oregon Pike","lat":40.0782735147828,"lng":-76.29565041794488,"city_fetched":"Lancaster,US","state":"PA","country":"United States","canonicalUrl":"https://foursquare.com/v/roseville-tavern/4b88a372f964a520070632e3","categoryId":"4bf58dd8d48988d116941735","category":"Bar","checkinsCount":486,"usersCount":262,"tipCount":5,"visitsCount":565,"tier":"","message":"","currency":"","rating":5.4},{"name":"The Village","phone":"7173975000","address":"205 N Christian St","lat":40.041742,"lng":-76.305194,"city_fetched":"Lancaster,US","state":"PA","country":"United States","canonicalUrl":"https://foursquare.com/v/the-village/4ba58448f964a520880e39e3","categoryId":"4bf58dd8d48988d116941735","category":"Bar","checkinsCount":1090,"usersCount":534,"tipCount":4,"visitsCount":1138,"tier":1,"message":"Cheap","currency":"$","rating":5.3}]