[{"name":"Zoobie's Old Town Tavern","phone":"5174832737","twitter":"zoobiestavern","address":"611 E Grand River Ave","lat":42.74760466528407,"lng":-84.54413614385882,"neighborhood":"Old Town","city_fetched":"Lansing,US","state":"MI","country":"United States","canonicalUrl":"https://foursquare.com/v/zoobies-old-town-tavern/4c65370ae0c4be9ae4778758","categoryId":"4bf58dd8d48988d116941735","category":"Bar","checkinsCount":3248,"usersCount":917,"tipCount":17,"visitsCount":4334,"url":"http://zoobiesoldtowntavern.com","tier":2,"message":"Moderate","currency":"$","rating":9},{"name":"EagleMonk Pub & Brewery","phone":"5177087350","address":"4906 W Mount Hope Hwy","lat":42.712282922328676,"lng":-84.61951013188809,"city_fetched":"Lansing,US","state":"MI","country":"United States","canonicalUrl":"https://foursquare.com/v/eaglemonk-pub--brewery/502bf861e4b0bea49216246d","categoryId":"50327c8591d4c4b30a586d5d","category":"Brewery","checkinsCount":1745,"usersCount":653,"tipCount":21,"visitsCount":2007,"url":"http://www.eaglemonkbrewing.com","tier":"","message":"","currency":"","rating":8.9},{"name":"Dagwood's Tavern & Grill","phone":"5173740390","address":"2803 E Kalamazoo St","lat":42.730094069593264,"lng":-84.51179265975952,"city_fetched":"Lansing,US","state":"MI","country":"United States","canonicalUrl":"https://foursquare.com/v/dagwoods-tavern--grill/4b9307f4f964a520173034e3","categoryId":"4bf58dd8d48988d116941735","category":"Bar","checkinsCount":3853,"usersCount":1170,"tipCount":35,"visitsCount":4611,"url":"http://www.dagwoodstavern.com","tier":1,"message":"Cheap","currency":"$","rating":8.8},{"name":"HopCat","phone":"5178164300","address":"300 Grove St","lat":42.73595145259993,"lng":-84.48193855233636,"city_fetched":"Lansing,US","state":"MI","country":"United States","canonicalUrl":"https://foursquare.com/v/hopcat/5214039811d22587b0655efb","categoryId":"4bf58dd8d48988d116941735","category":"Bar","checkinsCount":6788,"usersCount":3891,"tipCount":97,"visitsCount":9045,"url":"http://hopcatel.com","tier":2,"message":"Moderate","currency":"$","rating":8.8},{"name":"Lansing Brewing Company","phone":"5173712600","twitter":"lansingbrews","address":"518 E Shiawassee St","lat":42.73697381990624,"lng":-84.5455513168987,"neighborhood":"The Stadium District","city_fetched":"Lansing,US","state":"MI","country":"United States","canonicalUrl":"https://foursquare.com/v/lansing-brewing-company/56030355498e2dde31cfe0c1","categoryId":"50327c8591d4c4b30a586d5d","category":"Brewery","checkinsCount":878,"usersCount":803,"tipCount":9,"visitsCount":1705,"url":"http://www.lansingbrewingcompany.com","tier":"","message":"","currency":"","rating":8.6},{"name":"Peanut Barrel","phone":"5173510608","address":"521 E Grand River Ave","lat":42.73378717243059,"lng":-84.4776038825512,"city_fetched":"Lansing,US","state":"MI","country":"United States","canonicalUrl":"https://foursquare.com/v/peanut-barrel/4b42b1f9f964a520dad825e3","categoryId":"4bf58dd8d48988d116941735","category":"Bar","checkinsCount":9405,"usersCount":3698,"tipCount":66,"visitsCount":9987,"url":"http://www.peanutbarrel.com","tier":1,"message":"Cheap","currency":"$","rating":8.5},{"name":"The Waterfront Bar & Grill","phone":"5172673800","address":"325 City Market Dr","lat":42.73559473262878,"lng":-84.54812049865723,"neighborhood":"The Stadium District","city_fetched":"Lansing,US","state":"MI","country":"United States","canonicalUrl":"https://foursquare.com/v/the-waterfront-bar--grill/4c6bdd2196eaa593334b23df","categoryId":"4bf58dd8d48988d116941735","category":"Bar","checkinsCount":3303,"usersCount":1086,"tipCount":25,"visitsCount":3722,"url":"http://waterfrontlansing.com","tier":1,"message":"Cheap","currency":"$","rating":8.2},{"name":"Hobies Cafe and Pub","phone":"5173513800","address":"930 Trowbridge Rd","lat":42.72073663545188,"lng":-84.49468970192953,"neighborhood":"Michigan State University","city_fetched":"Lansing,US","state":"MI","country":"United States","canonicalUrl":"https://foursquare.com/v/hobies-cafe-and-pub/4b7ad033f964a5202e3e2fe3","categoryId":"4bf58dd8d48988d116941735","category":"Bar","checkinsCount":510,"usersCount":220,"tipCount":8,"visitsCount":519,"url":"http://www.hobiesrestaurant.com","tier":2,"message":"Moderate","currency":"$","rating":8.1},{"name":"Centerfolds","phone":"5178878320","address":"5910 S Pennsylvania Ave","lat":42.67149585575099,"lng":-84.53887450362289,"neighborhood":"Southside","city_fetched":"Lansing,US","state":"MI","country":"United States","canonicalUrl":"https://foursquare.com/v/centerfolds/4dccaa2c183899ddfaa656e2","categoryId":"4bf58dd8d48988d1d6941735","category":"Strip Club","checkinsCount":1146,"usersCount":68,"tipCount":7,"visitsCount":1156,"tier":"","message":"","currency":"","rating":8.1},{"name":"Sayli's Hookah Lounge","phone":"5175807968","twitter":"saylishookah","address":"300 N Clippert St","lat":42.73621915945451,"lng":-84.50739709598012,"city_fetched":"Lansing,US","state":"MI","country":"United States","canonicalUrl":"https://foursquare.com/v/saylis-hookah-lounge/4b3182f4f964a5203b0825e3","categoryId":"4bf58dd8d48988d119941735","category":"Hookah Bar","checkinsCount":1539,"usersCount":377,"tipCount":18,"visitsCount":1547,"url":"http://www.saylishookahlounge.com","tier":1,"message":"Cheap","currency":"$","rating":8},{"name":"Blue Midnight Hookah Lounge","phone":"5178539360","twitter":"bluemidnight1","address":"330 Albert Ave","lat":42.73532965659254,"lng":-84.48039121664725,"city_fetched":"Lansing,US","state":"MI","country":"United States","canonicalUrl":"https://foursquare.com/v/blue-midnight-hookah-lounge/4b7b4811f964a520495c2fe3","categoryId":"4bf58dd8d48988d119941735","category":"Hookah Bar","checkinsCount":850,"usersCount":400,"tipCount":9,"visitsCount":850,"tier":"","message":"","currency":"","rating":8},{"name":"Airport Tavern & Steakhouse","phone":"5173213852","twitter":"airportlansing","address":"5000 N Grand River Ave","lat":42.768553978588976,"lng":-84.59639396256313,"city_fetched":"Lansing,US","state":"MI","country":"United States","canonicalUrl":"https://foursquare.com/v/airport-tavern--steakhouse/4b787cb7f964a520b5d12ee3","categoryId":"4bf58dd8d48988d116941735","category":"Bar","checkinsCount":490,"usersCount":270,"tipCount":9,"visitsCount":566,"url":"http://www.airport-tavern.com","tier":1,"message":"Cheap","currency":"$","rating":7.9},{"name":"Buddies Pub & Grill","phone":"5173339212","address":"3048 E Lake Lansing Rd","lat":42.756414,"lng":-84.464411,"city_fetched":"Lansing,US","state":"MI","country":"United States","canonicalUrl":"https://foursquare.com/v/buddies-pub--grill/4b40364cf964a520dfb625e3","categoryId":"4bf58dd8d48988d116941735","category":"Bar","checkinsCount":1758,"usersCount":580,"tipCount":17,"visitsCount":2077,"url":"http://www.buddiesmichigan.com","tier":2,"message":"Moderate","currency":"$","rating":7.9},{"name":"REO Town Pub And Grille","address":"1147 S Washington Ave","lat":42.720361733333334,"lng":-84.5523199,"neighborhood":"Southside","city_fetched":"Lansing,US","state":"MI","country":"United States","canonicalUrl":"https://foursquare.com/v/reo-town-pub-and-grille/4cf581231801a143c8d9e3d4","categoryId":"4bf58dd8d48988d116941735","category":"Bar","checkinsCount":520,"usersCount":212,"tipCount":5,"visitsCount":659,"tier":"","message":"","currency":"","rating":7.8},{"name":"Dusty's Tap Room","phone":"5178538840","twitter":"dustyscellar","address":"1857 W Grand River Ave","lat":42.718993,"lng":-84.416495,"city_fetched":"Lansing,US","state":"MI","country":"United States","canonicalUrl":"https://foursquare.com/v/dustys-tap-room/4bad6bd2f964a5201e4e3be3","categoryId":"4bf58dd8d48988d11b941735","category":"Pub","checkinsCount":2789,"usersCount":979,"tipCount":21,"visitsCount":3008,"url":"http://www.dustyscellar.com","tier":2,"message":"Moderate","currency":"$","rating":7.8},{"name":"Buddies Grill","phone":"5176993670","address":"2040 Aurelius Rd #13","lat":42.6418258,"lng":-84.5221021,"city_fetched":"Lansing,US","state":"MI","country":"United States","canonicalUrl":"https://foursquare.com/v/buddies-grill/4b59e79cf964a520bf9f28e3","categoryId":"4bf58dd8d48988d116941735","category":"Bar","checkinsCount":3495,"usersCount":1306,"tipCount":38,"visitsCount":4531,"url":"http://www.buddiesmichigan.com","tier":2,"message":"Moderate","currency":"$","rating":7.8},{"name":"Esquire Bar","phone":"5174875338","address":"1250 Turner St","lat":42.748845,"lng":-84.54938113689423,"neighborhood":"Old Town","city_fetched":"Lansing,US","state":"MI","country":"United States","canonicalUrl":"https://foursquare.com/v/esquire-bar/4bccc6db8920b7133fba9edc","categoryId":"4bf58dd8d48988d116941735","category":"Bar","checkinsCount":2052,"usersCount":393,"tipCount":12,"visitsCount":2404,"tier":"","message":"","currency":"","rating":7.8},{"name":"LeRoy's Bar","phone":"5174820184","address":"1526 S Cedar St","lat":42.715781116776235,"lng":-84.54686402475681,"neighborhood":"Southside","city_fetched":"Lansing,US","state":"MI","country":"United States","canonicalUrl":"https://foursquare.com/v/leroys-bar/4bbd1258078095213e2bda91","categoryId":"4bf58dd8d48988d116941735","category":"Bar","checkinsCount":833,"usersCount":377,"tipCount":14,"visitsCount":1073,"url":"http://www.leroysclassicbar.com","tier":1,"message":"Cheap","currency":"$","rating":7.8},{"name":"Oade's Bar & Grill","phone":"5173239050","address":"936 Elmwood Rd","lat":42.74347785340162,"lng":-84.62111239238001,"city_fetched":"Lansing,US","state":"MI","country":"United States","canonicalUrl":"https://foursquare.com/v/oades-bar--grill/4da508a5fa8c7394fc8c35bc","categoryId":"4bf58dd8d48988d116941735","category":"Bar","checkinsCount":2544,"usersCount":320,"tipCount":10,"visitsCount":2782,"tier":"","message":"","currency":"","rating":7.7},{"name":"Harry's Place","phone":"5174849661","address":"404 N Verlinden Ave","lat":42.73717263333333,"lng":-84.57681477069855,"city_fetched":"Lansing,US","state":"MI","country":"United States","canonicalUrl":"https://foursquare.com/v/harrys-place/4acfb4cdf964a5206fd520e3","categoryId":"4bf58dd8d48988d116941735","category":"Bar","checkinsCount":772,"usersCount":276,"tipCount":12,"visitsCount":1069,"tier":"","message":"","currency":"","rating":7.7},{"name":"Midtown Brewing Company","phone":"5179771349","twitter":"mbcdowntownlans","address":"402 S Washington Sq","lat":42.72972704469826,"lng":-84.55239616305123,"neighborhood":"Downtown Lansing","city_fetched":"Lansing,US","state":"MI","country":"United States","canonicalUrl":"https://foursquare.com/v/midtown-brewing-company/4b5098edf964a520d12827e3","categoryId":"50327c8591d4c4b30a586d5d","category":"Brewery","checkinsCount":4403,"usersCount":2026,"tipCount":53,"visitsCount":5347,"url":"http://www.midtownbrewingco.com","tier":2,"message":"Moderate","currency":"$","rating":7.6},{"name":"Nuthouse Sports Grill","phone":"5174846887","twitter":"nuthousesports","address":"420 E Michigan Ave","lat":42.7333553,"lng":-84.54692959785461,"neighborhood":"The Stadium District","city_fetched":"Lansing,US","state":"MI","country":"United States","canonicalUrl":"https://foursquare.com/v/nuthouse-sports-grill/4ad39032f964a520f6e420e3","categoryId":"4bf58dd8d48988d11d941735","category":"Sports Bar","checkinsCount":7785,"usersCount":2577,"tipCount":39,"visitsCount":8167,"url":"http://www.nuthousesportsgrill.com","tier":2,"message":"Moderate","currency":"$","rating":7.6},{"name":"Classic Pub & Grill","phone":"5174844808","address":"16219 Old US-27","lat":42.78142724740363,"lng":-84.54178177225914,"city_fetched":"Lansing,US","state":"MI","country":"United States","canonicalUrl":"https://foursquare.com/v/classic-pub--grill/4d0965edd4018cfa9bdf4128","categoryId":"4bf58dd8d48988d11b941735","category":"Pub","checkinsCount":483,"usersCount":177,"tipCount":4,"visitsCount":589,"tier":"","message":"","currency":"","rating":7.6},{"name":"The Riv","phone":"5173515855","address":"231 MAC Ave","lat":42.735401025398076,"lng":-84.4811853841224,"city_fetched":"Lansing,US","state":"MI","country":"United States","canonicalUrl":"https://foursquare.com/v/the-riv/4af89522f964a520720e22e3","categoryId":"4bf58dd8d48988d116941735","category":"Bar","checkinsCount":8207,"usersCount":2383,"tipCount":28,"visitsCount":8237,"url":"http://www.therivel.com","tier":"","message":"","currency":"","rating":7.6},{"name":"The Tin Can","phone":"5177083441","address":"414 E Michigan Ave","lat":42.733356699373545,"lng":-84.54768061637878,"neighborhood":"The Stadium District","city_fetched":"Lansing,US","state":"MI","country":"United States","canonicalUrl":"https://foursquare.com/v/the-tin-can/4b746ed6f964a5204edc2de3","categoryId":"4bf58dd8d48988d118941735","category":"Dive Bar","checkinsCount":8232,"usersCount":1755,"tipCount":29,"visitsCount":8370,"url":"http://www.tincanbar.com","tier":1,"message":"Cheap","currency":"$","rating":7.6},{"name":"Roadhouse Pub","phone":"5173516868","address":"122 N Harrison Rd","lat":42.734342113394774,"lng":-84.49341932256362,"city_fetched":"Lansing,US","state":"MI","country":"United States","canonicalUrl":"https://foursquare.com/v/roadhouse-pub/4ed70ed67ee53b380f5bdaab","categoryId":"4bf58dd8d48988d11b941735","category":"Pub","checkinsCount":1439,"usersCount":561,"tipCount":4,"visitsCount":1661,"tier":1,"message":"Cheap","currency":"$","rating":7.5},{"name":"Stobers Bar","phone":"5174874464","address":"812 E Michigan Ave","lat":42.733431564467665,"lng":-84.54035818576813,"neighborhood":"The Stadium District","city_fetched":"Lansing,US","state":"MI","country":"United States","canonicalUrl":"https://foursquare.com/v/stobers-bar/4b4e7831f964a520e5ee26e3","categoryId":"4bf58dd8d48988d116941735","category":"Bar","checkinsCount":3759,"usersCount":1090,"tipCount":15,"visitsCount":4045,"tier":1,"message":"Cheap","currency":"$","rating":7.5},{"name":"Taps 25","phone":"5179130103","twitter":"taps25lansing","address":"414 E Michigan Ave","lat":42.73337042415823,"lng":-84.54752934214187,"neighborhood":"The Stadium District","city_fetched":"Lansing,US","state":"MI","country":"United States","canonicalUrl":"https://foursquare.com/v/taps-25/4f9ef78de4b0027bd6b09d64","categoryId":"4bf58dd8d48988d116941735","category":"Bar","checkinsCount":3371,"usersCount":902,"tipCount":20,"visitsCount":3544,"url":"http://www.taps25.com","tier":2,"message":"Moderate","currency":"$","rating":7.3},{"name":"Jimmy's Pub","phone":"5173247100","address":"16804 Chandler Rd","lat":42.77146316144681,"lng":-84.48413372039795,"city_fetched":"Lansing,US","state":"MI","country":"United States","canonicalUrl":"https://foursquare.com/v/jimmys-pub/4aeba0aef964a520f6c321e3","categoryId":"4bf58dd8d48988d11b941735","category":"Pub","checkinsCount":2658,"usersCount":1058,"tipCount":31,"visitsCount":2920,"url":"http://jimmyspub.net","tier":"","message":"","currency":"","rating":7.2},{"name":"Tavern & Tap","phone":"5173745555","address":"101 S Washington Sq","lat":42.73339216179781,"lng":-84.55188095569609,"neighborhood":"Downtown Lansing","city_fetched":"Lansing,US","state":"MI","country":"United States","canonicalUrl":"https://foursquare.com/v/tavern--tap/4ace8e28f964a52031d120e3","categoryId":"4bf58dd8d48988d121941735","category":"Lounge","checkinsCount":10315,"usersCount":2035,"tipCount":53,"visitsCount":10429,"url":"http://www.tavernandtap.com","tier":2,"message":"Moderate","currency":"$","rating":7.1},{"name":"Whiskey Barrel Saloon","phone":"5173515690","twitter":"wblansing","address":"410 S Clippert St","lat":42.729445,"lng":-84.50898099999999,"neighborhood":"Michigan State University","city_fetched":"Lansing,US","state":"MI","country":"United States","canonicalUrl":"https://foursquare.com/v/whiskey-barrel-saloon/4af89568f964a520730e22e3","categoryId":"4bf58dd8d48988d116941735","category":"Bar","checkinsCount":1705,"usersCount":797,"tipCount":10,"visitsCount":1747,"url":"http://whiskeybarrelsaloon.net","tier":1,"message":"Cheap","currency":"$","rating":7.1},{"name":"Spiral Dance Bar","phone":"5173713221","twitter":"clubspiral","address":"1247 Center St","lat":42.74885416030884,"lng":-84.548326,"neighborhood":"Old Town","city_fetched":"Lansing,US","state":"MI","country":"United States","canonicalUrl":"https://foursquare.com/clubspiral","categoryId":"4bf58dd8d48988d1d8941735","category":"Gay Bar","checkinsCount":4393,"usersCount":1106,"tipCount":16,"visitsCount":4667,"url":"http://www.spiraldancebar.com","tier":2,"message":"Moderate","currency":"$","rating":7.1},{"name":"Riverhouse Inn","phone":"5176554300","address":"310 W Grand River Ave","lat":42.68871,"lng":-84.28758846666666,"city_fetched":"Lansing,US","state":"MI","country":"United States","canonicalUrl":"https://foursquare.com/v/riverhouse-inn/4b5c6f9af964a520bd2f29e3","categoryId":"4bf58dd8d48988d117941735","category":"Beer Garden","checkinsCount":270,"usersCount":165,"tipCount":7,"visitsCount":283,"url":"http://www.riverhouseinn.org","tier":"","message":"","currency":"","rating":7.1},{"name":"Coach's All American Pub & Grill","phone":"5178822013","address":"6201 Bishop Rd","lat":42.66163327769022,"lng":-84.59046201342838,"city_fetched":"Lansing,US","state":"MI","country":"United States","canonicalUrl":"https://foursquare.com/v/coachs-all-american-pub--grill/4b9830dbf964a520db3235e3","categoryId":"4bf58dd8d48988d11d941735","category":"Sports Bar","checkinsCount":1911,"usersCount":581,"tipCount":9,"visitsCount":2181,"url":"http://coachspubandgrill.com","tier":2,"message":"Moderate","currency":"$","rating":7},{"name":"Beer Grotto Lansing","phone":"5173711080","twitter":"tbglansing","address":"500 E Michigan Ave","lat":42.73333232245775,"lng":-84.54652624532355,"neighborhood":"The Stadium District","city_fetched":"Lansing,US","state":"MI","country":"United States","canonicalUrl":"https://foursquare.com/v/beer-grotto-lansing/54f7324c498ed2f99275d54c","categoryId":"4bf58dd8d48988d116941735","category":"Bar","checkinsCount":450,"usersCount":270,"tipCount":2,"visitsCount":596,"url":"http://www.beergrotto.com","tier":"","message":"","currency":"","rating":7},{"name":"Dispatch","phone":"5174847940","address":"3004 W Main St","lat":42.72230719678758,"lng":-84.59068179130554,"city_fetched":"Lansing,US","state":"MI","country":"United States","canonicalUrl":"https://foursquare.com/v/dispatch/4b59d4f7f964a520bc9a28e3","categoryId":"4bf58dd8d48988d116941735","category":"Bar","checkinsCount":1315,"usersCount":612,"tipCount":13,"visitsCount":1718,"tier":2,"message":"Moderate","currency":"$","rating":7},{"name":"SIX Lounge Hookah & Smoke Shop","address":"400 Albert Ave","lat":42.73511324443606,"lng":-84.47940233496288,"city_fetched":"Lansing,US","state":"MI","country":"United States","canonicalUrl":"https://foursquare.com/v/six-lounge-hookah--smoke-shop/4f24ce76e4b047657a2575b6","categoryId":"4bf58dd8d48988d119941735","category":"Hookah Bar","checkinsCount":431,"usersCount":250,"tipCount":8,"visitsCount":434,"tier":"","message":"","currency":"","rating":7},{"name":"Darb's Crystal Bar","phone":"5176949716","address":"4279 Holt Rd","lat":42.640189506412895,"lng":-84.51467404613406,"city_fetched":"Lansing,US","state":"MI","country":"United States","canonicalUrl":"https://foursquare.com/v/darbs-crystal-bar/4bb6bcab1344b71333089e04","categoryId":"4bf58dd8d48988d116941735","category":"Bar","checkinsCount":753,"usersCount":284,"tipCount":6,"visitsCount":853,"tier":"","message":"","currency":"","rating":6.9},{"name":"The Avenue Cafe","phone":"5178530550","address":"2021 E Michigan Ave","lat":42.733834922424606,"lng":-84.52143296064327,"neighborhood":"Fairview Area","city_fetched":"Lansing,US","state":"MI","country":"United States","canonicalUrl":"https://foursquare.com/v/the-avenue-cafe/4b1c436bf964a520310524e3","categoryId":"4bf58dd8d48988d116941735","category":"Bar","checkinsCount":2261,"usersCount":789,"tipCount":34,"visitsCount":2523,"url":"http://www.gonewiredcafe.net","tier":2,"message":"Moderate","currency":"$","rating":6.9},{"name":"Art's Bar & Grill","phone":"5174828328","address":"809 E Kalamazoo St","lat":42.73002905167595,"lng":-84.54063713550568,"neighborhood":"The Stadium District","city_fetched":"Lansing,US","state":"MI","country":"United States","canonicalUrl":"https://foursquare.com/v/arts-bar--grill/4b089578f964a520e20e23e3","categoryId":"4bf58dd8d48988d116941735","category":"Bar","checkinsCount":1500,"usersCount":708,"tipCount":9,"visitsCount":1755,"url":"http://www.artsbarandgrill.com","tier":1,"message":"Cheap","currency":"$","rating":6.8},{"name":"The Tin Can","phone":"5179258658","address":"644 Migaldi Ln","lat":42.740507723717066,"lng":-84.67816208638148,"city_fetched":"Lansing,US","state":"MI","country":"United States","canonicalUrl":"https://foursquare.com/v/the-tin-can/4d9cfef87509b1f7c08537a0","categoryId":"4bf58dd8d48988d116941735","category":"Bar","checkinsCount":2660,"usersCount":849,"tipCount":7,"visitsCount":2875,"tier":"","message":"","currency":"","rating":6.7},{"name":"Watershed Tavern and Grill","phone":"5179997433","twitter":"the_watershed","address":"5965 Marsh Rd","lat":42.75412632634455,"lng":-84.40895140171051,"city_fetched":"Lansing,US","state":"MI","country":"United States","canonicalUrl":"https://foursquare.com/v/watershed-tavern-and-grill/4bdb97fc6547d13a65227c26","categoryId":"4bf58dd8d48988d11b941735","category":"Pub","checkinsCount":2555,"usersCount":595,"tipCount":19,"visitsCount":2899,"url":"http://www.thewatershedtavern.com","tier":2,"message":"Moderate","currency":"$","rating":6.6},{"name":"Knob Hill Tavern","phone":"5176693800","address":"8430 S US Highway 27","lat":42.893238066962354,"lng":-84.54326606111286,"city_fetched":"Lansing,US","state":"MI","country":"United States","canonicalUrl":"https://foursquare.com/v/knob-hill-tavern/4d97843b744f3704649ad757","categoryId":"4bf58dd8d48988d118941735","category":"Dive Bar","checkinsCount":179,"usersCount":86,"tipCount":6,"visitsCount":269,"tier":"","message":"","currency":"","rating":6.6},{"name":"Mac's Bar","phone":"5174846795","address":"2700 E Michigan Ave","lat":42.73324728872571,"lng":-84.5139110588087,"city_fetched":"Lansing,US","state":"MI","country":"United States","canonicalUrl":"https://foursquare.com/v/macs-bar/4ad9d652f964a520261b21e3","categoryId":"4bf58dd8d48988d116941735","category":"Bar","checkinsCount":2922,"usersCount":1119,"tipCount":28,"visitsCount":3180,"url":"http://www.macsbar.com","tier":1,"message":"Cheap","currency":"$","rating":6.5},{"name":"Deja Vu","phone":"5178824960","address":"1000 W Jolly Rd","lat":42.68342224522374,"lng":-84.56688674166087,"neighborhood":"Old Everett","city_fetched":"Lansing,US","state":"MI","country":"United States","canonicalUrl":"https://foursquare.com/v/deja-vu/4b7e0c56f964a520b9e02fe3","categoryId":"4bf58dd8d48988d1d6941735","category":"Strip Club","checkinsCount":830,"usersCount":394,"tipCount":4,"visitsCount":999,"url":"http://dejavu-tacoma.com","tier":"","message":"","currency":"","rating":6.5},{"name":"Secrets Night Club","phone":"5172819502","address":"224 S Washington Sq","lat":42.73164522278967,"lng":-84.55238081094478,"neighborhood":"Downtown Lansing","city_fetched":"Lansing,US","state":"MI","country":"United States","canonicalUrl":"https://foursquare.com/v/secrets-night-club/4ba14725f964a52078a837e3","categoryId":"4bf58dd8d48988d11f941735","category":"Nightclub","checkinsCount":603,"usersCount":276,"tipCount":6,"visitsCount":603,"url":"http://www.secretsnightclub.net","tier":"","message":"","currency":"","rating":6.5},{"name":"The Exchange of Lansing","phone":"5173194500","address":"314 E Michigan Ave","lat":42.73339,"lng":-84.548876,"neighborhood":"The Stadium District","city_fetched":"Lansing,US","state":"MI","country":"United States","canonicalUrl":"https://foursquare.com/v/the-exchange-of-lansing/4b17d468f964a5209cc823e3","categoryId":"4bf58dd8d48988d116941735","category":"Bar","checkinsCount":2828,"usersCount":1037,"tipCount":13,"visitsCount":2998,"url":"http://lansingexchange.com","tier":2,"message":"Moderate","currency":"$","rating":6.5},{"name":"Preston's Bar","phone":"5176272066","address":"201 N Bridge St","lat":42.755366563797,"lng":-84.74283277988434,"city_fetched":"Lansing,US","state":"MI","country":"United States","canonicalUrl":"https://foursquare.com/v/prestons-bar/4bec83aefd60a5937e213bf1","categoryId":"4bf58dd8d48988d116941735","category":"Bar","checkinsCount":672,"usersCount":306,"tipCount":6,"visitsCount":737,"tier":"","message":"","currency":"","rating":6.3},{"name":"Fahrenheit Ultra Lounge & Grill","phone":"5176940700","address":"8610 S Cedar St.","lat":42.65858,"lng":-84.53727232,"neighborhood":"Southside","city_fetched":"Lansing,US","state":"MI","country":"United States","canonicalUrl":"https://foursquare.com/v/fahrenheit-ultra-lounge--grill/4df014f51838e429ae4e9e51","categoryId":"4bf58dd8d48988d121941735","category":"Lounge","checkinsCount":252,"usersCount":137,"tipCount":3,"visitsCount":252,"tier":"","message":"","currency":"","rating":6.2},{"name":"R-Club","phone":"5173217440","address":"6409 Centurion Dr","lat":42.72407672,"lng":-84.642797,"city_fetched":"Lansing,US","state":"MI","country":"United States","canonicalUrl":"https://foursquare.com/v/rclub/4b6b149af964a52068f12be3","categoryId":"4bf58dd8d48988d116941735","category":"Bar","checkinsCount":847,"usersCount":450,"tipCount":13,"visitsCount":962,"url":"http://rclublansing.com","tier":"","message":"","currency":"","rating":6.2},{"name":"Harem Urban Lounge","phone":"5172677898","address":"414 E Michigan Ave","lat":42.73334993387198,"lng":-84.5474218683108,"neighborhood":"The Stadium District","city_fetched":"Lansing,US","state":"MI","country":"United States","canonicalUrl":"https://foursquare.com/v/harem-urban-lounge/4b5156acf964a520494b27e3","categoryId":"4bf58dd8d48988d11f941735","category":"Nightclub","checkinsCount":2057,"usersCount":617,"tipCount":10,"visitsCount":2074,"url":"http://www.haremnightclub.com","tier":"","message":"","currency":"","rating":6.2},{"name":"Frank's Press Box","phone":"5178861330","address":"7216 W Saginaw Hwy","lat":42.74144795600756,"lng":-84.65478605062796,"city_fetched":"Lansing,US","state":"MI","country":"United States","canonicalUrl":"https://foursquare.com/v/franks-press-box/4b465606f964a520ed1d26e3","categoryId":"4bf58dd8d48988d11d941735","category":"Sports Bar","checkinsCount":2878,"usersCount":1220,"tipCount":20,"visitsCount":3291,"url":"http://www.frankspressbox.com","tier":2,"message":"Moderate","currency":"$","rating":6.1},{"name":"Rum Runners","phone":"5174824949","address":"601 E Michigan Ave","lat":42.73378014564514,"lng":-84.54450673333334,"neighborhood":"The Stadium District","city_fetched":"Lansing,US","state":"MI","country":"United States","canonicalUrl":"https://foursquare.com/v/rum-runners/4b77863af964a520c89f2ee3","categoryId":"4bf58dd8d48988d116941735","category":"Bar","checkinsCount":1579,"usersCount":877,"tipCount":13,"visitsCount":1579,"url":"http://www.rumrunnersusa.com","tier":"","message":"","currency":"","rating":6.1},{"name":"Reno's West","phone":"5173210616","twitter":"renoswest","address":"5001 W Saginaw Hwy","lat":42.74058667424275,"lng":-84.62007343769073,"city_fetched":"Lansing,US","state":"MI","country":"United States","canonicalUrl":"https://foursquare.com/v/renos-west/4b2a634ff964a52022a824e3","categoryId":"4bf58dd8d48988d11d941735","category":"Sports Bar","checkinsCount":5404,"usersCount":1673,"tipCount":33,"visitsCount":5886,"url":"http://renossportsbar.com","tier":2,"message":"Moderate","currency":"$","rating":6},{"name":"Tony M's","phone":"5173222069","address":"3420 S Creyts Rd","lat":42.69686234246403,"lng":-84.6429590762702,"city_fetched":"Lansing,US","state":"MI","country":"United States","canonicalUrl":"https://foursquare.com/v/tony-ms/4b68b77ff964a520dd882be3","categoryId":"4bf58dd8d48988d116941735","category":"Bar","checkinsCount":1008,"usersCount":467,"tipCount":8,"visitsCount":1318,"url":"http://tonyms.com","tier":2,"message":"Moderate","currency":"$","rating":6},{"name":"Tripper's Sports Bar and Comedy Club","phone":"5173360717","address":"350 Frandor Ave","lat":42.7365718767476,"lng":-84.50553774833679,"city_fetched":"Lansing,US","state":"MI","country":"United States","canonicalUrl":"https://foursquare.com/v/trippers-sports-bar-and-comedy-club/4b2465daf964a5200c6724e3","categoryId":"4bf58dd8d48988d11d941735","category":"Sports Bar","checkinsCount":2965,"usersCount":1158,"tipCount":12,"visitsCount":3147,"url":"http://www.tripperssportsbar.com","tier":2,"message":"Moderate","currency":"$","rating":6},{"name":"Colonial Bar & Grill","phone":"5178826132","twitter":"colonialbar","address":"3425 S Martin Luther King Jr Blvd","lat":42.69689861939127,"lng":-84.56692255428817,"neighborhood":"Old Everett","city_fetched":"Lansing,US","state":"MI","country":"United States","canonicalUrl":"https://foursquare.com/v/colonial-bar--grill/4b984066f964a520543735e3","categoryId":"4bf58dd8d48988d116941735","category":"Bar","checkinsCount":737,"usersCount":211,"tipCount":8,"visitsCount":810,"url":"http://www.colonialbarandgrille.com","tier":1,"message":"Cheap","currency":"$","rating":6},{"name":"Omar's Show Bar","phone":"5173714500","address":"316 E Michigan Ave","lat":42.73330153556216,"lng":-84.54872131347656,"neighborhood":"The Stadium District","city_fetched":"Lansing,US","state":"MI","country":"United States","canonicalUrl":"https://foursquare.com/v/omars-show-bar/4aeb6652f964a520c4c121e3","categoryId":"4bf58dd8d48988d1d6941735","category":"Strip Club","checkinsCount":1209,"usersCount":440,"tipCount":5,"visitsCount":1212,"tier":"","message":"","currency":"","rating":6},{"name":"Unicorn Tavern","phone":"5174859910","address":"327 E Grand River Ave","lat":42.7474652028463,"lng":-84.54834580421448,"neighborhood":"Old Town","city_fetched":"Lansing,US","state":"MI","country":"United States","canonicalUrl":"https://foursquare.com/v/unicorn-tavern/4cd5bacb89eb6dcb97e42a1e","categoryId":"4bf58dd8d48988d118941735","category":"Dive Bar","checkinsCount":436,"usersCount":223,"tipCount":4,"visitsCount":438,"tier":"","message":"","currency":"","rating":5.8},{"name":"Suits","address":"210 S Washington Sq","lat":42.732138649558046,"lng":-84.55237057620491,"neighborhood":"Downtown Lansing","city_fetched":"Lansing,US","state":"MI","country":"United States","canonicalUrl":"https://foursquare.com/v/suits/52b2265611d2573d56794784","categoryId":"4bf58dd8d48988d116941735","category":"Bar","checkinsCount":90,"usersCount":65,"tipCount":3,"visitsCount":97,"tier":"","message":"","currency":"","rating":5.5}]