[{"name":"The Crowbar and Grill","address":"202 S 2nd St","lat":41.31179093597173,"lng":-105.59494256973267,"city_fetched":"Laramie","state":"WY","country":"United States","canonicalUrl":"https://foursquare.com/v/the-crowbar-and-grill/4fd2dbc2e4b05b989cb29015","category":"Bar","checkinsCount":1159,"usersCount":341,"tipCount":10,"visitsCount":1309,"url":"http://thecrowbarandgrill.com","tier":2,"message":"Moderate","currency":"$","rating":8.4},{"name":"Altitude Chophouse & Brewery","phone":"3077214031","address":"320 S 2nd St","lat":41.31031286470302,"lng":-105.59524065967143,"city_fetched":"Laramie","state":"WY","country":"United States","canonicalUrl":"https://foursquare.com/v/altitude-chophouse--brewery/4bc7a82492b376b09a31503a","category":"Brewery","checkinsCount":2765,"usersCount":885,"tipCount":33,"visitsCount":3001,"url":"http://www.altitudechophouse.com","tier":2,"message":"Moderate","currency":"$","rating":8},{"name":"Alibi Pub","phone":"3077459738","twitter":"thealibipub","address":"404 S 4th St","lat":41.30987272305682,"lng":-105.5927154825829,"city_fetched":"Laramie","state":"WY","country":"United States","canonicalUrl":"https://foursquare.com/thealibipub","category":"Bar","checkinsCount":523,"usersCount":189,"tipCount":3,"visitsCount":586,"url":"http://www.alibipub.com","tier":"","message":"","currency":"","rating":7.9},{"name":"Lovejoys Bar And Grill","phone":"3077450141","address":"207 S 1st St","lat":41.311314550844024,"lng":-105.59585907584633,"city_fetched":"Laramie","state":"WY","country":"United States","canonicalUrl":"https://foursquare.com/v/lovejoys-bar-and-grill/4b4e1b55f964a52067e126e3","category":"Bar","checkinsCount":1932,"usersCount":529,"tipCount":18,"visitsCount":1969,"url":"http://www.elmerlovejoys.com","tier":"","message":"","currency":"","rating":7.5},{"name":"Coal Creek TAP","address":"108 E Grand Ave","lat":41.310989168668996,"lng":-105.59573882808859,"city_fetched":"Laramie","state":"WY","country":"United States","canonicalUrl":"https://foursquare.com/v/coal-creek-tap/5323c7d6498e6c8e582a06f7","category":"Brewery","checkinsCount":197,"usersCount":82,"tipCount":4,"visitsCount":212,"tier":"","message":"","currency":"","rating":7.5},{"name":"Front Street Tavern","address":"213 S 1st St","lat":41.31147408516797,"lng":-105.59597359759587,"city_fetched":"Laramie","state":"WY","country":"United States","canonicalUrl":"https://foursquare.com/v/front-street-tavern/4bc525df41cb76b014123e6f","category":"Bar","checkinsCount":1115,"usersCount":227,"tipCount":13,"visitsCount":1122,"tier":"","message":"","currency":"","rating":7.4},{"name":"O'Dwyers","address":"1622 E Grand Ave","lat":41.30974114864727,"lng":-105.57548682982375,"city_fetched":"Laramie","state":"WY","country":"United States","canonicalUrl":"https://foursquare.com/v/odwyers/51439fe0e4b039102a913c17","category":"Pub","checkinsCount":424,"usersCount":156,"tipCount":5,"visitsCount":585,"tier":"","message":"","currency":"","rating":7.4},{"name":"Mulligan's Pub & Package Store","phone":"3077459954","address":"1115 S 3rd St","lat":41.30310304368548,"lng":-105.5941915512085,"city_fetched":"Laramie","state":"WY","country":"United States","canonicalUrl":"https://foursquare.com/v/mulligans-pub--package-store/4b9a8b15f964a52089bf35e3","category":"Pub","checkinsCount":331,"usersCount":151,"tipCount":1,"visitsCount":381,"tier":"","message":"","currency":"","rating":7.3},{"name":"The Library Sports Grill and Brewery","phone":"3077420500","address":"201 E Custer St","lat":41.309334991031385,"lng":-105.59491842985152,"city_fetched":"Laramie","state":"WY","country":"United States","canonicalUrl":"https://foursquare.com/v/the-library-sports-grill-and-brewery/4bbf690b82a2ef3b0abd2cd2","category":"Brewery","checkinsCount":1895,"usersCount":467,"tipCount":19,"visitsCount":1895,"url":"http://laramie.librarysportsgrille.com","tier":"","message":"","currency":"","rating":7.2},{"name":"Jacques 3rd Street Bar & Grill","phone":"3077425522","address":"216 E Grand Ave","lat":41.310864175165165,"lng":-105.59382945299147,"city_fetched":"Laramie","state":"WY","country":"United States","canonicalUrl":"https://foursquare.com/v/jacques-3rd-street-bar--grill/4b9a8925f964a520d5be35e3","category":"Bar","checkinsCount":934,"usersCount":216,"tipCount":7,"visitsCount":940,"tier":2,"message":"Moderate","currency":"$","rating":7.1},{"name":"roughed up duck","address":"300-350 5th St","lat":41.31057100609552,"lng":-105.5912668143923,"city_fetched":"Laramie","state":"WY","country":"United States","canonicalUrl":"https://foursquare.com/v/roughed-up-duck/4c9d71bb7c096dcb26a2cbd1","category":"Bar","checkinsCount":521,"usersCount":87,"tipCount":2,"visitsCount":548,"tier":"","message":"","currency":"","rating":7},{"name":"Snowy Range Sports Bar and Grill","address":"201-299 S Adams St","lat":41.31059823267493,"lng":-105.61552047729492,"city_fetched":"Laramie","state":"WY","country":"United States","canonicalUrl":"https://foursquare.com/v/snowy-range-sports-bar-and-grill/4c8158b3d92ea093d6224072","category":"Sports Bar","checkinsCount":206,"usersCount":129,"tipCount":1,"visitsCount":253,"tier":"","message":"","currency":"","rating":6.9},{"name":"Library Sports Grille & Brewery","address":"201 E Custer St","lat":41.30941130074388,"lng":-105.59471958845053,"city_fetched":"Laramie","state":"WY","country":"United States","canonicalUrl":"https://foursquare.com/v/library-sports-grille--brewery/5248628611d2a7058f4399ea","category":"Restaurant","checkinsCount":574,"usersCount":207,"tipCount":5,"visitsCount":677,"tier":2,"message":"Moderate","currency":"$","rating":6.8},{"name":"Mingle's Lounge","phone":"3077212005","address":"3206 E Grand Ave","lat":41.3079967902462,"lng":-105.55505967460114,"city_fetched":"Laramie","state":"WY","country":"United States","canonicalUrl":"https://foursquare.com/v/mingles-lounge/4b9a8b97f964a520b5bf35e3","category":"Lounge","checkinsCount":570,"usersCount":180,"tipCount":3,"visitsCount":645,"tier":"","message":"","currency":"","rating":6.4},{"name":"Laramie Lanes","phone":"3077453835","address":"1270 N 3rd St","lat":41.323877381926835,"lng":-105.59242345761133,"city_fetched":"Laramie","state":"WY","country":"United States","canonicalUrl":"https://foursquare.com/v/laramie-lanes/4c9b8693b8e9224bde4e573d","category":"Bowling Alley","checkinsCount":626,"usersCount":156,"tipCount":3,"visitsCount":684,"tier":"","message":"","currency":"","rating":6.1},{"name":"The Ranger","address":"401-499 U.S. 287","lat":41.31625318119735,"lng":-105.5927154825829,"city_fetched":"Laramie","state":"WY","country":"United States","canonicalUrl":"https://foursquare.com/v/the-ranger/4c26c413f1272d7fe74187c5","category":"Bar","checkinsCount":1331,"usersCount":207,"tipCount":5,"visitsCount":1449,"tier":"","message":"","currency":"","rating":5.9},{"name":"The Buckhorn Bar","phone":"3077423554","address":"114 E Ivinson St","lat":41.31203411661035,"lng":-105.5953609070928,"city_fetched":"Laramie","state":"WY","country":"United States","canonicalUrl":"https://foursquare.com/v/the-buckhorn-bar/4bccb7660687ef3ba0c4dfcc","category":"Dive Bar","checkinsCount":993,"usersCount":383,"tipCount":15,"visitsCount":1025,"url":"http://buckhornlaramie.tripod.com","tier":"","message":"","currency":"","rating":5.6}]