[{"name":"La Posada Hotel","phone":"9567221701","twitter":"la_posada_hotel","address":"1000 Zaragoza St","lat":27.50207125446174,"lng":-99.50619777256726,"neighborhood":"Western Laredo","city_fetched":"Laredo","state":"TX","country":"United States","canonicalUrl":"https://foursquare.com/v/la-posada-hotel/4e45c60ce4cd9d94fb19b1ad","category":"Hotel","checkinsCount":1238,"usersCount":634,"tipCount":11,"visitsCount":1352,"url":"http://www.laposada.com","tier":"","message":"","currency":"","rating":8.6},{"name":"Border Foundry","phone":"9567245907","address":"7718 McPherson Rd","lat":27.576143264770508,"lng":-99.47404479980469,"city_fetched":"Laredo","state":"TX","country":"United States","canonicalUrl":"https://foursquare.com/v/border-foundry/51cf4acb498ed21d460814b5","category":"Restaurant","checkinsCount":288,"usersCount":295,"tipCount":15,"visitsCount":512,"url":"http://www.borderfoundrylaredo.com","tier":3,"message":"Expensive","currency":"$","rating":8.6},{"name":"Cosmos Bar & Grill","phone":"9567273393","twitter":"cosmosbar_grill","address":"201 W Del Mar Blvd Ste 8","lat":27.566574811935425,"lng":-99.499125,"neighborhood":"Del Mar Village","city_fetched":"Laredo","state":"TX","country":"United States","canonicalUrl":"https://foursquare.com/v/cosmos-bar--grill/4b5a32e9f964a520acb328e3","category":"Bar","checkinsCount":906,"usersCount":518,"tipCount":14,"visitsCount":1245,"url":"http://cosmosbar-grill.com","tier":2,"message":"Moderate","currency":"$","rating":8.3},{"name":"Mijitos","address":"Campeche","lat":27.46974754333496,"lng":-99.5042724609375,"city_fetched":"Laredo","state":"Tamaulipas","country":"México","canonicalUrl":"https://foursquare.com/v/mijitos/540bc091498e9b339b8a38cc","category":"Restaurant","checkinsCount":305,"usersCount":242,"tipCount":5,"visitsCount":589,"tier":"","message":"","currency":"","rating":8.1},{"name":"Zaragoza Grill at La Posada Hotel","phone":"9567534444","address":"1000 Zaragoza St","lat":27.502111297443996,"lng":-99.5062900653005,"neighborhood":"Western Laredo","city_fetched":"Laredo","state":"TX","country":"United States","canonicalUrl":"https://foursquare.com/v/zaragoza-grill-at-la-posada-hotel/4caeaa33562d224ba2290888","category":"Mexican Restaurant","checkinsCount":182,"usersCount":104,"tipCount":2,"visitsCount":187,"url":"http://www.laposada.com","tier":2,"message":"Moderate","currency":"$","rating":8},{"name":"On The Rocks Tavern","lat":27.503747369304474,"lng":-99.50575802625016,"neighborhood":"Western Laredo","city_fetched":"Laredo","state":"TX","country":"United States","canonicalUrl":"https://foursquare.com/v/on-the-rocks-tavern/4f2e2154e4b040ea0000dc2f","category":"Bar","checkinsCount":297,"usersCount":81,"tipCount":2,"visitsCount":326,"tier":"","message":"","currency":"","rating":7.9},{"name":"Las Cananas","lat":27.471261,"lng":-99.508175,"city_fetched":"Laredo","state":"Tamaulipas","country":"México","canonicalUrl":"https://foursquare.com/v/las-cananas/525101fe11d282065ebe048b","category":"Bar","checkinsCount":245,"usersCount":173,"tipCount":3,"visitsCount":386,"tier":"","message":"","currency":"","rating":7.9},{"name":"Mercado Maclovio Herrera","address":"Guerrero","lat":27.495670319391166,"lng":-99.50771247219029,"city_fetched":"Laredo","state":"Tamaulipas","country":"México","canonicalUrl":"https://foursquare.com/v/mercado-maclovio-herrera/4d03ed3937036dcb956d0dfb","category":"Flea Market","checkinsCount":687,"usersCount":287,"tipCount":5,"visitsCount":1013,"tier":"","message":"","currency":"","rating":7.7},{"name":"Old No 2 Cafe & Grill","phone":"9567223371","address":"313 W Village Blvd","lat":27.563328,"lng":-99.502143,"neighborhood":"Del Mar Village","city_fetched":"Laredo","state":"TX","country":"United States","canonicalUrl":"https://foursquare.com/v/old-no-2-cafe--grill/4c267e09a852c92849c5e66c","category":"Dive Bar","checkinsCount":1348,"usersCount":300,"tipCount":8,"visitsCount":1442,"tier":"","message":"","currency":"","rating":7.7},{"name":"Average Joe's","phone":"9567244961","address":"9562 Mcpherson Rd #1","lat":27.596540532201967,"lng":-99.48131506205526,"city_fetched":"Laredo","state":"TX","country":"United States","canonicalUrl":"https://foursquare.com/v/average-joes/4bdcdf67462b2d7f6bbf113c","category":"Bar","checkinsCount":2825,"usersCount":353,"tipCount":15,"visitsCount":2979,"tier":1,"message":"Cheap","currency":"$","rating":7.6},{"name":"Applebee´s","phone":"+528119588105","twitter":"applebeesmexico","address":"Av. Reforma #4400","lat":27.460642836860337,"lng":-99.51270737678453,"city_fetched":"Laredo","state":"Tamaulipas","country":"México","canonicalUrl":"https://foursquare.com/v/applebees/4bf4b281ff90c9b6b79e5528","category":"American Restaurant","checkinsCount":1193,"usersCount":696,"tipCount":9,"visitsCount":1627,"url":"http://applebees.com.mx","tier":"","message":"","currency":"","rating":7.6},{"name":"The Tack Room","phone":"9567221701","twitter":"la_posada_hotel","address":"1000 Zaragoza St","lat":27.50206768512726,"lng":-99.5067036151886,"neighborhood":"Western Laredo","city_fetched":"Laredo","state":"TX","country":"United States","canonicalUrl":"https://foursquare.com/v/the-tack-room/4c65f5c9c2ead13aacb3b280","category":"Pub","checkinsCount":106,"usersCount":78,"tipCount":5,"visitsCount":107,"url":"http://www.laposada.com","tier":"","message":"","currency":"","rating":7.5},{"name":"La Reserva Bar & Grill","phone":"9567539998","twitter":"lareservalaredo","address":"107 Calle del Norte","lat":27.553167542591705,"lng":-99.49457513917032,"city_fetched":"Laredo","state":"TX","country":"United States","canonicalUrl":"https://foursquare.com/v/la-reserva-bar--grill/4d6ff852305d60fc923b37b9","category":"Wine Bar","checkinsCount":219,"usersCount":117,"tipCount":8,"visitsCount":235,"url":"http://www.lareservabarandgrill.com","tier":"","message":"","currency":"","rating":7.2},{"name":"Scotch Bar","address":"Coahuila","lat":27.47266477154395,"lng":-99.50872228732091,"city_fetched":"Laredo","state":"Tamaulipas","country":"México","canonicalUrl":"https://foursquare.com/v/scotch-bar/514d0125e4b06c69e7e2fe1c","category":"Bar","checkinsCount":839,"usersCount":156,"tipCount":16,"visitsCount":996,"tier":"","message":"","currency":"","rating":7.1},{"name":"Rumors Country Bar & Patio","address":"9802 McPherson Rd","lat":27.59804263151869,"lng":-99.48100027640307,"neighborhood":"San Isidro","city_fetched":"Laredo","state":"TX","country":"United States","canonicalUrl":"https://foursquare.com/v/rumors-country-bar--patio/4c64ae5e5e61d13aab1eba85","category":"Bar","checkinsCount":1400,"usersCount":324,"tipCount":11,"visitsCount":1539,"tier":2,"message":"Moderate","currency":"$","rating":7},{"name":"The Cold Brew","lat":27.541650153731723,"lng":-99.50648550907498,"city_fetched":"Laredo","state":"TX","country":"United States","canonicalUrl":"https://foursquare.com/v/the-cold-brew/4bca7a4cb6c49c7418b79091","category":"Bar","checkinsCount":342,"usersCount":97,"tipCount":5,"visitsCount":354,"tier":"","message":"","currency":"","rating":6.7},{"name":"Hal's Landing","phone":"9567908778","twitter":"halslanding","address":"6510 Arena","lat":27.5598841944572,"lng":-99.45193119473929,"city_fetched":"Laredo","state":"TX","country":"United States","canonicalUrl":"https://foursquare.com/v/hals-landing/4d43b7581911a09314cdd0d8","category":"Bar","checkinsCount":3497,"usersCount":933,"tipCount":26,"visitsCount":4241,"url":"http://myspace.com/halslanding","tier":1,"message":"Cheap","currency":"$","rating":6.6},{"name":"TKO Sports Cafe","address":"520 Shiloh Dr Ste B","lat":27.590798697489607,"lng":-99.48293242792941,"city_fetched":"Laredo","state":"TX","country":"United States","canonicalUrl":"https://foursquare.com/v/tko-sports-cafe/5008ea2ae4b008cd49baeb46","category":"Sports Bar","checkinsCount":629,"usersCount":344,"tipCount":4,"visitsCount":1026,"tier":"","message":"","currency":"","rating":6.6},{"name":"Chabelas","address":"Guerrero","lat":27.47870085108936,"lng":-99.50770704310995,"city_fetched":"Laredo","state":"Tamaulipas","country":"México","canonicalUrl":"https://foursquare.com/v/chabelas/511019cfe4b0e2f94dc9bca3","category":"Speakeasy","checkinsCount":176,"usersCount":138,"tipCount":4,"visitsCount":263,"tier":"","message":"","currency":"","rating":6.4},{"name":"Agave Azul Restaurant & Bar","address":"120 W Village Blvd","lat":27.566875219345093,"lng":-99.4982746,"neighborhood":"Del Mar Village","city_fetched":"Laredo","state":"TX","country":"United States","canonicalUrl":"https://foursquare.com/v/agave-azul-restaurant--bar/4b88bb51f964a520110b32e3","category":"Nightclub","checkinsCount":291,"usersCount":131,"tipCount":3,"visitsCount":293,"url":"http://agaveazulorlando.com","tier":"","message":"","currency":"","rating":5.7},{"name":"Valle de Mexico Restaurant","phone":"+528671056838","address":"Héroes de Nacataz","lat":27.486686076610145,"lng":-99.50215328023845,"city_fetched":"Laredo","state":"Tamaulipas","country":"México","canonicalUrl":"https://foursquare.com/v/valle-de-mexico-restaurant/5287ed6011d2e6d3563765e7","category":"Mexican Restaurant","checkinsCount":87,"usersCount":36,"tipCount":2,"visitsCount":89,"tier":"","message":"","currency":"","rating":5.7},{"name":"Los Remedios","lat":27.469154,"lng":-99.501188,"city_fetched":"Laredo","country":"México","canonicalUrl":"https://foursquare.com/v/los-remedios/523e7dbe11d24bf05dd61958","category":"Bar","checkinsCount":150,"usersCount":97,"tipCount":2,"visitsCount":193,"tier":"","message":"","currency":"","rating":5.6}]