[{"name":"Encore Beach Club","phone":"7027707300","twitter":"encorebeachclub","address":"3121 Las Vegas Blvd S","lat":36.12940027183192,"lng":-115.16608357429504,"neighborhood":"The Strip","city_fetched":"Las Vegas","state":"NV","country":"United States","canonicalUrl":"https://foursquare.com/encorebeachclub","category":"Nightclub","checkinsCount":18253,"usersCount":12285,"tipCount":79,"visitsCount":18951,"url":"http://encorebeachclub.com","tier":4,"message":"Very Expensive","currency":"$","rating":9.6},{"name":"Total Wine & More","phone":"7024332709","twitter":"totalwine","address":"501 N Stephanie Street","lat":36.056609,"lng":-115.048332,"neighborhood":"Whitney Ranch","city_fetched":"Las Vegas","state":"NV","country":"United States","canonicalUrl":"https://foursquare.com/v/total-wine--more/4c40ac5dcc410f4771ffa961","category":"Wine Shop","checkinsCount":4101,"usersCount":2138,"tipCount":22,"visitsCount":5434,"url":"http://www.totalwine.com","tier":"","message":"","currency":"","rating":9.5},{"name":"Rain Nightclub","phone":"7029426832","twitter":"rainlasvegas","address":"4321 W Flamingo Rd","lat":36.11467894242752,"lng":-115.19347523157882,"city_fetched":"Las Vegas","state":"NV","country":"United States","canonicalUrl":"https://foursquare.com/rainlasvegas","category":"Nightclub","checkinsCount":5827,"usersCount":4436,"tipCount":18,"visitsCount":5849,"url":"http://rainlv.com","tier":"","message":"","currency":"","rating":9.4},{"name":"Red Carpet VIP","phone":"8888476483","twitter":"redcarpetvip","address":"101 Convention Center Dr Ste 260","lat":36.13208654516867,"lng":-115.16169548034668,"neighborhood":"The Strip","city_fetched":"Las Vegas","state":"NV","country":"United States","canonicalUrl":"https://foursquare.com/redcarpetvip","category":"Nightclub","checkinsCount":123,"usersCount":29,"tipCount":1,"visitsCount":123,"url":"http://www.vipnight.com","tier":"","message":"","currency":"","rating":9.4},{"name":"The View","phone":"7029426832","twitter":"theviewlv","address":"4321 W Flamingo Rd","lat":36.11432233468018,"lng":-115.19459260704316,"city_fetched":"Las Vegas","state":"NV","country":"United States","canonicalUrl":"https://foursquare.com/theviewlv","category":"Lounge","checkinsCount":293,"usersCount":203,"tipCount":3,"visitsCount":294,"url":"http://theviewlv.com","tier":"","message":"","currency":"","rating":9.3},{"name":"Mandarin Bar at Mandarin Oriental, Las Vegas","phone":"8888819367","twitter":"mo_hotels","address":"3752 Las Vegas Blvd S","lat":36.10628585795433,"lng":-115.17418384552002,"neighborhood":"The Strip","city_fetched":"Las Vegas","state":"NV","country":"United States","canonicalUrl":"https://foursquare.com/v/mandarin-bar-at-mandarin-oriental-las-vegas/4b3c6637f964a5203c8425e3","category":"Hotel Bar","checkinsCount":3821,"usersCount":2910,"tipCount":77,"visitsCount":3886,"url":"http://www.mandarinoriental.com","tier":3,"message":"Expensive","currency":"$","rating":9.3},{"name":"I Love Sushi","phone":"7029904055","address":"11041 S Eastern Ave","lat":35.991636106047665,"lng":-115.1028960943222,"city_fetched":"Las Vegas","state":"NV","country":"United States","canonicalUrl":"https://foursquare.com/v/i-love-sushi/4b401d0ff964a520c2b525e3","category":"Sushi Restaurant","checkinsCount":3674,"usersCount":1929,"tipCount":69,"visitsCount":4460,"tier":2,"message":"Moderate","currency":"$","rating":9.3},{"name":"Tenaya Creek Brewery","phone":"7023627335","twitter":"tenayacreek","address":"831 W Bonanza Rd","lat":36.17687232955015,"lng":-115.15350765704628,"city_fetched":"Las Vegas","state":"NV","country":"United States","canonicalUrl":"https://foursquare.com/v/tenaya-creek-brewery/55de2a44498e28c713e77410","category":"Brewery","checkinsCount":588,"usersCount":275,"tipCount":12,"visitsCount":865,"url":"http://tenayacreek.com","tier":"","message":"","currency":"","rating":9.2},{"name":"Larry Flynt's Hustler Club","phone":"7027953131","twitter":"hustlervegas","address":"6007 Dean Martin Dr","lat":36.08026919956453,"lng":-115.18252705925288,"city_fetched":"Las Vegas","state":"NV","country":"United States","canonicalUrl":"https://foursquare.com/hustlervegas","category":"Strip Club","checkinsCount":5064,"usersCount":2978,"tipCount":44,"visitsCount":6274,"url":"http://www.vegashustlerclub.com","tier":"","message":"","currency":"","rating":9.2},{"name":"1 OAK Nightclub","phone":"7026938300","twitter":"1oaklv","address":"3400 Las Vegas Blvd S","lat":36.12192804387701,"lng":-115.17402763588909,"neighborhood":"The Strip","city_fetched":"Las Vegas","state":"NV","country":"United States","canonicalUrl":"https://foursquare.com/1oaklv","category":"Nightclub","checkinsCount":11445,"usersCount":8048,"tipCount":81,"visitsCount":11748,"url":"http://1oaklasvegas.com","tier":4,"message":"Very Expensive","currency":"$","rating":9.2},{"name":"GHOSTBAR","phone":"7029426832","twitter":"ghostbarlv","address":"4321 W Flamingo Rd","lat":36.11487030371023,"lng":-115.19395576140734,"city_fetched":"Las Vegas","state":"NV","country":"United States","canonicalUrl":"https://foursquare.com/ghostbarlv","category":"Lounge","checkinsCount":12066,"usersCount":9202,"tipCount":79,"visitsCount":12440,"url":"http://www.ghostbar.com","tier":3,"message":"Expensive","currency":"$","rating":9.2},{"name":"SUSHISAMBA","phone":"7026070700","twitter":"sushisamba","address":"3327 Las Vegas Blvd S","lat":36.12401011705408,"lng":-115.16916275024414,"neighborhood":"The Strip","city_fetched":"Las Vegas","state":"NV","country":"United States","canonicalUrl":"https://foursquare.com/v/sushisamba/4a99e5e9f964a520043120e3","category":"Sushi Restaurant","checkinsCount":11952,"usersCount":8995,"tipCount":195,"visitsCount":12122,"url":"http://www.sushisamba.com","tier":3,"message":"Expensive","currency":"$","rating":9.2},{"name":"ARIA Sky Suites & Villas","phone":"7205909550","twitter":"arialv","address":"3730 Las Vegas Blvd S","lat":36.107022642781146,"lng":-115.17688751220703,"neighborhood":"The Strip","city_fetched":"Las Vegas","state":"NV","country":"United States","canonicalUrl":"https://foursquare.com/v/aria-sky-suites--villas/4bca06ce0687ef3b8c10dbcc","category":"Hotel","checkinsCount":5103,"usersCount":2540,"tipCount":13,"visitsCount":5123,"url":"http://www.arialasvegas.com","tier":"","message":"","currency":"","rating":9.2},{"name":"High Roller Observation Wheel","phone":"8663281888","twitter":"the_linq","address":"3545 Las Vegas Blvd","lat":36.11767165903503,"lng":-115.16830718763427,"neighborhood":"The Strip","city_fetched":"Las Vegas","state":"NV","country":"United States","canonicalUrl":"https://foursquare.com/v/high-roller-observation-wheel/52b0da9811d28f203caf4682","category":"General Entertainment","checkinsCount":12641,"usersCount":16247,"tipCount":186,"visitsCount":18979,"url":"https://www.caesars.com/thelinq/high-roller.html#.VC9PkRYoWg2","tier":"","message":"","currency":"","rating":9.2},{"name":"BARDOT Brasserie","phone":"7026908610","twitter":"bardot_lv","address":"3730 Las Vegas Blvd S","lat":36.1070378034614,"lng":-115.17742627455557,"neighborhood":"The Strip","city_fetched":"Las Vegas","state":"NV","country":"United States","canonicalUrl":"https://foursquare.com/v/bardot-brasserie/544ab12a498ee155461750be","category":"French Restaurant","checkinsCount":1118,"usersCount":975,"tipCount":23,"visitsCount":1141,"url":"http://www.michaelmina.net","tier":"","message":"","currency":"","rating":9.2},{"name":"VEGAS! The Show","phone":"7022607200","twitter":"vegastheshow","address":"3663 Las Vegas Blvd S","lat":36.10936664742296,"lng":-115.16939570190021,"neighborhood":"The Strip","city_fetched":"Las Vegas","state":"NV","country":"United States","canonicalUrl":"https://foursquare.com/vegastheshow","category":"Theater","checkinsCount":1016,"usersCount":690,"tipCount":36,"visitsCount":1022,"url":"http://www.vegastheshow.com","tier":"","message":"","currency":"","rating":9.2},{"name":"Casa Fuente Cigar Lounge","phone":"7027315051","address":"3500 Las Vegas Blvd S","lat":36.11932548641626,"lng":-115.17380183067036,"neighborhood":"The Strip","city_fetched":"Las Vegas","state":"NV","country":"United States","canonicalUrl":"https://foursquare.com/v/casa-fuente-cigar-lounge/4b12fdb7f964a520419223e3","category":"Smoke Shop","checkinsCount":3291,"usersCount":1970,"tipCount":47,"visitsCount":3370,"url":"http://www.casafuente.com","tier":"","message":"","currency":"","rating":9.2},{"name":"ARIA Pool & Cabanas","phone":"7025907111","twitter":"arialv","address":"3730 Las Vegas Blvd S","lat":36.106710593580466,"lng":-115.17856121063232,"neighborhood":"The Strip","city_fetched":"Las Vegas","state":"NV","country":"United States","canonicalUrl":"https://foursquare.com/v/aria-pool--cabanas/4ba5559ef964a520f7fb38e3","category":"Pool","checkinsCount":8848,"usersCount":6913,"tipCount":42,"visitsCount":9584,"url":"http://www.arialasvegas.com","tier":"","message":"","currency":"","rating":9.2},{"name":"Skyfall Lounge","phone":"7026327575","twitter":"skyfalllounge","address":"3940 Las Vegas Blvd S","lat":36.092993299685226,"lng":-115.1772467902878,"neighborhood":"The Strip","city_fetched":"Las Vegas","state":"NV","country":"United States","canonicalUrl":"https://foursquare.com/v/skyfall-lounge/5603023e498eb33b54a74068","category":"Lounge","checkinsCount":582,"usersCount":498,"tipCount":9,"visitsCount":588,"url":"https://www.delanolasvegas.com/en/nightlife/skyfall-lounge.html","tier":"","message":"","currency":"","rating":9.2},{"name":"TAO Asian Bistro","phone":"7023888338","twitter":"taogroup","address":"3377 Las Vegas Blvd S","lat":36.12241553087384,"lng":-115.17105102539062,"neighborhood":"The Strip","city_fetched":"Las Vegas","state":"NV","country":"United States","canonicalUrl":"https://foursquare.com/v/tao-asian-bistro/4b934c70f964a5201a3f34e3","category":"Asian Restaurant","checkinsCount":13656,"usersCount":10968,"tipCount":131,"visitsCount":13712,"url":"http://taolasvegas.com","tier":3,"message":"Expensive","currency":"$","rating":9.1},{"name":"The Signature at MGM Grand","phone":"7027976000","twitter":"mgmgrand","address":"145 E Harmon Ave","lat":36.10662120067744,"lng":-115.16663966920613,"neighborhood":"The Strip","city_fetched":"Las Vegas","state":"NV","country":"United States","canonicalUrl":"https://foursquare.com/v/the-signature-at-mgm-grand/4b15b91bf964a52048b323e3","category":"Hotel","checkinsCount":26394,"usersCount":12553,"tipCount":113,"visitsCount":29132,"url":"http://www.mgmgrand.com/special_offers/?utm_source=Link&utm_medium=Entertainment&utm_campaign=MGM%2B","tier":"","message":"","currency":"","rating":9.1},{"name":"Yard House","phone":"7025970434","twitter":"yardhouse","address":"3545 Las Vegas Blvd S","lat":36.11767369688525,"lng":-115.16888039507839,"neighborhood":"The Strip","city_fetched":"Las Vegas","state":"NV","country":"United States","canonicalUrl":"https://foursquare.com/v/yard-house/52f9502311d2891b6c0eee3c","category":"American Restaurant","checkinsCount":4117,"usersCount":3944,"tipCount":68,"visitsCount":4992,"url":"http://www.yardhouse.com","tier":2,"message":"Moderate","currency":"$","rating":9.1},{"name":"Tacos & Beer","phone":"7026757572","twitter":"tacosandbeerop","address":"3900 Paradise Rd Ste A","lat":36.119154079364854,"lng":-115.15475255790163,"city_fetched":"Las Vegas","state":"NV","country":"United States","canonicalUrl":"https://foursquare.com/v/tacos--beer/5361c75c498ea303a909049c","category":"Taco Place","checkinsCount":1300,"usersCount":1034,"tipCount":23,"visitsCount":1995,"url":"http://tacosandbeerlv.com","tier":"","message":"","currency":"","rating":9.1},{"name":"XS Nightclub","phone":"7027707000","twitter":"xslasvegas","address":"Encore At Wynn Las Vegas","lat":36.128402819687565,"lng":-115.16457262904575,"neighborhood":"The Strip","city_fetched":"Las Vegas","state":"NV","country":"United States","canonicalUrl":"https://foursquare.com/v/xs-nightclub/4a9248d6f964a520091d20e3","category":"Nightclub","checkinsCount":52326,"usersCount":33190,"tipCount":329,"visitsCount":54168,"url":"http://www.xslasvegas.com","tier":4,"message":"Very Expensive","currency":"$","rating":9.1},{"name":"Total Wine & More","phone":"7029338740","twitter":"totalwine","address":"730 S Rampart Blvd","lat":36.163086,"lng":-115.28854,"neighborhood":"Summerlin","city_fetched":"Las Vegas","state":"NV","country":"United States","canonicalUrl":"https://foursquare.com/v/total-wine--more/4b9c26baf964a520604f36e3","category":"Wine Shop","checkinsCount":5512,"usersCount":2265,"tipCount":39,"visitsCount":6071,"url":"http://www.totalwine.com","tier":"","message":"","currency":"","rating":9.1},{"name":"Total Wine & More","phone":"7025151258","twitter":"totalwine","address":"5720 Centennial Center Blvd","lat":36.26632185185255,"lng":-115.25928211216524,"neighborhood":"Centennial Hills","city_fetched":"Las Vegas","state":"NV","country":"United States","canonicalUrl":"https://foursquare.com/v/total-wine--more/55d228b1498ed4b642099984","category":"Wine Shop","checkinsCount":257,"usersCount":256,"tipCount":6,"visitsCount":609,"url":"http://www.totalwine.com","tier":"","message":"","currency":"","rating":9.1},{"name":"Khoury's Fine Wine and Spirits","phone":"7024359463","twitter":"khourysfinewine","address":"9915 S. Eastern #110","lat":36.00927,"lng":-115.11825,"neighborhood":"Silverado Ranch","city_fetched":"Las Vegas","state":"NV","country":"United States","canonicalUrl":"https://foursquare.com/v/khourys-fine-wine-and-spirits/4ac95b9cf964a520c4bf20e3","category":"Wine Shop","checkinsCount":5082,"usersCount":678,"tipCount":19,"visitsCount":5896,"url":"http://www.khourysfinewine.com","tier":"","message":"","currency":"","rating":9.1},{"name":"Paymon's Mediterranean Cafe & Hookah Lounge","phone":"7027316030","twitter":"paymonshookah","address":"4147 S Maryland Pkwy","lat":36.113532053160085,"lng":-115.138338804245,"city_fetched":"Las Vegas","state":"NV","country":"United States","canonicalUrl":"https://foursquare.com/v/paymons-mediterranean-cafe--hookah-lounge/43ceb639f964a520de2d1fe3","category":"Mediterranean Restaurant","checkinsCount":5176,"usersCount":2229,"tipCount":83,"visitsCount":5723,"url":"http://www.paymons.com","tier":2,"message":"Moderate","currency":"$","rating":9.1},{"name":"McMullan's Irish Pub","phone":"7022477000","twitter":"mcmullanspublv","address":"4650 W Tropicana Ave","lat":36.101721019198436,"lng":-115.20414513757154,"city_fetched":"Las Vegas","state":"NV","country":"United States","canonicalUrl":"https://foursquare.com/v/mcmullans-irish-pub/41478600f964a520c51c1fe3","category":"Irish Pub","checkinsCount":6295,"usersCount":3223,"tipCount":61,"visitsCount":7390,"url":"http://www.mcmullansirishpub.com","tier":2,"message":"Moderate","currency":"$","rating":9.1},{"name":"The Chandelier","phone":"7026987000","twitter":"cosmopolitan_lv","address":"3708 Las Vegas Blvd S","lat":36.10955366271496,"lng":-115.1737117767334,"neighborhood":"The Strip","city_fetched":"Las Vegas","state":"NV","country":"United States","canonicalUrl":"https://foursquare.com/v/the-chandelier/4d0144ba6212721ea500e011","category":"Lounge","checkinsCount":31120,"usersCount":22393,"tipCount":278,"visitsCount":31404,"url":"http://www.cosmopolitanlasvegas.com","tier":2,"message":"Moderate","currency":"$","rating":9.1},{"name":"Herbs & Rye","phone":"7029828036","twitter":"herbs","address":"3713 W Sahara Ave","lat":36.14400763,"lng":-115.19180059432648,"city_fetched":"Las Vegas","state":"NV","country":"United States","canonicalUrl":"https://foursquare.com/v/herbs--rye/4b28384bf964a520169124e3","category":"Cocktail Bar","checkinsCount":3125,"usersCount":2281,"tipCount":53,"visitsCount":3960,"url":"http://www.herbsandrye.com","tier":3,"message":"Expensive","currency":"$","rating":9.1},{"name":"Foundation Room","phone":"7026327614","twitter":"foundationroom","address":"3950 Las Vegas Blvd S","lat":36.09183481061275,"lng":-115.17448425292969,"neighborhood":"The Strip","city_fetched":"Las Vegas","state":"NV","country":"United States","canonicalUrl":"https://foursquare.com/v/foundation-room/4b025c33f964a520714822e3","category":"Nightclub","checkinsCount":9156,"usersCount":6603,"tipCount":66,"visitsCount":9189,"url":"http://www.houseofblues.com","tier":3,"message":"Expensive","currency":"$","rating":9},{"name":"Nora's Italian Cuisine","phone":"7023656713","twitter":"norascuisine","address":"6020 W Flamingo Rd","lat":36.1153028476529,"lng":-115.223394054332,"city_fetched":"Las Vegas","state":"NV","country":"United States","canonicalUrl":"https://foursquare.com/v/noras-italian-cuisine/4b5a0916f964a52021a928e3","category":"Italian Restaurant","checkinsCount":2402,"usersCount":1923,"tipCount":61,"visitsCount":2966,"url":"http://norascuisine.com","tier":2,"message":"Moderate","currency":"$","rating":9},{"name":"Crown & Anchor Pub","phone":"7027398676","twitter":"thecrownvegas","address":"1350 E Tropicana Ave","lat":36.101324103126906,"lng":-115.13457877798332,"city_fetched":"Las Vegas","state":"NV","country":"United States","canonicalUrl":"https://foursquare.com/v/crown--anchor-pub/41326e00f964a52008141fe3","category":"Bar","checkinsCount":7400,"usersCount":2558,"tipCount":77,"visitsCount":8032,"url":"http://crownandanchor-hub.com","tier":2,"message":"Moderate","currency":"$","rating":9},{"name":"Stripper 101","phone":"8669321818","twitter":"stripper101lv","address":"3663 Las Vegas Blvd S Ste 360","lat":36.110680460420845,"lng":-115.16890525817871,"neighborhood":"The Strip","city_fetched":"Las Vegas","state":"NV","country":"United States","canonicalUrl":"https://foursquare.com/stripper101lv","category":"General Entertainment","checkinsCount":272,"usersCount":259,"tipCount":24,"visitsCount":272,"url":"http://www.stripper101.com","tier":"","message":"","currency":"","rating":9},{"name":"Frank Marino's Divas Las Vegas","phone":"7027777776","twitter":"franks_divas","address":"3475 Las Vegas Blvd S","lat":36.118211662034795,"lng":-115.17201275288762,"neighborhood":"The Strip","city_fetched":"Las Vegas","state":"NV","country":"United States","canonicalUrl":"https://foursquare.com/v/frank-marinos-divas-las-vegas/4b821b01f964a520aaca30e3","category":"General Entertainment","checkinsCount":2246,"usersCount":1523,"tipCount":17,"visitsCount":2253,"url":"http://www.imperialpalace.com/casinos/imperial-palace/casino-entertainment/frank-marinos-divas-las-vegas-detail.html","tier":"","message":"","currency":"","rating":9},{"name":"5 O'Clock Somewhere Bar","phone":"7027333302","address":"3555 Las Vegas Blvd S","lat":36.11656991548955,"lng":-115.17275965066088,"neighborhood":"The Strip","city_fetched":"Las Vegas","state":"NV","country":"United States","canonicalUrl":"https://foursquare.com/v/5-oclock-somewhere-bar/4e8aa7055c5cfad11a77f0f2","category":"Bar","checkinsCount":3434,"usersCount":2156,"tipCount":20,"visitsCount":3473,"url":"http://www.margaritavillelasvegas.com/mobile-home.html","tier":2,"message":"Moderate","currency":"$","rating":9},{"name":"STK Las Vegas","phone":"7026987990","twitter":"stklasvegas","address":"3708 Las Vegas Blvd S","lat":36.10960566911874,"lng":-115.1736044883728,"neighborhood":"The Strip","city_fetched":"Las Vegas","state":"NV","country":"United States","canonicalUrl":"https://foursquare.com/stklasvegas","category":"Steakhouse","checkinsCount":10624,"usersCount":7912,"tipCount":109,"visitsCount":10676,"url":"http://togrp.com/reservation/stk-lv/","tier":4,"message":"Very Expensive","currency":"$","rating":9},{"name":"Sully's Bar","phone":"8776034390","twitter":"ballysvegas","address":"3624 S Las Vegas Blv","lat":36.11371406620258,"lng":-115.17014980316162,"neighborhood":"The Strip","city_fetched":"Las Vegas","state":"NV","country":"United States","canonicalUrl":"https://foursquare.com/v/sullys-bar/4af7268df964a5206e0622e3","category":"Bar","checkinsCount":1035,"usersCount":641,"tipCount":7,"visitsCount":1039,"url":"http://www.ballyslasvegas.com","tier":"","message":"","currency":"","rating":9},{"name":"Hash House A Go Go","phone":"7028044646","twitter":"hashhouseagogo","address":"6800 W Sahara Ave","lat":36.144694,"lng":-115.240025,"city_fetched":"Las Vegas","state":"NV","country":"United States","canonicalUrl":"https://foursquare.com/v/hash-house-a-go-go/489ed3fef964a52083511fe3","category":"Breakfast Spot","checkinsCount":9514,"usersCount":8081,"tipCount":173,"visitsCount":10549,"url":"http://www.hashhouseagogo.com/vegas/","tier":2,"message":"Moderate","currency":"$","rating":9},{"name":"Drai's Beach Club â€¢ Nightclub","phone":"7027773800","twitter":"draislv","address":"3595 Las Vegas Blvd S","lat":36.11497947855067,"lng":-115.17210245132445,"neighborhood":"The Strip","city_fetched":"Las Vegas","state":"NV","country":"United States","canonicalUrl":"https://foursquare.com/v/drais-beach-club--nightclub/537edc75498e80a0544eb639","category":"Nightclub","checkinsCount":6498,"usersCount":5456,"tipCount":72,"visitsCount":7130,"url":"http://www.draislv.com","tier":1,"message":"Cheap","currency":"$","rating":9},{"name":"Downtown Cocktail Room","phone":"7028803696","address":"111 Las Vegas Blvd S","lat":36.168902716666665,"lng":-115.14067352,"neighborhood":"Downtown Las Vegas","city_fetched":"Las Vegas","state":"NV","country":"United States","canonicalUrl":"https://foursquare.com/v/downtown-cocktail-room/470e0802f964a520834b1fe3","category":"Cocktail Bar","checkinsCount":6123,"usersCount":2857,"tipCount":71,"visitsCount":6214,"url":"http://www.thedowntownlv.net","tier":2,"message":"Moderate","currency":"$","rating":9},{"name":"Yard House","phone":"7023639273","twitter":"yardhouse","address":"11011 W Charleston Blvd","lat":36.15553121,"lng":-115.333786,"neighborhood":"Red Rock","city_fetched":"Las Vegas","state":"NV","country":"United States","canonicalUrl":"https://foursquare.com/v/yard-house/4c000de9f61ea593ea3ceb13","category":"American Restaurant","checkinsCount":11757,"usersCount":5436,"tipCount":113,"visitsCount":11883,"url":"http://www.yardhouse.com","tier":2,"message":"Moderate","currency":"$","rating":8.9},{"name":"Starlight Tattoo","phone":"7027927637","twitter":"themiragelv","address":"The Mirage","lat":36.12104964719784,"lng":-115.17560247808457,"neighborhood":"The Strip","city_fetched":"Las Vegas","state":"NV","country":"United States","canonicalUrl":"https://foursquare.com/v/starlight-tattoo/4be6525ad4f7c9b613b52620","category":"Tattoo Parlor","checkinsCount":1974,"usersCount":1535,"tipCount":16,"visitsCount":1975,"url":"http://mirage.com","tier":"","message":"","currency":"","rating":8.9},{"name":"Marquee Nightclub & Dayclub","phone":"7023339000","twitter":"cosmopolitan_lv","address":"3708 Las Vegas Blvd S","lat":36.10954499497765,"lng":-115.17464518547058,"neighborhood":"The Strip","city_fetched":"Las Vegas","state":"NV","country":"United States","canonicalUrl":"https://foursquare.com/v/marquee-nightclub--dayclub/4d013eda6289f04d14be96cc","category":"Nightclub","checkinsCount":58986,"usersCount":34791,"tipCount":335,"visitsCount":59373,"url":"http://www.cosmopolitanlasvegas.com","tier":3,"message":"Expensive","currency":"$","rating":8.9},{"name":"Sage","phone":"7025907111","twitter":"arialv","address":"3730 Las Vegas Blvd S","lat":36.10764841828372,"lng":-115.17592091949224,"neighborhood":"The Strip","city_fetched":"Las Vegas","state":"NV","country":"United States","canonicalUrl":"https://foursquare.com/v/sage/4b293a50f964a5204a9b24e3","category":"American Restaurant","checkinsCount":4129,"usersCount":3515,"tipCount":76,"visitsCount":4136,"url":"http://www.arialasvegas.com","tier":4,"message":"Very Expensive","currency":"$","rating":8.9},{"name":"Brad Garrett's Comedy Club","address":"3801 Las Vegas Blvd S","lat":36.10251173112299,"lng":-115.16785556892162,"neighborhood":"The Strip","city_fetched":"Las Vegas","state":"NV","country":"United States","canonicalUrl":"https://foursquare.com/v/brad-garretts-comedy-club/4d1c00001cb9a143c316ab2b","category":"Comedy Club","checkinsCount":1192,"usersCount":979,"tipCount":17,"visitsCount":1198,"tier":"","message":"","currency":"","rating":8.9},{"name":"OMNIA Nightclub","phone":"7027856200","twitter":"omnialasvegas","address":"3570 Las Vegas Blvd S","lat":36.117019284149826,"lng":-115.17404500551466,"neighborhood":"The Strip","city_fetched":"Las Vegas","state":"NV","country":"United States","canonicalUrl":"https://foursquare.com/v/omnia-nightclub/54ffb470498ef3f03868aed6","category":"Nightclub","checkinsCount":7474,"usersCount":7610,"tipCount":75,"visitsCount":9228,"url":"http://omnianightclub.com","tier":3,"message":"Expensive","currency":"$","rating":8.9},{"name":"Yard House","phone":"7027349273","twitter":"yardhouse","address":"6593 Las Vegas Blvd S","lat":36.06736513,"lng":-115.1719844,"city_fetched":"Las Vegas","state":"NV","country":"United States","canonicalUrl":"https://foursquare.com/v/yard-house/4abee96af964a520839020e3","category":"American Restaurant","checkinsCount":18128,"usersCount":9006,"tipCount":169,"visitsCount":18228,"url":"http://www.yardhouse.com","tier":2,"message":"Moderate","currency":"$","rating":8.9},{"name":"Carson Kitchen","phone":"7024739523","twitter":"carsonkitchen","address":"124 S 6th St Ste 100","lat":36.167959462271725,"lng":-115.14061251561584,"neighborhood":"Downtown Las Vegas","city_fetched":"Las Vegas","state":"NV","country":"United States","canonicalUrl":"https://foursquare.com/v/carson-kitchen/539a4129498e2eba5804ba4a","category":"Gastropub","checkinsCount":1322,"usersCount":1313,"tipCount":38,"visitsCount":1803,"url":"http://carsonkitchen.com","tier":"","message":"","currency":"","rating":8.9},{"name":"Atomic Liquors","phone":"7023847371","twitter":"atomicliquorslv","address":"917 Fremont St","lat":36.166824932652,"lng":-115.1355515955484,"neighborhood":"Downtown Las Vegas","city_fetched":"Las Vegas","state":"NV","country":"United States","canonicalUrl":"https://foursquare.com/v/atomic-liquors/41326e00f964a520ab131fe3","category":"Dive Bar","checkinsCount":3915,"usersCount":2567,"tipCount":35,"visitsCount":5914,"url":"http://atomiclasvegas.com","tier":1,"message":"Cheap","currency":"$","rating":8.9},{"name":"Velveteen Rabbit","phone":"7026859645","address":"1218 S Main St","lat":36.15672603504349,"lng":-115.15394771557668,"neighborhood":"Arts District","city_fetched":"Las Vegas","state":"NV","country":"United States","canonicalUrl":"https://foursquare.com/v/velveteen-rabbit/511eb0f7e4b07e642215ce78","category":"Cocktail Bar","checkinsCount":1892,"usersCount":1173,"tipCount":27,"visitsCount":2421,"tier":1,"message":"Cheap","currency":"$","rating":8.9},{"name":"The Pool At Bellagio","phone":"8889876667","twitter":"bellagio","address":"3600 Las Vegas Blvd S","lat":36.11204993125413,"lng":-115.17761707305908,"neighborhood":"The Strip","city_fetched":"Las Vegas","state":"NV","country":"United States","canonicalUrl":"https://foursquare.com/v/the-pool-at-bellagio/4aa4177bf964a5203e4520e3","category":"Hotel Pool","checkinsCount":6559,"usersCount":4841,"tipCount":34,"visitsCount":6665,"url":"http://bit.ly/VisitBellagio","tier":"","message":"","currency":"","rating":8.9},{"name":"The Bar @ Tropicana & Durango","phone":"7023313178","twitter":"thebarlv","address":"4705 S Durango Dr Ste 140","lat":36.103464319473986,"lng":-115.27966356576096,"city_fetched":"Las Vegas","state":"NV","country":"United States","canonicalUrl":"https://foursquare.com/v/the-bar--tropicana--durango/5183775c498e60209f73114d","category":"Bar","checkinsCount":539,"usersCount":286,"tipCount":16,"visitsCount":1010,"url":"http://thebarlv.com","tier":"","message":"","currency":"","rating":8.9},{"name":"MGM Grand Pool","twitter":"mgmgrand","address":"3799 Las Vegas Blvd S","lat":36.10448433383284,"lng":-115.16674967937126,"neighborhood":"The Strip","city_fetched":"Las Vegas","state":"NV","country":"United States","canonicalUrl":"https://foursquare.com/v/mgm-grand-pool/5154bea9e4b0e523ed40e1e9","category":"Pool","checkinsCount":8791,"usersCount":7214,"tipCount":49,"visitsCount":9492,"url":"http://www.mgmgrand.com/special_offers/?utm_source=Link&utm_medium=Entertainment&utm_campaign=MGM%2B","tier":"","message":"","currency":"","rating":8.9},{"name":"CraftHaus Brewery","phone":"7024625934","twitter":"crafthausbrew","address":"7350 Eastgate Rd Ste 110","lat":36.05401274139569,"lng":-115.0184683126115,"city_fetched":"Las Vegas","state":"NV","country":"United States","canonicalUrl":"https://foursquare.com/v/crafthaus-brewery/5414757e498ec124d5d40977","category":"Brewery","checkinsCount":700,"usersCount":300,"tipCount":3,"visitsCount":916,"url":"http://www.crafthausbrewery.com","tier":1,"message":"Cheap","currency":"$","rating":8.9},{"name":"Top Of The World","phone":"7023807711","address":"2000 Las Vegas Blvd S","lat":36.147352704126746,"lng":-115.15552844714628,"neighborhood":"Gateway District","city_fetched":"Las Vegas","state":"NV","country":"United States","canonicalUrl":"https://foursquare.com/v/top-of-the-world/4b75d1aef964a520ec262ee3","category":"American Restaurant","checkinsCount":8537,"usersCount":7755,"tipCount":105,"visitsCount":8568,"url":"http://www.topoftheworldlv.com","tier":3,"message":"Expensive","currency":"$","rating":8.9},{"name":"Blue Ribbon Sushi Bar & Grill","phone":"8778932003","twitter":"cosmopolitan_lv","address":"3708 Las Vegas Blvd S","lat":36.10951899175997,"lng":-115.17409801483154,"neighborhood":"The Strip","city_fetched":"Las Vegas","state":"NV","country":"United States","canonicalUrl":"https://foursquare.com/v/blue-ribbon-sushi-bar--grill/4d0149f8a82e8cfaec3bf392","category":"Sushi Restaurant","checkinsCount":6459,"usersCount":4999,"tipCount":78,"visitsCount":6475,"url":"http://www.cosmopolitanlasvegas.com","tier":3,"message":"Expensive","currency":"$","rating":8.9},{"name":"Andre's","phone":"7027987151","twitter":"montecarlovegas","address":"3770 Las Vegas Blvd S","lat":36.10480731378469,"lng":-115.17362234435654,"neighborhood":"The Strip","city_fetched":"Las Vegas","state":"NV","country":"United States","canonicalUrl":"https://foursquare.com/v/andres/4b2d9b92f964a52079d924e3","category":"French Restaurant","checkinsCount":1143,"usersCount":816,"tipCount":20,"visitsCount":1147,"url":"http://montecarlo.com","tier":4,"message":"Very Expensive","currency":"$","rating":8.8},{"name":"Vintner Grill","phone":"7022145590","twitter":"vintnergrill","address":"10100 W Charleston Blvd","lat":36.159486,"lng":-115.316698,"neighborhood":"Summerlin","city_fetched":"Las Vegas","state":"NV","country":"United States","canonicalUrl":"https://foursquare.com/v/vintner-grill/4aa33877f964a520b94320e3","category":"Wine Bar","checkinsCount":2432,"usersCount":1527,"tipCount":39,"visitsCount":2953,"url":"http://vglasvegas.com","tier":2,"message":"Moderate","currency":"$","rating":8.8},{"name":"Leticia's Mexican Cocina","phone":"7024457722","twitter":"leticiascocina","address":"7585 Norman Rockwell Ln","lat":36.29903890264866,"lng":-115.28018447852509,"neighborhood":"Centennial Hills","city_fetched":"Las Vegas","state":"NV","country":"United States","canonicalUrl":"https://foursquare.com/leticiascocina","category":"Mexican Restaurant","checkinsCount":2304,"usersCount":1307,"tipCount":53,"visitsCount":2943,"url":"http://leticiascocina.com","tier":2,"message":"Moderate","currency":"$","rating":8.8},{"name":"Fremont Street Flightlinez","phone":"7024107999","twitter":"flightlinezlv","address":"425 Fremont St #160","lat":36.16970832658011,"lng":-115.14176481922291,"neighborhood":"Downtown Las Vegas","city_fetched":"Las Vegas","state":"NV","country":"United States","canonicalUrl":"https://foursquare.com/v/fremont-street-flightlinez/4ccce52a7c2ff04d61569c7e","category":"Nightlife Spot","checkinsCount":5257,"usersCount":4746,"tipCount":48,"visitsCount":5257,"tier":"","message":"","currency":"","rating":8.8},{"name":"Fleming's Prime Steakhouse & Wine Bar","phone":"7024070019","address":"6515 South Las Vegas Boulevard","lat":36.0706749,"lng":-115.1760972,"city_fetched":"Las Vegas","state":"NV","country":"United States","canonicalUrl":"https://foursquare.com/v/flemings-prime-steakhouse--wine-bar/526b0795498eab0e2294d780","category":"Steakhouse","checkinsCount":842,"usersCount":421,"tipCount":10,"visitsCount":930,"url":"http://www.flemingssteakhouse.com/locations/nv/las-vegas","tier":4,"message":"Very Expensive","currency":"$","rating":8.8},{"name":"Born and Raised","phone":"7029850258","twitter":"bornandraisedlv","address":"10050 S Eastern Ave","lat":36.006446463396976,"lng":-115.11157194481694,"city_fetched":"Las Vegas","state":"NV","country":"United States","canonicalUrl":"https://foursquare.com/v/born-and-raised/55da6a44498e1e1123fe8908","category":"Bar","checkinsCount":278,"usersCount":337,"tipCount":3,"visitsCount":683,"url":"http://bornandraisedlv.com","tier":"","message":"","currency":"","rating":8.8},{"name":"Nove Italiano","phone":"7029426800","twitter":"novelv","address":"4321 W Flamingo Rd","lat":36.11455255855566,"lng":-115.19464471253845,"city_fetched":"Las Vegas","state":"NV","country":"United States","canonicalUrl":"https://foursquare.com/novelv","category":"Italian Restaurant","checkinsCount":2192,"usersCount":1727,"tipCount":33,"visitsCount":2197,"url":"http://noveitaliano.net","tier":3,"message":"Expensive","currency":"$","rating":8.8},{"name":"Delmonico Steakhouse","phone":"7024143737","twitter":"delmonicosteak","address":"3355 Las Vegas Blvd S","lat":36.12324147504647,"lng":-115.1691525235039,"neighborhood":"The Strip","city_fetched":"Las Vegas","state":"NV","country":"United States","canonicalUrl":"https://foursquare.com/v/delmonico-steakhouse/4adbe686f964a520092b21e3","category":"Steakhouse","checkinsCount":5384,"usersCount":4637,"tipCount":81,"visitsCount":5405,"url":"http://www.emerils.com/delmonicosteakhouse","tier":4,"message":"Very Expensive","currency":"$","rating":8.8},{"name":"Mingo Kitchen & Lounge","phone":"7026850328","twitter":"eatmixmingo","address":"1017 S 1st St Ste 180","lat":36.15972382271784,"lng":-115.15186786651611,"neighborhood":"Arts District","city_fetched":"Las Vegas","state":"NV","country":"United States","canonicalUrl":"https://foursquare.com/v/mingo-kitchen--lounge/4f34aba07716c55109f680b5","category":"Lounge","checkinsCount":1016,"usersCount":417,"tipCount":20,"visitsCount":1123,"url":"http://eatmixmingo.com","tier":2,"message":"Moderate","currency":"$","rating":8.8},{"name":"The Cheesecake Factory","phone":"7022076372","twitter":"cheesecake","address":"160 S Green Valley Pkwy","lat":36.02213344801168,"lng":-115.08349015953182,"neighborhood":"Green Valley Ranch","city_fetched":"Las Vegas","state":"NV","country":"United States","canonicalUrl":"https://foursquare.com/v/the-cheesecake-factory/4a6e86a0f964a520dcd41fe3","category":"American Restaurant","checkinsCount":6054,"usersCount":3850,"tipCount":62,"visitsCount":6741,"url":"http://www.thecheesecakefactory.com","tier":2,"message":"Moderate","currency":"$","rating":8.8},{"name":"Carnaval Court Bar & Grill","phone":"8003929002","twitter":"harrahsvegas","address":"Harrah's Las Vegas","lat":36.11867159255365,"lng":-115.1720380783081,"neighborhood":"The Strip","city_fetched":"Las Vegas","state":"NV","country":"United States","canonicalUrl":"https://foursquare.com/v/carnaval-court-bar--grill/4bd389e4462cb71310bfde07","category":"Bar","checkinsCount":15158,"usersCount":9221,"tipCount":110,"visitsCount":15331,"url":"http://harrahslasvegas.com","tier":2,"message":"Moderate","currency":"$","rating":8.8},{"name":"The Garage","phone":"7024406333","twitter":"thegaragelv","address":"1487 E Flamingo Rd Ste C","lat":36.113915291717994,"lng":-115.13402867151011,"city_fetched":"Las Vegas","state":"NV","country":"United States","canonicalUrl":"https://foursquare.com/v/the-garage/4d713a8cad9cb60c19c922d3","category":"Gay Bar","checkinsCount":9242,"usersCount":2232,"tipCount":41,"visitsCount":10848,"url":"http://thegaragelv.com","tier":1,"message":"Cheap","currency":"$","rating":8.8},{"name":"Frankie's Tiki Room","phone":"7023853110","twitter":"frankiestiki","address":"1712 W Charleston Blvd","lat":36.15909863897869,"lng":-115.16467684987879,"city_fetched":"Las Vegas","state":"NV","country":"United States","canonicalUrl":"https://foursquare.com/v/frankies-tiki-room/4a9a20f6f964a520953120e3","category":"Tiki Bar","checkinsCount":6970,"usersCount":4004,"tipCount":108,"visitsCount":8151,"url":"http://frankiestikiroom.com","tier":2,"message":"Moderate","currency":"$","rating":8.8},{"name":"Big Dog's Draft House","phone":"7026451404","twitter":"bigdogsbrewing","address":"4543 N Rancho Dr","lat":36.24249564331078,"lng":-115.23590377019515,"neighborhood":"Centennial Hills","city_fetched":"Las Vegas","state":"NV","country":"United States","canonicalUrl":"https://foursquare.com/v/big-dogs-draft-house/4abff70df964a520439320e3","category":"Brewery","checkinsCount":5690,"usersCount":2248,"tipCount":86,"visitsCount":7333,"url":"http://bigdogsbrews.com","tier":2,"message":"Moderate","currency":"$","rating":8.8},{"name":"Rehab","phone":"7026935555","twitter":"rehablv","address":"4455 Paradise Rd","lat":36.11023870818441,"lng":-115.15445725627663,"neighborhood":"The Strip","city_fetched":"Las Vegas","state":"NV","country":"United States","canonicalUrl":"https://foursquare.com/v/rehab/4d6fd761359937040e56149d","category":"Nightclub","checkinsCount":7689,"usersCount":5683,"tipCount":51,"visitsCount":7821,"url":"http://facebook.com/hardrockhotellv","tier":"","message":"","currency":"","rating":8.8},{"name":"Hard Rock Cafe Las Vegas","phone":"7027337625","twitter":"hardrock","address":"3771 Las Vegas Blvd S","lat":36.10403682031467,"lng":-115.17273649106633,"neighborhood":"The Strip","city_fetched":"Las Vegas","state":"NV","country":"United States","canonicalUrl":"https://foursquare.com/v/hard-rock-cafe-las-vegas/4ab46021f964a5200f7120e3","category":"Theme Restaurant","checkinsCount":28193,"usersCount":24539,"tipCount":223,"visitsCount":29412,"url":"http://www.facebook.com/hardrock","tier":3,"message":"Expensive","currency":"$","rating":8.8},{"name":"Rose. Rabbit. Lie.","phone":"7026987440","twitter":"roserabbitlie","address":"The Cosmopolitan of Las Vegas","lat":36.10947831728113,"lng":-115.17608303499543,"neighborhood":"The Strip","city_fetched":"Las Vegas","state":"NV","country":"United States","canonicalUrl":"https://foursquare.com/v/rose-rabbit-lie/52a5fba911d27eeb97327e28","category":"Lounge","checkinsCount":3213,"usersCount":2760,"tipCount":49,"visitsCount":3642,"url":"http://roserabbitlie.com","tier":4,"message":"Very Expensive","currency":"$","rating":8.8},{"name":"Fat Tuesday","phone":"7027350121","twitter":"fat_tues_day","address":"3663 Las Vegas Blvd S","lat":36.10896425439874,"lng":-115.17019271850586,"neighborhood":"The Strip","city_fetched":"Las Vegas","state":"NV","country":"United States","canonicalUrl":"https://foursquare.com/v/fat-tuesday/4b8632b9f964a5206e8231e3","category":"Cocktail Bar","checkinsCount":7098,"usersCount":5281,"tipCount":64,"visitsCount":7385,"url":"http://t.co/s0aDVvUW9U","tier":2,"message":"Moderate","currency":"$","rating":8.8},{"name":"Fuel Bar","phone":"7024835485","twitter":"fuelbarlv","address":"3643 Las Vegas Blvd S Ste 511","lat":36.113893,"lng":-115.171895,"neighborhood":"The Strip","city_fetched":"Las Vegas","state":"NV","country":"United States","canonicalUrl":"https://foursquare.com/v/fuel-bar/54f010a1498e1e5f52e2480b","category":"Cocktail Bar","checkinsCount":247,"usersCount":208,"tipCount":2,"visitsCount":262,"url":"http://fuelbarvegas.com","tier":"","message":"","currency":"","rating":8.7},{"name":"Ferraro's Italian Restaurant & Wine Bar","phone":"7023645300","twitter":"ferraroslv","address":"4480 Paradise Rd","lat":36.10900475689903,"lng":-115.15187480299916,"city_fetched":"Las Vegas","state":"NV","country":"United States","canonicalUrl":"https://foursquare.com/ferraroslv","category":"Italian Restaurant","checkinsCount":2632,"usersCount":2042,"tipCount":43,"visitsCount":2794,"url":"http://www.ferraroslasvegas.com","tier":4,"message":"Very Expensive","currency":"$","rating":8.7},{"name":"Dog Haus Biergarten Las Vegas","phone":"7024354287","twitter":"doghausdogs","address":"4480 Paradise Rd #800","lat":36.109020595090726,"lng":-115.15105247497559,"city_fetched":"Las Vegas","state":"NV","country":"United States","canonicalUrl":"https://foursquare.com/v/dog-haus-biergarten-las-vegas/56e9dd2e498ebe35b4bcfd23","category":"Hot Dog Joint","checkinsCount":111,"usersCount":87,"tipCount":4,"visitsCount":113,"url":"http://doghaus.com","tier":"","message":"","currency":"","rating":8.7},{"name":"Surrender Nightclub","phone":"7027707300","twitter":"surrendervegas","address":"3121 Las Vegas Blvd S","lat":36.12940027183192,"lng":-115.16579389572144,"neighborhood":"The Strip","city_fetched":"Las Vegas","state":"NV","country":"United States","canonicalUrl":"https://foursquare.com/v/surrender-nightclub/4bff539edaf9c9b67021faef","category":"Nightclub","checkinsCount":26972,"usersCount":15707,"tipCount":96,"visitsCount":27142,"url":"http://surrendernightclub.com","tier":4,"message":"Very Expensive","currency":"$","rating":8.7},{"name":"Blue Martini","phone":"7029492583","twitter":"blue_martini_lv","address":"6593 Las Vegas Blvd S","lat":36.068335041711656,"lng":-115.17743599963273,"city_fetched":"Las Vegas","state":"NV","country":"United States","canonicalUrl":"https://foursquare.com/v/blue-martini/49de84a3f964a52064601fe3","category":"Lounge","checkinsCount":15391,"usersCount":6912,"tipCount":137,"visitsCount":15632,"url":"http://lasvegas.bluemartinilounge.com","tier":2,"message":"Moderate","currency":"$","rating":8.7},{"name":"Hakkasan Las Vegas Nightclub","phone":"7028913838","twitter":"hakkasanlv","address":"3799 Las Vegas Blvd S","lat":36.101530143840094,"lng":-115.17204749235782,"neighborhood":"The Strip","city_fetched":"Las Vegas","state":"NV","country":"United States","canonicalUrl":"https://foursquare.com/v/hakkasan-las-vegas-nightclub/4f55d986be776846351669db","category":"Nightclub","checkinsCount":30830,"usersCount":22121,"tipCount":242,"visitsCount":33471,"url":"http://www.hakkasanlv.com","tier":4,"message":"Very Expensive","currency":"$","rating":8.7},{"name":"Hyde Bellagio","phone":"7026938700","address":"3600 Las Vegas Blvd S","lat":36.11295278330485,"lng":-115.17501770303258,"neighborhood":"The Strip","city_fetched":"Las Vegas","state":"NV","country":"United States","canonicalUrl":"https://foursquare.com/v/hyde-bellagio/4ef4c76d8b812e39d5f99d3c","category":"Nightclub","checkinsCount":13516,"usersCount":9264,"tipCount":106,"visitsCount":13586,"tier":3,"message":"Expensive","currency":"$","rating":8.7},{"name":"Vanguard Lounge","phone":"7028687800","twitter":"vanguardlounge","address":"516 Fremont St","lat":36.169182,"lng":-115.13986229896545,"neighborhood":"Downtown Las Vegas","city_fetched":"Las Vegas","state":"NV","country":"United States","canonicalUrl":"https://foursquare.com/vanguardlounge","category":"Lounge","checkinsCount":3912,"usersCount":1783,"tipCount":30,"visitsCount":3948,"url":"http://www.vanguardlv.com","tier":2,"message":"Moderate","currency":"$","rating":8.7},{"name":"Thunder From Down Under","address":"3850 Las Vegas Blvd S","lat":36.09927212783496,"lng":-115.17560247808457,"neighborhood":"The Strip","city_fetched":"Las Vegas","state":"NV","country":"United States","canonicalUrl":"https://foursquare.com/v/thunder-from-down-under/4b7cc2f0f964a5207da42fe3","category":"Strip Club","checkinsCount":3977,"usersCount":3532,"tipCount":36,"visitsCount":3983,"url":"http://thunderfromdownunder.com","tier":"","message":"","currency":"","rating":8.7},{"name":"Center Bar","twitter":"nynyvegas","address":"3790 Las Vegas Blvd S","lat":36.101916871660286,"lng":-115.17432291939475,"neighborhood":"The Strip","city_fetched":"Las Vegas","state":"NV","country":"United States","canonicalUrl":"https://foursquare.com/v/center-bar/4b79a936f964a5204c092fe3","category":"Bar","checkinsCount":2838,"usersCount":2007,"tipCount":15,"visitsCount":2838,"url":"http://ilfornaio.com/nyny","tier":"","message":"","currency":"","rating":8.7},{"name":"Chateau Nightclub & Gardens","phone":"7029945198","twitter":"parisvegas","address":"3655 Las Vegas Blvd S","lat":36.11229756884905,"lng":-115.17249910512514,"neighborhood":"The Strip","city_fetched":"Las Vegas","state":"NV","country":"United States","canonicalUrl":"https://foursquare.com/v/chateau-nightclub--gardens/4d60730de4fe5481ed7c809e","category":"Nightclub","checkinsCount":12780,"usersCount":8869,"tipCount":78,"visitsCount":12838,"url":"http://chateaunights.com","tier":3,"message":"Expensive","currency":"$","rating":8.7},{"name":"BJ's Restaurant and Brewhouse","phone":"7028532300","twitter":"bjsrestaurants","address":"10840 W Charleston Blvd","lat":36.15963657,"lng":-115.3318894,"neighborhood":"Summerlin","city_fetched":"Las Vegas","state":"NV","country":"United States","canonicalUrl":"https://foursquare.com/v/bjs-restaurant-and-brewhouse/4a9b45def964a520e13420e3","category":"American Restaurant","checkinsCount":7728,"usersCount":4037,"tipCount":88,"visitsCount":9080,"url":"http://t.co/bl46gcjDLN","tier":2,"message":"Moderate","currency":"$","rating":8.7},{"name":"Indigo Lounge","phone":"8776034390","twitter":"ballysvegas","address":"3645 Las Vegas Blvd S","lat":36.11412497308961,"lng":-115.16959835042196,"neighborhood":"The Strip","city_fetched":"Las Vegas","state":"NV","country":"United States","canonicalUrl":"https://foursquare.com/v/indigo-lounge/4e421d83b61ca5ba3b22c99c","category":"Lounge","checkinsCount":1319,"usersCount":1090,"tipCount":11,"visitsCount":1320,"url":"http://www.ballyslasvegas.com","tier":"","message":"","currency":"","rating":8.7},{"name":"BJ's Restaurant and Brewhouse","phone":"7024732980","twitter":"bjsrestaurants","address":"9520 S Eastern Ave","lat":36.01577897,"lng":-115.11817,"neighborhood":"Silverado Ranch","city_fetched":"Las Vegas","state":"NV","country":"United States","canonicalUrl":"https://foursquare.com/v/bjs-restaurant-and-brewhouse/4a988d54f964a520ad2c20e3","category":"American Restaurant","checkinsCount":7408,"usersCount":4046,"tipCount":75,"visitsCount":8994,"url":"http://t.co/bl46gcjDLN","tier":2,"message":"Moderate","currency":"$","rating":8.7},{"name":"Aureole","phone":"7026327401","twitter":"mandalaybay","address":"3950 Las Vegas Blvd S","lat":36.09123486730147,"lng":-115.17629146909235,"neighborhood":"The Strip","city_fetched":"Las Vegas","state":"NV","country":"United States","canonicalUrl":"https://foursquare.com/v/aureole/4abae7faf964a5205a8320e3","category":"Wine Bar","checkinsCount":4261,"usersCount":3751,"tipCount":69,"visitsCount":4278,"url":"http://mandalay.lv/home_fs","tier":4,"message":"Very Expensive","currency":"$","rating":8.7},{"name":"Rock Of Ages at The Venetian","phone":"7024149000","twitter":"rockofagesvegas","address":"3355 Las Vegas Blvd S","lat":36.12271125445065,"lng":-115.16853878672575,"neighborhood":"The Strip","city_fetched":"Las Vegas","state":"NV","country":"United States","canonicalUrl":"https://foursquare.com/v/rock-of-ages-at-the-venetian/50cfe613e4b0fda9ec73affb","category":"Theater","checkinsCount":2577,"usersCount":2403,"tipCount":30,"visitsCount":2584,"url":"http://rockofagesvegas.com/vegastickets.html","tier":"","message":"","currency":"","rating":8.7},{"name":"Casa di Amore","phone":"7024334967","twitter":"casadiamore","address":"2850 E Tropicana Ave","lat":36.10028031521551,"lng":-115.11161827283274,"city_fetched":"Las Vegas","state":"NV","country":"United States","canonicalUrl":"https://foursquare.com/v/casa-di-amore/4b47f7c9f964a520574526e3","category":"Italian Restaurant","checkinsCount":2510,"usersCount":1276,"tipCount":35,"visitsCount":2644,"url":"http://casadiamore.com","tier":2,"message":"Moderate","currency":"$","rating":8.7},{"name":"Fat Tuesday","phone":"7023693265","twitter":"caesarspalace","address":"3500 South Las Vegas Blvd.","lat":36.11901826100922,"lng":-115.17813205718994,"neighborhood":"The Strip","city_fetched":"Las Vegas","state":"NV","country":"United States","canonicalUrl":"https://foursquare.com/v/fat-tuesday/4c0063009cf52d7fa5b713e7","category":"Cocktail Bar","checkinsCount":4160,"usersCount":3295,"tipCount":29,"visitsCount":4187,"url":"http://www.caesarspalace.com","tier":"","message":"","currency":"","rating":8.6},{"name":"Grimaldi's Coal Brick-Oven Pizzeria","phone":"7022076757","twitter":"grimaldispizza","address":"7155 S Rainbow Blvd","lat":36.058427002073,"lng":-115.2435216584207,"city_fetched":"Las Vegas","state":"NV","country":"United States","canonicalUrl":"https://foursquare.com/v/grimaldis-coal-brickoven-pizzeria/4d649113b470a143eb731bfe","category":"Pizza Place","checkinsCount":3016,"usersCount":1574,"tipCount":45,"visitsCount":3387,"url":"https://grimaldispizzeria.com","tier":2,"message":"Moderate","currency":"$","rating":8.6},{"name":"O'Aces Bar & Grill","phone":"7025792237","address":"4955 S Decatur Blvd","lat":36.09891364639267,"lng":-115.20829026692151,"city_fetched":"Las Vegas","state":"NV","country":"United States","canonicalUrl":"https://foursquare.com/v/oaces-bar--grill/4c22683999282d7f1f1367b0","category":"American Restaurant","checkinsCount":1248,"usersCount":439,"tipCount":18,"visitsCount":1349,"tier":1,"message":"Cheap","currency":"$","rating":8.6},{"name":"The Big Chill","phone":"7027306740","twitter":"montecarlovegas","address":"3790 Las Vegas Blvd S","lat":36.10458209187813,"lng":-115.17446187624375,"neighborhood":"The Strip","city_fetched":"Las Vegas","state":"NV","country":"United States","canonicalUrl":"https://foursquare.com/v/the-big-chill/4ba01e33f964a5207d5b37e3","category":"Cocktail Bar","checkinsCount":1026,"usersCount":834,"tipCount":8,"visitsCount":1026,"url":"http://montecarlo.com","tier":"","message":"","currency":"","rating":8.6},{"name":"The Mirage VIP Lounge","phone":"7027917111","twitter":"themiragelv","address":"3350 S Las Vegas Blvd","lat":36.1208959772694,"lng":-115.17330969053576,"neighborhood":"The Strip","city_fetched":"Las Vegas","state":"NV","country":"United States","canonicalUrl":"https://foursquare.com/v/the-mirage-vip-lounge/4d30ca6c2d8337041bc7b6ab","category":"Lounge","checkinsCount":816,"usersCount":622,"tipCount":4,"visitsCount":817,"url":"http://mirage.com","tier":"","message":"","currency":"","rating":8.6},{"name":"Caesars Palace  Diamond VIP Lounge","twitter":"caesarspalace","address":"3570 Las Vegas Blvd S","lat":36.11550860994792,"lng":-115.17506402188779,"neighborhood":"The Strip","city_fetched":"Las Vegas","state":"NV","country":"United States","canonicalUrl":"https://foursquare.com/v/caesars-palace--diamond-vip-lounge/4b662a7df964a52029172be3","category":"Lounge","checkinsCount":2517,"usersCount":1373,"tipCount":26,"visitsCount":2548,"url":"http://caesarspalace.com","tier":"","message":"","currency":"","rating":8.6},{"name":"Fun Hog Ranch","phone":"7027917001","twitter":"funhogranch","address":"495 E Twain Ave","lat":36.12088801462019,"lng":-115.15226275134656,"city_fetched":"Las Vegas","state":"NV","country":"United States","canonicalUrl":"https://foursquare.com/v/fun-hog-ranch/41326e00f964a52095141fe3","category":"Gay Bar","checkinsCount":8477,"usersCount":1649,"tipCount":30,"visitsCount":9457,"url":"http://www.funhogranchlv.com","tier":1,"message":"Cheap","currency":"$","rating":8.6},{"name":"Bare Pool Lounge","phone":"7026938300","twitter":"themiragelv","address":"3400 Las Vegas Blvd S","lat":36.12057825011814,"lng":-115.1771879196167,"neighborhood":"The Strip","city_fetched":"Las Vegas","state":"NV","country":"United States","canonicalUrl":"https://foursquare.com/v/bare-pool-lounge/49de8b37f964a52075601fe3","category":"Pool","checkinsCount":3150,"usersCount":2446,"tipCount":26,"visitsCount":3332,"url":"http://mirage.com","tier":"","message":"","currency":"","rating":8.6},{"name":"Crown Nightclub","address":"3700 W Flamingo Rd","lat":36.11633028014322,"lng":-115.2987747003053,"city_fetched":"Las Vegas","state":"NV","country":"United States","canonicalUrl":"https://foursquare.com/v/crown-nightclub/4cfb4204feec6dcbc9c44536","category":"Nightclub","checkinsCount":194,"usersCount":103,"tipCount":3,"visitsCount":194,"tier":"","message":"","currency":"","rating":8.6},{"name":"Don't Tell Mama","phone":"7022070788","address":"517 Fremont St","lat":36.168760415101765,"lng":-115.13988870470268,"neighborhood":"Downtown Las Vegas","city_fetched":"Las Vegas","state":"NV","country":"United States","canonicalUrl":"https://foursquare.com/v/dont-tell-mama/4a90cf12f964a520851920e3","category":"Piano Bar","checkinsCount":3342,"usersCount":1746,"tipCount":38,"visitsCount":3357,"tier":"","message":"","currency":"","rating":8.6},{"name":"Overlook Grill","phone":"8778932003","twitter":"cosmopolitan_lv","address":"3708 Las Vegas Blvd S","lat":36.10969234638189,"lng":-115.17366886138916,"neighborhood":"The Strip","city_fetched":"Las Vegas","state":"NV","country":"United States","canonicalUrl":"https://foursquare.com/v/overlook-grill/4d01a293582454810bcb46ac","category":"Breakfast Spot","checkinsCount":1708,"usersCount":1515,"tipCount":30,"visitsCount":1718,"url":"http://www.cosmopolitanlasvegas.com","tier":2,"message":"Moderate","currency":"$","rating":8.6},{"name":"Tea Lounge at Mandarin Oriental, Las Vegas","phone":"8888819367","twitter":"mo_hotels","address":"3752 Las Vegas Blvd S","lat":36.10643059440311,"lng":-115.17403342576438,"neighborhood":"The Strip","city_fetched":"Las Vegas","state":"NV","country":"United States","canonicalUrl":"https://foursquare.com/v/tea-lounge-at-mandarin-oriental-las-vegas/4e42ea2abd41fc094d38f2ae","category":"Tea Room","checkinsCount":1151,"usersCount":954,"tipCount":27,"visitsCount":1155,"url":"http://www.mandarinoriental.com","tier":"","message":"","currency":"","rating":8.6},{"name":"Moon Nightclub","phone":"7029426832","twitter":"moonlv","address":"4321 W Flamingo Rd","lat":36.114149610052564,"lng":-115.19425681586772,"city_fetched":"Las Vegas","state":"NV","country":"United States","canonicalUrl":"https://foursquare.com/moonlv","category":"Nightclub","checkinsCount":7579,"usersCount":5574,"tipCount":47,"visitsCount":7607,"url":"http://moonnightclub.com","tier":1,"message":"Cheap","currency":"$","rating":8.6},{"name":"LAVO Italian Restaurant & Nightclub","phone":"7027911800","twitter":"lavolv","address":"3325 Las Vegas Blvd S","lat":36.124433344137046,"lng":-115.16945360149101,"neighborhood":"The Strip","city_fetched":"Las Vegas","state":"NV","country":"United States","canonicalUrl":"https://foursquare.com/v/lavo-italian-restaurant--nightclub/49de85bef964a52069601fe3","category":"Italian Restaurant","checkinsCount":23692,"usersCount":16190,"tipCount":195,"visitsCount":23749,"url":"http://www.lavolv.com","tier":3,"message":"Expensive","currency":"$","rating":8.6},{"name":"Fatburger","phone":"7027364733","twitter":"fatburger","address":"3763 Las Vegas Blvd S Ste A","lat":36.10529927550787,"lng":-115.17240067675613,"neighborhood":"The Strip","city_fetched":"Las Vegas","state":"NV","country":"United States","canonicalUrl":"https://foursquare.com/v/fatburger/5589e321498e86382690c2c1","category":"Burger Joint","checkinsCount":537,"usersCount":515,"tipCount":15,"visitsCount":565,"url":"http://www.fatburger.com/locations/the-strip/","tier":"","message":"","currency":"","rating":8.6},{"name":"South Point Bowling Center","phone":"8667967111","address":"9777 Las Vegas Blvd S","lat":36.010957046810425,"lng":-115.17495632171631,"city_fetched":"Las Vegas","state":"NV","country":"United States","canonicalUrl":"https://foursquare.com/v/south-point-bowling-center/4b5553c5f964a520afe127e3","category":"Bowling Alley","checkinsCount":5530,"usersCount":2464,"tipCount":20,"visitsCount":5602,"url":"http://southpointcasino.com/casino/bowling/bowling-center","tier":"","message":"","currency":"","rating":8.5},{"name":"Oak & Ivy: An American Whiskey Den","phone":"7029102394","twitter":"oakandivydtlv","address":"707 Fremont St Ste 1120","lat":36.1675317505761,"lng":-115.13842949694252,"neighborhood":"Downtown Las Vegas","city_fetched":"Las Vegas","state":"NV","country":"United States","canonicalUrl":"https://foursquare.com/v/oak--ivy-an-american-whiskey-den/53d070a4498ea42202e44741","category":"Cocktail Bar","checkinsCount":619,"usersCount":400,"tipCount":10,"visitsCount":632,"url":"http://oakandivy.com","tier":"","message":"","currency":"","rating":8.5},{"name":"Savile Row","phone":"7022221500","twitter":"savilerowlv","address":"3900 Las Vegas Blvd S","lat":36.095454323579084,"lng":-115.17540156841278,"neighborhood":"The Strip","city_fetched":"Las Vegas","state":"NV","country":"United States","canonicalUrl":"https://foursquare.com/v/savile-row/4d60ecb1b19fa14348e2fbc8","category":"Cocktail Bar","checkinsCount":939,"usersCount":462,"tipCount":8,"visitsCount":939,"url":"http://www.luxor.com/nightlife/savile_row.aspx","tier":"","message":"","currency":"","rating":8.5},{"name":"Brand Steakhouse & Lounge","phone":"7026938300","twitter":"montecarlovegas","address":"3770 Las Vegas Blvd S","lat":36.10435284844347,"lng":-115.17534255981445,"neighborhood":"The Strip","city_fetched":"Las Vegas","state":"NV","country":"United States","canonicalUrl":"https://foursquare.com/v/brand-steakhouse--lounge/4a9743b4f964a520232920e3","category":"Steakhouse","checkinsCount":3317,"usersCount":2385,"tipCount":44,"visitsCount":3336,"url":"http://montecarlo.com","tier":3,"message":"Expensive","currency":"$","rating":8.5},{"name":"Wolfgang Puck Bar & Grill","phone":"7028913000","twitter":"wolfgangpuck","address":"3799 Las Vegas Blvd S","lat":36.10189100962376,"lng":-115.1716947555542,"neighborhood":"The Strip","city_fetched":"Las Vegas","state":"NV","country":"United States","canonicalUrl":"https://foursquare.com/v/wolfgang-puck-bar--grill/4abe73e8f964a520b28d20e3","category":"American Restaurant","checkinsCount":10853,"usersCount":9175,"tipCount":172,"visitsCount":10873,"url":"http://www.wolfgangpuck.com","tier":"","message":"","currency":"","rating":8.5},{"name":"Margaritaville","phone":"7027333302","twitter":"margaritaville","address":"3555 Las Vegas Blvd S","lat":36.11716623542683,"lng":-115.17250003040192,"neighborhood":"The Strip","city_fetched":"Las Vegas","state":"NV","country":"United States","canonicalUrl":"https://foursquare.com/v/margaritaville/41326e00f964a52067151fe3","category":"American Restaurant","checkinsCount":34297,"usersCount":29400,"tipCount":282,"visitsCount":37322,"url":"http://www.margaritavillelasvegas.com/restaurant.html","tier":2,"message":"Moderate","currency":"$","rating":8.5},{"name":"Kona Grill","phone":"7025475552","twitter":"konagrill","address":"750 S Rampart Blvd","lat":36.16372565559988,"lng":-115.28988361358643,"neighborhood":"Summerlin","city_fetched":"Las Vegas","state":"NV","country":"United States","canonicalUrl":"https://foursquare.com/v/kona-grill/46200e78f964a52083451fe3","category":"American Restaurant","checkinsCount":6878,"usersCount":2928,"tipCount":75,"visitsCount":7381,"url":"http://www.konagrill.com","tier":2,"message":"Moderate","currency":"$","rating":8.5},{"name":"BJ's Cocktail Lounge East","phone":"7027369439","twitter":"bjslasvegas","address":"218 E Tropicana Ave","lat":36.101201,"lng":-115.163145,"neighborhood":"The Strip","city_fetched":"Las Vegas","state":"NV","country":"United States","canonicalUrl":"https://foursquare.com/v/bjs-cocktail-lounge-east/41326e00f964a520ac131fe3","category":"Lounge","checkinsCount":1696,"usersCount":786,"tipCount":29,"visitsCount":1730,"url":"http://bjslasvegas.com","tier":"","message":"","currency":"","rating":8.5},{"name":"Petrossian Bar & Lounge","phone":"8889876667","twitter":"bellagio","address":"Bellagio Hotel & Casino","lat":36.11207282255319,"lng":-115.17600197725417,"neighborhood":"The Strip","city_fetched":"Las Vegas","state":"NV","country":"United States","canonicalUrl":"https://foursquare.com/v/petrossian-bar--lounge/46f7d99bf964a520044b1fe3","category":"Hotel Bar","checkinsCount":2472,"usersCount":1743,"tipCount":31,"visitsCount":2474,"url":"http://bit.ly/VisitBellagio","tier":"","message":"","currency":"","rating":8.5},{"name":"d.vino","phone":"7027307966","twitter":"montecarlovegas","address":"3770 Las Vegas Blvd S","lat":36.10475665774344,"lng":-115.17394657762388,"neighborhood":"The Strip","city_fetched":"Las Vegas","state":"NV","country":"United States","canonicalUrl":"https://foursquare.com/v/dvino/4b1d9d3bf964a520161324e3","category":"Wine Bar","checkinsCount":2101,"usersCount":1666,"tipCount":22,"visitsCount":2103,"url":"http://montecarlo.com","tier":2,"message":"Moderate","currency":"$","rating":8.5},{"name":"Palazzo VIP Lounge","phone":"7024141000","address":"3325 Las Vegas Blvd S","lat":36.12307596481865,"lng":-115.16916410343175,"neighborhood":"The Strip","city_fetched":"Las Vegas","state":"NV","country":"United States","canonicalUrl":"https://foursquare.com/v/palazzo-vip-lounge/4b921c50f964a520b0e733e3","category":"Other Nightlife","checkinsCount":1260,"usersCount":710,"tipCount":2,"visitsCount":1261,"tier":"","message":"","currency":"","rating":8.5},{"name":"Giuseppe's Bar & Grille","phone":"7028967616","twitter":"giuseppeslv","address":"6065 S Durango Dr","lat":36.07868480710277,"lng":-115.27987193097199,"city_fetched":"Las Vegas","state":"NV","country":"United States","canonicalUrl":"https://foursquare.com/v/giuseppes-bar--grille/4bcadd8ccc8cd13abe67becf","category":"Bar","checkinsCount":1945,"usersCount":627,"tipCount":18,"visitsCount":2282,"url":"http://www.giuseppeslv.com","tier":2,"message":"Moderate","currency":"$","rating":8.5},{"name":"Crazy Horse III","phone":"7026731700","address":"3525 W Russell Rd","lat":36.085090273370795,"lng":-115.18740775604596,"city_fetched":"Las Vegas","state":"NV","country":"United States","canonicalUrl":"https://foursquare.com/v/crazy-horse-iii/4b497e6bf964a520907026e3","category":"Strip Club","checkinsCount":7057,"usersCount":3272,"tipCount":47,"visitsCount":9163,"url":"http://crazyhorseiii.com","tier":4,"message":"Very Expensive","currency":"$","rating":8.4},{"name":"Charlie's Las Vegas","phone":"7028761844","address":"5012 Arville St","lat":36.09884604630197,"lng":-115.19867996758684,"city_fetched":"Las Vegas","state":"NV","country":"United States","canonicalUrl":"https://foursquare.com/v/charlies-las-vegas/4b35a1c5f964a520522e25e3","category":"Gay Bar","checkinsCount":11095,"usersCount":2202,"tipCount":35,"visitsCount":12538,"url":"http://www.charlieslasvegas.com","tier":1,"message":"Cheap","currency":"$","rating":8.4},{"name":"TAO Nightclub","phone":"7023888588","twitter":"taolasvegas","address":"3355 Las Vegas Blvd S","lat":36.12236510684139,"lng":-115.1707968690425,"neighborhood":"The Strip","city_fetched":"Las Vegas","state":"NV","country":"United States","canonicalUrl":"https://foursquare.com/v/tao-nightclub/463625a2f964a52011461fe3","category":"Nightclub","checkinsCount":33789,"usersCount":23946,"tipCount":206,"visitsCount":33846,"url":"http://www.taolasvegas.com","tier":3,"message":"Expensive","currency":"$","rating":8.4},{"name":"Aria SkySuite Lounge","phone":"8775802742","twitter":"arialv","address":"3730 Las Vegas Blvd S","lat":36.10855414045682,"lng":-115.17810368200779,"neighborhood":"The Strip","city_fetched":"Las Vegas","state":"NV","country":"United States","canonicalUrl":"https://foursquare.com/v/aria-skysuite-lounge/4c5778b2b7a31b8dc07c50da","category":"Lounge","checkinsCount":1527,"usersCount":1120,"tipCount":8,"visitsCount":1534,"url":"http://www.arialasvegas.com","tier":"","message":"","currency":"","rating":8.4},{"name":"Hard Rock Hotel & Casino VIP Lounge","lat":36.1103469781484,"lng":-115.15419090555744,"neighborhood":"The Strip","city_fetched":"Las Vegas","state":"NV","country":"United States","canonicalUrl":"https://foursquare.com/v/hard-rock-hotel--casino-vip-lounge/4bc4e9000191c9b6f6ceeab1","category":"Lounge","checkinsCount":6057,"usersCount":4702,"tipCount":16,"visitsCount":6158,"url":"http://facebook.com/hardrockhotellv","tier":"","message":"","currency":"","rating":8.4},{"name":"The Lodge Coffee House & Tavern","phone":"7022208880","address":"5745 S Durango Dr","lat":36.08431397163613,"lng":-115.27976774838406,"city_fetched":"Las Vegas","state":"NV","country":"United States","canonicalUrl":"https://foursquare.com/v/the-lodge-coffee-house--tavern/4bd15660a8b3a5937aa0655f","category":"Coffee Shop","checkinsCount":468,"usersCount":275,"tipCount":26,"visitsCount":659,"tier":1,"message":"Cheap","currency":"$","rating":8.4},{"name":"Culinary Dropout","phone":"7025228100","twitter":"foxbigkitchen","address":"4455 Paradise Rd","lat":36.109291610862,"lng":-115.15426038837515,"neighborhood":"The Strip","city_fetched":"Las Vegas","state":"NV","country":"United States","canonicalUrl":"https://foursquare.com/v/culinary-dropout/500cb7dce4b0ddfaa7a00bb9","category":"Gastropub","checkinsCount":4390,"usersCount":3025,"tipCount":85,"visitsCount":4505,"url":"http://www.foxrc.com","tier":2,"message":"Moderate","currency":"$","rating":8.4},{"name":"Fat Tuesday","phone":"7028919600","twitter":"fat_tues_day","address":"3799 Las Vegas Blvd S","lat":36.10223984398607,"lng":-115.16835350746604,"neighborhood":"The Strip","city_fetched":"Las Vegas","state":"NV","country":"United States","canonicalUrl":"https://foursquare.com/v/fat-tuesday/4ad7e632f964a520ea0f21e3","category":"Cocktail Bar","checkinsCount":2932,"usersCount":2046,"tipCount":26,"visitsCount":2934,"url":"http://t.co/s0aDVvUW9U","tier":"","message":"","currency":"","rating":8.4},{"name":"Banger Brewing","phone":"7024562739","twitter":"bangerbrewing","address":"450 Fremont St Ste 135","lat":36.16946818870396,"lng":-115.14092445373534,"neighborhood":"Downtown Las Vegas","city_fetched":"Las Vegas","state":"NV","country":"United States","canonicalUrl":"https://foursquare.com/v/banger-brewing/52ad1fbd11d20933150b2c61","category":"Brewery","checkinsCount":2249,"usersCount":1581,"tipCount":25,"visitsCount":2323,"url":"http://www.bangerbrewing.com","tier":1,"message":"Cheap","currency":"$","rating":8.4},{"name":"BJ's Cocktail Lounge South","phone":"7022694534","twitter":"bjslasvegas","address":"3835 W Martin Ave","lat":36.06773656589048,"lng":-115.19118257319361,"city_fetched":"Las Vegas","state":"NV","country":"United States","canonicalUrl":"https://foursquare.com/v/bjs-cocktail-lounge-south/4d9705e2daec224b15f8243e","category":"Cocktail Bar","checkinsCount":2966,"usersCount":353,"tipCount":10,"visitsCount":3203,"url":"http://bjslasvegas.com","tier":"","message":"","currency":"","rating":8.4},{"name":"Aloha Kitchen","phone":"7023640064","address":"2605 S Decatur Blvd","lat":36.14258167008413,"lng":-115.20936706534566,"city_fetched":"Las Vegas","state":"NV","country":"United States","canonicalUrl":"https://foursquare.com/v/aloha-kitchen/41326e00f964a520a6131fe3","category":"Asian Restaurant","checkinsCount":3239,"usersCount":1970,"tipCount":41,"visitsCount":3879,"url":"http://www.alohakitchenlv.com","tier":2,"message":"Moderate","currency":"$","rating":8.4},{"name":"Piranha Nightclub","phone":"7023799500","twitter":"piranhavegas","address":"4633 Paradise Rd","lat":36.10555084481843,"lng":-115.15181690022042,"neighborhood":"The Strip","city_fetched":"Las Vegas","state":"NV","country":"United States","canonicalUrl":"https://foursquare.com/piranhavegas","category":"Gay Bar","checkinsCount":8302,"usersCount":4917,"tipCount":50,"visitsCount":10158,"url":"http://www.piranhavegas.com","tier":2,"message":"Moderate","currency":"$","rating":8.4},{"name":"Count's Vamp'd","phone":"7022208849","address":"6750 W Sahara Ave","lat":36.144562358011875,"lng":-115.23952750007281,"city_fetched":"Las Vegas","state":"NV","country":"United States","canonicalUrl":"https://foursquare.com/v/counts-vampd/4d7b0f337e97f04d272bea01","category":"Rock Club","checkinsCount":2421,"usersCount":1273,"tipCount":20,"visitsCount":2730,"tier":"","message":"","currency":"","rating":8.4},{"name":"The Lodge at Shelbourne","phone":"7022609721","address":"8350 S Rainbow Blvd","lat":36.036789041626356,"lng":-115.24298910692714,"neighborhood":"Coronado Ranch","city_fetched":"Las Vegas","state":"NV","country":"United States","canonicalUrl":"https://foursquare.com/v/the-lodge-at-shelbourne/4b1f520cf964a520782524e3","category":"American Restaurant","checkinsCount":1452,"usersCount":516,"tipCount":23,"visitsCount":1560,"tier":2,"message":"Moderate","currency":"$","rating":8.4},{"name":"STACK Restaurant & Bar","phone":"7026938300","twitter":"themiragelv","address":"3400 Las Vegas Blvd S","lat":36.121229160701496,"lng":-115.17407974476293,"neighborhood":"The Strip","city_fetched":"Las Vegas","state":"NV","country":"United States","canonicalUrl":"https://foursquare.com/v/stack-restaurant--bar/4a6de6c2f964a5204bd31fe3","category":"American Restaurant","checkinsCount":4653,"usersCount":3656,"tipCount":67,"visitsCount":4678,"url":"http://mirage.com","tier":3,"message":"Expensive","currency":"$","rating":8.4},{"name":"Fat Tuesday","phone":"7027768326","twitter":"fat_tues_day","address":"3535 Las Vegas Blvd S","lat":36.12066889176743,"lng":-115.17209381164551,"neighborhood":"The Strip","city_fetched":"Las Vegas","state":"NV","country":"United States","canonicalUrl":"https://foursquare.com/v/fat-tuesday/4c71668dd97fa1431fbdf8ca","category":"Cocktail Bar","checkinsCount":3363,"usersCount":2670,"tipCount":21,"visitsCount":3386,"url":"http://t.co/s0aDVvUW9U","tier":2,"message":"Moderate","currency":"$","rating":8.4},{"name":"107 SkyLounge","phone":"7023807685","twitter":"107skylounge","address":"2000 Las Vegas Blvd S","lat":36.14732928580965,"lng":-115.15558055904299,"neighborhood":"Gateway District","city_fetched":"Las Vegas","state":"NV","country":"United States","canonicalUrl":"https://foursquare.com/v/107-skylounge/4b75980af964a520e3162ee3","category":"Lounge","checkinsCount":2895,"usersCount":2184,"tipCount":41,"visitsCount":2924,"url":"http://stratospherehotel.com","tier":2,"message":"Moderate","currency":"$","rating":8.4},{"name":"Vesper","phone":"7026987000","twitter":"cosmopolitan_lv","address":"3708 Las Vegas Blvd S","lat":36.10952616051365,"lng":-115.17575880390635,"neighborhood":"The Strip","city_fetched":"Las Vegas","state":"NV","country":"United States","canonicalUrl":"https://foursquare.com/v/vesper/4d0124267c563704f375b4f0","category":"Cocktail Bar","checkinsCount":9596,"usersCount":5858,"tipCount":103,"visitsCount":9610,"url":"http://www.cosmopolitanlasvegas.com","tier":2,"message":"Moderate","currency":"$","rating":8.4},{"name":"Golden Tiki","phone":"7022223196","twitter":"goldentikivegas","address":"3939 Spring Mountain Rd","lat":36.12602064955523,"lng":-115.19230574629603,"city_fetched":"Las Vegas","state":"NV","country":"United States","canonicalUrl":"https://foursquare.com/v/golden-tiki/55b2e6d0498e486e5231ae17","category":"Tiki Bar","checkinsCount":808,"usersCount":725,"tipCount":21,"visitsCount":1080,"url":"http://thegoldentiki.com","tier":"","message":"","currency":"","rating":8.4},{"name":"Parasol Up/Down","phone":"8883207110","twitter":"wynnlasvegas","address":"3131 Las Vegas Blvd S","lat":36.1263273607086,"lng":-115.16699864960478,"neighborhood":"The Strip","city_fetched":"Las Vegas","state":"NV","country":"United States","canonicalUrl":"https://foursquare.com/v/parasol-updown/4ab82fa9f964a520807c20e3","category":"Lounge","checkinsCount":6183,"usersCount":4635,"tipCount":77,"visitsCount":6192,"url":"http://www.wynnlasvegas.com/Restaurants/BarLounges/ParasolUp","tier":3,"message":"Expensive","currency":"$","rating":8.4},{"name":"Boulevard Pool","phone":"7026987000","twitter":"cosmopolitan_lv","address":"3708 Las Vegas Blvd S","lat":36.10975302040917,"lng":-115.17374396324158,"neighborhood":"The Strip","city_fetched":"Las Vegas","state":"NV","country":"United States","canonicalUrl":"https://foursquare.com/v/boulevard-pool/4d01635e6289f04d517b97cc","category":"Pool","checkinsCount":7635,"usersCount":5168,"tipCount":52,"visitsCount":7686,"url":"http://www.cosmopolitanlasvegas.com","tier":"","message":"","currency":"","rating":8.4},{"name":"BJ's Restaurant and Brewhouse","phone":"7028518050","twitter":"bjsrestaurants","address":"5881 Centennial Center Blvd","lat":36.26974225,"lng":-115.261461,"neighborhood":"Centennial Hills","city_fetched":"Las Vegas","state":"NV","country":"United States","canonicalUrl":"https://foursquare.com/v/bjs-restaurant-and-brewhouse/4ded84931f6e0f9053e56e58","category":"American Restaurant","checkinsCount":4771,"usersCount":2755,"tipCount":65,"visitsCount":6578,"url":"http://t.co/bl46gcjDLN","tier":2,"message":"Moderate","currency":"$","rating":8.4},{"name":"Wyndham Grand Desert","phone":"7026912648","twitter":"clubwyndham","address":"265 E Harmon Ave","lat":36.10754819462704,"lng":-115.16166022199586,"neighborhood":"The Strip","city_fetched":"Las Vegas","state":"NV","country":"United States","canonicalUrl":"https://foursquare.com/v/wyndham-grand-desert/4bab38aef964a5201a9a3ae3","category":"Hotel","checkinsCount":16532,"usersCount":4890,"tipCount":51,"visitsCount":18970,"url":"http://www.clubwyndham.com","tier":"","message":"","currency":"","rating":8.4},{"name":"Bunkhouse Saloon","phone":"7023815981","address":"124 S 11th St","lat":36.16568959589047,"lng":-115.13448612853792,"neighborhood":"Downtown Las Vegas","city_fetched":"Las Vegas","state":"NV","country":"United States","canonicalUrl":"https://foursquare.com/v/bunkhouse-saloon/41326e00f964a52051151fe3","category":"Bar","checkinsCount":2822,"usersCount":1411,"tipCount":23,"visitsCount":3554,"url":"http://downtownbunkhouse.com","tier":"","message":"","currency":"","rating":8.4},{"name":"ALIBI Cocktail Lounge","twitter":"alibiloungelv","address":"3730 Las Vegas Blvd S","lat":36.107712143216986,"lng":-115.17738574585883,"neighborhood":"The Strip","city_fetched":"Las Vegas","state":"NV","country":"United States","canonicalUrl":"https://foursquare.com/v/alibi-cocktail-lounge/545198a5498e77409dbfc72e","category":"Cocktail Bar","checkinsCount":795,"usersCount":632,"tipCount":7,"visitsCount":801,"tier":"","message":"","currency":"","rating":8.4},{"name":"Bad Beat Brewing","phone":"7024634199","twitter":"badbeatbrewing","address":"7380 Eastgate Rd Ste 110","lat":36.05321314715579,"lng":-115.01930245259732,"city_fetched":"Las Vegas","state":"NV","country":"United States","canonicalUrl":"https://foursquare.com/v/bad-beat-brewing/534cad94498e2a0a5895f1cd","category":"Brewery","checkinsCount":572,"usersCount":314,"tipCount":3,"visitsCount":781,"url":"http://badbeatbrewing.com","tier":1,"message":"Cheap","currency":"$","rating":8.4},{"name":"Millerâ€™s Las Vegas Alehouse","phone":"7026163414","twitter":"millersalehouse","address":"6683 Las Vegas Blvd S","lat":36.066515233989115,"lng":-115.1755142211914,"city_fetched":"Las Vegas","state":"NV","country":"United States","canonicalUrl":"https://foursquare.com/v/millers-las-vegas-alehouse/4c9e57fcca44236a30f32999","category":"American Restaurant","checkinsCount":13451,"usersCount":5618,"tipCount":116,"visitsCount":14593,"url":"http://www.millersalehouse.com","tier":2,"message":"Moderate","currency":"$","rating":8.3},{"name":"Todd English Pub","phone":"7024898080","twitter":"toddenglishpub","address":"3720 Las Vegas Blvd S","lat":36.10785128649243,"lng":-115.17534193487742,"neighborhood":"The Strip","city_fetched":"Las Vegas","state":"NV","country":"United States","canonicalUrl":"https://foursquare.com/v/todd-english-pub/4b832932f964a5200ffb30e3","category":"Pub","checkinsCount":18623,"usersCount":12895,"tipCount":231,"visitsCount":18682,"url":"http://www.toddenglishpub.com","tier":3,"message":"Expensive","currency":"$","rating":8.3},{"name":"RHUMBAR","phone":"7027927615","twitter":"themiragelv","address":"3400 Las Vegas Blvd S","lat":36.12023158855028,"lng":-115.17306804656982,"neighborhood":"The Strip","city_fetched":"Las Vegas","state":"NV","country":"United States","canonicalUrl":"https://foursquare.com/v/rhumbar/4a1a445df964a5208d7a1fe3","category":"Cocktail Bar","checkinsCount":8874,"usersCount":6419,"tipCount":99,"visitsCount":8922,"url":"http://mirage.com","tier":2,"message":"Moderate","currency":"$","rating":8.3},{"name":"Leatherneck Club","phone":"3234599545","address":"Spring Mtn & Arville","lat":36.126918861353445,"lng":-115.19830365473203,"city_fetched":"Las Vegas","state":"NV","country":"United States","canonicalUrl":"https://foursquare.com/v/leatherneck-club/4ce93f7cd99f721ebd2fb573","category":"Bar","checkinsCount":382,"usersCount":154,"tipCount":2,"visitsCount":446,"tier":"","message":"","currency":"","rating":8.3},{"name":"Daylight Beach Club","phone":"7024487026","twitter":"daylightvegas","address":"3950 Las Vegas Blvd S","lat":36.08935239708632,"lng":-115.17473978975961,"neighborhood":"The Strip","city_fetched":"Las Vegas","state":"NV","country":"United States","canonicalUrl":"https://foursquare.com/v/daylight-beach-club/514127ede4b091a07e643402","category":"Other Nightlife","checkinsCount":3469,"usersCount":3387,"tipCount":33,"visitsCount":4558,"url":"http://daylightvegas.com","tier":3,"message":"Expensive","currency":"$","rating":8.3},{"name":"Gordon Biersch Brewery Restaurant","phone":"7023125247","twitter":"gordon_biersch","address":"3987 Paradise Rd","lat":36.1168801822756,"lng":-115.15537790161913,"neighborhood":"The Strip","city_fetched":"Las Vegas","state":"NV","country":"United States","canonicalUrl":"https://foursquare.com/v/gordon-biersch-brewery-restaurant/41326e00f964a5204b141fe3","category":"Brewery","checkinsCount":5486,"usersCount":4010,"tipCount":79,"visitsCount":6278,"url":"http://gordonbiersch.com","tier":2,"message":"Moderate","currency":"$","rating":8.3},{"name":"Sagos Baja Tavern & Lounge","phone":"7022572467","twitter":"sagosbar","address":"4790 S Fort Apache Rd","lat":36.10199643830001,"lng":-115.29690531094792,"city_fetched":"Las Vegas","state":"NV","country":"United States","canonicalUrl":"https://foursquare.com/v/sagos-baja-tavern--lounge/4b6901f4f964a520b9962be3","category":"Bar","checkinsCount":2511,"usersCount":601,"tipCount":15,"visitsCount":2862,"url":"http://sagostavern.com","tier":"","message":"","currency":"","rating":8.3},{"name":"Hostile Grape (M Resort)","phone":"7027971000","twitter":"mresort","address":"12300 Las Vegas Blvd S","lat":35.96465245957357,"lng":-115.17031630414705,"city_fetched":"Las Vegas","state":"NV","country":"United States","canonicalUrl":"https://foursquare.com/v/hostile-grape-m-resort/4b4577c5f964a520090d26e3","category":"Wine Bar","checkinsCount":790,"usersCount":588,"tipCount":11,"visitsCount":799,"url":"http://www.themresort.com/blog","tier":"","message":"","currency":"","rating":8.3},{"name":"Artifice","phone":"7024896339","twitter":"artificebar","address":"1025 S 1st St #A","lat":36.15948994304945,"lng":-115.1522970199585,"neighborhood":"Arts District","city_fetched":"Las Vegas","state":"NV","country":"United States","canonicalUrl":"https://foursquare.com/v/artifice/4d4cd4a54aa3a093995e3cae","category":"Bar","checkinsCount":4349,"usersCount":1466,"tipCount":35,"visitsCount":4464,"url":"http://www.artificebar.com","tier":2,"message":"Moderate","currency":"$","rating":8.3},{"name":"Laguna Champagne Bar","twitter":"palazzolasvegas","address":"3325 Las Vegas Blvd S","lat":36.12425276863341,"lng":-115.16924858093262,"neighborhood":"The Strip","city_fetched":"Las Vegas","state":"NV","country":"United States","canonicalUrl":"https://foursquare.com/v/laguna-champagne-bar/4b635deaf964a520df742ae3","category":"Wine Bar","checkinsCount":2260,"usersCount":1567,"tipCount":15,"visitsCount":2263,"tier":3,"message":"Expensive","currency":"$","rating":8.3},{"name":"TAO Beach","phone":"7023888588","twitter":"iamtaobeach","address":"3355 Las Vegas Blvd S","lat":36.122571524429425,"lng":-115.17005860805511,"neighborhood":"The Strip","city_fetched":"Las Vegas","state":"NV","country":"United States","canonicalUrl":"https://foursquare.com/v/tao-beach/49de8c07f964a5207b601fe3","category":"Nightclub","checkinsCount":9940,"usersCount":7541,"tipCount":76,"visitsCount":9955,"url":"http://taobeach.com","tier":3,"message":"Expensive","currency":"$","rating":8.3},{"name":"Village Pub Wigwam","phone":"7022166160","twitter":"villagepublv","address":"8515 S Eastern Ave","lat":36.034318,"lng":-115.119045,"city_fetched":"Las Vegas","state":"NV","country":"United States","canonicalUrl":"https://foursquare.com/v/village-pub-wigwam/4cd060206449a0937748cacf","category":"American Restaurant","checkinsCount":1009,"usersCount":444,"tipCount":17,"visitsCount":1298,"url":"http://www.villagepubcasino.com","tier":1,"message":"Cheap","currency":"$","rating":8.3},{"name":"The Pleasure Pit","twitter":"phvegas","address":"3500 S Las Vegas Blvd","lat":36.10997126169315,"lng":-115.17236014741884,"neighborhood":"The Strip","city_fetched":"Las Vegas","state":"NV","country":"United States","canonicalUrl":"https://foursquare.com/v/the-pleasure-pit/4adfc379f964a520487d21e3","category":"Casino","checkinsCount":4406,"usersCount":3011,"tipCount":16,"visitsCount":4406,"url":"http://www.planethollywoodresort.com","tier":"","message":"","currency":"","rating":8.3},{"name":"Millerâ€™s Henderson Alehouse","phone":"7024362255","twitter":"millersalehouse","address":"594 N Stephanie St","lat":36.06165812239595,"lng":-115.04576213769901,"neighborhood":"Whitney Ranch","city_fetched":"Las Vegas","state":"NV","country":"United States","canonicalUrl":"https://foursquare.com/v/millers-henderson-alehouse/5480e64f498ebc7397d9e796","category":"American Restaurant","checkinsCount":793,"usersCount":878,"tipCount":16,"visitsCount":1606,"url":"http://www.millersalehouse.com","tier":1,"message":"Cheap","currency":"$","rating":8.3},{"name":"The Bar at Times Square","phone":"7027406183","twitter":"nynyvegas","address":"3790 Las Vegas Blvd S","lat":36.10246501005151,"lng":-115.17424765107621,"neighborhood":"The Strip","city_fetched":"Las Vegas","state":"NV","country":"United States","canonicalUrl":"https://foursquare.com/v/the-bar-at-times-square/49de8d02f964a52081601fe3","category":"Piano Bar","checkinsCount":6543,"usersCount":5196,"tipCount":40,"visitsCount":6550,"url":"http://ilfornaio.com/nyny","tier":"","message":"","currency":"","rating":8.3},{"name":"Fleming's Prime Steakhouse & Wine Bar","phone":"7028384774","address":"8721 W Charleston Blvd","lat":36.158678714053146,"lng":-115.28569452417605,"city_fetched":"Las Vegas","state":"NV","country":"United States","canonicalUrl":"https://foursquare.com/v/flemings-prime-steakhouse--wine-bar/4c09941bbbc676b0177c48d5","category":"Steakhouse","checkinsCount":1254,"usersCount":833,"tipCount":14,"visitsCount":1436,"url":"http://www.flemingssteakhouse.com/locations/nv/summerlin","tier":4,"message":"Very Expensive","currency":"$","rating":8.3},{"name":"The Laundry Room","phone":"7027011466","address":"525 Fremont St","lat":36.16861343383789,"lng":-115.1399154663086,"neighborhood":"Downtown Las Vegas","city_fetched":"Las Vegas","state":"NV","country":"United States","canonicalUrl":"https://foursquare.com/v/the-laundry-room/50c94e7ae4b0d59c932286fa","category":"Speakeasy","checkinsCount":510,"usersCount":422,"tipCount":19,"visitsCount":510,"tier":"","message":"","currency":"","rating":8.3},{"name":"Eastside Lounge at Encore Las Vegas","phone":"8883207110","twitter":"wynnlasvegas","address":"3121 Las Vegas Blvd S","lat":36.12893098978227,"lng":-115.16478686072121,"neighborhood":"The Strip","city_fetched":"Las Vegas","state":"NV","country":"United States","canonicalUrl":"https://foursquare.com/v/eastside-lounge-at-encore-las-vegas/4b482a25f964a520544926e3","category":"Hotel Bar","checkinsCount":1575,"usersCount":1212,"tipCount":12,"visitsCount":1576,"url":"http://www.wynnlasvegas.com","tier":"","message":"","currency":"","rating":8.3},{"name":"Tropicana Lounge","address":"3801 Las Vegas Blvd S","lat":36.099224501927296,"lng":-115.17081423884441,"neighborhood":"The Strip","city_fetched":"Las Vegas","state":"NV","country":"United States","canonicalUrl":"https://foursquare.com/v/tropicana-lounge/518c4628498e4d777183e3aa","category":"Cocktail Bar","checkinsCount":197,"usersCount":110,"tipCount":3,"visitsCount":197,"tier":"","message":"","currency":"","rating":8.3},{"name":"Onyx Bar","phone":"8667677773","twitter":"stationcasinos","address":"11011 W Charleston Blvd","lat":36.156336830526364,"lng":-115.33264875411987,"neighborhood":"Red Rock","city_fetched":"Las Vegas","state":"NV","country":"United States","canonicalUrl":"https://foursquare.com/v/onyx-bar/4a8634d4f964a520c20020e3","category":"Hotel Bar","checkinsCount":876,"usersCount":319,"tipCount":11,"visitsCount":878,"url":"https://www.sclv.com","tier":"","message":"","currency":"","rating":8.3},{"name":"Azuza Hookah Lounge & Cafe","phone":"7023319500","twitter":"azuzahookah","address":"4480 Paradise Rd Ste 450","lat":36.10930431575986,"lng":-115.15138841933216,"city_fetched":"Las Vegas","state":"NV","country":"United States","canonicalUrl":"https://foursquare.com/v/azuza-hookah-lounge--cafe/4cf4618e1d18a14340c765ec","category":"Hookah Bar","checkinsCount":1038,"usersCount":684,"tipCount":29,"visitsCount":1084,"url":"http://azuzahookahlounge.com","tier":"","message":"","currency":"","rating":8.3},{"name":"Village Pub & Poker","phone":"7022160810","twitter":"villagepublv","address":"7575 S Rainbow Blvd","lat":36.05106452000644,"lng":-115.24402526606212,"city_fetched":"Las Vegas","state":"NV","country":"United States","canonicalUrl":"https://foursquare.com/v/village-pub--poker/4b5a64d5f964a52036c228e3","category":"Bar","checkinsCount":1359,"usersCount":338,"tipCount":17,"visitsCount":1446,"url":"http://www.villagepubcasino.com","tier":"","message":"","currency":"","rating":8.3},{"name":"Commonwealth","phone":"7027987000","twitter":"commonwealthlv","address":"525 Fremont St","lat":36.16870232185241,"lng":-115.13983659025398,"neighborhood":"Downtown Las Vegas","city_fetched":"Las Vegas","state":"NV","country":"United States","canonicalUrl":"https://foursquare.com/v/commonwealth/506f7952e4b09f6bb9ee8251","category":"Bar","checkinsCount":5308,"usersCount":2979,"tipCount":43,"visitsCount":5378,"url":"http://commonwealthlv.com","tier":3,"message":"Expensive","currency":"$","rating":8.3},{"name":"Big Chill","phone":"7027340410","twitter":"circusvegas","address":"2880 Las Vegas Blvd S","lat":36.1372753357965,"lng":-115.16514584320613,"neighborhood":"The Strip","city_fetched":"Las Vegas","state":"NV","country":"United States","canonicalUrl":"https://foursquare.com/v/big-chill/4eea79597beb28478d585dca","category":"Bar","checkinsCount":784,"usersCount":716,"tipCount":6,"visitsCount":787,"url":"http://www.circuscircus.com","tier":"","message":"","currency":"","rating":8.3},{"name":"BOND","phone":"7026987000","twitter":"cosmopolitan_lv","address":"3708 Las Vegas Blvd S","lat":36.11024707860085,"lng":-115.1731538772583,"neighborhood":"The Strip","city_fetched":"Las Vegas","state":"NV","country":"United States","canonicalUrl":"https://foursquare.com/v/bond/4d014765c8bda0936dfe74af","category":"Cocktail Bar","checkinsCount":6888,"usersCount":4935,"tipCount":50,"visitsCount":6897,"url":"http://www.cosmopolitanlasvegas.com","tier":2,"message":"Moderate","currency":"$","rating":8.3},{"name":"Drop Bar","phone":"7026177777","twitter":"stationcasinos","address":"2300 Paseo Verde Pkwy","lat":36.020917049486094,"lng":-115.08925844525733,"neighborhood":"Green Valley Ranch","city_fetched":"Las Vegas","state":"NV","country":"United States","canonicalUrl":"https://foursquare.com/v/drop-bar/4ba46acef964a520119c38e3","category":"Bar","checkinsCount":1836,"usersCount":734,"tipCount":7,"visitsCount":1841,"url":"https://www.sclv.com","tier":"","message":"","currency":"","rating":8.3},{"name":"Stage Door","phone":"7027330124","address":"4000 Audrie St","lat":36.11471546610306,"lng":-115.16833034755099,"neighborhood":"The Strip","city_fetched":"Las Vegas","state":"NV","country":"United States","canonicalUrl":"https://foursquare.com/v/stage-door/4b86271ff964a520418131e3","category":"Dive Bar","checkinsCount":2743,"usersCount":1809,"tipCount":51,"visitsCount":3103,"url":"http://www.stagedoor-dance.com","tier":1,"message":"Cheap","currency":"$","rating":8.3},{"name":"Park on Fremont","phone":"7028343160","twitter":"parkonfremont","address":"506 Fremont St","lat":36.16920508232647,"lng":-115.14020718170549,"neighborhood":"Downtown Las Vegas","city_fetched":"Las Vegas","state":"NV","country":"United States","canonicalUrl":"https://foursquare.com/v/park-on-fremont/510ae7a6e4b005681ba9169d","category":"Gastropub","checkinsCount":4940,"usersCount":2897,"tipCount":62,"visitsCount":5258,"url":"http://www.parkonfremont.com","tier":2,"message":"Moderate","currency":"$","rating":8.3},{"name":"Paymon's Mediterranean Cafe & Hookah Lounge","phone":"7028040293","twitter":"paymonshookah","address":"8380 W Sahara Ave","lat":36.144629728326834,"lng":-115.27396240757541,"city_fetched":"Las Vegas","state":"NV","country":"United States","canonicalUrl":"https://foursquare.com/v/paymons-mediterranean-cafe--hookah-lounge/43ceb761f964a520df2d1fe3","category":"Mediterranean Restaurant","checkinsCount":3648,"usersCount":1721,"tipCount":52,"visitsCount":4367,"url":"http://www.paymons.com","tier":2,"message":"Moderate","currency":"$","rating":8.3},{"name":"Aces Bar and Grill","phone":"7025793330","address":"7272 S El Capitan Way","lat":36.055824,"lng":-115.28786,"city_fetched":"Las Vegas","state":"NV","country":"United States","canonicalUrl":"https://foursquare.com/v/aces-bar-and-grill/4b611059f964a5205d082ae3","category":"Bar","checkinsCount":1029,"usersCount":402,"tipCount":8,"visitsCount":1330,"url":"http://acesbarandgrill.net","tier":"","message":"","currency":"","rating":8.2},{"name":"Steiner's","phone":"7023048084","address":"1750 N Buffalo Dr","lat":36.19050309903696,"lng":-115.2588842194563,"neighborhood":"Summerlin","city_fetched":"Las Vegas","state":"NV","country":"United States","canonicalUrl":"https://foursquare.com/v/steiners/4af8efe0f964a5209c1022e3","category":"Pub","checkinsCount":2595,"usersCount":668,"tipCount":27,"visitsCount":2823,"url":"http://www.steinerspub.com","tier":2,"message":"Moderate","currency":"$","rating":8.2},{"name":"Timber's","address":"6330 E Lake Mead Blvd","lat":36.196368,"lng":-115.03452,"city_fetched":"Las Vegas","state":"NV","country":"United States","canonicalUrl":"https://foursquare.com/v/timbers/4ab7a71ef964a520527a20e3","category":"Bar","checkinsCount":1233,"usersCount":390,"tipCount":14,"visitsCount":1603,"tier":"","message":"","currency":"","rating":8.2},{"name":"PT's Gold","phone":"7022430237","twitter":"ptsentgrp","address":"5630 S Hualapai Way","lat":36.08631421588957,"lng":-115.31492737072624,"city_fetched":"Las Vegas","state":"NV","country":"United States","canonicalUrl":"https://foursquare.com/v/pts-gold/4bac76a8f964a52039f63ae3","category":"Bar","checkinsCount":2714,"usersCount":440,"tipCount":16,"visitsCount":3073,"url":"http://www.pteglv.com","tier":"","message":"","currency":"","rating":8.2},{"name":"Double Helix Wine & Whiskey Lounge","phone":"7024735415","twitter":"doublehelixwine","address":"6599 Las Vegas Blvd S Unit 150B","lat":36.06809096953622,"lng":-115.17787787968419,"city_fetched":"Las Vegas","state":"NV","country":"United States","canonicalUrl":"https://foursquare.com/v/double-helix-wine--whiskey-lounge/4e1b6b3a483b2678f9fbdf83","category":"Wine Bar","checkinsCount":2662,"usersCount":1404,"tipCount":28,"visitsCount":2688,"url":"http://doublehelixwine.com","tier":2,"message":"Moderate","currency":"$","rating":8.2},{"name":"Hop Nuts Brewing","phone":"7028165371","twitter":"hopnutsbrewing","address":"1120 S Main St","lat":36.15796294769544,"lng":-115.15387244244992,"neighborhood":"Arts District","city_fetched":"Las Vegas","state":"NV","country":"United States","canonicalUrl":"https://foursquare.com/v/hop-nuts-brewing/52d05e4211d2dcc637ae8962","category":"Brewery","checkinsCount":434,"usersCount":266,"tipCount":2,"visitsCount":469,"url":"http://hopnutsbrewing.com","tier":"","message":"","currency":"","rating":8.2},{"name":"Andrea's","phone":"8883523463","twitter":"andreasencore","address":"Encore Hotel and Casino","lat":36.12917936988813,"lng":-115.16564378598385,"neighborhood":"The Strip","city_fetched":"Las Vegas","state":"NV","country":"United States","canonicalUrl":"https://foursquare.com/v/andreas/50e255d0e4b0a3665a244798","category":"Asian Restaurant","checkinsCount":2616,"usersCount":1813,"tipCount":29,"visitsCount":2630,"url":"http://wynnlasvegas.com","tier":3,"message":"Expensive","currency":"$","rating":8.2},{"name":"T&T Tacos & Tequila","phone":"7022625225","twitter":"tacosandtequila","address":"3900 Las Vegas Blvd S","lat":36.09553604505686,"lng":-115.17520297841297,"neighborhood":"The Strip","city_fetched":"Las Vegas","state":"NV","country":"United States","canonicalUrl":"https://foursquare.com/v/tt-tacos--tequila/4a2f3451f964a520b8981fe3","category":"Mexican Restaurant","checkinsCount":8063,"usersCount":6578,"tipCount":133,"visitsCount":8075,"url":"http://www.tacosandtequilalv.com","tier":2,"message":"Moderate","currency":"$","rating":8.2},{"name":"Palms Casino Resort","phone":"7029427777","twitter":"palms","address":"4321 W Flamingo Rd","lat":36.11419943225349,"lng":-115.1954698562622,"city_fetched":"Las Vegas","state":"NV","country":"United States","canonicalUrl":"https://foursquare.com/v/palms-casino-resort/4b2b0de8f964a52017b424e3","category":"Casino","checkinsCount":54610,"usersCount":28900,"tipCount":170,"visitsCount":57869,"url":"http://www.palms.com","tier":"","message":"","currency":"","rating":8.2},{"name":"Neiman Marcus","phone":"7027313636","twitter":"neimanmarcus","address":"3200 Las Vegas Blvd S","lat":36.12644532920911,"lng":-115.16993416768841,"neighborhood":"The Strip","city_fetched":"Las Vegas","state":"NV","country":"United States","canonicalUrl":"https://foursquare.com/v/neiman-marcus/4b2be786f964a5205abd24e3","category":"Department Store","checkinsCount":4989,"usersCount":2645,"tipCount":23,"visitsCount":5063,"url":"http://www.neimanmarcus.com","tier":"","message":"","currency":"","rating":8.2},{"name":"The Pub at Monte Carlo","phone":"7027307777","twitter":"montecarlovegas","address":"3770 Las Vegas Blvd S","lat":36.105628813420786,"lng":-115.17650127410889,"neighborhood":"The Strip","city_fetched":"Las Vegas","state":"NV","country":"United States","canonicalUrl":"https://foursquare.com/v/the-pub-at-monte-carlo/41326e00f964a520a1141fe3","category":"Pub","checkinsCount":14930,"usersCount":11001,"tipCount":165,"visitsCount":15851,"url":"http://montecarlo.com","tier":2,"message":"Moderate","currency":"$","rating":8.2},{"name":"Chippendales Theatre at The Rio Vegas","phone":"7027772322","twitter":"chippendales","address":"3700 W Flamingo Rd","lat":36.11673072769061,"lng":-115.18573454817022,"city_fetched":"Las Vegas","state":"NV","country":"United States","canonicalUrl":"https://foursquare.com/v/chippendales-theatre-at-the-rio-vegas/4bc00d0dabf4952151d7be93","category":"Theater","checkinsCount":2832,"usersCount":2617,"tipCount":30,"visitsCount":2894,"url":"http://www.facebook.com/chippendales","tier":"","message":"","currency":"","rating":8.2},{"name":"Rebel Republic","phone":"7025389050","twitter":"rebelrepubliclv","address":"3540 W Sahara Ave","lat":36.145857702532844,"lng":-115.188368833392,"city_fetched":"Las Vegas","state":"NV","country":"United States","canonicalUrl":"https://foursquare.com/v/rebel-republic/53e6e7bc498e1e97150fb650","category":"Pub","checkinsCount":414,"usersCount":288,"tipCount":11,"visitsCount":695,"url":"http://rebelrepubliclv.com","tier":"","message":"","currency":"","rating":8.2},{"name":"Grape Street Cafe","phone":"7022289463","address":"7501 W Lake Mead Blvd","lat":36.1946396058988,"lng":-115.25869320507988,"neighborhood":"Summerlin","city_fetched":"Las Vegas","state":"NV","country":"United States","canonicalUrl":"https://foursquare.com/v/grape-street-cafe/4aea4fd3f964a520f5ba21e3","category":"Wine Bar","checkinsCount":1540,"usersCount":887,"tipCount":33,"visitsCount":1762,"url":"http://www.grapestreetcafe.com","tier":"","message":"","currency":"","rating":8.2},{"name":"Sushi Koma","phone":"7024538897","twitter":"sushikomalv","address":"8665 W Flamingo Rd #106","lat":36.11443038538337,"lng":-115.28105266451328,"city_fetched":"Las Vegas","state":"NV","country":"United States","canonicalUrl":"https://foursquare.com/v/sushi-koma/4f2e3f4de4b0124ab9552988","category":"Japanese Restaurant","checkinsCount":1163,"usersCount":608,"tipCount":23,"visitsCount":1376,"url":"http://www.sushikoma-hub.com","tier":"","message":"","currency":"","rating":8.2},{"name":"Stripburger","phone":"7027378747","address":"3200 Las Vegas Blvd S","lat":36.12764981198926,"lng":-115.16828298568726,"neighborhood":"The Strip","city_fetched":"Las Vegas","state":"NV","country":"United States","canonicalUrl":"https://foursquare.com/v/stripburger/4a7361eaf964a52052dc1fe3","category":"Burger Joint","checkinsCount":7153,"usersCount":5509,"tipCount":125,"visitsCount":7194,"url":"http://stripburger.com","tier":2,"message":"Moderate","currency":"$","rating":8.2},{"name":"The Talon Club","phone":"7026987000","twitter":"cosmopolitan_lv","address":"3708 Las Vegas Blvd S","lat":36.109981341812876,"lng":-115.17402184601369,"neighborhood":"The Strip","city_fetched":"Las Vegas","state":"NV","country":"United States","canonicalUrl":"https://foursquare.com/v/the-talon-club/4ea60fd0e300a8628e6a1152","category":"Speakeasy","checkinsCount":395,"usersCount":299,"tipCount":5,"visitsCount":395,"url":"http://www.cosmopolitanlasvegas.com","tier":"","message":"","currency":"","rating":8.2},{"name":"The Neapolitan","phone":"7026987000","twitter":"cosmopolitan_lv","address":"3708 Las Vegas Blvd S","lat":36.109595693551384,"lng":-115.17337337930195,"neighborhood":"The Strip","city_fetched":"Las Vegas","state":"NV","country":"United States","canonicalUrl":"https://foursquare.com/v/the-neapolitan/4fdfa327bb3dc2c6e7655cd0","category":"Bar","checkinsCount":261,"usersCount":231,"tipCount":10,"visitsCount":261,"url":"http://www.cosmopolitanlasvegas.com","tier":"","message":"","currency":"","rating":8.2},{"name":"Fireside Lounge","phone":"7027354177","address":"2985 Las Vegas Blvd S","lat":36.13380821771937,"lng":-115.16321775511689,"neighborhood":"The Strip","city_fetched":"Las Vegas","state":"NV","country":"United States","canonicalUrl":"https://foursquare.com/v/fireside-lounge/4e9d319b6da163facd4899c9","category":"Lounge","checkinsCount":978,"usersCount":779,"tipCount":15,"visitsCount":982,"url":"http://peppermilllasvegas.com","tier":2,"message":"Moderate","currency":"$","rating":8.2},{"name":"Monkey Bar","address":"2535 Las Vegas Blvd S","lat":36.14216897416786,"lng":-115.15602061472104,"neighborhood":"The Strip","city_fetched":"Las Vegas","state":"NV","country":"United States","canonicalUrl":"https://foursquare.com/v/monkey-bar/53fd2aee498ea719e0b9e120","category":"Hotel Bar","checkinsCount":344,"usersCount":248,"tipCount":6,"visitsCount":345,"tier":"","message":"","currency":"","rating":8.2},{"name":"LIGHT Nightclub","phone":"7026938300","twitter":"thelightvegas","address":"3950 Las Vegas Blvd S","lat":36.09217948736931,"lng":-115.1769225603858,"neighborhood":"The Strip","city_fetched":"Las Vegas","state":"NV","country":"United States","canonicalUrl":"https://foursquare.com/v/light-nightclub/50c102ad395001a9ab8a167e","category":"Nightclub","checkinsCount":9962,"usersCount":7270,"tipCount":81,"visitsCount":10654,"url":"http://www.thelightvegas.com","tier":4,"message":"Very Expensive","currency":"$","rating":8.2},{"name":"Five Star Tavern","phone":"7023958200","address":"6320 Simmons St","lat":36.274975133333335,"lng":-115.1792086,"city_fetched":"Las Vegas","state":"NV","country":"United States","canonicalUrl":"https://foursquare.com/v/five-star-tavern/4b7e19d7f964a520c6e22fe3","category":"Bar","checkinsCount":244,"usersCount":110,"tipCount":7,"visitsCount":278,"url":"http://fivestartavern.com","tier":"","message":"","currency":"","rating":8.2},{"name":"Queue Bar","phone":"7026987000","twitter":"cosmopolitan_lv","address":"3708 Las Vegas Blvd S","lat":36.10923048632462,"lng":-115.17415501312124,"neighborhood":"The Strip","city_fetched":"Las Vegas","state":"NV","country":"United States","canonicalUrl":"https://foursquare.com/v/queue-bar/4d01272c1fcef04d3a83ceb9","category":"Cocktail Bar","checkinsCount":798,"usersCount":507,"tipCount":2,"visitsCount":798,"url":"http://www.cosmopolitanlasvegas.com","tier":"","message":"","currency":"","rating":8.1},{"name":"Le Burger Brasserie","phone":"7029674347","twitter":"parisvegas","address":"3655 Las Vegas Blvd S","lat":36.11348550554787,"lng":-115.16976046914655,"neighborhood":"The Strip","city_fetched":"Las Vegas","state":"NV","country":"United States","canonicalUrl":"https://foursquare.com/v/le-burger-brasserie/4740b92ff964a520734c1fe3","category":"Burger Joint","checkinsCount":6509,"usersCount":5274,"tipCount":80,"visitsCount":6544,"url":"http://parislasvegas.com/restaurants/burger-brasserie.html","tier":2,"message":"Moderate","currency":"$","rating":8.1},{"name":"Diablo's Cantina","phone":"7026938300","twitter":"montecarlovegas","address":"3770 Las Vegas Blvd S","lat":36.104018684121996,"lng":-115.17326916131428,"neighborhood":"The Strip","city_fetched":"Las Vegas","state":"NV","country":"United States","canonicalUrl":"https://foursquare.com/v/diablos-cantina/4a6de790f964a5204ed31fe3","category":"Mexican Restaurant","checkinsCount":18612,"usersCount":14366,"tipCount":175,"visitsCount":19351,"url":"http://montecarlo.com","tier":2,"message":"Moderate","currency":"$","rating":8.1},{"name":"HofbrÃ¤uhaus Las Vegas","phone":"7028532337","twitter":"hofbrauhauslv","address":"4510 Paradise Rd","lat":36.10773585763308,"lng":-115.15162582097625,"city_fetched":"Las Vegas","state":"NV","country":"United States","canonicalUrl":"https://foursquare.com/v/hofbr%C3%A4uhaus-las-vegas/4afb0356f964a5204f1a22e3","category":"Bavarian Restaurant","checkinsCount":13659,"usersCount":11205,"tipCount":102,"visitsCount":14734,"url":"http://www.hofbrauhauslasvegas.com","tier":2,"message":"Moderate","currency":"$","rating":8.1},{"name":"Hard Rock Cafe Las Vegas at Hard Rock Hotel","phone":"7027337625","twitter":"hardrock","address":"4475 Paradise Rd","lat":36.10832716837703,"lng":-115.15256524085999,"neighborhood":"The Strip","city_fetched":"Las Vegas","state":"NV","country":"United States","canonicalUrl":"https://foursquare.com/v/hard-rock-cafe-las-vegas-at-hard-rock-hotel/4c48faf29f2ad13ac542aa52","category":"Theme Restaurant","checkinsCount":9536,"usersCount":6307,"tipCount":82,"visitsCount":10167,"url":"http://www.facebook.com/hardrock","tier":2,"message":"Moderate","currency":"$","rating":8.1},{"name":"Nacho Daddy","phone":"7027787800","twitter":"nachodaddylv","address":"113 N 4th St","lat":36.170348140393735,"lng":-115.14162584815297,"neighborhood":"Downtown Las Vegas","city_fetched":"Las Vegas","state":"NV","country":"United States","canonicalUrl":"https://foursquare.com/nachodaddylv","category":"Mexican Restaurant","checkinsCount":2153,"usersCount":1465,"tipCount":41,"visitsCount":2664,"url":"http://www.nachodaddy.com","tier":2,"message":"Moderate","currency":"$","rating":8.1},{"name":"Pool Cabana 120","phone":"7027707000","twitter":"encorelasvegas","address":"3121 Las Vegas Blvd S","lat":36.12518541084587,"lng":-115.1652153236404,"neighborhood":"The Strip","city_fetched":"Las Vegas","state":"NV","country":"United States","canonicalUrl":"https://foursquare.com/v/pool-cabana-120/4bec66b049430f477fab07d2","category":"Hotel Pool","checkinsCount":1372,"usersCount":1181,"tipCount":8,"visitsCount":1373,"tier":"","message":"","currency":"","rating":8.1},{"name":"V Theater","phone":"8669321818","address":"3663 Las Vegas Blvd S Ste 360","lat":36.1105177998266,"lng":-115.16945360149101,"neighborhood":"The Strip","city_fetched":"Las Vegas","state":"NV","country":"United States","canonicalUrl":"https://foursquare.com/v/v-theater/4bc11d354cdfc9b6b1319421","category":"Theater","checkinsCount":5759,"usersCount":4664,"tipCount":199,"visitsCount":5861,"url":"http://www.vtheater.com","tier":"","message":"","currency":"","rating":8.1},{"name":"Inspire","phone":"7024899110","address":"107 Las Vegas Blvd S","lat":36.16905690367969,"lng":-115.14059514417305,"neighborhood":"Downtown Las Vegas","city_fetched":"Las Vegas","state":"NV","country":"United States","canonicalUrl":"https://foursquare.com/v/inspire/51ec8830498e063286bfc60a","category":"Performing Arts Venue","checkinsCount":1002,"usersCount":549,"tipCount":2,"visitsCount":1050,"url":"http://inspirelasvegas.com","tier":"","message":"","currency":"","rating":8.1},{"name":"Skin City Body Painting","phone":"7024317546","twitter":"skincity","address":"1800 Industrial Rd","lat":36.1505240297962,"lng":-115.16096591949463,"city_fetched":"Las Vegas","state":"NV","country":"United States","canonicalUrl":"https://foursquare.com/skincity","category":"General Entertainment","checkinsCount":107,"usersCount":50,"tipCount":6,"visitsCount":107,"url":"http://www.skincitybodypainting.com","tier":"","message":"","currency":"","rating":8.1},{"name":"Beerhaus","phone":"7026922337","address":"3782 Las Vegas Blvd S","lat":36.10348872203716,"lng":-115.1746587316759,"neighborhood":"The Strip","city_fetched":"Las Vegas","state":"NV","country":"United States","canonicalUrl":"https://foursquare.com/v/beerhaus/56e6fc6b498e1b96db241df2","category":"Beer Garden","checkinsCount":629,"usersCount":619,"tipCount":8,"visitsCount":779,"url":"http://beerhausvegas.com","tier":2,"message":"Moderate","currency":"$","rating":8.1},{"name":"The Griffin","phone":"7023820577","address":"511 Fremont St","lat":36.1688801972144,"lng":-115.14029982950153,"neighborhood":"Downtown Las Vegas","city_fetched":"Las Vegas","state":"NV","country":"United States","canonicalUrl":"https://foursquare.com/v/the-griffin/470e082df964a520844b1fe3","category":"Bar","checkinsCount":12074,"usersCount":5395,"tipCount":93,"visitsCount":12272,"tier":2,"message":"Moderate","currency":"$","rating":8.1},{"name":"Golden Nugget Rush Tower","phone":"7023857111","address":"Golden Nugget Hotel","lat":36.170299880041654,"lng":-115.14595708487029,"neighborhood":"Downtown Las Vegas","city_fetched":"Las Vegas","state":"NV","country":"United States","canonicalUrl":"https://foursquare.com/v/golden-nugget-rush-tower/4c49e7dd9e3e2d7f9be56849","category":"Hotel","checkinsCount":1818,"usersCount":1079,"tipCount":17,"visitsCount":1824,"url":"http://www.goldennugget.com/lasvegas/stay_rushtower.asp","tier":"","message":"","currency":"","rating":8.1},{"name":"Chicago Brewing Company","phone":"7022543333","address":"2201 S Fort Apache Rd","lat":36.14752697646065,"lng":-115.29820751835781,"neighborhood":"Peccole Ranch","city_fetched":"Las Vegas","state":"NV","country":"United States","canonicalUrl":"https://foursquare.com/v/chicago-brewing-company/4afb0417f964a520581a22e3","category":"Brewery","checkinsCount":4918,"usersCount":2157,"tipCount":54,"visitsCount":5659,"url":"http://chicagobrewinglv.com","tier":2,"message":"Moderate","currency":"$","rating":8.1},{"name":"Money Plays","phone":"7023681828","twitter":"moneyplayslv","address":"4755 W Flamingo Rd","lat":36.11528022118026,"lng":-115.2057719336603,"city_fetched":"Las Vegas","state":"NV","country":"United States","canonicalUrl":"https://foursquare.com/v/money-plays/4b2b3d35f964a52051b524e3","category":"Bar","checkinsCount":2116,"usersCount":795,"tipCount":29,"visitsCount":2638,"url":"http://www.moneyplayslv.com","tier":1,"message":"Cheap","currency":"$","rating":8.1},{"name":"Double Down Saloon","phone":"7027915775","twitter":"doubledownlv","address":"4640 Paradise Rd","lat":36.105488388942284,"lng":-115.15049993991852,"city_fetched":"Las Vegas","state":"NV","country":"United States","canonicalUrl":"https://foursquare.com/v/double-down-saloon/413cfa00f964a5204b1c1fe3","category":"Nightclub","checkinsCount":6192,"usersCount":3498,"tipCount":89,"visitsCount":6503,"url":"http://www.doubledownsaloon.com","tier":1,"message":"Cheap","currency":"$","rating":8.1},{"name":"Alligator Bar","phone":"7023657111","address":"4500 W Tropicana Ave","lat":36.10271656293797,"lng":-115.20119256808029,"city_fetched":"Las Vegas","state":"NV","country":"United States","canonicalUrl":"https://foursquare.com/v/alligator-bar/4abd7e18f964a520a48a20e3","category":"Hotel Bar","checkinsCount":803,"usersCount":412,"tipCount":1,"visitsCount":807,"url":"http://www.theborgata.com","tier":"","message":"","currency":"","rating":8.1},{"name":"Blue Ox Central","phone":"7027958795","twitter":"blueoxvegas","address":"6000 S Eastern Ave","lat":36.08003474297582,"lng":-115.1182778560847,"city_fetched":"Las Vegas","state":"NV","country":"United States","canonicalUrl":"https://foursquare.com/v/blue-ox-central/4b4b5dbbf964a520e69826e3","category":"Dive Bar","checkinsCount":1444,"usersCount":374,"tipCount":8,"visitsCount":1703,"url":"http://blueoxvegas.com","tier":1,"message":"Cheap","currency":"$","rating":8.1},{"name":"Aces & Ales","phone":"7024367600","twitter":"acesandales","address":"3740 S Nellis Blvd","lat":36.1214234387273,"lng":-115.06478886227704,"city_fetched":"Las Vegas","state":"NV","country":"United States","canonicalUrl":"https://foursquare.com/v/aces--ales/4affb9e2f964a520fa3922e3","category":"Gastropub","checkinsCount":3977,"usersCount":1127,"tipCount":37,"visitsCount":4342,"url":"http://www.acesandales.com","tier":2,"message":"Moderate","currency":"$","rating":8.1},{"name":"Chocolate Bar","lat":36.101874829374935,"lng":-115.17402763588909,"neighborhood":"The Strip","city_fetched":"Las Vegas","state":"NV","country":"United States","canonicalUrl":"https://foursquare.com/v/chocolate-bar/53fc2987498eb67612c71442","category":"Cocktail Bar","checkinsCount":198,"usersCount":173,"tipCount":5,"visitsCount":198,"tier":"","message":"","currency":"","rating":8.1},{"name":"Grill 55","phone":"7027845700","twitter":"renaissancelv","address":"3400 Paradise Rd","lat":36.12769556621234,"lng":-115.15443409535332,"city_fetched":"Las Vegas","state":"NV","country":"United States","canonicalUrl":"https://foursquare.com/renaissancelv","category":"Hotel Bar","checkinsCount":483,"usersCount":302,"tipCount":8,"visitsCount":486,"url":"http://renaissancelasvegas.com","tier":"","message":"","currency":"","rating":8.1},{"name":"Triple 7 Restaurant & Brewery","phone":"7023871896","twitter":"mstreetcasino","address":"200 N Main St","lat":36.174453288011954,"lng":-115.14483374834425,"neighborhood":"Downtown Las Vegas","city_fetched":"Las Vegas","state":"NV","country":"United States","canonicalUrl":"https://foursquare.com/v/triple-7-restaurant--brewery/41326e00f964a52035151fe3","category":"Brewery","checkinsCount":3953,"usersCount":2534,"tipCount":52,"visitsCount":3977,"url":"http://www.theborgata.com","tier":2,"message":"Moderate","currency":"$","rating":8.1},{"name":"Aces & Ales Tenaya","phone":"7026382337","twitter":"acesandalestena","address":"2801 N Tenaya Way","lat":36.21119750236253,"lng":-115.25010901365364,"neighborhood":"Summerlin","city_fetched":"Las Vegas","state":"NV","country":"United States","canonicalUrl":"https://foursquare.com/v/aces--ales-tenaya/51c250a8498eb55928d793e5","category":"Gastropub","checkinsCount":2925,"usersCount":1097,"tipCount":24,"visitsCount":4132,"url":"http://acesandales.com","tier":2,"message":"Moderate","currency":"$","rating":8.1},{"name":"Diamond Lounge","twitter":"riovegas","address":"3700 W Flamingo Rd","lat":36.117180091525235,"lng":-115.18744828346279,"city_fetched":"Las Vegas","state":"NV","country":"United States","canonicalUrl":"https://foursquare.com/v/diamond-lounge/4c424089520fa593d2f7caac","category":"Lounge","checkinsCount":689,"usersCount":337,"tipCount":2,"visitsCount":691,"url":"http://www.riolasvegas.com","tier":"","message":"","currency":"","rating":8.1},{"name":"Joyful House Chinese Cuisine","phone":"7028898881","twitter":"joyfullv","address":"4601 Spring Mountain Rd","lat":36.12597323068821,"lng":-115.20345041782389,"city_fetched":"Las Vegas","state":"NV","country":"United States","canonicalUrl":"https://foursquare.com/v/joyful-house-chinese-cuisine/4aa5b023f964a5202e4920e3","category":"Chinese Restaurant","checkinsCount":1241,"usersCount":954,"tipCount":25,"visitsCount":1391,"url":"http://www.joyfulhouselv.com","tier":2,"message":"Moderate","currency":"$","rating":8.1},{"name":"Tommy Rocker's Mojave Beach Bar & Grill","phone":"7022616688","address":"4275 Dean Martin Dr","lat":36.1121406978726,"lng":-115.18235915731522,"city_fetched":"Las Vegas","state":"NV","country":"United States","canonicalUrl":"https://foursquare.com/v/tommy-rockers-mojave-beach-bar--grill/41326e00f964a5202c151fe3","category":"Bar","checkinsCount":2830,"usersCount":1274,"tipCount":30,"visitsCount":3265,"url":"http://tommyrocker.com","tier":"","message":"","currency":"","rating":8},{"name":"Stoney's Rockin' Country","phone":"7024352855","twitter":"stoneyslv","address":"6611 Las Vegas Blvd S Unit 160","lat":36.06663652317979,"lng":-115.17847422906287,"city_fetched":"Las Vegas","state":"NV","country":"United States","canonicalUrl":"https://foursquare.com/stoneyslv","category":"Nightclub","checkinsCount":8904,"usersCount":2939,"tipCount":36,"visitsCount":9114,"url":"http://www.stoneysrockincountry.com","tier":2,"message":"Moderate","currency":"$","rating":8},{"name":"Mystic Falls Park at Sam's Town Hotel & Gambling Hall","phone":"7024567777","address":"5111 Boulder Hwy","lat":36.112843220199395,"lng":-115.0623273236976,"city_fetched":"Las Vegas","state":"NV","country":"United States","canonicalUrl":"https://foursquare.com/v/mystic-falls-park-at-sams-town-hotel--gambling-hall/4b920970f964a5206ae433e3","category":"Casino","checkinsCount":1102,"usersCount":610,"tipCount":6,"visitsCount":1103,"url":"http://www.theborgata.com","tier":"","message":"","currency":"","rating":8},{"name":"The Martini","phone":"7022278464","address":"1205 S Fort Apache Rd","lat":36.15722251522851,"lng":-115.29299286796694,"neighborhood":"Peccole Ranch","city_fetched":"Las Vegas","state":"NV","country":"United States","canonicalUrl":"https://foursquare.com/v/the-martini/4d99381397d06ea83c53460b","category":"Bar","checkinsCount":1469,"usersCount":714,"tipCount":20,"visitsCount":1875,"url":"http://themartinilv.com","tier":2,"message":"Moderate","currency":"$","rating":8},{"name":"Evening Call","twitter":"eveningcall","address":"3950 Las Vegas Blvd S","lat":36.092988760563124,"lng":-115.17612356385833,"neighborhood":"The Strip","city_fetched":"Las Vegas","state":"NV","country":"United States","canonicalUrl":"https://foursquare.com/v/evening-call/4b5504eff964a52011d827e3","category":"Cocktail Bar","checkinsCount":879,"usersCount":559,"tipCount":13,"visitsCount":879,"url":"http://eveningcall.com","tier":"","message":"","currency":"","rating":8},{"name":"Four Kegs Sports Pub","phone":"7028700255","twitter":"fourkegs","address":"276 N Jones Blvd","lat":36.17579827478729,"lng":-115.2232666969522,"city_fetched":"Las Vegas","state":"NV","country":"United States","canonicalUrl":"https://foursquare.com/v/four-kegs-sports-pub/4b2c9a88f964a52014c824e3","category":"Sports Bar","checkinsCount":1886,"usersCount":1242,"tipCount":38,"visitsCount":2377,"url":"http://www.fourkegs.com","tier":2,"message":"Moderate","currency":"$","rating":8},{"name":"Gordon Ramsay Pub & Grill","phone":"7027317410","twitter":"caesarspalace","address":"3570 Las Vegas Blvd S","lat":36.11772404705706,"lng":-115.17535351458004,"neighborhood":"The Strip","city_fetched":"Las Vegas","state":"NV","country":"United States","canonicalUrl":"https://foursquare.com/v/gordon-ramsay-pub--grill/49dea68af964a520a8601fe3","category":"Gastropub","checkinsCount":11482,"usersCount":10544,"tipCount":255,"visitsCount":12297,"url":"http://www.caesarspalace.com","tier":3,"message":"Expensive","currency":"$","rating":8},{"name":"Baccarat Bar","phone":"8889876667","twitter":"bellagio","address":"Bellagio Casino","lat":36.11249898832231,"lng":-115.17585723123621,"neighborhood":"The Strip","city_fetched":"Las Vegas","state":"NV","country":"United States","canonicalUrl":"https://foursquare.com/v/baccarat-bar/41326e00f964a520ad131fe3","category":"Bar","checkinsCount":1797,"usersCount":1397,"tipCount":19,"visitsCount":1798,"url":"http://bit.ly/VisitBellagio","tier":3,"message":"Expensive","currency":"$","rating":8},{"name":"South Point Hotel & Casino","phone":"7027967111","twitter":"southpointlv","address":"9777 Las Vegas Blvd S","lat":36.01255389387489,"lng":-115.17555713653564,"city_fetched":"Las Vegas","state":"NV","country":"United States","canonicalUrl":"https://foursquare.com/v/south-point-hotel--casino/49dea398f964a52096601fe3","category":"Casino","checkinsCount":44424,"usersCount":18552,"tipCount":161,"visitsCount":48741,"url":"http://www.southpointcasino.com","tier":"","message":"","currency":"","rating":8},{"name":"Lime Ice Frozen Bar","phone":"7027375463","address":"3377 Las Vegas Blvd S","lat":36.12143401452705,"lng":-115.16838824733546,"neighborhood":"The Strip","city_fetched":"Las Vegas","state":"NV","country":"United States","canonicalUrl":"https://foursquare.com/v/lime-ice-frozen-bar/4b22f852f964a5204b5124e3","category":"Bar","checkinsCount":289,"usersCount":253,"tipCount":8,"visitsCount":289,"tier":"","message":"","currency":"","rating":7.9},{"name":"Diamond Lounge Harrahs Casino","lat":36.11902355063035,"lng":-115.17013681586754,"neighborhood":"The Strip","city_fetched":"Las Vegas","state":"NV","country":"United States","canonicalUrl":"https://foursquare.com/v/diamond-lounge-harrahs-casino/4dfd3f0d45ddebdfeaad8c9a","category":"Lounge","checkinsCount":571,"usersCount":262,"tipCount":11,"visitsCount":578,"tier":"","message":"","currency":"","rating":7.9},{"name":"Lakes Lounge","phone":"7023639733","address":"2920 Lake East Dr","lat":36.13839364686217,"lng":-115.284125,"neighborhood":"West Sahara","city_fetched":"Las Vegas","state":"NV","country":"United States","canonicalUrl":"https://foursquare.com/v/lakes-lounge/41326e00f964a52080141fe3","category":"Bar","checkinsCount":1161,"usersCount":392,"tipCount":28,"visitsCount":1469,"url":"http://thelakeslounge.com","tier":"","message":"","currency":"","rating":7.9},{"name":"Mezzo Bistro and Wine","phone":"7029448880","twitter":"mezzobistro","address":"4275 N Rancho Dr Ste 130","lat":36.23719041267909,"lng":-115.2311743343292,"neighborhood":"Centennial Hills","city_fetched":"Las Vegas","state":"NV","country":"United States","canonicalUrl":"https://foursquare.com/mezzobistro","category":"Bistro","checkinsCount":735,"usersCount":430,"tipCount":24,"visitsCount":900,"url":"http://www.mezzobistro.com","tier":2,"message":"Moderate","currency":"$","rating":7.9},{"name":"Double Barrel Roadhouse","phone":"7022227735","twitter":"doublebarrellv","address":"3770 Las Vegas Blvd S","lat":36.10500615464747,"lng":-115.17336758941467,"neighborhood":"The Strip","city_fetched":"Las Vegas","state":"NV","country":"United States","canonicalUrl":"https://foursquare.com/v/double-barrel-roadhouse/52d33eed498e202abff4b58e","category":"American Restaurant","checkinsCount":2137,"usersCount":2329,"tipCount":37,"visitsCount":2632,"url":"http://doublebarrellv.com","tier":2,"message":"Moderate","currency":"$","rating":7.8},{"name":"1923 Bourbon & Burlesque by Holly Madison","address":"3950 Las Vegas Blvd S","lat":36.09308589748759,"lng":-115.1761351435325,"neighborhood":"The Strip","city_fetched":"Las Vegas","state":"NV","country":"United States","canonicalUrl":"https://foursquare.com/v/1923-bourbon--burlesque-by-holly-madison/5352236d498e614ef2a6c910","category":"Speakeasy","checkinsCount":316,"usersCount":255,"tipCount":4,"visitsCount":320,"url":"http://1923lv.com","tier":"","message":"","currency":"","rating":7.8}]