[{"name":"Red Hot & Blue  -  Barbecue, Burgers & Blues","phone":"3019531943","twitter":"redhotbluebbq","address":"677 Main St","lat":39.10854323302438,"lng":-76.85343146324158,"city_fetched":"Laurel","state":"MD","country":"United States","canonicalUrl":"https://foursquare.com/v/red-hot--blue----barbecue-burgers--blues/4b902e04f964a520937a33e3","category":"BBQ Joint","checkinsCount":1905,"usersCount":1272,"tipCount":36,"visitsCount":2395,"url":"http://redhotandblue.com/laurel","tier":2,"message":"Moderate","currency":"$","rating":8},{"name":"Sam & Elsie's","phone":"3013177797","address":"9994 Washington Blvd N","lat":39.111232177936685,"lng":-76.8366488814354,"neighborhood":"Savage - Guilford","city_fetched":"Laurel","state":"MD","country":"United States","canonicalUrl":"https://foursquare.com/v/sam--elsies/4af8babef964a5208b0f22e3","category":"Karaoke Bar","checkinsCount":192,"usersCount":54,"tipCount":7,"visitsCount":197,"tier":"","message":"","currency":"","rating":7.6},{"name":"Tampico Grill","phone":"3014905200","twitter":"menuism","address":"42 Washington Blvd S","lat":39.104509623298775,"lng":-76.84273481369019,"city_fetched":"Laurel","state":"MD","country":"United States","canonicalUrl":"https://foursquare.com/v/tampico-grill/4b495bd5f964a520436e26e3","category":"Mexican Restaurant","checkinsCount":461,"usersCount":264,"tipCount":14,"visitsCount":550,"url":"http://www.tampicogrill.net","tier":2,"message":"Moderate","currency":"$","rating":7},{"name":"Hooters","phone":"3013625668","address":"14707 Baltimore Ave","lat":39.0922427355942,"lng":-76.85508901536484,"city_fetched":"Laurel","state":"MD","country":"United States","canonicalUrl":"https://foursquare.com/v/hooters/4afa123cf964a5207f1622e3","category":"Wings Joint","checkinsCount":3389,"usersCount":1405,"tipCount":31,"visitsCount":3496,"url":"http://www.hooters.com","tier":1,"message":"Cheap","currency":"$","rating":7},{"name":"Laurel Station Bar & Grill","address":"14933 Baltimore Ave","lat":39.095643,"lng":-76.851454,"city_fetched":"Laurel","state":"MD","country":"United States","canonicalUrl":"https://foursquare.com/v/laurel-station-bar--grill/4e6c4fbb2271d308c7e76f74","category":"Sports Bar","checkinsCount":1780,"usersCount":597,"tipCount":10,"visitsCount":1956,"tier":2,"message":"Moderate","currency":"$","rating":6.4},{"name":"TGI Fridays","phone":"3014988443","twitter":"tgifridays","address":"14600 Baltimore Ave","lat":39.09009283,"lng":-76.85918264,"city_fetched":"Laurel","state":"MD","country":"United States","canonicalUrl":"https://foursquare.com/v/tgi-fridays/509d636e5d2463e8715480cb","category":"American Restaurant","checkinsCount":4485,"usersCount":2134,"tipCount":30,"visitsCount":5549,"url":"http://tgifridays.com","tier":2,"message":"Moderate","currency":"$","rating":6.3},{"name":"Wild Buffalo Grill","phone":"3016049100","address":"10024 Washington Blvd N","lat":39.11001291222404,"lng":-76.83771636367057,"neighborhood":"Savage - Guilford","city_fetched":"Laurel","state":"MD","country":"United States","canonicalUrl":"https://foursquare.com/v/wild-buffalo-grill/4b6b0fc5f964a52025f02be3","category":"Bar","checkinsCount":193,"usersCount":91,"tipCount":6,"visitsCount":193,"url":"http://buffalo-grill.fr","tier":"","message":"","currency":"","rating":6},{"name":"Sullivan's Steak & Beverage","phone":"3014987427","twitter":"sullivans_steak","address":"9624 Fort Meade Rd","lat":39.096279344549444,"lng":-76.83951616287231,"city_fetched":"Laurel","state":"MD","country":"United States","canonicalUrl":"https://foursquare.com/v/sullivans-steak--beverage/4b0d569af964a520984623e3","category":"Wings Joint","checkinsCount":607,"usersCount":233,"tipCount":6,"visitsCount":618,"url":"http://www.sullivanssteakandbeverage.com","tier":1,"message":"Cheap","currency":"$","rating":6},{"name":"Fat Daddy's Saloon","phone":"3014979494","address":"9920 Washington Blvd N","lat":39.1135034071017,"lng":-76.8347709368653,"neighborhood":"Savage - Guilford","city_fetched":"Laurel","state":"MD","country":"United States","canonicalUrl":"https://foursquare.com/v/fat-daddys-saloon/4bba946fb35776b0bd25cb01","category":"Bar","checkinsCount":733,"usersCount":385,"tipCount":7,"visitsCount":820,"url":"http://fatdaddysaloon.com","tier":"","message":"","currency":"","rating":5.7},{"name":"Nuzbacks Bar","phone":"3017259820","address":"14405 Baltimore Ave","lat":39.08799,"lng":-76.8595324,"city_fetched":"Laurel","state":"MD","country":"United States","canonicalUrl":"https://foursquare.com/v/nuzbacks-bar/4b4e85bdf964a52061f026e3","category":"Dive Bar","checkinsCount":369,"usersCount":157,"tipCount":10,"visitsCount":388,"tier":"","message":"","currency":"","rating":5.4},{"name":"Main Street Sports Bar and Grill","phone":"3014909200","address":"531 Main St","lat":39.10788554976877,"lng":-76.85204744338989,"city_fetched":"Laurel","state":"MD","country":"United States","canonicalUrl":"https://foursquare.com/v/main-street-sports-bar-and-grill/4bb6774ff562ef3bc1353097","category":"American Restaurant","checkinsCount":407,"usersCount":185,"tipCount":5,"visitsCount":414,"tier":1,"message":"Cheap","currency":"$","rating":5.3}]