[{"name":"Great Crescent Brewery","address":"315 Importing St","lat":39.057491254041,"lng":-84.90082999644959,"city_fetched":"Lawrenceburg,US","state":"IN","country":"United States","canonicalUrl":"https://foursquare.com/v/great-crescent-brewery/4c30c81809a99c74ee250b2a","categoryId":"50327c8591d4c4b30a586d5d","category":"Brewery","checkinsCount":133,"usersCount":110,"tipCount":3,"visitsCount":179,"tier":"","message":"","currency":"","rating":7.4},{"name":"Willie's Sports Cafe HVL","phone":"8125370512","address":"19325 Schmarr Dr","lat":39.153391140353634,"lng":-84.83746963757633,"city_fetched":"Lawrenceburg,US","state":"IN","country":"United States","canonicalUrl":"https://foursquare.com/v/willies-sports-cafe-hvl/4b7d5283f964a52035b82fe3","categoryId":"4bf58dd8d48988d11d941735","category":"Sports Bar","checkinsCount":529,"usersCount":311,"tipCount":6,"visitsCount":795,"url":"http://www.williesonline.com","tier":"","message":"","currency":"","rating":6.8},{"name":"Top Shelf","phone":"8125370773","address":"19908 Augusta Dr","lat":39.15965110530415,"lng":-84.82084172372215,"city_fetched":"Lawrenceburg,US","state":"IN","country":"United States","canonicalUrl":"https://foursquare.com/v/top-shelf/4cc3643fc844721e56f1e201","categoryId":"4bf58dd8d48988d116941735","category":"Bar","checkinsCount":527,"usersCount":244,"tipCount":9,"visitsCount":552,"url":"http://www.topshelfsportsgrille.com","tier":"","message":"","currency":"","rating":6.2},{"name":"99 Hops House at Hollywood Casino","twitter":"hopshouse99","address":"777 Hollywood Blvd","lat":39.0971794000811,"lng":-84.84408889167803,"city_fetched":"Lawrenceburg,US","state":"IN","country":"United States","canonicalUrl":"https://foursquare.com/v/99-hops-house-at-hollywood-casino/52c063d311d2af4c86fb71bb","categoryId":"4bf58dd8d48988d11b941735","category":"Pub","checkinsCount":139,"usersCount":87,"tipCount":2,"visitsCount":140,"url":"http://www.hollywoodindiana.com","tier":"","message":"","currency":"","rating":6.2},{"name":"Boogie Nights 70's and 80's Dance Club","phone":"8122908653","twitter":"boogienightsind","address":"777 Hollywood Blvd","lat":39.09681868232478,"lng":-84.84365102640301,"city_fetched":"Lawrenceburg,US","state":"IN","country":"United States","canonicalUrl":"https://foursquare.com/v/boogie-nights-70s-and-80s-dance-club/4c0d985fe60fb713805a2122","categoryId":"4bf58dd8d48988d11f941735","category":"Nightclub","checkinsCount":717,"usersCount":607,"tipCount":5,"visitsCount":767,"tier":"","message":"","currency":"","rating":5.9}]