[{"name":"Free State Brewing Company","phone":"7858434555","twitter":"freestatebeer","address":"636 Massachusetts St","lat":38.97170321374315,"lng":-95.23576523680856,"city_fetched":"Lawrence,US","state":"KS","country":"United States","canonicalUrl":"https://foursquare.com/v/free-state-brewing-company/4ae48262f964a520229b21e3","categoryId":"50327c8591d4c4b30a586d5d","category":"Brewery","checkinsCount":14119,"usersCount":5728,"tipCount":117,"visitsCount":14812,"url":"http://freestatebrewing.com","tier":2,"message":"Moderate","currency":"$","rating":9.2},{"name":"Dempsey's Burger Pub","phone":"7858565460","address":"623 Vermont St","lat":38.97223949432373,"lng":-95.23734033107758,"city_fetched":"Lawrence,US","state":"KS","country":"United States","canonicalUrl":"https://foursquare.com/v/dempseys-burger-pub/4ae1f10bf964a520fb8821e3","categoryId":"4bf58dd8d48988d116941735","category":"Bar","checkinsCount":4510,"usersCount":1682,"tipCount":56,"visitsCount":4868,"url":"http://dempseyswestport.com","tier":2,"message":"Moderate","currency":"$","rating":9},{"name":"Louise's West","phone":"7858409860","address":"1307 W 7th St","lat":38.971029154890715,"lng":-95.25042414665222,"city_fetched":"Lawrence,US","state":"KS","country":"United States","canonicalUrl":"https://foursquare.com/v/louises-west/4b08d877f964a520da1223e3","categoryId":"4bf58dd8d48988d116941735","category":"Bar","checkinsCount":4513,"usersCount":908,"tipCount":17,"visitsCount":4777,"url":"http://www.louiseswest.com","tier":1,"message":"Cheap","currency":"$","rating":8.8},{"name":"23rd Street Brewery","phone":"7858562337","twitter":"23rdstbrewery","address":"3512 Clinton Pkwy","lat":38.9430112112676,"lng":-95.281204,"city_fetched":"Lawrence,US","state":"KS","country":"United States","canonicalUrl":"https://foursquare.com/23rdstbrewery","categoryId":"50327c8591d4c4b30a586d5d","category":"Brewery","checkinsCount":7846,"usersCount":2571,"tipCount":63,"visitsCount":8759,"url":"http://www.brew23.com","tier":2,"message":"Moderate","currency":"$","rating":8.7},{"name":"The Sandbar","phone":"7858420111","twitter":"thesandbar","address":"17 E 8th St","lat":38.96915234100279,"lng":-95.23507118225098,"city_fetched":"Lawrence,US","state":"KS","country":"United States","canonicalUrl":"https://foursquare.com/v/the-sandbar/4ae237b0f964a520f28b21e3","categoryId":"4bf58dd8d48988d118941735","category":"Dive Bar","checkinsCount":5542,"usersCount":1715,"tipCount":27,"visitsCount":5633,"url":"http://www.thesandbar.com","tier":1,"message":"Cheap","currency":"$","rating":8.5},{"name":"Red Lyon Tavern","phone":"7858328228","address":"944 Massachusetts St","lat":38.96591256,"lng":-95.235652,"city_fetched":"Lawrence,US","state":"KS","country":"United States","canonicalUrl":"https://foursquare.com/v/red-lyon-tavern/4b6e1b42f964a520e6aa2ce3","categoryId":"4bf58dd8d48988d116941735","category":"Bar","checkinsCount":5732,"usersCount":1450,"tipCount":26,"visitsCount":5878,"tier":2,"message":"Moderate","currency":"$","rating":8.4},{"name":"Henry's Upstairs","phone":"7853313511","twitter":"henrysupstairs","address":"11 E 8th St","lat":38.96929414645554,"lng":-95.23531258106232,"city_fetched":"Lawrence,US","state":"KS","country":"United States","canonicalUrl":"https://foursquare.com/v/henrys-upstairs/4baeed8df964a5205ae23be3","categoryId":"4bf58dd8d48988d116941735","category":"Bar","checkinsCount":3450,"usersCount":1012,"tipCount":28,"visitsCount":3465,"tier":2,"message":"Moderate","currency":"$","rating":8.2},{"name":"Gaslight Tavern","phone":"7858564330","address":"317 N 2nd St","lat":38.977700374696916,"lng":-95.23557149096953,"neighborhood":"North Lawrence","city_fetched":"Lawrence,US","state":"KS","country":"United States","canonicalUrl":"https://foursquare.com/v/gaslight-tavern/4b909faff964a520889233e3","categoryId":"4bf58dd8d48988d116941735","category":"Bar","checkinsCount":300,"usersCount":159,"tipCount":3,"visitsCount":310,"tier":"","message":"","currency":"","rating":8.1},{"name":"Hookah House","phone":"7858568630","address":"730 Massachusetts St","lat":38.970145585388146,"lng":-95.23567346238183,"city_fetched":"Lawrence,US","state":"KS","country":"United States","canonicalUrl":"https://foursquare.com/v/hookah-house/4b440885f964a52082f025e3","categoryId":"4bf58dd8d48988d119941735","category":"Hookah Bar","checkinsCount":1559,"usersCount":450,"tipCount":23,"visitsCount":1593,"url":"http://hookah-house.com","tier":"","message":"","currency":"","rating":8},{"name":"Henry T's Bar and Grill","phone":"7857492999","address":"3520 W 6th St","lat":38.97175473568281,"lng":-95.2827169655113,"city_fetched":"Lawrence,US","state":"KS","country":"United States","canonicalUrl":"https://foursquare.com/v/henry-ts-bar-and-grill/4d712c5e0bcc224b0fb71259","categoryId":"4bf58dd8d48988d116941735","category":"Bar","checkinsCount":2453,"usersCount":1006,"tipCount":25,"visitsCount":2847,"url":"http://henryts.com","tier":2,"message":"Moderate","currency":"$","rating":8},{"name":"Johnny's Tavern","phone":"7858430704","address":"721 Wakarusa Dr Ste 100","lat":38.96946931750519,"lng":-95.30811309814453,"city_fetched":"Lawrence,US","state":"KS","country":"United States","canonicalUrl":"https://foursquare.com/v/johnnys-tavern/4adf64c7f964a520367a21e3","categoryId":"4bf58dd8d48988d11d941735","category":"Sports Bar","checkinsCount":3836,"usersCount":1354,"tipCount":18,"visitsCount":4468,"url":"http://johnnystavern.com","tier":2,"message":"Moderate","currency":"$","rating":8},{"name":"R Bar & Patio","phone":"7858566969","twitter":"rbarpatio","address":"610 Florida St","lat":38.97259429129606,"lng":-95.25199123267754,"city_fetched":"Lawrence,US","state":"KS","country":"United States","canonicalUrl":"https://foursquare.com/v/r-bar--patio/4e6048cab0fb188e8cc35260","categoryId":"4bf58dd8d48988d116941735","category":"Bar","checkinsCount":2115,"usersCount":483,"tipCount":13,"visitsCount":2358,"tier":1,"message":"Cheap","currency":"$","rating":8},{"name":"Bird Dog Bar at The Oread","phone":"7858303921","twitter":"theoread","address":"1200 Oread Ave","lat":38.962045021724805,"lng":-95.24277448654175,"neighborhood":"Oread","city_fetched":"Lawrence,US","state":"KS","country":"United States","canonicalUrl":"https://foursquare.com/v/bird-dog-bar-at-the-oread/4b5ba0fef964a5202c0c29e3","categoryId":"4bf58dd8d48988d1d5941735","category":"Hotel Bar","checkinsCount":2433,"usersCount":1030,"tipCount":22,"visitsCount":2472,"url":"http://www.theoread.com","tier":2,"message":"Moderate","currency":"$","rating":7.9},{"name":"Crimson & Brews","phone":"7858413808","address":"925 Iowa St","lat":38.967233198993014,"lng":-95.26349805999224,"neighborhood":"Sunset Hills","city_fetched":"Lawrence,US","state":"KS","country":"United States","canonicalUrl":"https://foursquare.com/v/crimson--brews/4b7f2f1ef964a5204f1d30e3","categoryId":"4bf58dd8d48988d116941735","category":"Bar","checkinsCount":1635,"usersCount":240,"tipCount":12,"visitsCount":1717,"tier":"","message":"","currency":"","rating":7.6},{"name":"Johnny's Tavern","phone":"7858420377","address":"401 N 2nd St","lat":38.97792779059858,"lng":-95.23551030820953,"neighborhood":"North Lawrence","city_fetched":"Lawrence,US","state":"KS","country":"United States","canonicalUrl":"https://foursquare.com/v/johnnys-tavern/4b4c43f5f964a52043b026e3","categoryId":"4bf58dd8d48988d116941735","category":"Bar","checkinsCount":1986,"usersCount":1103,"tipCount":11,"visitsCount":2221,"tier":"","message":"","currency":"","rating":7.6},{"name":"Frank's North Star","address":"508 Locust St","lat":38.97761093863107,"lng":-95.22839825908139,"neighborhood":"North Lawrence","city_fetched":"Lawrence,US","state":"KS","country":"United States","canonicalUrl":"https://foursquare.com/v/franks-north-star/4f5ea27fe4b0a7555abfa2a8","categoryId":"4bf58dd8d48988d116941735","category":"Bar","checkinsCount":671,"usersCount":256,"tipCount":12,"visitsCount":823,"tier":1,"message":"Cheap","currency":"$","rating":7.6},{"name":"Casbah Bar","phone":"7858560543","address":"803 Massachusetts St","lat":38.96908076886549,"lng":-95.2361629276951,"city_fetched":"Lawrence,US","state":"KS","country":"United States","canonicalUrl":"https://foursquare.com/v/casbah-bar/4c2d54147d85a593e68952f3","categoryId":"4bf58dd8d48988d11b941735","category":"Pub","checkinsCount":556,"usersCount":271,"tipCount":3,"visitsCount":556,"tier":"","message":"","currency":"","rating":7.5},{"name":"Replay Lounge","phone":"7857497676","twitter":"replaylounge","address":"946 Massachusetts St","lat":38.9657978831258,"lng":-95.23555619527338,"city_fetched":"Lawrence,US","state":"KS","country":"United States","canonicalUrl":"https://foursquare.com/v/replay-lounge/49bb029af964a520d0531fe3","categoryId":"4bf58dd8d48988d116941735","category":"Bar","checkinsCount":3401,"usersCount":1187,"tipCount":21,"visitsCount":3439,"url":"http://www.replaylounge.com","tier":1,"message":"Cheap","currency":"$","rating":7.4},{"name":"Louise's Bar Downtown","phone":"7858439032","address":"1009 Massachusetts St","lat":38.965161683796794,"lng":-95.23618332217418,"neighborhood":"Oread","city_fetched":"Lawrence,US","state":"KS","country":"United States","canonicalUrl":"https://foursquare.com/v/louises-bar-downtown/49d713c9f964a5201b5d1fe3","categoryId":"4bf58dd8d48988d116941735","category":"Bar","checkinsCount":5314,"usersCount":1648,"tipCount":21,"visitsCount":5395,"tier":1,"message":"Cheap","currency":"$","rating":7.3},{"name":"Wagon Wheel Cafe","phone":"5079148478","twitter":"thewagonwheel","address":"507 W 14th St","lat":38.958036,"lng":-95.241017,"city_fetched":"Lawrence,US","state":"KS","country":"United States","canonicalUrl":"https://foursquare.com/v/wagon-wheel-cafe/4ad8afe0f964a520be1321e3","categoryId":"4bf58dd8d48988d116941735","category":"Bar","checkinsCount":2860,"usersCount":1184,"tipCount":17,"visitsCount":2984,"tier":"","message":"","currency":"","rating":7.3},{"name":"The Jayhawker","phone":"7857495011","twitter":"theeldridge","address":"701 Massachusetts St","lat":38.9711751272198,"lng":-95.2360850572586,"city_fetched":"Lawrence,US","state":"KS","country":"United States","canonicalUrl":"https://foursquare.com/v/the-jayhawker/4b438a0ef964a520bbe225e3","categoryId":"4bf58dd8d48988d1d5941735","category":"Hotel Bar","checkinsCount":1421,"usersCount":687,"tipCount":13,"visitsCount":1423,"url":"http://www.eldridgehotel.com","tier":"","message":"","currency":"","rating":7.1},{"name":"Astro's Billiards & Bar","phone":"7857497699","address":"601 Kasold Dr Ste C107","lat":38.97102081360566,"lng":-95.28315782546997,"city_fetched":"Lawrence,US","state":"KS","country":"United States","canonicalUrl":"https://foursquare.com/v/astros-billiards--bar/4b5a5ed3f964a520a3c028e3","categoryId":"4bf58dd8d48988d116941735","category":"Bar","checkinsCount":915,"usersCount":204,"tipCount":6,"visitsCount":927,"url":"http://lawrencebilliards.com","tier":"","message":"","currency":"","rating":7.1},{"name":"John Brown's Underground","address":"7 E 7th St","lat":38.97112794754345,"lng":-95.23539813998643,"city_fetched":"Lawrence,US","state":"KS","country":"United States","canonicalUrl":"https://foursquare.com/v/john-browns-underground/53f7ee73498e83dc4cd4d79a","categoryId":"4bf58dd8d48988d1d4941735","category":"Speakeasy","checkinsCount":228,"usersCount":140,"tipCount":4,"visitsCount":234,"tier":"","message":"","currency":"","rating":7.1},{"name":"Five Bar And Tables","lat":38.965681,"lng":-95.236034,"neighborhood":"Oread","city_fetched":"Lawrence,US","state":"KS","country":"United States","canonicalUrl":"https://foursquare.com/v/five-bar-and-tables/5055343ee4b07ab78d62f93d","categoryId":"4bf58dd8d48988d11e941735","category":"Cocktail Bar","checkinsCount":344,"usersCount":175,"tipCount":5,"visitsCount":349,"tier":"","message":"","currency":"","rating":7.1},{"name":"Eighth St Taproom","phone":"7858416918","twitter":"eighthsttaproom","address":"801 New Hampshire St","lat":38.96931082943129,"lng":-95.23481905460358,"city_fetched":"Lawrence,US","state":"KS","country":"United States","canonicalUrl":"https://foursquare.com/v/eighth-st-taproom/49bc8856f964a5203d541fe3","categoryId":"4bf58dd8d48988d116941735","category":"Bar","checkinsCount":1560,"usersCount":696,"tipCount":11,"visitsCount":1567,"tier":"","message":"","currency":"","rating":7.1},{"name":"Harbour Lights","phone":"7858411960","address":"1031 Massachusetts St","lat":38.964530996172336,"lng":-95.23614406585693,"neighborhood":"Oread","city_fetched":"Lawrence,US","state":"KS","country":"United States","canonicalUrl":"https://foursquare.com/v/harbour-lights/4b26ea85f964a520fd8224e3","categoryId":"4bf58dd8d48988d116941735","category":"Bar","checkinsCount":2088,"usersCount":800,"tipCount":9,"visitsCount":2114,"tier":"","message":"","currency":"","rating":7},{"name":"The Bottleneck","phone":"7858415483","twitter":"thebottleneck","address":"737 New Hampshire St","lat":38.96982626431423,"lng":-95.23504634107931,"city_fetched":"Lawrence,US","state":"KS","country":"United States","canonicalUrl":"https://foursquare.com/v/the-bottleneck/49cc7b01f964a52082591fe3","categoryId":"4bf58dd8d48988d116941735","category":"Bar","checkinsCount":3663,"usersCount":1345,"tipCount":11,"visitsCount":3790,"tier":2,"message":"Moderate","currency":"$","rating":6.8},{"name":"Bullwinkle's Bar","phone":"7858565021","address":"1344 Tennessee St","lat":38.958278,"lng":-95.239245,"neighborhood":"Oread","city_fetched":"Lawrence,US","state":"KS","country":"United States","canonicalUrl":"https://foursquare.com/v/bullwinkles-bar/4c801e8dd34ca143005d1680","categoryId":"4bf58dd8d48988d116941735","category":"Bar","checkinsCount":676,"usersCount":359,"tipCount":3,"visitsCount":757,"url":"http://www.bullwinklespub.com","tier":"","message":"","currency":"","rating":6.8},{"name":"Set'em Up Jack's","phone":"7858322030","address":"1800 E 23rd St","lat":38.94336360196043,"lng":-95.21212290422466,"city_fetched":"Lawrence,US","state":"KS","country":"United States","canonicalUrl":"https://foursquare.com/v/setem-up-jacks/4af77745f964a5206a0922e3","categoryId":"4bf58dd8d48988d11d941735","category":"Sports Bar","checkinsCount":2895,"usersCount":828,"tipCount":16,"visitsCount":3047,"url":"http://setemupjacks.com","tier":2,"message":"Moderate","currency":"$","rating":6.8},{"name":"Ted's Taphouse","phone":"7858566269","twitter":"taphouseted","address":"1004 Massachusetts St","lat":38.96536936721361,"lng":-95.23548424243927,"city_fetched":"Lawrence,US","state":"KS","country":"United States","canonicalUrl":"https://foursquare.com/v/teds-taphouse/530e8550498ef09769a15e07","categoryId":"4bf58dd8d48988d116941735","category":"Bar","checkinsCount":173,"usersCount":76,"tipCount":3,"visitsCount":176,"tier":"","message":"","currency":"","rating":6.8},{"name":"KoKoRo","phone":"7858384134","address":"601 Kasold Dr","lat":38.971096342857145,"lng":-95.282761,"city_fetched":"Lawrence,US","state":"KS","country":"United States","canonicalUrl":"https://foursquare.com/v/kokoro/4b21aa9af964a520cd3f24e3","categoryId":"4bf58dd8d48988d11c941735","category":"Sake Bar","checkinsCount":286,"usersCount":209,"tipCount":9,"visitsCount":287,"url":"http://www.lawrencemenus.com","tier":"","message":"","currency":"","rating":6.7},{"name":"Jackpot Saloon & Music Hall","phone":"7858432846","twitter":"jackpotmusic","address":"943 Massachusetts St","lat":38.965950324683114,"lng":-95.2360813498516,"neighborhood":"Oread","city_fetched":"Lawrence,US","state":"KS","country":"United States","canonicalUrl":"https://foursquare.com/v/jackpot-saloon--music-hall/49bdc8eef964a52099541fe3","categoryId":"4bf58dd8d48988d116941735","category":"Bar","checkinsCount":1802,"usersCount":798,"tipCount":17,"visitsCount":1813,"url":"http://www.thejackpotsaloon.com","tier":"","message":"","currency":"","rating":6.6},{"name":"Quinton's Bar & Deli","phone":"7858426560","address":"615 Massachusetts St","lat":38.97248868578378,"lng":-95.23614763184057,"city_fetched":"Lawrence,US","state":"KS","country":"United States","canonicalUrl":"https://foursquare.com/v/quintons-bar--deli/4b304f61f964a520cef824e3","categoryId":"4bf58dd8d48988d116941735","category":"Bar","checkinsCount":5976,"usersCount":1922,"tipCount":35,"visitsCount":6130,"url":"http://www.baranddeli.com","tier":1,"message":"Cheap","currency":"$","rating":6.6},{"name":"The Outhouse","phone":"7853314409","address":"1837 N. 1500 Rd","lat":38.95653188152554,"lng":-95.16318214610362,"city_fetched":"Lawrence,US","state":"KS","country":"United States","canonicalUrl":"https://foursquare.com/v/the-outhouse/4be60ca6477d9c744eb9e62d","categoryId":"4bf58dd8d48988d1d6941735","category":"Strip Club","checkinsCount":215,"usersCount":186,"tipCount":6,"visitsCount":245,"tier":"","message":"","currency":"","rating":6.4},{"name":"Abe And Jake's Landing","lat":38.97377395415834,"lng":-95.2346588549359,"city_fetched":"Lawrence,US","state":"KS","country":"United States","canonicalUrl":"https://foursquare.com/v/abe-and-jakes-landing/523bad748fb1bf9c693eed7a","categoryId":"4bf58dd8d48988d11f941735","category":"Nightclub","checkinsCount":232,"usersCount":197,"tipCount":0,"visitsCount":282,"tier":"","message":"","currency":"","rating":6.4},{"name":"Fatso's","phone":"7858654055","address":"1016 Massachusetts St","lat":38.96496664127616,"lng":-95.23559188523741,"city_fetched":"Lawrence,US","state":"KS","country":"United States","canonicalUrl":"https://foursquare.com/v/fatsos/4ce35bc51594236a310bf749","categoryId":"4bf58dd8d48988d116941735","category":"Bar","checkinsCount":2186,"usersCount":755,"tipCount":5,"visitsCount":2192,"tier":"","message":"","currency":"","rating":6.2},{"name":"Rick's Place","phone":"7857495067","address":"846 Illinois St","lat":38.96773051666667,"lng":-95.24479148,"city_fetched":"Lawrence,US","state":"KS","country":"United States","canonicalUrl":"https://foursquare.com/v/ricks-place/4b2aff84f964a52080b324e3","categoryId":"4bf58dd8d48988d116941735","category":"Bar","checkinsCount":1002,"usersCount":333,"tipCount":7,"visitsCount":1017,"tier":"","message":"","currency":"","rating":6.1},{"name":"6 Mile Tavern","lat":38.97113509271693,"lng":-95.30962507002582,"city_fetched":"Lawrence,US","state":"KS","country":"United States","canonicalUrl":"https://foursquare.com/v/6-mile-tavern/4e1f83c118a88345f0372700","categoryId":"4bf58dd8d48988d116941735","category":"Bar","checkinsCount":1031,"usersCount":337,"tipCount":3,"visitsCount":1126,"tier":"","message":"","currency":"","rating":6},{"name":"Wilde's Chateau 24","phone":"7858561558","twitter":"chateau24","address":"2412 Iowa St","lat":38.939656,"lng":-95.26010795,"city_fetched":"Lawrence,US","state":"KS","country":"United States","canonicalUrl":"https://foursquare.com/v/wildes-chateau-24/4b929897f964a5201f0834e3","categoryId":"4bf58dd8d48988d116941735","category":"Bar","checkinsCount":1189,"usersCount":390,"tipCount":5,"visitsCount":1201,"tier":"","message":"","currency":"","rating":6},{"name":"It's Brothers Bar & Grill","phone":"7858309281","address":"1105 Massachusetts St","lat":38.963449,"lng":-95.235966,"neighborhood":"Oread","city_fetched":"Lawrence,US","state":"KS","country":"United States","canonicalUrl":"https://foursquare.com/v/its-brothers-bar--grill/4b485392f964a520a44b26e3","categoryId":"4bf58dd8d48988d116941735","category":"Bar","checkinsCount":2720,"usersCount":985,"tipCount":11,"visitsCount":2754,"tier":1,"message":"Cheap","currency":"$","rating":6},{"name":"Jayhawk Cafe","phone":"7858439273","twitter":"jayhawkcafe","address":"1340 Ohio St","lat":38.95843269534309,"lng":-95.24039268493652,"neighborhood":"Oread","city_fetched":"Lawrence,US","state":"KS","country":"United States","canonicalUrl":"https://foursquare.com/v/jayhawk-cafe/4c0b1d57ffb8c9b632df6c61","categoryId":"4bf58dd8d48988d116941735","category":"Bar","checkinsCount":2068,"usersCount":817,"tipCount":12,"visitsCount":2121,"tier":"","message":"","currency":"","rating":5.8},{"name":"Wayne & Larry's Sports Bar & Grill","phone":"7858567170","address":"933 Iowa St","lat":38.96678587737854,"lng":-95.26208508467985,"neighborhood":"Sunset Hills","city_fetched":"Lawrence,US","state":"KS","country":"United States","canonicalUrl":"https://foursquare.com/v/wayne--larrys-sports-bar--grill/49bb01eef964a520cf531fe3","categoryId":"4bf58dd8d48988d116941735","category":"Bar","checkinsCount":2256,"usersCount":845,"tipCount":16,"visitsCount":2307,"tier":2,"message":"Moderate","currency":"$","rating":5.7},{"name":"The Nest at The Oread","phone":"7858431200","twitter":"theoread","address":"1200 Oread Ave","lat":38.96222,"lng":-95.24255388,"neighborhood":"Oread","city_fetched":"Lawrence,US","state":"KS","country":"United States","canonicalUrl":"https://foursquare.com/v/the-nest-at-the-oread/4cba0004f50e224b3615f1fb","categoryId":"4bf58dd8d48988d116941735","category":"Bar","checkinsCount":355,"usersCount":284,"tipCount":2,"visitsCount":356,"url":"http://www.theoread.com","tier":"","message":"","currency":"","rating":5.5},{"name":"Tonic","phone":"7858560588","address":"728 Massachusetts St","lat":38.97010743695125,"lng":-95.23544132709503,"city_fetched":"Lawrence,US","state":"KS","country":"United States","canonicalUrl":"https://foursquare.com/v/tonic/4b7634b3f964a52027432ee3","categoryId":"4bf58dd8d48988d11f941735","category":"Nightclub","checkinsCount":2922,"usersCount":1028,"tipCount":17,"visitsCount":2937,"tier":"","message":"","currency":"","rating":5.4}]