[{"name":"Backporch Drafthouse","phone":"5806992990","address":"1925 W Gore Blvd","lat":34.60913784552354,"lng":-98.41921215143284,"city_fetched":"Lawton,US","state":"OK","country":"United States","canonicalUrl":"https://foursquare.com/v/backporch-drafthouse/51059832e4b09faec3e506a2","categoryId":"4bf58dd8d48988d117941735","category":"Beer Garden","checkinsCount":641,"usersCount":478,"tipCount":16,"visitsCount":1157,"url":"http://bpdrafthouse.com","tier":2,"message":"Moderate","currency":"$","rating":8.3},{"name":"Red Dirt Bar & Grill","phone":"5806993478","address":"6425 NW Cache Rd Ste 103","lat":34.623835,"lng":-98.472499,"city_fetched":"Lawton,US","state":"OK","country":"United States","canonicalUrl":"https://foursquare.com/v/red-dirt-bar--grill/4defae9f1f6e6d354186cc76","categoryId":"4bf58dd8d48988d11d941735","category":"Sports Bar","checkinsCount":456,"usersCount":223,"tipCount":7,"visitsCount":511,"url":"http://www.reddirtgrill.com","tier":"","message":"","currency":"","rating":6.6},{"name":"Scooters","address":"7602 SW Lee Blvd","lat":34.59375088915382,"lng":-98.48528889245694,"city_fetched":"Lawton,US","state":"OK","country":"United States","canonicalUrl":"https://foursquare.com/v/scooters/4cd1eeaa1ac7a1cd78fd2192","categoryId":"4bf58dd8d48988d116941735","category":"Bar","checkinsCount":382,"usersCount":178,"tipCount":3,"visitsCount":467,"tier":"","message":"","currency":"","rating":5.9},{"name":"Mike's Sports Grill","twitter":"mikesportgrille","address":"517 E Gore Blvd","lat":34.608459780517016,"lng":-98.3816651844876,"city_fetched":"Lawton,US","state":"OK","country":"United States","canonicalUrl":"https://foursquare.com/v/mikes-sports-grill/4be2f5f32fc7d13abc77083a","categoryId":"4bf58dd8d48988d11d941735","category":"Sports Bar","checkinsCount":873,"usersCount":517,"tipCount":8,"visitsCount":1160,"url":"http://mikessportsgrille.com","tier":"","message":"","currency":"","rating":5.4}]