[{"name":"Five Oaks Golf & Country Club","phone":"6154442784","address":"621 Five Oaks Blvd","lat":36.2480027163025,"lng":-86.37716846776584,"city_fetched":"Lebanon,US","state":"TN","country":"United States","canonicalUrl":"https://foursquare.com/v/five-oaks-golf--country-club/4b362661f964a5208d3025e3","categoryId":"4bf58dd8d48988d116941735","category":"Bar","checkinsCount":640,"usersCount":181,"tipCount":1,"visitsCount":753,"url":"http://five-oaks.com","tier":"","message":"","currency":"","rating":7.8},{"name":"Sammy B's","address":"The Mill","lat":36.21112474893471,"lng":-86.29324210008406,"city_fetched":"Lebanon,US","state":"TN","country":"United States","canonicalUrl":"https://foursquare.com/v/sammy-bs/50e46b15e4b0a2f228aed844","categoryId":"4bf58dd8d48988d11b941735","category":"Pub","checkinsCount":119,"usersCount":74,"tipCount":6,"visitsCount":132,"tier":"","message":"","currency":"","rating":7.4},{"name":"Corner Pub","phone":"6157542782","address":"4136 N Mount Juliet Rd","lat":36.228595557262814,"lng":-86.51457396726495,"city_fetched":"Lebanon,US","state":"TN","country":"United States","canonicalUrl":"https://foursquare.com/v/corner-pub/4dcb31aec65bccd86741a41c","categoryId":"4bf58dd8d48988d11b941735","category":"Pub","checkinsCount":1357,"usersCount":559,"tipCount":24,"visitsCount":1529,"url":"http://cornerpubtn.com","tier":"","message":"","currency":"","rating":7.4},{"name":"Legends Bar & Grill","address":"155 Legends Dr","lat":36.189403,"lng":-86.293379,"city_fetched":"Lebanon,US","state":"TN","country":"United States","canonicalUrl":"https://foursquare.com/v/legends-bar--grill/4c0077659cf52d7f0fe013e7","categoryId":"4bf58dd8d48988d116941735","category":"Bar","checkinsCount":215,"usersCount":131,"tipCount":3,"visitsCount":222,"tier":"","message":"","currency":"","rating":6.7},{"name":"USA Sports Bar & Grill","phone":"6157541999","address":"151 Adams Ln","lat":36.16983655165509,"lng":-86.51674475760888,"city_fetched":"Lebanon,US","state":"TN","country":"United States","canonicalUrl":"https://foursquare.com/v/usa-sports-bar--grill/4c2ebdec213c2d7fcbd42f5d","categoryId":"4bf58dd8d48988d116941735","category":"Bar","checkinsCount":1132,"usersCount":320,"tipCount":10,"visitsCount":1201,"tier":"","message":"","currency":"","rating":6.5}]