[{"name":"Harmony Ridge Gallery / Red Key 3","phone":"3046454333","address":"209 W Washington St","lat":37.802324414158214,"lng":-80.44721603393555,"city_fetched":"Lewisburg","state":"WV","country":"United States","canonicalUrl":"https://foursquare.com/v/harmony-ridge-gallery--red-key-3/4ba2c867f964a520ca1838e3","category":"Wine Bar","checkinsCount":400,"usersCount":70,"tipCount":9,"visitsCount":400,"url":"http://www.harmonyridgegallery.com","tier":"","message":"","currency":"","rating":7.6},{"name":"Irish Pub on Washington St","phone":"3046457386","address":"109 E Washington St","lat":37.80154027114065,"lng":-80.44526875019073,"city_fetched":"Lewisburg","state":"WV","country":"United States","canonicalUrl":"https://foursquare.com/v/irish-pub-on-washington-st/4c4b6c69bad7a5938598d2ab","category":"Pub","checkinsCount":750,"usersCount":325,"tipCount":8,"visitsCount":759,"url":"http://www.irishpubonwashingtonstreet.com","tier":"","message":"","currency":"","rating":7.3},{"name":"The Asylum","address":"14 East Randolph St.","lat":37.8021125793457,"lng":-80.44376373291016,"city_fetched":"Lewisburg","state":"WV","country":"United States","canonicalUrl":"https://foursquare.com/v/the-asylum/54694a32498e655a92314855","category":"Gastropub","checkinsCount":65,"usersCount":93,"tipCount":1,"visitsCount":146,"tier":"","message":"","currency":"","rating":6.8}]