[{"name":"The Brickyard Pub & B.B.Q.","phone":"7167547227","twitter":"thebrickyardpub","address":"432 Center St","lat":43.17299844343401,"lng":-79.04332637786865,"city_fetched":"Lewiston","state":"NY","country":"United States","canonicalUrl":"https://foursquare.com/v/the-brickyard-pub--bbq/4b7e0446f964a52038df2fe3","category":"BBQ Joint","checkinsCount":3221,"usersCount":1791,"tipCount":50,"visitsCount":3680,"url":"http://www.brickyardpub.com","tier":2,"message":"Moderate","currency":"$","rating":8},{"name":"Town Hall American Bistro","phone":"7164057363","address":"453 Center St","lat":43.17265996240157,"lng":-79.04265302453545,"city_fetched":"Lewiston","state":"NY","country":"United States","canonicalUrl":"https://foursquare.com/v/town-hall-american-bistro/4fee2face4b0ff692b64e858","category":"Bar","checkinsCount":198,"usersCount":121,"tipCount":9,"visitsCount":200,"tier":"","message":"","currency":"","rating":7.7},{"name":"Water Street Landing","phone":"7167549200","address":"115 S Water St","lat":43.17288498887337,"lng":-79.0492057800293,"city_fetched":"Lewiston","state":"NY","country":"United States","canonicalUrl":"https://foursquare.com/v/water-street-landing/4b523701f964a520547027e3","category":"American Restaurant","checkinsCount":1284,"usersCount":1045,"tipCount":11,"visitsCount":1594,"url":"http://www.waterstreetlanding.com","tier":3,"message":"Expensive","currency":"$","rating":7.6},{"name":"The Lewiston Stone House","phone":"7167547759","twitter":"lewistonsths","address":"755 Center St","lat":43.17234962409224,"lng":-79.03728913075167,"city_fetched":"Lewiston","state":"NY","country":"United States","canonicalUrl":"https://foursquare.com/v/the-lewiston-stone-house/50f0ebdfe4b0a4701d6c9754","category":"Wine Bar","checkinsCount":226,"usersCount":134,"tipCount":4,"visitsCount":264,"url":"http://lewistonstonehouse.com","tier":"","message":"","currency":"","rating":7.5}]