[{"name":"West Sixth Brewing Company","phone":"8599516006","twitter":"westsixth","address":"501 W Sixth St","lat":38.05944549633448,"lng":-84.49198722839355,"city_fetched":"Lexington","state":"KY","country":"United States","canonicalUrl":"https://foursquare.com/v/west-sixth-brewing-company/4e8be97da17ca3b5312dfd58","category":"Brewery","checkinsCount":4782,"usersCount":1977,"tipCount":37,"visitsCount":6066,"url":"http://www.westsixth.com","tier":2,"message":"Moderate","currency":"$","rating":9.2},{"name":"Lexington Beerworks","phone":"8593596747","twitter":"lexbeerworks","address":"213 N Limestone","lat":38.04857687708031,"lng":-84.49406862258911,"neighborhood":"Downtown Lexington","city_fetched":"Lexington","state":"KY","country":"United States","canonicalUrl":"https://foursquare.com/v/lexington-beerworks/4e91e87ae5e8e9a917e1bf57","category":"Pub","checkinsCount":1313,"usersCount":750,"tipCount":19,"visitsCount":1681,"url":"http://www.lexingtonbeerworks.com","tier":"","message":"","currency":"","rating":9.1},{"name":"OBC","phone":"8599772600","lat":37.99509579199944,"lng":-84.49622641421024,"neighborhood":"Lansdowne","city_fetched":"Lexington","state":"KY","country":"United States","canonicalUrl":"https://foursquare.com/v/obc/54811bd0498efacad8acb035","category":"Bar","checkinsCount":161,"usersCount":127,"tipCount":7,"visitsCount":198,"tier":"","message":"","currency":"","rating":9.1},{"name":"Pies & Pints","phone":"8592317437","twitter":"piesandpints","address":"401 W Main St Ste 106","lat":38.04916774705003,"lng":-84.5002319206848,"neighborhood":"Downtown Lexington","city_fetched":"Lexington","state":"KY","country":"United States","canonicalUrl":"https://foursquare.com/v/pies--pints/515b64efe4b03b2d8498c89c","category":"Pizza Place","checkinsCount":587,"usersCount":527,"tipCount":12,"visitsCount":817,"url":"http://www.piesandpints.net","tier":"","message":"","currency":"","rating":9.1},{"name":"Drake's","phone":"8593356500","twitter":"bhgrestaurants","address":"3347 Tates Creek Rd","lat":37.99589212305138,"lng":-84.49657917022705,"neighborhood":"Lansdowne","city_fetched":"Lexington","state":"KY","country":"United States","canonicalUrl":"https://foursquare.com/v/drakes/4b522306f964a520b76a27e3","category":"American Restaurant","checkinsCount":3186,"usersCount":1580,"tipCount":26,"visitsCount":3850,"url":"http://www.bluegrasshospitality.com/drakes","tier":2,"message":"Moderate","currency":"$","rating":9},{"name":"Shamrock Bar & Grille","phone":"8592697621","twitter":"shamrockslex","address":"154 Patchen Dr #87","lat":38.00860249370174,"lng":-84.45576154773948,"city_fetched":"Lexington","state":"KY","country":"United States","canonicalUrl":"https://foursquare.com/v/shamrock-bar--grille/4ba56229f964a520980139e3","category":"Sports Bar","checkinsCount":2198,"usersCount":966,"tipCount":24,"visitsCount":2629,"url":"http://shamrocksky.com","tier":"","message":"","currency":"","rating":8.9},{"name":"The Beer Trappe","phone":"8593090911","twitter":"thebeertrappe","address":"811 Euclid Ave","lat":38.03000644795388,"lng":-84.4909706907905,"city_fetched":"Lexington","state":"KY","country":"United States","canonicalUrl":"https://foursquare.com/v/the-beer-trappe/4bfc701ada7120a1d2184afd","category":"Bar","checkinsCount":2328,"usersCount":874,"tipCount":21,"visitsCount":2672,"url":"http://thebeertrappe.com","tier":2,"message":"Moderate","currency":"$","rating":8.8},{"name":"Marikka's Restaurant und Bier Stube","phone":"8592751925","twitter":"marikkaslex","address":"411 Southland Dr","lat":38.018903633113425,"lng":-84.52627636696465,"neighborhood":"Picadome","city_fetched":"Lexington","state":"KY","country":"United States","canonicalUrl":"https://foursquare.com/v/marikkas-restaurant-und-bier-stube/4b22ce99f964a520e44d24e3","category":"German Restaurant","checkinsCount":2841,"usersCount":1079,"tipCount":27,"visitsCount":3326,"url":"http://marikkas.com","tier":2,"message":"Moderate","currency":"$","rating":8.8},{"name":"Winchell's Restaurant","phone":"8592789424","address":"348 Southland Dr","lat":38.01670953100367,"lng":-84.52571832059779,"neighborhood":"Hill N Dale","city_fetched":"Lexington","state":"KY","country":"United States","canonicalUrl":"https://foursquare.com/v/winchells-restaurant/4b3e42e9f964a5204e9a25e3","category":"American Restaurant","checkinsCount":2350,"usersCount":1303,"tipCount":41,"visitsCount":3308,"url":"http://winchellsrestaurant.com","tier":2,"message":"Moderate","currency":"$","rating":8.8},{"name":"Country Boy Brewing","phone":"8595546200","twitter":"countryboybrew","address":"436 Chair Ave","lat":38.04394487724029,"lng":-84.50923562305084,"city_fetched":"Lexington","state":"KY","country":"United States","canonicalUrl":"https://foursquare.com/v/country-boy-brewing/4ec96d4c0aaf9c3ccea80b3c","category":"Brewery","checkinsCount":4885,"usersCount":1397,"tipCount":51,"visitsCount":5820,"url":"http://www.countryboybrewing.com","tier":1,"message":"Cheap","currency":"$","rating":8.7},{"name":"Ethereal Brewing","phone":"8593091254","address":"1224 Manchester St","lat":38.056523953654775,"lng":-84.51978938768329,"city_fetched":"Lexington","state":"KY","country":"United States","canonicalUrl":"https://foursquare.com/v/ethereal-brewing/5473f0f2498e7ee5faee536c","category":"Brewery","checkinsCount":645,"usersCount":387,"tipCount":4,"visitsCount":854,"url":"http://www.etherealbrew.com","tier":"","message":"","currency":"","rating":8.6},{"name":"Soundbar","phone":"8595236338","twitter":"soundbarlex","address":"208 S Limestone","lat":38.04488718509674,"lng":-84.49891116666667,"neighborhood":"Historic South Hill","city_fetched":"Lexington","state":"KY","country":"United States","canonicalUrl":"https://foursquare.com/v/soundbar/4b4bd2b7f964a520daa826e3","category":"Lounge","checkinsCount":4115,"usersCount":922,"tipCount":13,"visitsCount":4483,"url":"http://soundbarlex.com","tier":"","message":"","currency":"","rating":8.5},{"name":"Common Grounds Coffee House","phone":"8592339761","twitter":"cgrounds1992","address":"343 E High St","lat":38.040296700393284,"lng":-84.49400841320733,"city_fetched":"Lexington","state":"KY","country":"United States","canonicalUrl":"https://foursquare.com/v/common-grounds-coffee-house/4b8eb6e4f964a520b23233e3","category":"Coffee Shop","checkinsCount":2755,"usersCount":1051,"tipCount":26,"visitsCount":3276,"url":"http://www.commongroundsoflexington.com","tier":"","message":"","currency":"","rating":8.5},{"name":"The Pub Lexington","phone":"8599712748","twitter":"publexington","address":"3750 Mall Rd","lat":37.9849867544866,"lng":-84.53066887544573,"city_fetched":"Lexington","state":"KY","country":"United States","canonicalUrl":"https://foursquare.com/v/the-pub-lexington/4b64494cf964a5206aa82ae3","category":"Pub","checkinsCount":3435,"usersCount":1588,"tipCount":45,"visitsCount":3850,"url":"http://www.experiencethepub.com","tier":2,"message":"Moderate","currency":"$","rating":8.5},{"name":"HopCat","phone":"8592866847","twitter":"hopcatlexington","address":"410 W Short St","lat":38.04966265857779,"lng":-84.49937654789002,"neighborhood":"Downtown Lexington","city_fetched":"Lexington","state":"KY","country":"United States","canonicalUrl":"https://foursquare.com/v/hopcat/562970fb498e0d6e6a759f5b","category":"Gastropub","checkinsCount":418,"usersCount":430,"tipCount":12,"visitsCount":647,"url":"http://hopcat.com/lexington","tier":2,"message":"Moderate","currency":"$","rating":8.5},{"name":"Sidebar Grill","phone":"8592258883","address":"147 N Limestone","lat":38.047068,"lng":-84.495844,"neighborhood":"Downtown Lexington","city_fetched":"Lexington","state":"KY","country":"United States","canonicalUrl":"https://foursquare.com/v/sidebar-grill/4bb7dacc3db7b713f0ac209a","category":"Pub","checkinsCount":1474,"usersCount":601,"tipCount":12,"visitsCount":1554,"tier":"","message":"","currency":"","rating":8.4},{"name":"Thursday Night Live","twitter":"downtownlex","address":"215 W Main St","lat":38.0479546178288,"lng":-84.4982445682073,"neighborhood":"Downtown Lexington","city_fetched":"Lexington","state":"KY","country":"United States","canonicalUrl":"https://foursquare.com/v/thursday-night-live/4be337c8d27a20a1728f915b","category":"Music Venue","checkinsCount":1488,"usersCount":618,"tipCount":6,"visitsCount":1607,"tier":"","message":"","currency":"","rating":8.4},{"name":"Sabio","phone":"8593689901","twitter":"sabiorestaurant","address":"380 S Mill St","lat":38.04510009893221,"lng":-84.50288772583008,"neighborhood":"Historic South Hill","city_fetched":"Lexington","state":"KY","country":"United States","canonicalUrl":"https://foursquare.com/v/sabio/4f84c22bbb3d9fc05b5ca529","category":"Restaurant","checkinsCount":299,"usersCount":235,"tipCount":12,"visitsCount":382,"url":"http://www.sabiodudleysquare.com","tier":3,"message":"Expensive","currency":"$","rating":8.4},{"name":"Saul Good Restaurant & Pub","phone":"8593179200","address":"1808 Alysheba Way","lat":38.016912,"lng":-84.420247,"city_fetched":"Lexington","state":"KY","country":"United States","canonicalUrl":"https://foursquare.com/v/saul-good-restaurant--pub/4bb60fe646d4a5931d9fc5c0","category":"Pub","checkinsCount":2627,"usersCount":1385,"tipCount":44,"visitsCount":2860,"url":"http://saulgoodpub.com","tier":2,"message":"Moderate","currency":"$","rating":8.2},{"name":"Harvey's","phone":"8592269333","address":"200 W Main St","lat":38.0469367286179,"lng":-84.49795447289944,"neighborhood":"Downtown Lexington","city_fetched":"Lexington","state":"KY","country":"United States","canonicalUrl":"https://foursquare.com/v/harveys/4b4fd94df964a520801727e3","category":"Bar","checkinsCount":909,"usersCount":334,"tipCount":2,"visitsCount":923,"tier":"","message":"","currency":"","rating":8.2},{"name":"The Tin Roof","phone":"8593179111","twitter":"tinrooflex","address":"303 S Limestone","lat":38.04333686828613,"lng":-84.50164518333334,"neighborhood":"Historic South Hill","city_fetched":"Lexington","state":"KY","country":"United States","canonicalUrl":"https://foursquare.com/v/the-tin-roof/4b592779f964a520447f28e3","category":"Bar","checkinsCount":4235,"usersCount":1589,"tipCount":23,"visitsCount":4545,"url":"http://tinroofbars.com","tier":2,"message":"Moderate","currency":"$","rating":8.2},{"name":"Pazzo's","phone":"8592555125","twitter":"pazzospizzapub","address":"385 S Limestone","lat":38.04188103597308,"lng":-84.503655,"neighborhood":"Historic South Hill","city_fetched":"Lexington","state":"KY","country":"United States","canonicalUrl":"https://foursquare.com/v/pazzos/4ad74098f964a5201e0921e3","category":"Bar","checkinsCount":4711,"usersCount":2129,"tipCount":48,"visitsCount":4937,"url":"http://www.pazzospizzapub.com","tier":2,"message":"Moderate","currency":"$","rating":8.2},{"name":"Lynagh's Irish Pub and Grill","phone":"8592551292","twitter":"lynaghsirishpub","address":"384 Woodland Ave","lat":38.034705,"lng":-84.495456,"city_fetched":"Lexington","state":"KY","country":"United States","canonicalUrl":"https://foursquare.com/v/lynaghs-irish-pub-and-grill/4b4d0738f964a52078c826e3","category":"Burger Joint","checkinsCount":1164,"usersCount":487,"tipCount":12,"visitsCount":1184,"url":"http://lynaghsirishpub.net","tier":1,"message":"Cheap","currency":"$","rating":8.2},{"name":"Charlie Brown's","phone":"8592695701","address":"816 Euclid Ave","lat":38.029787401838874,"lng":-84.49113974189103,"city_fetched":"Lexington","state":"KY","country":"United States","canonicalUrl":"https://foursquare.com/v/charlie-browns/4b132e62f964a520369523e3","category":"Burger Joint","checkinsCount":1471,"usersCount":724,"tipCount":27,"visitsCount":1549,"url":"http://charliebrownslex.com","tier":2,"message":"Moderate","currency":"$","rating":8.2},{"name":"Merrick Inn","phone":"8592695417","address":"1074 Merrick Dr","lat":37.992058974589774,"lng":-84.49182618678533,"city_fetched":"Lexington","state":"KY","country":"United States","canonicalUrl":"https://foursquare.com/v/merrick-inn/4b6dfc17f964a52030a12ce3","category":"Bar","checkinsCount":920,"usersCount":753,"tipCount":8,"visitsCount":1213,"url":"http://www.themerrickinn.com","tier":2,"message":"Moderate","currency":"$","rating":8.2},{"name":"Harry's","phone":"8599772620","address":"3735 Palomar Centre Dr","lat":38.00362657132975,"lng":-84.57079530368567,"city_fetched":"Lexington","state":"KY","country":"United States","canonicalUrl":"https://foursquare.com/v/harrys/4c856814d4e2370431ac8288","category":"American Restaurant","checkinsCount":1633,"usersCount":487,"tipCount":12,"visitsCount":1676,"url":"http://bluegrasshospitality.com/harrys","tier":"","message":"","currency":"","rating":8.1},{"name":"Blue Stallion Brewing Co.","phone":"8779282337","twitter":"bluestallionbc","address":"610 W Third St","lat":38.0570970312791,"lng":-84.5013427734375,"city_fetched":"Lexington","state":"KY","country":"United States","canonicalUrl":"https://foursquare.com/bluestallionbc","category":"Brewery","checkinsCount":1645,"usersCount":889,"tipCount":13,"visitsCount":2238,"url":"http://bluestallionbrewing.com","tier":2,"message":"Moderate","currency":"$","rating":8},{"name":"Prince Hookah Lounge","twitter":"princehookah1","address":"555 S Limestone","lat":38.037975,"lng":-84.507262,"neighborhood":"University of Kentucky","city_fetched":"Lexington","state":"KY","country":"United States","canonicalUrl":"https://foursquare.com/v/prince-hookah-lounge/4b5b9d29f964a5200a0b29e3","category":"Hookah Bar","checkinsCount":425,"usersCount":234,"tipCount":6,"visitsCount":455,"url":"http://princehookahlounge-hub.com","tier":"","message":"","currency":"","rating":8},{"name":"SKYBAR","phone":"8593687900","twitter":"skybarlexington","address":"269 W Main St","lat":38.04804578266173,"lng":-84.49843920881109,"neighborhood":"Downtown Lexington","city_fetched":"Lexington","state":"KY","country":"United States","canonicalUrl":"https://foursquare.com/v/skybar/4b89e800f964a520635532e3","category":"Cocktail Bar","checkinsCount":1417,"usersCount":673,"tipCount":8,"visitsCount":1441,"url":"http://www.skybarlex.com","tier":"","message":"","currency":"","rating":7.9},{"name":"Blue Heron","twitter":"blueheronsteak","address":"185 Jefferson St","lat":38.053651,"lng":-84.500986,"city_fetched":"Lexington","state":"KY","country":"United States","canonicalUrl":"https://foursquare.com/v/blue-heron/509d830ee4b007e3c13f277e","category":"Cocktail Bar","checkinsCount":249,"usersCount":138,"tipCount":4,"visitsCount":257,"url":"http://www.blueheronsteakhouse.com","tier":"","message":"","currency":"","rating":7.9},{"name":"Henry Clay's Public House","phone":"8593687754","address":"112 N Upper St","lat":38.047316830808256,"lng":-84.49737892186812,"neighborhood":"Downtown Lexington","city_fetched":"Lexington","state":"KY","country":"United States","canonicalUrl":"https://foursquare.com/v/henry-clays-public-house/4febce43e4b0ce9bad6e9825","category":"Pub","checkinsCount":716,"usersCount":312,"tipCount":7,"visitsCount":777,"url":"http://www.henryclayspublichouse.com","tier":"","message":"","currency":"","rating":7.9},{"name":"Jean Farris Winery & Bistro","phone":"8592639463","twitter":"jeanfarriswine","address":"6825 Old Richmond Rd","lat":37.92893471265585,"lng":-84.37708335330933,"city_fetched":"Lexington","state":"KY","country":"United States","canonicalUrl":"https://foursquare.com/v/jean-farris-winery--bistro/4ba6d219f964a5209c7139e3","category":"Winery","checkinsCount":642,"usersCount":427,"tipCount":17,"visitsCount":751,"url":"http://www.jeanfarris.com","tier":"","message":"","currency":"","rating":7.8},{"name":"Break Room at Pepper","address":"1178 Manchester St","lat":38.05569332995151,"lng":-84.51862708223848,"city_fetched":"Lexington","state":"KY","country":"United States","canonicalUrl":"https://foursquare.com/v/break-room-at-pepper/549d98e8498e7529d1e481a0","category":"Bar","checkinsCount":252,"usersCount":168,"tipCount":2,"visitsCount":379,"tier":"","message":"","currency":"","rating":7.7},{"name":"National Provisions Beer Hall","address":"710 National Ave","lat":38.040837601633676,"lng":-84.47984810235315,"city_fetched":"Lexington","state":"KY","country":"United States","canonicalUrl":"https://foursquare.com/v/national-provisions-beer-hall/5368016f498ed7b918730c63","category":"Beer Garden","checkinsCount":144,"usersCount":101,"tipCount":4,"visitsCount":179,"tier":"","message":"","currency":"","rating":7.7},{"name":"The Green Lantern","phone":"8592529539","address":"497 W Third St","lat":38.05498503791251,"lng":-84.4984245300293,"city_fetched":"Lexington","state":"KY","country":"United States","canonicalUrl":"https://foursquare.com/v/the-green-lantern/4d8ea614c1826a3160f08ae2","category":"Bar","checkinsCount":400,"usersCount":254,"tipCount":4,"visitsCount":479,"url":"http://www.reverbnation.com/venue/thegreenlantern","tier":"","message":"","currency":"","rating":7.7},{"name":"Enoteca","phone":"8596870346","twitter":"enotecalex","address":"191 Jefferson St","lat":38.053608,"lng":-84.500657,"city_fetched":"Lexington","state":"KY","country":"United States","canonicalUrl":"https://foursquare.com/v/enoteca/51e1c58f498e006fedb81ea9","category":"Tapas Restaurant","checkinsCount":302,"usersCount":224,"tipCount":8,"visitsCount":343,"url":"http://enotecalex.com","tier":2,"message":"Moderate","currency":"$","rating":7.7},{"name":"Village Idiot","phone":"8592520099","twitter":"lexvillageidiot","address":"317 West Short Street","lat":38.0488763549861,"lng":-84.49844945303542,"neighborhood":"Downtown Lexington","city_fetched":"Lexington","state":"KY","country":"United States","canonicalUrl":"https://foursquare.com/v/village-idiot/50199e0be4b0ad58b3e3d00d","category":"Gastropub","checkinsCount":1936,"usersCount":1411,"tipCount":23,"visitsCount":2296,"url":"http://lexingtonvillageidiot.com","tier":2,"message":"Moderate","currency":"$","rating":7.7},{"name":"Arcadium","address":"574 N Limestone","lat":38.053727,"lng":-84.486297,"city_fetched":"Lexington","state":"KY","country":"United States","canonicalUrl":"https://foursquare.com/v/arcadium/5095a2d4e4b0f7ee4b97a3ef","category":"Arcade","checkinsCount":1056,"usersCount":342,"tipCount":11,"visitsCount":1220,"tier":"","message":"","currency":"","rating":7.7},{"name":"Lexington Country Club","phone":"8592996243","twitter":"lexingtoncc","address":"2550 Paris Pike","lat":38.086533018758374,"lng":-84.43765423419117,"city_fetched":"Lexington","state":"KY","country":"United States","canonicalUrl":"https://foursquare.com/v/lexington-country-club/4b8ec5d9f964a520373633e3","category":"Golf Course","checkinsCount":1570,"usersCount":250,"tipCount":2,"visitsCount":1746,"url":"http://www.lexingtoncc.com","tier":"","message":"","currency":"","rating":7.7},{"name":"Sutton's","phone":"8592682068","twitter":"suttonsky","address":"110 N Locust Hill Dr","lat":38.00369981842717,"lng":-84.44647014141081,"city_fetched":"Lexington","state":"KY","country":"United States","canonicalUrl":"https://foursquare.com/v/suttons/5329d5c6498e7d90ebafc663","category":"Italian Restaurant","checkinsCount":131,"usersCount":163,"tipCount":2,"visitsCount":221,"tier":"","message":"","currency":"","rating":7.6},{"name":"Cosmic Charlie's","phone":"8593099499","address":"388 Woodland Ave","lat":38.03450292439052,"lng":-84.49538122746277,"city_fetched":"Lexington","state":"KY","country":"United States","canonicalUrl":"https://foursquare.com/v/cosmic-charlies/4c1c0c5afcf8c9b61476a90b","category":"Bar","checkinsCount":1242,"usersCount":564,"tipCount":8,"visitsCount":1278,"url":"http://cosmic-charlies.com","tier":"","message":"","currency":"","rating":7.6},{"name":"SEC Sports Pub & Grill","address":"4379 Old Harrodsburg Rd","lat":37.99113633297864,"lng":-84.58626325808756,"city_fetched":"Lexington","state":"KY","country":"United States","canonicalUrl":"https://foursquare.com/v/sec-sports-pub--grill/50845ad1498eac55fdf52c00","category":"Sports Bar","checkinsCount":426,"usersCount":84,"tipCount":3,"visitsCount":426,"tier":"","message":"","currency":"","rating":7.6},{"name":"Two Keys Tavern","phone":"8592545000","address":"333 S Limestone","lat":38.042948,"lng":-84.502213,"neighborhood":"Historic South Hill","city_fetched":"Lexington","state":"KY","country":"United States","canonicalUrl":"https://foursquare.com/v/two-keys-tavern/4b6e5185f964a52002b82ce3","category":"Bar","checkinsCount":2239,"usersCount":1140,"tipCount":12,"visitsCount":2299,"url":"http://www.twokeystavern.com","tier":"","message":"","currency":"","rating":7.5},{"name":"TGI Fridays","phone":"8592641999","twitter":"tgifridays","address":"1916 Pavillon Way","lat":38.019998,"lng":-84.417045,"city_fetched":"Lexington","state":"KY","country":"United States","canonicalUrl":"https://foursquare.com/v/tgi-fridays/4bb92d2c3db7b7133217229a","category":"American Restaurant","checkinsCount":1628,"usersCount":823,"tipCount":11,"visitsCount":1776,"url":"http://tgifridays.com","tier":2,"message":"Moderate","currency":"$","rating":7.5},{"name":"J.D. Legends","phone":"8598874193","twitter":"jdlegendsky","address":"315 N 2nd St","lat":37.884132454260836,"lng":-84.57332754296104,"city_fetched":"Lexington","state":"KY","country":"United States","canonicalUrl":"https://foursquare.com/v/jd-legends/4c44bba936d6a59332e66aa8","category":"Bar","checkinsCount":238,"usersCount":93,"tipCount":4,"visitsCount":268,"url":"http://www.jdlegends.com","tier":"","message":"","currency":"","rating":7.5},{"name":"Trust","phone":"8593199399","address":"123 W Main St","lat":38.046674,"lng":-84.497254,"neighborhood":"Downtown Lexington","city_fetched":"Lexington","state":"KY","country":"United States","canonicalUrl":"https://foursquare.com/v/trust/4e6c3f07d22d0f509603f5af","category":"Nightclub","checkinsCount":664,"usersCount":358,"tipCount":11,"visitsCount":671,"url":"http://trustonmain.com","tier":"","message":"","currency":"","rating":7.5},{"name":"Chase Tap Room","phone":"8593099300","address":"135 N Broadway Rd.","lat":38.04947667247548,"lng":-84.49935793876648,"neighborhood":"Downtown Lexington","city_fetched":"Lexington","state":"KY","country":"United States","canonicalUrl":"https://foursquare.com/v/chase-tap-room/4bf8af9c5ec320a1d94389d3","category":"Bar","checkinsCount":1027,"usersCount":414,"tipCount":12,"visitsCount":1027,"url":"http://chasebrewing.com","tier":"","message":"","currency":"","rating":7.5},{"name":"McCarthy's Irish Bar","phone":"8592582181","twitter":"mccarthysbar","address":"117 S Upper St","lat":38.046666169664014,"lng":-84.4984955520226,"neighborhood":"Downtown Lexington","city_fetched":"Lexington","state":"KY","country":"United States","canonicalUrl":"https://foursquare.com/v/mccarthys-irish-bar/4b6745a9f964a52012452be3","category":"Pub","checkinsCount":2872,"usersCount":1373,"tipCount":11,"visitsCount":3100,"tier":"","message":"","currency":"","rating":7.5},{"name":"Cocktails Bar & Grill","phone":"8592647652","address":"3090 Todds Rd","lat":38.00914541245034,"lng":-84.42461883865784,"city_fetched":"Lexington","state":"KY","country":"United States","canonicalUrl":"https://foursquare.com/v/cocktails-bar--grill/4b9c66d9f964a520fd6536e3","category":"Bar","checkinsCount":913,"usersCount":212,"tipCount":10,"visitsCount":1037,"tier":"","message":"","currency":"","rating":7.5},{"name":"Shamrock Bar and Grille","phone":"8592459504","address":"4750 Hartland Pkwy","lat":37.96118495830434,"lng":-84.47967052459717,"city_fetched":"Lexington","state":"KY","country":"United States","canonicalUrl":"https://foursquare.com/v/shamrock-bar-and-grille/4d28b0c1068e8cfa2e31c84c","category":"Sports Bar","checkinsCount":909,"usersCount":349,"tipCount":13,"visitsCount":1080,"url":"http://shamrocksky.com","tier":"","message":"","currency":"","rating":7.5},{"name":"Lexington Brewing and Distilling Company","phone":"8592552337","twitter":"kentuckyale","address":"401 Cross St","lat":38.04992318837866,"lng":-84.5092458653791,"city_fetched":"Lexington","state":"KY","country":"United States","canonicalUrl":"https://foursquare.com/v/lexington-brewing-and-distilling-company/4bdf0b4c6198c9b657c415ff","category":"Brewery","checkinsCount":1762,"usersCount":768,"tipCount":14,"visitsCount":1781,"url":"http://www.kentuckyale.com","tier":"","message":"","currency":"","rating":7.5},{"name":"Hooters","phone":"8592698521","address":"3101 Richmond Rd","lat":38.002013223708786,"lng":-84.44516658782959,"city_fetched":"Lexington","state":"KY","country":"United States","canonicalUrl":"https://foursquare.com/v/hooters/4b23d324f964a520855a24e3","category":"Wings Joint","checkinsCount":1634,"usersCount":851,"tipCount":13,"visitsCount":1879,"url":"http://www.hooters.com","tier":2,"message":"Moderate","currency":"$","rating":7.4},{"name":"Al's Bar","phone":"8593012901","address":"601 N Limestone","lat":38.053939578645235,"lng":-84.48637872934341,"city_fetched":"Lexington","state":"KY","country":"United States","canonicalUrl":"https://foursquare.com/v/als-bar/4b6e17b6f964a520eca92ce3","category":"Bar","checkinsCount":1083,"usersCount":414,"tipCount":17,"visitsCount":1135,"url":"http://alsbarlexington.com","tier":1,"message":"Cheap","currency":"$","rating":7.4},{"name":"Campus Pub","phone":"8592310957","twitter":"campuspub","address":"393 Waller Ave","lat":38.03218132230191,"lng":-84.52025020721045,"city_fetched":"Lexington","state":"KY","country":"United States","canonicalUrl":"https://foursquare.com/v/campus-pub/4b6b90b1f964a52035102ce3","category":"Bar","checkinsCount":1555,"usersCount":490,"tipCount":12,"visitsCount":1673,"url":"http://www.campuspub.net","tier":2,"message":"Moderate","currency":"$","rating":7.4},{"name":"Chevy Chase Inn (CCI)","address":"833 Euclid Ave","lat":38.02976183333333,"lng":-84.49047091666667,"city_fetched":"Lexington","state":"KY","country":"United States","canonicalUrl":"https://foursquare.com/v/chevy-chase-inn-cci/4b63ed49f964a52061972ae3","category":"Bar","checkinsCount":330,"usersCount":161,"tipCount":2,"visitsCount":331,"tier":"","message":"","currency":"","rating":7.4},{"name":"Bigg Blue Martini","phone":"8592319000","twitter":"hiltonhotels","address":"369 W Vine St","lat":38.04842291735376,"lng":-84.50045728627998,"neighborhood":"Downtown Lexington","city_fetched":"Lexington","state":"KY","country":"United States","canonicalUrl":"https://foursquare.com/v/bigg-blue-martini/50ca02c7245f2d4aa8c2c959","category":"Hotel Bar","checkinsCount":1697,"usersCount":751,"tipCount":14,"visitsCount":1706,"url":"http://www.thebiggbluemartini.com","tier":"","message":"","currency":"","rating":7.3},{"name":"The Horse & Barrel Pub","twitter":"deshaslexington","lat":38.048995,"lng":-84.499831,"neighborhood":"Downtown Lexington","city_fetched":"Lexington","state":"KY","country":"United States","canonicalUrl":"https://foursquare.com/v/the-horse--barrel-pub/4bd241d6caff95212c81d2f0","category":"Pub","checkinsCount":627,"usersCount":440,"tipCount":5,"visitsCount":627,"tier":"","message":"","currency":"","rating":7.3},{"name":"Patchen Pub","phone":"8592667531","address":"153 Patchen Dr #29","lat":38.00789705253328,"lng":-84.45493627947072,"city_fetched":"Lexington","state":"KY","country":"United States","canonicalUrl":"https://foursquare.com/v/patchen-pub/4b9c5484f964a5200d6036e3","category":"Bar","checkinsCount":564,"usersCount":207,"tipCount":5,"visitsCount":620,"url":"http://www.patchenpub.com","tier":"","message":"","currency":"","rating":7.2},{"name":"Kentucky Native Cafe","phone":"8597058437","address":"417 E Maxwell St","lat":38.038485,"lng":-84.494566,"city_fetched":"Lexington","state":"KY","country":"United States","canonicalUrl":"https://foursquare.com/v/kentucky-native-cafe/556ce9f7498e6ef0adb45a24","category":"Beer Garden","checkinsCount":49,"usersCount":75,"tipCount":3,"visitsCount":97,"url":"http://www.michlers.com/pages/cafe","tier":"","message":"","currency":"","rating":7.2},{"name":"JDI Grille & Tavern","phone":"8592460202","twitter":"jdilex","address":"319 Cedar St","lat":38.04458299201787,"lng":-84.50600407865169,"city_fetched":"Lexington","state":"KY","country":"United States","canonicalUrl":"https://foursquare.com/v/jdi-grille--tavern/512c2309e4b0ab95631743b9","category":"Gastropub","checkinsCount":891,"usersCount":762,"tipCount":14,"visitsCount":1383,"url":"http://www.jdilex.com","tier":2,"message":"Moderate","currency":"$","rating":7.2},{"name":"Jake's Cigar Bar & Lounge","phone":"8592730351","twitter":"jakescigarbar","address":"263 E Brannon Rd","lat":37.95629488331565,"lng":-84.53422666669974,"neighborhood":"Brannon Crossing","city_fetched":"Lexington","state":"KY","country":"United States","canonicalUrl":"https://foursquare.com/v/jakes-cigar-bar--lounge/4bd719d829eb9c74a32d96e1","category":"Smoke Shop","checkinsCount":402,"usersCount":152,"tipCount":5,"visitsCount":434,"url":"http://www.jakescigarbar.com","tier":"","message":"","currency":"","rating":7.1},{"name":"Beaumont Bar & Grill","phone":"8592190700","address":"3070 Lakecrest Cir Ste 625","lat":38.01506174671239,"lng":-84.55465287856656,"city_fetched":"Lexington","state":"KY","country":"United States","canonicalUrl":"https://foursquare.com/v/beaumont-bar--grill/4bd8ee7611dcc9284d79f833","category":"Bar","checkinsCount":745,"usersCount":119,"tipCount":3,"visitsCount":745,"url":"http://beaumonttm.co.uk","tier":"","message":"","currency":"","rating":7.1},{"name":"O'Neill's","phone":"8592664488","twitter":"oneillslex","address":"2051 Richmond Rd","lat":38.0196803855656,"lng":-84.46595907211304,"city_fetched":"Lexington","state":"KY","country":"United States","canonicalUrl":"https://foursquare.com/v/oneills/4bc24bde461576b0c8387d32","category":"Music Venue","checkinsCount":932,"usersCount":523,"tipCount":2,"visitsCount":1164,"url":"http://www.oneillslexington.com","tier":"","message":"","currency":"","rating":7.1},{"name":"Horseshoe's Saloon and Steakhouse","phone":"8592998515","address":"1987 N Broadway","lat":38.07536493,"lng":-84.458031,"city_fetched":"Lexington","state":"KY","country":"United States","canonicalUrl":"https://foursquare.com/v/horseshoes-saloon-and-steakhouse/4ba43bfcf964a520968e38e3","category":"Bar","checkinsCount":339,"usersCount":344,"tipCount":4,"visitsCount":559,"url":"http://www.horseshoessaloon.com","tier":"","message":"","currency":"","rating":7},{"name":"The Rosebud Bar","phone":"8592541907","address":"121 N Mill St","lat":38.04844243592271,"lng":-84.49837262130917,"neighborhood":"Downtown Lexington","city_fetched":"Lexington","state":"KY","country":"United States","canonicalUrl":"https://foursquare.com/v/the-rosebud-bar/4b87f330f964a520a9d431e3","category":"Bar","checkinsCount":1156,"usersCount":436,"tipCount":4,"visitsCount":1166,"url":"http://rosebudbar.tripod.com","tier":"","message":"","currency":"","rating":6.9},{"name":"Life Brewpub","lat":38.009458354673164,"lng":-84.45654067232526,"city_fetched":"Lexington","state":"KY","country":"United States","canonicalUrl":"https://foursquare.com/v/life-brewpub/5759df89498ed363258df6fd","category":"Gastropub","checkinsCount":26,"usersCount":26,"tipCount":1,"visitsCount":27,"tier":"","message":"","currency":"","rating":6.7}]