[{"name":"The Met","phone":"4199999463","twitter":"themet306","address":"306 N Main St","lat":40.74286763002801,"lng":-84.10483717918396,"city_fetched":"Lima","state":"OH","country":"United States","canonicalUrl":"https://foursquare.com/themet306","category":"Wine Bar","checkinsCount":346,"usersCount":190,"tipCount":7,"visitsCount":440,"url":"http://themet306.com","tier":"","message":"","currency":"","rating":8.4},{"name":"Vino Bellissimo","phone":"4192211010","twitter":"vinobmo","address":"743 Shawnee Rd","lat":40.72969963628276,"lng":-84.14391297508072,"city_fetched":"Lima","state":"OH","country":"United States","canonicalUrl":"https://foursquare.com/v/vino-bellissimo/50e5bcba70436da133be5600","category":"Wine Bar","checkinsCount":657,"usersCount":120,"tipCount":3,"visitsCount":879,"url":"http://vinobmo.com","tier":"","message":"","currency":"","rating":8.1},{"name":"Pappy's Lounge","phone":"4192221915","address":"1000 W North St","lat":40.74250485,"lng":-84.12293796,"city_fetched":"Lima","state":"OH","country":"United States","canonicalUrl":"https://foursquare.com/v/pappys-lounge/4d7af7db76bbb1f75e2b80c1","category":"Dive Bar","checkinsCount":205,"usersCount":70,"tipCount":1,"visitsCount":231,"tier":"","message":"","currency":"","rating":7.6},{"name":"Beer Barrel Pizza","phone":"4192296211","address":"1840 S Dixie Hwy","lat":40.70979201243495,"lng":-84.1182428598404,"city_fetched":"Lima","state":"OH","country":"United States","canonicalUrl":"https://foursquare.com/v/beer-barrel-pizza/4bd3639d41b9ef3bd51100e6","category":"Pizza Place","checkinsCount":472,"usersCount":296,"tipCount":6,"visitsCount":610,"url":"http://www.beerbarrelpizza.com","tier":2,"message":"Moderate","currency":"$","rating":7.6},{"name":"Buffalo Wild Wings Grill & Bar","phone":"4199912999","twitter":"bwwings","address":"2948 Allentown Rd","lat":40.752239317261555,"lng":-84.1599190235138,"city_fetched":"Lima","state":"OH","country":"United States","canonicalUrl":"https://foursquare.com/v/buffalo-wild-wings-grill--bar/4b8aea09f964a520d28832e3","category":"Wings Joint","checkinsCount":1650,"usersCount":729,"tipCount":7,"visitsCount":2061,"url":"http://www.buffalowildwings.com","tier":1,"message":"Cheap","currency":"$","rating":7.5},{"name":"Westgate Lanes","phone":"4192277231","address":"721 N Cable Rd","lat":40.75115705,"lng":-84.147901,"city_fetched":"Lima","state":"OH","country":"United States","canonicalUrl":"https://foursquare.com/v/westgate-lanes/4b9ec190f964a5204eff36e3","category":"Bowling Alley","checkinsCount":590,"usersCount":356,"tipCount":9,"visitsCount":687,"url":"http://www.westgateentertainmentcenter.com","tier":"","message":"","currency":"","rating":7.3},{"name":"Milano Cafe","phone":"4193312220","address":"2383 Elida Rd","lat":40.763036442935395,"lng":-84.15011157130174,"city_fetched":"Lima","state":"OH","country":"United States","canonicalUrl":"https://foursquare.com/v/milano-cafe/4cc6f389c844721e2498f701","category":"Bar","checkinsCount":253,"usersCount":154,"tipCount":3,"visitsCount":283,"url":"http://www.themilanocafe.com","tier":"","message":"","currency":"","rating":7.1},{"name":"J's","lat":40.730208,"lng":-84.140792,"city_fetched":"Lima","state":"OH","country":"United States","canonicalUrl":"https://foursquare.com/v/js/4fe27575e4b0a9df2667a8ee","category":"Bar","checkinsCount":204,"usersCount":143,"tipCount":0,"visitsCount":297,"tier":"","message":"","currency":"","rating":6.6},{"name":"J's","phone":"4192213600","address":"1939 Roschman Ave","lat":40.72624145,"lng":-84.07265268333333,"city_fetched":"Lima","state":"OH","country":"United States","canonicalUrl":"https://foursquare.com/v/js/4ce48685ae896dcb992d5138","category":"Bar","checkinsCount":485,"usersCount":304,"tipCount":10,"visitsCount":504,"tier":"","message":"","currency":"","rating":6.1},{"name":"Ruby Tuesday","phone":"4193317829","address":"2404 Elida Rd","lat":40.76368100751623,"lng":-84.15014763773624,"city_fetched":"Lima","state":"OH","country":"United States","canonicalUrl":"https://foursquare.com/v/ruby-tuesday/4b635f76f964a52045752ae3","category":"American Restaurant","checkinsCount":483,"usersCount":363,"tipCount":6,"visitsCount":576,"tier":2,"message":"Moderate","currency":"$","rating":6.1}]