[{"name":"HopCat","phone":"4029710700","twitter":"hopcatlincoln","address":"601 P St","lat":40.81453751765911,"lng":-96.7119800373512,"city_fetched":"Lincoln,US","state":"NE","country":"United States","canonicalUrl":"https://foursquare.com/v/hopcat/56a921ed498eedbecacb9229","categoryId":"4bf58dd8d48988d116941735","category":"Bar","checkinsCount":605,"usersCount":524,"tipCount":11,"visitsCount":1208,"url":"http://www.hopcat.com","tier":2,"message":"Moderate","currency":"$","rating":9.1},{"name":"Zipline Brewing Co.","phone":"4024751001","twitter":"ziplinebrewing","address":"2100 Magnum Cir Ste 1","lat":40.811660030344356,"lng":-96.7511164547982,"neighborhood":"West A","city_fetched":"Lincoln,US","state":"NE","country":"United States","canonicalUrl":"https://foursquare.com/v/zipline-brewing-co/4f9ee5bfe4b030992c0d5172","categoryId":"50327c8591d4c4b30a586d5d","category":"Brewery","checkinsCount":1273,"usersCount":557,"tipCount":16,"visitsCount":1732,"url":"http://ziplinebrewing.com","tier":2,"message":"Moderate","currency":"$","rating":8.8},{"name":"The Other Room","twitter":"jillcockson","address":"500 Sun Valley Blvd","lat":40.8150020946873,"lng":-96.70920600981458,"neighborhood":"Downtown Lincoln","city_fetched":"Lincoln,US","state":"NE","country":"United States","canonicalUrl":"https://foursquare.com/v/the-other-room/52abad5811d2d1991440cb0e","categoryId":"4bf58dd8d48988d11e941735","category":"Cocktail Bar","checkinsCount":290,"usersCount":179,"tipCount":12,"visitsCount":295,"tier":"","message":"","currency":"","rating":8.7},{"name":"Tavern on the Square","phone":"4022614608","address":"816 P St","lat":40.814896,"lng":-96.709339,"neighborhood":"Downtown Lincoln","city_fetched":"Lincoln,US","state":"NE","country":"United States","canonicalUrl":"https://foursquare.com/v/tavern-on-the-square/4c463aafcd5ca59387380087","categoryId":"4bf58dd8d48988d116941735","category":"Bar","checkinsCount":4747,"usersCount":1074,"tipCount":19,"visitsCount":4851,"tier":2,"message":"Moderate","currency":"$","rating":8.6},{"name":"The Happy Raven","phone":"4027420004","twitter":"happyravenbar","address":"122 N 11th St","lat":40.81395839594229,"lng":-96.70553883459486,"neighborhood":"Downtown Lincoln","city_fetched":"Lincoln,US","state":"NE","country":"United States","canonicalUrl":"https://foursquare.com/v/the-happy-raven/560dca8a498ea337f78b2022","categoryId":"4bf58dd8d48988d117941735","category":"Beer Garden","checkinsCount":448,"usersCount":126,"tipCount":3,"visitsCount":551,"tier":"","message":"","currency":"","rating":8.5},{"name":"Moran's Liquor Works","phone":"4024758814","address":"3400 A St","lat":40.799149983333336,"lng":-96.671863,"city_fetched":"Lincoln,US","state":"NE","country":"United States","canonicalUrl":"https://foursquare.com/v/morans-liquor-works/4bf6fdae5317a5933a3afd7e","categoryId":"4bf58dd8d48988d117941735","category":"Beer Garden","checkinsCount":613,"usersCount":256,"tipCount":9,"visitsCount":954,"tier":"","message":"","currency":"","rating":8.3},{"name":"Barrymore's","phone":"4024766494","address":"124 N 13th St","lat":40.81424323411733,"lng":-96.70206513599703,"neighborhood":"Downtown Lincoln","city_fetched":"Lincoln,US","state":"NE","country":"United States","canonicalUrl":"https://foursquare.com/v/barrymores/4b8758b1f964a52076bc31e3","categoryId":"4bf58dd8d48988d11e941735","category":"Cocktail Bar","checkinsCount":2549,"usersCount":1120,"tipCount":21,"visitsCount":2716,"tier":"","message":"","currency":"","rating":8.3},{"name":"Hylander Bar & Grill","phone":"4024359123","address":"110 West Fletcher Ave","lat":40.87000818893391,"lng":-96.7231822013855,"neighborhood":"Highlands","city_fetched":"Lincoln,US","state":"NE","country":"United States","canonicalUrl":"https://foursquare.com/v/hylander-bar--grill/4c019b2d3ab80f47036f90ff","categoryId":"4bf58dd8d48988d116941735","category":"Bar","checkinsCount":2559,"usersCount":183,"tipCount":8,"visitsCount":2580,"tier":"","message":"","currency":"","rating":8.2},{"name":"Barry's Bar & Grill","phone":"4024762511","twitter":"barryshuskerbar","address":"235 N 9th St","lat":40.81557936389882,"lng":-96.7088270187378,"neighborhood":"Downtown Lincoln","city_fetched":"Lincoln,US","state":"NE","country":"United States","canonicalUrl":"https://foursquare.com/barryshuskerbar","categoryId":"4bf58dd8d48988d11d941735","category":"Sports Bar","checkinsCount":2509,"usersCount":1210,"tipCount":4,"visitsCount":2911,"url":"http://barrysbarandgrill.com","tier":2,"message":"Moderate","currency":"$","rating":8.2},{"name":"Jake's Cigars And Spirits","phone":"4024358117","address":"101 N 14th St","lat":40.8145302,"lng":-96.70127825,"neighborhood":"Downtown Lincoln","city_fetched":"Lincoln,US","state":"NE","country":"United States","canonicalUrl":"https://foursquare.com/v/jakes-cigars-and-spirits/4bca69293740b7130bd96065","categoryId":"4bf58dd8d48988d116941735","category":"Bar","checkinsCount":6741,"usersCount":1454,"tipCount":36,"visitsCount":6951,"url":"http://jakescigars.com","tier":2,"message":"Moderate","currency":"$","rating":8.2},{"name":"The Starlite Lounge","phone":"4024758822","address":"247 N 8th St","lat":40.8155889379121,"lng":-96.71018813774211,"neighborhood":"Downtown Lincoln","city_fetched":"Lincoln,US","state":"NE","country":"United States","canonicalUrl":"https://foursquare.com/v/the-starlite-lounge/4b6e2bd1f964a52070af2ce3","categoryId":"4bf58dd8d48988d121941735","category":"Lounge","checkinsCount":3351,"usersCount":1225,"tipCount":28,"visitsCount":3372,"url":"http://buzzardbillys.com","tier":2,"message":"Moderate","currency":"$","rating":8.2},{"name":"The Old Pub","phone":"4024775671","address":"420 S 11th St","lat":40.809816,"lng":-96.705164,"neighborhood":"Downtown Lincoln","city_fetched":"Lincoln,US","state":"NE","country":"United States","canonicalUrl":"https://foursquare.com/v/the-old-pub/4b6f9249f964a52053f62ce3","categoryId":"4bf58dd8d48988d116941735","category":"Bar","checkinsCount":251,"usersCount":92,"tipCount":3,"visitsCount":260,"url":"http://www.theoldpublincoln.com","tier":"","message":"","currency":"","rating":8.1},{"name":"Empyrean Brewing Co","phone":"4024345959","twitter":"empyreanbrewing","address":"729 Q St","lat":40.81564959143297,"lng":-96.71056427580434,"neighborhood":"Downtown Lincoln","city_fetched":"Lincoln,US","state":"NE","country":"United States","canonicalUrl":"https://foursquare.com/v/empyrean-brewing-co/4b8819f1f964a520e1df31e3","categoryId":"50327c8591d4c4b30a586d5d","category":"Brewery","checkinsCount":289,"usersCount":149,"tipCount":3,"visitsCount":291,"url":"http://www.empyreanbrewingco.com","tier":"","message":"","currency":"","rating":8},{"name":"Boiler Brewing Company","phone":"4022618775","twitter":"boilerbrewingco","address":"129 N 10th St Ste 8","lat":40.8143111,"lng":-96.7073496,"neighborhood":"Downtown Lincoln","city_fetched":"Lincoln,US","state":"NE","country":"United States","canonicalUrl":"https://foursquare.com/v/boiler-brewing-company/56fc7215cd1006f22596cbff","categoryId":"50327c8591d4c4b30a586d5d","category":"Brewery","checkinsCount":204,"usersCount":99,"tipCount":4,"visitsCount":222,"url":"http://www.boilerbrewingcompany.com","tier":"","message":"","currency":"","rating":7.9},{"name":"The Oven Cellar","phone":"4024756118","address":"201 N 8th St Ste 117","lat":40.8148926916233,"lng":-96.71016724124743,"neighborhood":"Downtown Lincoln","city_fetched":"Lincoln,US","state":"NE","country":"United States","canonicalUrl":"https://foursquare.com/v/the-oven-cellar/4fb6ff23e4b07c52a64dd884","categoryId":"4bf58dd8d48988d123941735","category":"Wine Bar","checkinsCount":214,"usersCount":115,"tipCount":4,"visitsCount":214,"url":"http://theoven-lincoln.com","tier":"","message":"","currency":"","rating":7.9},{"name":"Brewsky's Food & Spirits","phone":"4023282739","twitter":"brewskys","address":"201 N 8th St","lat":40.81519473346423,"lng":-96.71024560313738,"neighborhood":"Downtown Lincoln","city_fetched":"Lincoln,US","state":"NE","country":"United States","canonicalUrl":"https://foursquare.com/v/brewskys-food--spirits/4afa0aaff964a520461622e3","categoryId":"4bf58dd8d48988d11d941735","category":"Sports Bar","checkinsCount":3712,"usersCount":1820,"tipCount":16,"visitsCount":3817,"url":"http://www.brewskys.com","tier":2,"message":"Moderate","currency":"$","rating":7.8},{"name":"Big Red Restaurant & Sports Bar","phone":"4024347789","twitter":"brrsb","address":"955 W O St","lat":40.812999680659786,"lng":-96.73671647107341,"neighborhood":"West A","city_fetched":"Lincoln,US","state":"NE","country":"United States","canonicalUrl":"https://foursquare.com/v/big-red-restaurant--sports-bar/4beb52576295c9b6b8a58708","categoryId":"4bf58dd8d48988d11d941735","category":"Sports Bar","checkinsCount":2404,"usersCount":811,"tipCount":7,"visitsCount":2853,"url":"http://bigredkeno.com","tier":"","message":"","currency":"","rating":7.8},{"name":"Risky's Sports Bar & Grill","phone":"4024666966","address":"4680 Leighton Ave","lat":40.836411420089426,"lng":-96.65702819824219,"neighborhood":"University Place","city_fetched":"Lincoln,US","state":"NE","country":"United States","canonicalUrl":"https://foursquare.com/v/riskys-sports-bar--grill/4bdcea84afe8c9b606895185","categoryId":"4bf58dd8d48988d11d941735","category":"Sports Bar","checkinsCount":1287,"usersCount":605,"tipCount":11,"visitsCount":1585,"url":"http://www.riskysbar.com","tier":2,"message":"Moderate","currency":"$","rating":7.7},{"name":"Spikes Beach Bar and Grill","phone":"4024771175","address":"2300 Judson St","lat":40.8462673164369,"lng":-96.6879685438859,"neighborhood":"Belmont","city_fetched":"Lincoln,US","state":"NE","country":"United States","canonicalUrl":"https://foursquare.com/v/spikes-beach-bar-and-grill/4b758eb3f964a520ff132ee3","categoryId":"4bf58dd8d48988d11d941735","category":"Sports Bar","checkinsCount":3832,"usersCount":946,"tipCount":16,"visitsCount":4575,"url":"http://www.spikesbbg.com","tier":1,"message":"Cheap","currency":"$","rating":7.7},{"name":"Granite City","phone":"4024661900","twitter":"gcfb","address":"6150 O St","lat":40.814586714671705,"lng":-96.635020673275,"city_fetched":"Lincoln,US","state":"NE","country":"United States","canonicalUrl":"https://foursquare.com/v/granite-city/4b43bc93f964a520fce725e3","categoryId":"50327c8591d4c4b30a586d5d","category":"Brewery","checkinsCount":5466,"usersCount":1995,"tipCount":45,"visitsCount":6152,"url":"http://gcfb.net","tier":2,"message":"Moderate","currency":"$","rating":7.7},{"name":"McFarland & Son's Authentic Irish Pub","phone":"4024380710","address":"710 P St","lat":40.81483158035772,"lng":-96.71036575822026,"neighborhood":"Downtown Lincoln","city_fetched":"Lincoln,US","state":"NE","country":"United States","canonicalUrl":"https://foursquare.com/v/mcfarland--sons-authentic-irish-pub/53fd0d51498ed8daa0abf14a","categoryId":"4bf58dd8d48988d11b941735","category":"Pub","checkinsCount":169,"usersCount":95,"tipCount":5,"visitsCount":169,"tier":"","message":"","currency":"","rating":7.7},{"name":"Jack's Bar & Grill","phone":"4024386288","address":"100 N 8th St #100","lat":40.81382449660988,"lng":-96.7098903633325,"neighborhood":"Downtown Lincoln","city_fetched":"Lincoln,US","state":"NE","country":"United States","canonicalUrl":"https://foursquare.com/v/jacks-bar--grill/4b11a0d0f964a520e68023e3","categoryId":"4bf58dd8d48988d116941735","category":"Bar","checkinsCount":2282,"usersCount":950,"tipCount":20,"visitsCount":2502,"tier":1,"message":"Cheap","currency":"$","rating":7.7},{"name":"Kongs Liquor","lat":40.82737409,"lng":-96.64444327354431,"city_fetched":"Lincoln,US","state":"NE","country":"United States","canonicalUrl":"https://foursquare.com/v/kongs-liquor/4d141d5a25cda14307745ed6","categoryId":"4bf58dd8d48988d11a941735","category":"Other Nightlife","checkinsCount":467,"usersCount":99,"tipCount":2,"visitsCount":470,"tier":"","message":"","currency":"","rating":7.7},{"name":"Patty's Pub","phone":"4024672315","address":"311 N Cotner Blvd","lat":40.81572194009336,"lng":-96.64187197086135,"city_fetched":"Lincoln,US","state":"NE","country":"United States","canonicalUrl":"https://foursquare.com/v/pattys-pub/4b9ad989f964a52015dc35e3","categoryId":"4bf58dd8d48988d116941735","category":"Bar","checkinsCount":1217,"usersCount":523,"tipCount":14,"visitsCount":1270,"url":"http://pattyspublincoln.com","tier":"","message":"","currency":"","rating":7.6},{"name":"Luckies Bar and Grill","lat":40.84376844099898,"lng":-96.7377356021884,"neighborhood":"Highlands","city_fetched":"Lincoln,US","state":"NE","country":"United States","canonicalUrl":"https://foursquare.com/v/luckies-bar-and-grill/4bbbeba8ed7776b0af283f51","categoryId":"4bf58dd8d48988d116941735","category":"Bar","checkinsCount":1090,"usersCount":455,"tipCount":10,"visitsCount":1271,"tier":"","message":"","currency":"","rating":7.6},{"name":"The Watering Hole","phone":"4024383054","address":"1321 O St","lat":40.81338111336995,"lng":-96.70200767789547,"neighborhood":"Downtown Lincoln","city_fetched":"Lincoln,US","state":"NE","country":"United States","canonicalUrl":"https://foursquare.com/v/the-watering-hole/4bc129feb492d13ab4b3a560","categoryId":"4bf58dd8d48988d116941735","category":"Bar","checkinsCount":5365,"usersCount":1838,"tipCount":59,"visitsCount":5431,"tier":2,"message":"Moderate","currency":"$","rating":7.6},{"name":"The Cask","phone":"4024352158","address":"628 Q St.","lat":40.81600362681379,"lng":-96.71038143063888,"neighborhood":"Downtown Lincoln","city_fetched":"Lincoln,US","state":"NE","country":"United States","canonicalUrl":"https://foursquare.com/v/the-cask/50a58fe0e4b0451f14fed752","categoryId":"4bf58dd8d48988d122941735","category":"Whisky Bar","checkinsCount":356,"usersCount":194,"tipCount":6,"visitsCount":360,"tier":"","message":"","currency":"","rating":7.5},{"name":"Doc's Place","phone":"4024763232","address":"140 N 8th St","lat":40.81432841666667,"lng":-96.7098833,"neighborhood":"Downtown Lincoln","city_fetched":"Lincoln,US","state":"NE","country":"United States","canonicalUrl":"https://foursquare.com/v/docs-place/4b5a809ff964a52075c828e3","categoryId":"4bf58dd8d48988d116941735","category":"Bar","checkinsCount":2582,"usersCount":676,"tipCount":12,"visitsCount":2679,"tier":"","message":"","currency":"","rating":7.4},{"name":"Sportscasters Bar & Grill","phone":"4024666679","twitter":"sportscastersne","address":"3048 N 70th St","lat":40.843355083333336,"lng":-96.624482,"city_fetched":"Lincoln,US","state":"NE","country":"United States","canonicalUrl":"https://foursquare.com/v/sportscasters-bar--grill/4b871cfdf964a5204eb131e3","categoryId":"4bf58dd8d48988d11d941735","category":"Sports Bar","checkinsCount":1058,"usersCount":604,"tipCount":14,"visitsCount":1447,"url":"http://www.sportscasterslincoln.com","tier":"","message":"","currency":"","rating":7.4},{"name":"Panic","phone":"4024358764","address":"200 S 18th St","lat":40.81239828489557,"lng":-96.69536900050763,"neighborhood":"Downtown Lincoln","city_fetched":"Lincoln,US","state":"NE","country":"United States","canonicalUrl":"https://foursquare.com/v/panic/4bad5af7f964a52085493be3","categoryId":"4bf58dd8d48988d1d8941735","category":"Gay Bar","checkinsCount":944,"usersCount":211,"tipCount":8,"visitsCount":1011,"tier":"","message":"","currency":"","rating":7.3},{"name":"The Watering Hole","phone":"4024772900","address":"1550 S Coddington Ave","lat":40.79893636903442,"lng":-96.7473528101201,"neighborhood":"West A","city_fetched":"Lincoln,US","state":"NE","country":"United States","canonicalUrl":"https://foursquare.com/v/the-watering-hole/4b6e1218f964a52036a82ce3","categoryId":"4bf58dd8d48988d11b941735","category":"Pub","checkinsCount":886,"usersCount":455,"tipCount":16,"visitsCount":981,"tier":2,"message":"Moderate","currency":"$","rating":7.2},{"name":"The Pressbox","phone":"4022613859","address":"5601 S 56th St Ste 20","lat":40.75784171682422,"lng":-96.64737258564296,"city_fetched":"Lincoln,US","state":"NE","country":"United States","canonicalUrl":"https://foursquare.com/v/the-pressbox/4d7d8fa43e50b1f78818bcd3","categoryId":"4bf58dd8d48988d11d941735","category":"Sports Bar","checkinsCount":1820,"usersCount":572,"tipCount":16,"visitsCount":2302,"url":"http://www.pressboxlincoln.com/ordereze/1000/Page.aspx","tier":"","message":"","currency":"","rating":7.2},{"name":"Gate 25","phone":"4022614140","twitter":"gate25lnk","address":"300 Canopy St Ste 140","lat":40.816139495376774,"lng":-96.71122252269363,"city_fetched":"Lincoln,US","state":"NE","country":"United States","canonicalUrl":"https://foursquare.com/v/gate-25/52211fa211d24696d36eb410","categoryId":"4bf58dd8d48988d11e941735","category":"Cocktail Bar","checkinsCount":678,"usersCount":469,"tipCount":2,"visitsCount":771,"url":"http://gate25lnk.com","tier":"","message":"","currency":"","rating":7.2},{"name":"Ploughshare","twitter":"ploughsharebrew","address":"1630 P St","lat":40.814908,"lng":-96.697223,"neighborhood":"Downtown Lincoln","city_fetched":"Lincoln,US","state":"NE","country":"United States","canonicalUrl":"https://foursquare.com/v/ploughshare/53778b59498e8b55637960dc","categoryId":"50327c8591d4c4b30a586d5d","category":"Brewery","checkinsCount":413,"usersCount":250,"tipCount":7,"visitsCount":575,"url":"http://ploughsharebrewing.com","tier":"","message":"","currency":"","rating":7.1},{"name":"McCourt's Ale House","phone":"4024380123","address":"118 S 9th St","lat":40.81319189375752,"lng":-96.70842763181977,"city_fetched":"Lincoln,US","state":"NE","country":"United States","canonicalUrl":"https://foursquare.com/v/mccourts-ale-house/4d029ff126adb1f74960c770","categoryId":"4bf58dd8d48988d11b941735","category":"Pub","checkinsCount":1093,"usersCount":234,"tipCount":3,"visitsCount":1095,"tier":"","message":"","currency":"","rating":7.1},{"name":"10 Below","phone":"4024766511","twitter":"go10below","address":"235 N 9th St","lat":40.81553578847861,"lng":-96.70891346396243,"neighborhood":"Downtown Lincoln","city_fetched":"Lincoln,US","state":"NE","country":"United States","canonicalUrl":"https://foursquare.com/v/10-below/51143d6ce4b03e31874caffd","categoryId":"4bf58dd8d48988d116941735","category":"Bar","checkinsCount":273,"usersCount":121,"tipCount":2,"visitsCount":273,"url":"http://www.go10below.com","tier":"","message":"","currency":"","rating":7.1},{"name":"The Grapevine","phone":"4024218383","address":"2620 Stockwell St","lat":40.775272587095586,"lng":-96.68317463029729,"neighborhood":"Country Club, Lincoln, NE","city_fetched":"Lincoln,US","state":"NE","country":"United States","canonicalUrl":"https://foursquare.com/v/the-grapevine/4ba45806f964a520699738e3","categoryId":"4bf58dd8d48988d116941735","category":"Bar","checkinsCount":874,"usersCount":398,"tipCount":3,"visitsCount":1135,"tier":"","message":"","currency":"","rating":7.1},{"name":"SchillingBridge Cork & Tap House","phone":"4029047161","twitter":"schillingbridge","address":"575 Fallbrook Blvd Ste 109","lat":40.87721562357289,"lng":-96.72700156162787,"city_fetched":"Lincoln,US","state":"NE","country":"United States","canonicalUrl":"https://foursquare.com/v/schillingbridge-cork--tap-house/542718c1498e51a58d4dc9d5","categoryId":"4bf58dd8d48988d117941735","category":"Beer Garden","checkinsCount":192,"usersCount":195,"tipCount":4,"visitsCount":321,"url":"http://schillingbridgecorkandtap.com","tier":"","message":"","currency":"","rating":7.1},{"name":"Heidelbergs Sports Bar","phone":"4024347100","address":"4620 Bair Ave","lat":40.85744017329112,"lng":-96.67308142493748,"city_fetched":"Lincoln,US","state":"NE","country":"United States","canonicalUrl":"https://foursquare.com/v/heidelbergs-sports-bar/4c5e407f2815c9287b64b767","categoryId":"4bf58dd8d48988d11d941735","category":"Sports Bar","checkinsCount":873,"usersCount":372,"tipCount":7,"visitsCount":960,"url":"http://www.heidelbergssportsbars.com/ordereze/default.aspx","tier":"","message":"","currency":"","rating":7.1},{"name":"Dino's Eastside Grill","phone":"4023270200","address":"2901 S 84th St #16","lat":40.7829020649605,"lng":-96.6068336037227,"city_fetched":"Lincoln,US","state":"NE","country":"United States","canonicalUrl":"https://foursquare.com/v/dinos-eastside-grill/4c69a56db56e9c74526fbc85","categoryId":"4bf58dd8d48988d11d941735","category":"Sports Bar","checkinsCount":1692,"usersCount":949,"tipCount":20,"visitsCount":2185,"tier":"","message":"","currency":"","rating":7},{"name":"Captain Jacks","phone":"4024760119","address":"140 N 12th St","lat":40.814705869193396,"lng":-96.70369487803482,"neighborhood":"Downtown Lincoln","city_fetched":"Lincoln,US","state":"NE","country":"United States","canonicalUrl":"https://foursquare.com/v/captain-jacks/4be37256d27a20a1d95c925b","categoryId":"4bf58dd8d48988d116941735","category":"Bar","checkinsCount":1148,"usersCount":340,"tipCount":14,"visitsCount":1156,"url":"http://www.captainjacksbar.com","tier":"","message":"","currency":"","rating":7},{"name":"The Alley","phone":"4024772820","address":"1031 M St","lat":40.8109022119038,"lng":-96.70629501342773,"neighborhood":"Downtown Lincoln","city_fetched":"Lincoln,US","state":"NE","country":"United States","canonicalUrl":"https://foursquare.com/v/the-alley/4bc9f875fb84c9b610091c3e","categoryId":"4bf58dd8d48988d116941735","category":"Bar","checkinsCount":1924,"usersCount":652,"tipCount":9,"visitsCount":1988,"url":"http://thealleylincoln.com","tier":"","message":"","currency":"","rating":7},{"name":"Grata Bar & Lounge","phone":"4022613019","twitter":"gratabar","address":"6891 A St Ste 108","lat":40.79792106894801,"lng":-96.62594163973503,"city_fetched":"Lincoln,US","state":"NE","country":"United States","canonicalUrl":"https://foursquare.com/v/grata-bar--lounge/4f3b151de4b022039ba9535d","categoryId":"4bf58dd8d48988d116941735","category":"Bar","checkinsCount":882,"usersCount":479,"tipCount":6,"visitsCount":1124,"tier":"","message":"","currency":"","rating":6.9},{"name":"NoWhere Bar","phone":"4024768884","address":"2050 Cornhusker Hwy","lat":40.84290436,"lng":-96.69035416666667,"neighborhood":"Belmont","city_fetched":"Lincoln,US","state":"NE","country":"United States","canonicalUrl":"https://foursquare.com/v/nowhere-bar/4dd5dcaec65bee535a8c8556","categoryId":"4bf58dd8d48988d116941735","category":"Bar","checkinsCount":600,"usersCount":224,"tipCount":6,"visitsCount":737,"tier":"","message":"","currency":"","rating":6.9},{"name":"Zen's Lounge","phone":"4024752929","address":"122 N 11th St","lat":40.81410753896511,"lng":-96.70562241461245,"neighborhood":"Downtown Lincoln","city_fetched":"Lincoln,US","state":"NE","country":"United States","canonicalUrl":"https://foursquare.com/v/zens-lounge/4b778437f964a520529f2ee3","categoryId":"4bf58dd8d48988d11e941735","category":"Cocktail Bar","checkinsCount":2800,"usersCount":793,"tipCount":15,"visitsCount":2807,"tier":"","message":"","currency":"","rating":6.9},{"name":"Harry's Wonder Bar","phone":"4024747309","address":"1621 O St","lat":40.813570449576744,"lng":-96.69756266556575,"neighborhood":"Downtown Lincoln","city_fetched":"Lincoln,US","state":"NE","country":"United States","canonicalUrl":"https://foursquare.com/v/harrys-wonder-bar/4c5349e772cf0f47c4759bd2","categoryId":"4bf58dd8d48988d118941735","category":"Dive Bar","checkinsCount":569,"usersCount":267,"tipCount":3,"visitsCount":589,"tier":"","message":"","currency":"","rating":6.9},{"name":"12th St Pub","phone":"4024353358","address":"100 N 12th St","lat":40.813793338223036,"lng":-96.70396128209552,"neighborhood":"Downtown Lincoln","city_fetched":"Lincoln,US","state":"NE","country":"United States","canonicalUrl":"https://foursquare.com/v/12th-st-pub/4d6da60a619a236a8540688f","categoryId":"4bf58dd8d48988d11b941735","category":"Pub","checkinsCount":3243,"usersCount":887,"tipCount":20,"visitsCount":3365,"tier":"","message":"","currency":"","rating":6.9},{"name":"Mulligan's Pub & Grill","phone":"4024235563","address":"56th & Old Cheney","lat":40.756836533333335,"lng":-96.64819836616516,"city_fetched":"Lincoln,US","state":"NE","country":"United States","canonicalUrl":"https://foursquare.com/v/mulligans-pub--grill/4b983ac6f964a520d53535e3","categoryId":"4bf58dd8d48988d116941735","category":"Bar","checkinsCount":1228,"usersCount":434,"tipCount":6,"visitsCount":1348,"tier":"","message":"","currency":"","rating":6.8},{"name":"The Hot Mess","address":"408 S 11th St","lat":40.810072,"lng":-96.705472,"neighborhood":"Downtown Lincoln","city_fetched":"Lincoln,US","state":"ME","country":"United States","canonicalUrl":"https://foursquare.com/v/the-hot-mess/52aa6163498e4a3d4ba5239f","categoryId":"4bf58dd8d48988d116941735","category":"Bar","checkinsCount":204,"usersCount":103,"tipCount":1,"visitsCount":271,"tier":"","message":"","currency":"","rating":6.8},{"name":"The Bar","phone":"4024746592","address":"1644 P St","lat":40.81502017826851,"lng":-96.69699857312786,"neighborhood":"Downtown Lincoln","city_fetched":"Lincoln,US","state":"NE","country":"United States","canonicalUrl":"https://foursquare.com/v/the-bar/4bf75e558d30d13a4702ff17","categoryId":"4bf58dd8d48988d116941735","category":"Bar","checkinsCount":3641,"usersCount":709,"tipCount":12,"visitsCount":3687,"tier":1,"message":"Cheap","currency":"$","rating":6.8},{"name":"Bob's Tavern","phone":"4024669813","address":"6212 Havelock Ave","lat":40.85714121699994,"lng":-96.63533342903122,"neighborhood":"Havelock","city_fetched":"Lincoln,US","state":"NE","country":"United States","canonicalUrl":"https://foursquare.com/v/bobs-tavern/4bcfc798462cb713e074d707","categoryId":"4bf58dd8d48988d118941735","category":"Dive Bar","checkinsCount":308,"usersCount":166,"tipCount":4,"visitsCount":322,"tier":"","message":"","currency":"","rating":6.7},{"name":"Iguana's","phone":"4024768850","twitter":"iguanaslincoln","address":"1426 O St","lat":40.8137704785034,"lng":-96.70047199853298,"neighborhood":"Downtown Lincoln","city_fetched":"Lincoln,US","state":"NE","country":"United States","canonicalUrl":"https://foursquare.com/v/iguanas/4b4fefb4f964a520d41927e3","categoryId":"4bf58dd8d48988d116941735","category":"Bar","checkinsCount":8268,"usersCount":1762,"tipCount":24,"visitsCount":8311,"tier":2,"message":"Moderate","currency":"$","rating":6.7},{"name":"The Garage Sports Bar & Grill","phone":"4024232996","address":"5551 S 48th St","lat":40.75836479665035,"lng":-96.65421509035363,"city_fetched":"Lincoln,US","state":"NE","country":"United States","canonicalUrl":"https://foursquare.com/v/the-garage-sports-bar--grill/4ba55019f964a5207bf938e3","categoryId":"4bf58dd8d48988d11d941735","category":"Sports Bar","checkinsCount":1210,"usersCount":510,"tipCount":5,"visitsCount":1427,"tier":1,"message":"Cheap","currency":"$","rating":6.7},{"name":"The Fox","phone":"4024230193","address":"1245 Libra Dr Ste 110","lat":40.734396120569066,"lng":-96.70283299009054,"city_fetched":"Lincoln,US","state":"NE","country":"United States","canonicalUrl":"https://foursquare.com/v/the-fox/4bc0f730920eb7136df4192c","categoryId":"4bf58dd8d48988d11d941735","category":"Sports Bar","checkinsCount":1254,"usersCount":526,"tipCount":9,"visitsCount":1484,"tier":1,"message":"Cheap","currency":"$","rating":6.6},{"name":"The Fat Toad Pub","phone":"4024383311","address":"1409 O St","lat":40.81353130546473,"lng":-96.7007540593449,"neighborhood":"Downtown Lincoln","city_fetched":"Lincoln,US","state":"NE","country":"United States","canonicalUrl":"https://foursquare.com/v/the-fat-toad-pub/4b2d805cf964a520f2d724e3","categoryId":"4bf58dd8d48988d116941735","category":"Bar","checkinsCount":6869,"usersCount":1173,"tipCount":18,"visitsCount":6894,"tier":2,"message":"Moderate","currency":"$","rating":6.6},{"name":"Mix","address":"1427 O St","lat":40.81343670589993,"lng":-96.70038842519625,"neighborhood":"Downtown Lincoln","city_fetched":"Lincoln,US","state":"NE","country":"United States","canonicalUrl":"https://foursquare.com/v/mix/4e9e2e5393ad5d11f37cd3c6","categoryId":"4bf58dd8d48988d116941735","category":"Bar","checkinsCount":2041,"usersCount":597,"tipCount":7,"visitsCount":2047,"tier":"","message":"","currency":"","rating":6.6},{"name":"Cliff's Lounge","phone":"4024767997","address":"1323 O St","lat":40.81339815500579,"lng":-96.70199543237686,"neighborhood":"Downtown Lincoln","city_fetched":"Lincoln,US","state":"NE","country":"United States","canonicalUrl":"https://foursquare.com/v/cliffs-lounge/4b91eb78f964a52072df33e3","categoryId":"4bf58dd8d48988d11e941735","category":"Cocktail Bar","checkinsCount":4177,"usersCount":1285,"tipCount":17,"visitsCount":4194,"tier":"","message":"","currency":"","rating":6.5},{"name":"Playmaker's Bar & Grill","phone":"4024389300","address":"640 W Prospector Ct","lat":40.785060597474356,"lng":-96.72921720577153,"neighborhood":"West A","city_fetched":"Lincoln,US","state":"NE","country":"United States","canonicalUrl":"https://foursquare.com/v/playmakers-bar--grill/4c083d50340720a1a8da8293","categoryId":"4bf58dd8d48988d116941735","category":"Bar","checkinsCount":1109,"usersCount":308,"tipCount":2,"visitsCount":1250,"url":"http://www.playmakersonline.com","tier":"","message":"","currency":"","rating":6.5},{"name":"One More Bar","phone":"4024658228","address":"836 N 70th St","lat":40.821163177490234,"lng":-96.6243667602539,"city_fetched":"Lincoln,US","state":"NE","country":"United States","canonicalUrl":"https://foursquare.com/v/one-more-bar/51ca525a498e51446f2cdd09","categoryId":"4bf58dd8d48988d116941735","category":"Bar","checkinsCount":111,"usersCount":32,"tipCount":3,"visitsCount":111,"tier":"","message":"","currency":"","rating":6.4},{"name":"O'Rourke's Tavern","phone":"4024358052","address":"1329 O St","lat":40.8135552175611,"lng":-96.7016994944071,"neighborhood":"Downtown Lincoln","city_fetched":"Lincoln,US","state":"NE","country":"United States","canonicalUrl":"https://foursquare.com/v/orourkes-tavern/4b6f6080f964a520e1ed2ce3","categoryId":"4bf58dd8d48988d116941735","category":"Bar","checkinsCount":2711,"usersCount":738,"tipCount":9,"visitsCount":2736,"tier":"","message":"","currency":"","rating":6.4},{"name":"Cliff's Lounge - South","phone":"4024206494","address":"5310 S 56th St Ste 1","lat":40.75912296762007,"lng":-96.64312362670898,"city_fetched":"Lincoln,US","state":"NE","country":"United States","canonicalUrl":"https://foursquare.com/v/cliffs-lounge--south/4bfb3cd9ab180f4745a8b3ce","categoryId":"4bf58dd8d48988d11e941735","category":"Cocktail Bar","checkinsCount":643,"usersCount":338,"tipCount":4,"visitsCount":666,"tier":"","message":"","currency":"","rating":6.4},{"name":"Blue Blood Brewing Co.","phone":"4024772337","twitter":"beerbrewerwife","address":"925 Robbers Cave Dr","lat":40.79209609603557,"lng":-96.72749798472067,"neighborhood":"West A","city_fetched":"Lincoln,US","state":"NE","country":"United States","canonicalUrl":"https://foursquare.com/v/blue-blood-brewing-co/4e429683a809252055562a82","categoryId":"50327c8591d4c4b30a586d5d","category":"Brewery","checkinsCount":435,"usersCount":319,"tipCount":4,"visitsCount":576,"url":"http://bluebloodbrewing.com","tier":"","message":"","currency":"","rating":6.4},{"name":"Watering Hole (east)","address":"83rd & Holdredge","lat":40.82726471803891,"lng":-96.60737082511416,"city_fetched":"Lincoln,US","state":"NE","country":"United States","canonicalUrl":"https://foursquare.com/v/watering-hole-east/51d4665d498e8cc3eadf39c5","categoryId":"4bf58dd8d48988d116941735","category":"Bar","checkinsCount":219,"usersCount":166,"tipCount":6,"visitsCount":313,"tier":"","message":"","currency":"","rating":6.3},{"name":"Down the Hatch","phone":"4024766700","twitter":"hatchlincoln","address":"5601 NW 1st St","lat":40.866417,"lng":-96.72321455,"neighborhood":"Highlands","city_fetched":"Lincoln,US","state":"NE","country":"United States","canonicalUrl":"https://foursquare.com/v/down-the-hatch/4b205677f964a520c93024e3","categoryId":"4bf58dd8d48988d116941735","category":"Bar","checkinsCount":1400,"usersCount":730,"tipCount":10,"visitsCount":1703,"url":"http://www.downthehatchlincoln.com","tier":2,"message":"Moderate","currency":"$","rating":6.2},{"name":"Brewsky's Food & Spirits","phone":"4024832739","twitter":"brewskys","address":"2840 S 70th St","lat":40.783879333742824,"lng":-96.62397475611377,"city_fetched":"Lincoln,US","state":"NE","country":"United States","canonicalUrl":"https://foursquare.com/v/brewskys-food--spirits/4b317053f964a520fc0625e3","categoryId":"4bf58dd8d48988d11d941735","category":"Sports Bar","checkinsCount":1719,"usersCount":761,"tipCount":11,"visitsCount":1896,"url":"http://brewskys.com","tier":2,"message":"Moderate","currency":"$","rating":6.2},{"name":"Brewsky's","phone":"4024662739","twitter":"brewskys","address":"2662 Cornhusker Hwy","lat":40.84325399514058,"lng":-96.6842346915376,"neighborhood":"Belmont","city_fetched":"Lincoln,US","state":"NE","country":"United States","canonicalUrl":"https://foursquare.com/v/brewskys/4bd33fe9046076b073937571","categoryId":"4bf58dd8d48988d11d941735","category":"Sports Bar","checkinsCount":1783,"usersCount":693,"tipCount":3,"visitsCount":2000,"url":"http://www.brewskys.com","tier":"","message":"","currency":"","rating":6.2},{"name":"Main Street Cafe","phone":"4024351717","address":"1325 O St","lat":40.81348979121908,"lng":-96.70178829288814,"neighborhood":"Downtown Lincoln","city_fetched":"Lincoln,US","state":"NE","country":"United States","canonicalUrl":"https://foursquare.com/v/main-street-cafe/4bba2f407421a593b37fc340","categoryId":"4bf58dd8d48988d116941735","category":"Bar","checkinsCount":3858,"usersCount":1068,"tipCount":12,"visitsCount":3866,"url":"http://www.mainstreetcafe.org","tier":"","message":"","currency":"","rating":6.1},{"name":"Randy's Grill & Chill","phone":"4024674947","twitter":"lincolnbars","address":"4947 Holdrege St","lat":40.82774171751067,"lng":-96.65239348272716,"city_fetched":"Lincoln,US","state":"NE","country":"United States","canonicalUrl":"https://foursquare.com/v/randys-grill--chill/4bcf336ab221c9b63c8ad1d0","categoryId":"4bf58dd8d48988d116941735","category":"Bar","checkinsCount":1844,"usersCount":675,"tipCount":10,"visitsCount":1935,"url":"http://www.randysgnc.com","tier":2,"message":"Moderate","currency":"$","rating":6.1},{"name":"Vega","phone":"4028054785","twitter":"vegalnk","address":"350 Canopy St Ste 220","lat":40.81643589094533,"lng":-96.71129043743768,"city_fetched":"Lincoln,US","state":"NE","country":"United States","canonicalUrl":"https://foursquare.com/v/vega/526dc5f411d2cc5a9a3dbabf","categoryId":"4bf58dd8d48988d116941735","category":"Bar","checkinsCount":519,"usersCount":329,"tipCount":11,"visitsCount":527,"url":"http://vegalincoln.com","tier":"","message":"","currency":"","rating":6},{"name":"Lancaster's","phone":"4024212474","address":"3800 Old Cheney Rd","lat":40.75685779,"lng":-96.66375973333334,"city_fetched":"Lincoln,US","state":"NE","country":"United States","canonicalUrl":"https://foursquare.com/v/lancasters/4bef64b4f2712d7f43c0fbd8","categoryId":"4bf58dd8d48988d11d941735","category":"Sports Bar","checkinsCount":756,"usersCount":311,"tipCount":3,"visitsCount":801,"url":"http://www.lancasterslounge.com","tier":"","message":"","currency":"","rating":6},{"name":"Cappy's Hotspot","phone":"4024211424","address":"5560 S 48th St #4","lat":40.75779874241164,"lng":-96.65311898787704,"city_fetched":"Lincoln,US","state":"NE","country":"United States","canonicalUrl":"https://foursquare.com/v/cappys-hotspot/4ba677c4f964a520895539e3","categoryId":"4bf58dd8d48988d116941735","category":"Bar","checkinsCount":1694,"usersCount":648,"tipCount":19,"visitsCount":1878,"url":"http://www.cappysbar.com","tier":"","message":"","currency":"","rating":6},{"name":"The Spigot","phone":"4024354582","address":"1624 O St","lat":40.81364079253498,"lng":-96.69730151104508,"neighborhood":"Downtown Lincoln","city_fetched":"Lincoln,US","state":"NE","country":"United States","canonicalUrl":"https://foursquare.com/v/the-spigot/4b63aefbf964a520e58b2ae3","categoryId":"4bf58dd8d48988d116941735","category":"Bar","checkinsCount":997,"usersCount":390,"tipCount":2,"visitsCount":1062,"tier":"","message":"","currency":"","rating":6},{"name":"Grata Bar & Lounge","phone":"4023280287","address":"2755 Jamie Ln","lat":40.72822207905728,"lng":-96.68020341875088,"city_fetched":"Lincoln,US","state":"NE","country":"United States","canonicalUrl":"https://foursquare.com/v/grata-bar--lounge/4bd27c9e9854d13a45f0fb4d","categoryId":"4bf58dd8d48988d116941735","category":"Bar","checkinsCount":1510,"usersCount":697,"tipCount":5,"visitsCount":1708,"tier":"","message":"","currency":"","rating":6},{"name":"Bodega's Alley","phone":"4024771418","twitter":"bodegas_alley","address":"1418 O St","lat":40.813713745012095,"lng":-96.70064959223352,"neighborhood":"Downtown Lincoln","city_fetched":"Lincoln,US","state":"NE","country":"United States","canonicalUrl":"https://foursquare.com/v/bodegas-alley/4c6369ec79d1e21ec7bed815","categoryId":"4bf58dd8d48988d116941735","category":"Bar","checkinsCount":3380,"usersCount":906,"tipCount":11,"visitsCount":3400,"url":"http://www.bodegasalley.com","tier":"","message":"","currency":"","rating":6},{"name":"Sandy's","phone":"4024752418","address":"1401 O St","lat":40.81358588112102,"lng":-96.70100478110344,"neighborhood":"Downtown Lincoln","city_fetched":"Lincoln,US","state":"NE","country":"United States","canonicalUrl":"https://foursquare.com/v/sandys/4b08c32cf964a520f81123e3","categoryId":"4bf58dd8d48988d116941735","category":"Bar","checkinsCount":7155,"usersCount":1915,"tipCount":17,"visitsCount":7202,"tier":2,"message":"Moderate","currency":"$","rating":5.8},{"name":"The Downtown","phone":"4024357442","twitter":"downtownbar","address":"1430 O St","lat":40.81379027300567,"lng":-96.70038320186632,"neighborhood":"Downtown Lincoln","city_fetched":"Lincoln,US","state":"NE","country":"United States","canonicalUrl":"https://foursquare.com/v/the-downtown/4bad9ba8f964a520c05e3be3","categoryId":"4bf58dd8d48988d116941735","category":"Bar","checkinsCount":3472,"usersCount":917,"tipCount":12,"visitsCount":3483,"tier":"","message":"","currency":"","rating":5.7},{"name":"The Brass Rail","phone":"4024745741","address":"1436 O St","lat":40.813754,"lng":-96.70013866,"neighborhood":"Downtown Lincoln","city_fetched":"Lincoln,US","state":"NE","country":"United States","canonicalUrl":"https://foursquare.com/v/the-brass-rail/4bc15bd8920eb713d3bf1a2c","categoryId":"4bf58dd8d48988d116941735","category":"Bar","checkinsCount":2427,"usersCount":727,"tipCount":10,"visitsCount":2436,"tier":"","message":"","currency":"","rating":5.6},{"name":"The Beacon","phone":"4024387211","address":"311 S 11th St","lat":40.81111865327424,"lng":-96.7055179396074,"neighborhood":"Downtown Lincoln","city_fetched":"Lincoln,US","state":"NE","country":"United States","canonicalUrl":"https://foursquare.com/v/the-beacon/4baec1eef964a52066d53be3","categoryId":"4bf58dd8d48988d120941735","category":"Karaoke Bar","checkinsCount":999,"usersCount":286,"tipCount":4,"visitsCount":1018,"tier":"","message":"","currency":"","rating":5.5},{"name":"Sweep Left","address":"815 O St","lat":40.81346400508845,"lng":-96.70955602177489,"city_fetched":"Lincoln,US","state":"NE","country":"United States","canonicalUrl":"https://foursquare.com/v/sweep-left/52084f9911d2d524677c0545","categoryId":"4bf58dd8d48988d11d941735","category":"Sports Bar","checkinsCount":190,"usersCount":109,"tipCount":7,"visitsCount":193,"tier":"","message":"","currency":"","rating":5.5},{"name":"Rule G Nightclub","phone":"4029044126","twitter":"rulegnightclub","address":"350 Canopy St Ste 300","lat":40.816811256964236,"lng":-96.71152030325602,"city_fetched":"Lincoln,US","state":"NE","country":"United States","canonicalUrl":"https://foursquare.com/v/rule-g-nightclub/526ff6c6498e79227e955d62","categoryId":"4bf58dd8d48988d11f941735","category":"Nightclub","checkinsCount":371,"usersCount":132,"tipCount":1,"visitsCount":377,"url":"http://rulegnightclub.com","tier":2,"message":"Moderate","currency":"$","rating":5.4},{"name":"red9","phone":"4024777339","twitter":"red9live","address":"322 S 9th St","lat":40.81097729297599,"lng":-96.70816120929611,"city_fetched":"Lincoln,US","state":"NE","country":"United States","canonicalUrl":"https://foursquare.com/v/red9/4b983dc2f964a5209d3635e3","categoryId":"4bf58dd8d48988d121941735","category":"Lounge","checkinsCount":1769,"usersCount":890,"tipCount":18,"visitsCount":1777,"url":"http://www.red9live.com","tier":"","message":"","currency":"","rating":5.3},{"name":"Brother's Bar & Grill","phone":"4024740200","twitter":"brotherslincoln","address":"1339 O St","lat":40.81351724237958,"lng":-96.70138608898169,"neighborhood":"Downtown Lincoln","city_fetched":"Lincoln,US","state":"NE","country":"United States","canonicalUrl":"https://foursquare.com/v/brothers-bar--grill/4b5148b9f964a520c04927e3","categoryId":"4bf58dd8d48988d116941735","category":"Bar","checkinsCount":6573,"usersCount":1859,"tipCount":28,"visitsCount":6626,"tier":1,"message":"Cheap","currency":"$","rating":5.1}]