[{"name":"Lost Forty Brewing","phone":"5013197335","twitter":"lost40beer","address":"501 Byrd St","lat":34.742565768973726,"lng":-92.25961347280708,"neighborhood":"East of I-30","city_fetched":"Little Rock,US","state":"AR","country":"United States","canonicalUrl":"https://foursquare.com/v/lost-forty-brewing/5307cd0e11d27cbd6e2442d8","categoryId":"50327c8591d4c4b30a586d5d","category":"Brewery","checkinsCount":833,"usersCount":590,"tipCount":22,"visitsCount":1357,"url":"http://www.lost40brewing.com","tier":"","message":"","currency":"","rating":9.3},{"name":"Capital Bar & Grill","phone":"5013747474","twitter":"capitalbargrill","address":"111 W Markham St","lat":34.74826865132638,"lng":-92.27139446769344,"city_fetched":"Little Rock,US","state":"AR","country":"United States","canonicalUrl":"https://foursquare.com/v/capital-bar--grill/4b1706c4f964a52021c123e3","categoryId":"4bf58dd8d48988d116941735","category":"Bar","checkinsCount":3946,"usersCount":1409,"tipCount":54,"visitsCount":4161,"url":"http://www.capitalbarandgrill.com","tier":3,"message":"Expensive","currency":"$","rating":8.6},{"name":"Rebel Kettle Brewing Co.","twitter":"rebelkettle","address":"822 E 6th St","lat":34.74221542911819,"lng":-92.26160881370583,"neighborhood":"East of I-30","city_fetched":"Little Rock,US","state":"AR","country":"United States","canonicalUrl":"https://foursquare.com/v/rebel-kettle-brewing-co/56e40373498e302d280b0853","categoryId":"50327c8591d4c4b30a586d5d","category":"Brewery","checkinsCount":145,"usersCount":171,"tipCount":7,"visitsCount":270,"tier":"","message":"","currency":"","rating":8.5},{"name":"Vino's","phone":"5013758466","twitter":"vinosbrewpublr","address":"923 W 7th St","lat":34.743563387878126,"lng":-92.28216353132346,"neighborhood":"Downtown Little Rock","city_fetched":"Little Rock,US","state":"AR","country":"United States","canonicalUrl":"https://foursquare.com/v/vinos/4b3a3fc6f964a520f26225e3","categoryId":"50327c8591d4c4b30a586d5d","category":"Brewery","checkinsCount":3705,"usersCount":1522,"tipCount":34,"visitsCount":4196,"url":"http://www.vinosbrewpub.com","tier":2,"message":"Moderate","currency":"$","rating":8.4},{"name":"The White Water Tavern","phone":"5013758400","address":"2500 W 7th St","lat":34.74541178735931,"lng":-92.30131270384547,"neighborhood":"Capitol View - Stifft Station","city_fetched":"Little Rock,US","state":"AR","country":"United States","canonicalUrl":"https://foursquare.com/v/the-white-water-tavern/4b4fa6f6f964a520440f27e3","categoryId":"4bf58dd8d48988d118941735","category":"Dive Bar","checkinsCount":3426,"usersCount":753,"tipCount":13,"visitsCount":3683,"url":"http://whitewatertavern.com","tier":"","message":"","currency":"","rating":8.3},{"name":"By The Glass","phone":"5016639463","address":"5713 Kavanaugh Blvd","lat":34.77019823097868,"lng":-92.33770391155127,"neighborhood":"Heights","city_fetched":"Little Rock,US","state":"AR","country":"United States","canonicalUrl":"https://foursquare.com/v/by-the-glass/4bd0d63a41b9ef3b78f1fae5","categoryId":"4bf58dd8d48988d123941735","category":"Wine Bar","checkinsCount":842,"usersCount":276,"tipCount":4,"visitsCount":897,"url":"http://btgbar.com","tier":"","message":"","currency":"","rating":8.2},{"name":"Flying Saucer","phone":"5013728032","twitter":"fs_littlerock","address":"323 President Clinton Ave","lat":34.7476439176001,"lng":-92.26727317562374,"city_fetched":"Little Rock,US","state":"AR","country":"United States","canonicalUrl":"https://foursquare.com/v/flying-saucer/4a4191bdf964a5206ea51fe3","categoryId":"4bf58dd8d48988d11b941735","category":"Pub","checkinsCount":9930,"usersCount":4013,"tipCount":71,"visitsCount":10524,"url":"http://www.beerknurd.com","tier":2,"message":"Moderate","currency":"$","rating":8.1},{"name":"Blue Canoe Brewing Company","phone":"5014929378","twitter":"bluecanoebrewco","address":"425 E 3rd St","lat":34.745534,"lng":-92.266219,"city_fetched":"Little Rock,US","state":"AR","country":"United States","canonicalUrl":"https://foursquare.com/v/blue-canoe-brewing-company/54833a69498ec850acaa0187","categoryId":"50327c8591d4c4b30a586d5d","category":"Brewery","checkinsCount":245,"usersCount":110,"tipCount":5,"visitsCount":252,"url":"http://www.bluecanoebrewco.com","tier":"","message":"","currency":"","rating":8.1},{"name":"Dugan's Pub","phone":"5012440542","address":"401 E 3rd St","lat":34.74552680353029,"lng":-92.26738929748535,"city_fetched":"Little Rock,US","state":"AR","country":"United States","canonicalUrl":"https://foursquare.com/v/dugans-pub/4cae4334ef1b37045f312900","categoryId":"4bf58dd8d48988d11b941735","category":"Pub","checkinsCount":5441,"usersCount":1529,"tipCount":44,"visitsCount":5929,"url":"http://www.duganspublr.com","tier":2,"message":"Moderate","currency":"$","rating":8},{"name":"Zin Urban Wine & Beer Bar","phone":"5012464876","address":"300 River Market Ave","lat":34.74532836380031,"lng":-92.26614794043745,"city_fetched":"Little Rock,US","state":"AR","country":"United States","canonicalUrl":"https://foursquare.com/v/zin-urban-wine--beer-bar/4cd5db10a5b34688bf9e9050","categoryId":"4bf58dd8d48988d123941735","category":"Wine Bar","checkinsCount":1435,"usersCount":360,"tipCount":19,"visitsCount":1480,"url":"http://www.zinlr.com","tier":2,"message":"Moderate","currency":"$","rating":7.9},{"name":"Tailgaters Pub","phone":"5018319066","address":"8100 Warden Rd","lat":34.82913215221595,"lng":-92.18563646633508,"city_fetched":"Little Rock,US","state":"AR","country":"United States","canonicalUrl":"https://foursquare.com/v/tailgaters-pub/4d32c1b25017a093b37a4c9b","categoryId":"4bf58dd8d48988d11b941735","category":"Pub","checkinsCount":528,"usersCount":137,"tipCount":5,"visitsCount":623,"tier":"","message":"","currency":"","rating":7.9},{"name":"Lucky's","phone":"5018034898","address":"1101 Murphy Dr","lat":34.86711458822061,"lng":-92.39500944860809,"city_fetched":"Little Rock,US","state":"AR","country":"United States","canonicalUrl":"https://foursquare.com/v/luckys/4bbd51e48a4fb7130ff33c9d","categoryId":"4bf58dd8d48988d11d941735","category":"Sports Bar","checkinsCount":397,"usersCount":133,"tipCount":13,"visitsCount":484,"tier":"","message":"","currency":"","rating":7.6},{"name":"Discovery Nightclub","phone":"5016662744","address":"1021 Jessie Rd #Q","lat":34.758769545765546,"lng":-92.2994022355262,"city_fetched":"Little Rock,US","state":"AR","country":"United States","canonicalUrl":"https://foursquare.com/v/discovery-nightclub/4b0ad455f964a5208a2823e3","categoryId":"4bf58dd8d48988d11f941735","category":"Nightclub","checkinsCount":1433,"usersCount":715,"tipCount":12,"visitsCount":1912,"url":"http://latenightdisco.com","tier":"","message":"","currency":"","rating":7.6},{"name":"Stone's Throw Brewing","phone":"5012449154","twitter":"stonesthrowbrew","address":"402 E 9th St","lat":34.73979631083852,"lng":-92.26821089294468,"neighborhood":"Downtown Little Rock","city_fetched":"Little Rock,US","state":"AR","country":"United States","canonicalUrl":"https://foursquare.com/v/stones-throw-brewing/51f425da498e57d63e40fd61","categoryId":"50327c8591d4c4b30a586d5d","category":"Brewery","checkinsCount":523,"usersCount":337,"tipCount":13,"visitsCount":728,"url":"http://www.stonesthrowbeer.com","tier":1,"message":"Cheap","currency":"$","rating":7.4},{"name":"JJs Grill","phone":"5013132612","address":"12111 W Markham St","lat":34.75264905251721,"lng":-92.40772750824019,"city_fetched":"Little Rock,US","state":"AR","country":"United States","canonicalUrl":"https://foursquare.com/v/jjs-grill/53d6db8e498e147557b90f13","categoryId":"4bf58dd8d48988d116941735","category":"Bar","checkinsCount":169,"usersCount":98,"tipCount":4,"visitsCount":231,"url":"http://anotherroundpub.com","tier":"","message":"","currency":"","rating":7.4},{"name":"Six Ten Center","address":"610 Center St","lat":34.74305204008934,"lng":-92.27385684190774,"neighborhood":"Downtown Little Rock","city_fetched":"Little Rock,US","state":"AR","country":"United States","canonicalUrl":"https://foursquare.com/v/six-ten-center/4babf224f964a520fbd73ae3","categoryId":"4bf58dd8d48988d1d8941735","category":"Gay Bar","checkinsCount":1123,"usersCount":218,"tipCount":9,"visitsCount":1280,"tier":"","message":"","currency":"","rating":7.2},{"name":"Gino's","lat":34.57978307866029,"lng":-92.58196198764584,"city_fetched":"Little Rock,US","state":"AR","country":"United States","canonicalUrl":"https://foursquare.com/v/ginos/4e76230fae60c328516f1210","categoryId":"4bf58dd8d48988d11d941735","category":"Sports Bar","checkinsCount":326,"usersCount":144,"tipCount":8,"visitsCount":379,"tier":"","message":"","currency":"","rating":7.2},{"name":"Gusano's Chicago Style Pizzeria & Sports Bar","phone":"5013741441","twitter":"gusanospizzaria","address":"313 President Clinton Ave","lat":34.747604291865784,"lng":-92.26737415963423,"city_fetched":"Little Rock,US","state":"AR","country":"United States","canonicalUrl":"https://foursquare.com/v/gusanos-chicago-style-pizzeria--sports-bar/4b492a3af964a520766826e3","categoryId":"4bf58dd8d48988d11d941735","category":"Sports Bar","checkinsCount":3287,"usersCount":1517,"tipCount":31,"visitsCount":3322,"url":"http://gusanospizza.com","tier":2,"message":"Moderate","currency":"$","rating":7.2},{"name":"Grumpy's Too","phone":"5012253768","twitter":"grumpystoowlr","address":"1801 Green Mountain Dr","lat":34.7697305323997,"lng":-92.40367104277294,"city_fetched":"Little Rock,US","state":"AR","country":"United States","canonicalUrl":"https://foursquare.com/v/grumpys-too/4afe4608f964a5200e2f22e3","categoryId":"4bf58dd8d48988d116941735","category":"Bar","checkinsCount":1482,"usersCount":320,"tipCount":8,"visitsCount":1673,"url":"http://grumpystoo.com","tier":2,"message":"Moderate","currency":"$","rating":7.2},{"name":"The Town Pump","phone":"5016639802","address":"1321 Rebsamen Park Rd","lat":34.76283103682626,"lng":-92.30975437371978,"city_fetched":"Little Rock,US","state":"AR","country":"United States","canonicalUrl":"https://foursquare.com/v/the-town-pump/4b5124a5f964a520914427e3","categoryId":"4bf58dd8d48988d118941735","category":"Dive Bar","checkinsCount":5718,"usersCount":782,"tipCount":22,"visitsCount":5845,"url":"http://townpump.com","tier":1,"message":"Cheap","currency":"$","rating":7.1},{"name":"Prost","phone":"5012249550","address":"120 Ottenheimer St","lat":34.74778798333333,"lng":-92.266577,"city_fetched":"Little Rock,US","state":"AR","country":"United States","canonicalUrl":"https://foursquare.com/v/prost/4b0725f0f964a5203af822e3","categoryId":"4bf58dd8d48988d11b941735","category":"Pub","checkinsCount":666,"usersCount":288,"tipCount":7,"visitsCount":666,"tier":"","message":"","currency":"","rating":7.1},{"name":"Level","address":"315 Main St","lat":34.74557461573057,"lng":-92.27082698634032,"neighborhood":"Downtown Little Rock","city_fetched":"Little Rock,US","state":"AR","country":"United States","canonicalUrl":"https://foursquare.com/v/level/52731c9011d25286fb369cb8","categoryId":"4bf58dd8d48988d11f941735","category":"Nightclub","checkinsCount":242,"usersCount":116,"tipCount":4,"visitsCount":259,"tier":"","message":"","currency":"","rating":7},{"name":"Visions","phone":"5018516083","address":"7900 Bicentennial Road","lat":34.890155207559125,"lng":-92.38532066345215,"city_fetched":"Little Rock,US","state":"AR","country":"United States","canonicalUrl":"https://foursquare.com/v/visions/4b9af6abf964a5205ae735e3","categoryId":"4bf58dd8d48988d1d6941735","category":"Strip Club","checkinsCount":976,"usersCount":211,"tipCount":18,"visitsCount":1008,"tier":"","message":"","currency":"","rating":7},{"name":"109 & Co.","phone":"5013743710","twitter":"109company","address":"109 Main St","lat":34.74769626862606,"lng":-92.27053363011981,"city_fetched":"Little Rock,US","state":"AR","country":"United States","canonicalUrl":"https://foursquare.com/109company","categoryId":"4bf58dd8d48988d11e941735","category":"Cocktail Bar","checkinsCount":129,"usersCount":81,"tipCount":6,"visitsCount":153,"url":"http://www.109andcompany.com","tier":2,"message":"Moderate","currency":"$","rating":7},{"name":"Thirst N Howl","phone":"5013798189","address":"14710 Cantrell Rd","lat":34.802406,"lng":-92.43651855,"city_fetched":"Little Rock,US","state":"AR","country":"United States","canonicalUrl":"https://foursquare.com/v/thirst-n-howl/4c1bd07f3855c9b663a7cc71","categoryId":"4bf58dd8d48988d11b941735","category":"Pub","checkinsCount":560,"usersCount":257,"tipCount":12,"visitsCount":583,"url":"http://thirst-n-howl.com","tier":"","message":"","currency":"","rating":6.9},{"name":"The Fountain","address":"2809 Kavanaugh Blvd","lat":34.75768443,"lng":-92.32462089,"neighborhood":"Hillcrest","city_fetched":"Little Rock,US","state":"AR","country":"United States","canonicalUrl":"https://foursquare.com/v/the-fountain/4b4faa54f964a520df0f27e3","categoryId":"4bf58dd8d48988d116941735","category":"Bar","checkinsCount":2597,"usersCount":612,"tipCount":14,"visitsCount":2747,"url":"http://hillcrestfountain.com","tier":2,"message":"Moderate","currency":"$","rating":6.8},{"name":"Paper Moon Gentleman's Club","phone":"5015629044","address":"3310 Mabelvale Pike","lat":34.71814303773052,"lng":-92.33379331468288,"city_fetched":"Little Rock,US","state":"AR","country":"United States","canonicalUrl":"https://foursquare.com/v/paper-moon-gentlemans-club/4bb60dd92f70c9b6d3cc8430","categoryId":"4bf58dd8d48988d1d6941735","category":"Strip Club","checkinsCount":256,"usersCount":143,"tipCount":8,"visitsCount":265,"tier":"","message":"","currency":"","rating":6.8},{"name":"Rumba Revolution","phone":"5018230090","twitter":"revroomlr","address":"300 President Clinton Ave","lat":34.74812467893586,"lng":-92.26759536349073,"city_fetched":"Little Rock,US","state":"AR","country":"United States","canonicalUrl":"https://foursquare.com/v/rumba-revolution/4b5fa9d1f964a520f7c629e3","categoryId":"4bf58dd8d48988d116941735","category":"Bar","checkinsCount":1229,"usersCount":489,"tipCount":16,"visitsCount":1232,"tier":"","message":"","currency":"","rating":6.7},{"name":"Next Bistro & Bar","phone":"5016636398","address":"2611 Kavanaugh Blvd","lat":34.757205881299505,"lng":-92.32239574338361,"neighborhood":"Hillcrest","city_fetched":"Little Rock,US","state":"AR","country":"United States","canonicalUrl":"https://foursquare.com/v/next-bistro--bar/5070668de4b0513ffd08bb2b","categoryId":"4bf58dd8d48988d11e941735","category":"Cocktail Bar","checkinsCount":304,"usersCount":119,"tipCount":3,"visitsCount":324,"tier":"","message":"","currency":"","rating":6.6},{"name":"Cregeen's Irish Pub","phone":"5013767468","twitter":"cregreens","address":"301 Main St","lat":34.75625492649446,"lng":-92.26797938346863,"city_fetched":"Little Rock,US","state":"AR","country":"United States","canonicalUrl":"https://foursquare.com/v/cregeens-irish-pub/4b81efb5f964a52097c430e3","categoryId":"4bf58dd8d48988d11b941735","category":"Pub","checkinsCount":2406,"usersCount":1272,"tipCount":30,"visitsCount":2649,"url":"http://cregeens.com","tier":"","message":"","currency":"","rating":6.6},{"name":"TraX","phone":"5012440444","address":"415 Main St.","lat":34.75768716759868,"lng":-92.26788870070394,"city_fetched":"Little Rock,US","state":"AR","country":"United States","canonicalUrl":"https://foursquare.com/v/trax/4bb811553db7b7136000219a","categoryId":"4bf58dd8d48988d1d8941735","category":"Gay Bar","checkinsCount":1937,"usersCount":246,"tipCount":13,"visitsCount":1946,"url":"http://www.traxnlr.com ","tier":"","message":"","currency":"","rating":6.4},{"name":"Sway","phone":"5019072582","address":"412 Louisiana St","lat":34.74506838103731,"lng":-92.27232456207275,"neighborhood":"Downtown Little Rock","city_fetched":"Little Rock,US","state":"AR","country":"United States","canonicalUrl":"https://foursquare.com/v/sway/4c52305c2543a593083f1d85","categoryId":"4bf58dd8d48988d11f941735","category":"Nightclub","checkinsCount":555,"usersCount":190,"tipCount":6,"visitsCount":592,"tier":"","message":"","currency":"","rating":6.3},{"name":"Electric Cowboy","phone":"5015626000","address":"9515 Interstate 30","lat":34.67437109933426,"lng":-92.3665043200515,"city_fetched":"Little Rock,US","state":"AR","country":"United States","canonicalUrl":"https://foursquare.com/v/electric-cowboy/4b6510d9f964a5205ee22ae3","categoryId":"4bf58dd8d48988d11f941735","category":"Nightclub","checkinsCount":1148,"usersCount":635,"tipCount":5,"visitsCount":1405,"url":"http://www.electriccowboy.com","tier":"","message":"","currency":"","rating":6.3},{"name":"West End Smokehouse And Tavern","phone":"5012247665","address":"215 N Shackleford Rd","lat":34.75499442226235,"lng":-92.39315271377563,"city_fetched":"Little Rock,US","state":"AR","country":"United States","canonicalUrl":"https://foursquare.com/v/west-end-smokehouse-and-tavern/4bf743c8b182c9b6a28a755a","categoryId":"4bf58dd8d48988d11d941735","category":"Sports Bar","checkinsCount":2209,"usersCount":1006,"tipCount":19,"visitsCount":2394,"url":"http://www.westendsmokehouse.net","tier":2,"message":"Moderate","currency":"$","rating":6.3},{"name":"Zack's Place","phone":"5016646444","address":"1400 S University Ave","lat":34.73847985267639,"lng":-92.341792,"city_fetched":"Little Rock,US","state":"AR","country":"United States","canonicalUrl":"https://foursquare.com/v/zacks-place/4b7a9c5bf964a52069332fe3","categoryId":"4bf58dd8d48988d11d941735","category":"Sports Bar","checkinsCount":526,"usersCount":285,"tipCount":6,"visitsCount":711,"url":"http://www.zacks-place.com","tier":"","message":"","currency":"","rating":6.2},{"name":"Fox & Hound","phone":"5017538300","twitter":"the_foxandhound","address":"2800 Lakewood Village Drive, N","lat":34.79678992503952,"lng":-92.23097679644408,"city_fetched":"Little Rock,US","state":"AR","country":"United States","canonicalUrl":"https://foursquare.com/v/fox--hound/4b737fd0f964a52075b12de3","categoryId":"4bf58dd8d48988d11d941735","category":"Sports Bar","checkinsCount":1346,"usersCount":616,"tipCount":11,"visitsCount":1574,"url":"http://t.co/6Wlr3nrgdg","tier":2,"message":"Moderate","currency":"$","rating":6.1},{"name":"Markham St Pub","phone":"5012242010","address":"11321 W Markham St","lat":34.75395137998912,"lng":-92.40092674128746,"city_fetched":"Little Rock,US","state":"AR","country":"United States","canonicalUrl":"https://foursquare.com/v/markham-st-pub/4b7a9bf7f964a5205c332fe3","categoryId":"4bf58dd8d48988d11b941735","category":"Pub","checkinsCount":1553,"usersCount":269,"tipCount":7,"visitsCount":1595,"url":"http://markhamstreetpub.com","tier":"","message":"","currency":"","rating":6},{"name":"Ouachita Brewhouse","twitter":"hmshost","address":"btwn Gates 3 & 5","lat":34.73011963731708,"lng":-92.21990284984518,"neighborhood":"East of I-30","city_fetched":"Little Rock,US","state":"AR","country":"United States","canonicalUrl":"https://foursquare.com/v/ouachita-brewhouse/4cddd85a7e2e236aa4707b1b","categoryId":"50327c8591d4c4b30a586d5d","category":"Brewery","checkinsCount":553,"usersCount":392,"tipCount":10,"visitsCount":559,"tier":"","message":"","currency":"","rating":5.9},{"name":"Camp David","phone":"5019752267","address":"600 Interstate 30","lat":34.741871,"lng":-92.26369,"neighborhood":"Downtown Little Rock","city_fetched":"Little Rock,US","state":"AR","country":"United States","canonicalUrl":"https://foursquare.com/v/camp-david/4d7b0729ea3ea1cda27da41a","categoryId":"4bf58dd8d48988d118941735","category":"Dive Bar","checkinsCount":250,"usersCount":166,"tipCount":4,"visitsCount":251,"url":"http://campdavidrest.com","tier":2,"message":"Moderate","currency":"$","rating":5.6},{"name":"Khalil's Pub","phone":"5012240224","address":"200 S Shackleford Rd","lat":34.75293827608875,"lng":-92.39437773719001,"city_fetched":"Little Rock,US","state":"AR","country":"United States","canonicalUrl":"https://foursquare.com/v/khalils-pub/4b902099f964a520497733e3","categoryId":"4bf58dd8d48988d11b941735","category":"Pub","checkinsCount":853,"usersCount":423,"tipCount":13,"visitsCount":999,"url":"http://khalilspub.com","tier":"","message":"","currency":"","rating":5.2}]