[{"name":"Suki Sushi & Asian Cuisine","phone":"7705548033","address":"150 Athens Hwy Ste 800","lat":33.849573,"lng":-83.91879395,"city_fetched":"Logan","state":"GA","country":"United States","canonicalUrl":"https://foursquare.com/v/suki-sushi--asian-cuisine/4d4b6a871b6ea093cbeea4d9","category":"Sushi Restaurant","checkinsCount":445,"usersCount":215,"tipCount":6,"visitsCount":515,"tier":"","message":"","currency":"","rating":7.8},{"name":"Bruceys Sports Bar","phone":"7705546262","address":"479 Brightwell Ct","lat":33.855107,"lng":-83.93159329891205,"city_fetched":"Logan","state":"GA","country":"United States","canonicalUrl":"https://foursquare.com/v/bruceys-sports-bar/4b639f32f964a520a4872ae3","category":"Sports Bar","checkinsCount":857,"usersCount":229,"tipCount":3,"visitsCount":874,"url":"http://oasisbowl.com/sportsbar/","tier":"","message":"","currency":"","rating":6.9},{"name":"Atmosphere","address":"540 Athens Hwy","lat":33.854444225202286,"lng":-83.93449281281889,"city_fetched":"Logan","state":"GA","country":"United States","canonicalUrl":"https://foursquare.com/v/atmosphere/4c62196e79d1e21e4d89d515","category":"Bar","checkinsCount":1187,"usersCount":283,"tipCount":8,"visitsCount":1220,"url":"http://atmosphereatl.com","tier":"","message":"","currency":"","rating":6.1}]