[{"name":"Geralds","phone":"9035531707","address":"106 E Tyler St","lat":32.494918712853845,"lng":-94.73993321132951,"city_fetched":"Longview","state":"TX","country":"United States","canonicalUrl":"https://foursquare.com/v/geralds/4eb480427ee5024d7e9fdeee","category":"Cocktail Bar","checkinsCount":331,"usersCount":136,"tipCount":4,"visitsCount":339,"tier":"","message":"","currency":"","rating":7.9},{"name":"RMC (Rainbow Member's Club)","phone":"9037539393","address":"203 S High St, Longview, TX 75601","lat":32.49423599243164,"lng":-94.74290466308594,"city_fetched":"Longview","state":"TX","country":"United States","canonicalUrl":"https://foursquare.com/v/rmc-rainbow-members-club/4ea243bd775b5c3e8315bf32","category":"Gay Bar","checkinsCount":485,"usersCount":163,"tipCount":16,"visitsCount":634,"tier":"","message":"","currency":"","rating":7.7},{"name":"Leon's Steakhouse & Saloon","phone":"9037539415","address":"2112 S Eastman Rd","lat":32.46892957976184,"lng":-94.70691204071045,"city_fetched":"Longview","state":"TX","country":"United States","canonicalUrl":"https://foursquare.com/v/leons-steakhouse--saloon/4ba426def964a520dd8638e3","category":"Steakhouse","checkinsCount":171,"usersCount":139,"tipCount":7,"visitsCount":193,"url":"http://leonssteakhouse.com","tier":"","message":"","currency":"","rating":7.6},{"name":"The Levee","lat":32.50344354238253,"lng":-94.75191162498095,"city_fetched":"Longview","state":"TX","country":"United States","canonicalUrl":"https://foursquare.com/v/the-levee/4bf5f4924d5f20a1209798fe","category":"Bar","checkinsCount":183,"usersCount":88,"tipCount":2,"visitsCount":189,"tier":"","message":"","currency":"","rating":5.8}]