[{"name":"New Albanian Brewing Company","phone":"8129442577","address":"3312 Plaza Dr","lat":38.32812925,"lng":-85.81724425,"city_fetched":"Louisville","state":"IN","country":"United States","canonicalUrl":"https://foursquare.com/v/new-albanian-brewing-company/4b32bbe2f964a520e31225e3","category":"Brewery","checkinsCount":4038,"usersCount":1381,"tipCount":44,"visitsCount":4632,"url":"http://newalbanian.com","tier":2,"message":"Moderate","currency":"$","rating":9.2},{"name":"The Silver Dollar","phone":"5022599540","address":"1761 Frankfort Ave","lat":38.256954497969794,"lng":-85.71666571893796,"neighborhood":"Clifton","city_fetched":"Louisville","state":"KY","country":"United States","canonicalUrl":"https://foursquare.com/v/the-silver-dollar/4ebf2e760e019a162a82a36f","category":"Whisky Bar","checkinsCount":4715,"usersCount":2699,"tipCount":84,"visitsCount":5535,"url":"http://whiskeybythedrink.com","tier":2,"message":"Moderate","currency":"$","rating":9.1},{"name":"Proof on Main","phone":"5022176360","twitter":"21clouisville","address":"702 W Main St","lat":38.25699496733737,"lng":-85.76150089502335,"neighborhood":"Central Business District","city_fetched":"Louisville","state":"KY","country":"United States","canonicalUrl":"https://foursquare.com/v/proof-on-main/4b05865cf964a520d05e22e3","category":"Bar","checkinsCount":7036,"usersCount":4237,"tipCount":129,"visitsCount":7282,"url":"http://www.proofonmain.com","tier":3,"message":"Expensive","currency":"$","rating":9},{"name":"Crescent Hill Craft House","phone":"5028959400","twitter":"crafthouse502","address":"2636 Frankfort Ave","lat":38.254345,"lng":-85.694659,"neighborhood":"Crescent Hill","city_fetched":"Louisville","state":"KY","country":"United States","canonicalUrl":"https://foursquare.com/v/crescent-hill-craft-house/53fbaad5498e491b208529af","category":"Lounge","checkinsCount":697,"usersCount":532,"tipCount":8,"visitsCount":1116,"url":"http://crafthousebrews.com","tier":"","message":"","currency":"","rating":8.9},{"name":"Holy Grale","phone":"5024599939","address":"1034 Bardstown Rd","lat":38.239351,"lng":-85.722932,"neighborhood":"Cherokee Triangle","city_fetched":"Louisville","state":"KY","country":"United States","canonicalUrl":"https://foursquare.com/v/holy-grale/4d0199a058245481ac9546ac","category":"Beer Garden","checkinsCount":5275,"usersCount":2502,"tipCount":68,"visitsCount":5889,"url":"http://holygralelouisville.com","tier":2,"message":"Moderate","currency":"$","rating":8.9},{"name":"Selena's at Willow Lake Tavern","phone":"5022459004","address":"10609 La Grange Rd","lat":38.26983332633972,"lng":-85.55232882499695,"neighborhood":"East Louisville","city_fetched":"Louisville","state":"KY","country":"United States","canonicalUrl":"https://foursquare.com/v/selenas-at-willow-lake-tavern/4de155c3fa7651589ee41dba","category":"Cajun / Creole Restaurant","checkinsCount":523,"usersCount":510,"tipCount":10,"visitsCount":918,"url":"http://selenasrestaurant.com","tier":2,"message":"Moderate","currency":"$","rating":8.9},{"name":"Doc Crow's Southern Smokehouse & Raw Bar","phone":"5025871626","twitter":"doccrows","address":"127 W Main St","lat":38.25623217115562,"lng":-85.75292803106481,"neighborhood":"Central Business District","city_fetched":"Louisville","state":"KY","country":"United States","canonicalUrl":"https://foursquare.com/doccrows","category":"Seafood Restaurant","checkinsCount":5188,"usersCount":3526,"tipCount":103,"visitsCount":5385,"url":"http://www.doccrows.com","tier":2,"message":"Moderate","currency":"$","rating":8.9},{"name":"Sapporo Japanese Restaurant","phone":"5024795550","address":"1706 Bardstown Rd","lat":38.229803292088704,"lng":-85.70355713367462,"neighborhood":"Deer Park","city_fetched":"Louisville","state":"KY","country":"United States","canonicalUrl":"https://foursquare.com/v/sapporo-japanese-restaurant/4b087010f964a520de0b23e3","category":"Sushi Restaurant","checkinsCount":2286,"usersCount":1136,"tipCount":37,"visitsCount":2418,"url":"http://www.sapporojapanese.com","tier":2,"message":"Moderate","currency":"$","rating":8.8},{"name":"BoomBozz Pizza & Taphouse","phone":"5024588889","twitter":"boombozz","address":"1448 Bardstown Rd","lat":38.2317922641382,"lng":-85.71006078869723,"neighborhood":"Tyler Park","city_fetched":"Louisville","state":"KY","country":"United States","canonicalUrl":"https://foursquare.com/v/boombozz-pizza--taphouse/4b10b3ebf964a520ec7423e3","category":"Pizza Place","checkinsCount":3707,"usersCount":1458,"tipCount":57,"visitsCount":4145,"url":"http://www.boombozz.com","tier":2,"message":"Moderate","currency":"$","rating":8.8},{"name":"Hammerheads","phone":"5023651112","address":"921 Swan St","lat":38.2385524,"lng":-85.736596,"neighborhood":"Germantown","city_fetched":"Louisville","state":"KY","country":"United States","canonicalUrl":"https://foursquare.com/v/hammerheads/4d02c596a2685481bbc7adbd","category":"Gastropub","checkinsCount":2134,"usersCount":1635,"tipCount":80,"visitsCount":2548,"url":"http://www.louisvillehammerheads.com/menu.html","tier":"","message":"","currency":"","rating":8.8},{"name":"Against The Grain Brewery & Smokehouse","phone":"5025150174","twitter":"atgbrewery","address":"401 E Main St","lat":38.25546253367402,"lng":-85.74413398733262,"neighborhood":"Central Business District","city_fetched":"Louisville","state":"KY","country":"United States","canonicalUrl":"https://foursquare.com/v/against-the-grain-brewery--smokehouse/4e27698ba809ec0663e438dd","category":"Brewery","checkinsCount":5868,"usersCount":3758,"tipCount":77,"visitsCount":6922,"url":"http://atgbrewery.com","tier":2,"message":"Moderate","currency":"$","rating":8.7},{"name":"Zanzabar","phone":"5026359227","twitter":"thezanzabar","address":"2100 S Preston St","lat":38.21754812602285,"lng":-85.74620962142944,"neighborhood":"Saint Joseph","city_fetched":"Louisville","state":"KY","country":"United States","canonicalUrl":"https://foursquare.com/v/zanzabar/4af65988f964a520310322e3","category":"Bar","checkinsCount":4333,"usersCount":1531,"tipCount":34,"visitsCount":4975,"url":"http://www.zanzabarlouisville.com","tier":1,"message":"Cheap","currency":"$","rating":8.7},{"name":"River City Winery","phone":"8129459463","twitter":"rivercitywinery","address":"321 Pearl St","lat":38.28564435,"lng":-85.8230237,"neighborhood":"Downtown New Albany","city_fetched":"Louisville","state":"IN","country":"United States","canonicalUrl":"https://foursquare.com/v/river-city-winery/4c3cec427d00d13ac0963950","category":"Winery","checkinsCount":958,"usersCount":532,"tipCount":17,"visitsCount":1001,"url":"http://www.rivercitywinery.biz","tier":"","message":"","currency":"","rating":8.7},{"name":"The Exchange Pub + Kitchen","phone":"8129486501","address":"118 W Main St","lat":38.283502770077305,"lng":-85.82382773166,"neighborhood":"Downtown New Albany","city_fetched":"Louisville","state":"IN","country":"United States","canonicalUrl":"https://foursquare.com/v/the-exchange-pub--kitchen/50db8aece4b094ae879d1684","category":"Gastropub","checkinsCount":935,"usersCount":549,"tipCount":33,"visitsCount":1061,"url":"http://exchangeforfood.com","tier":2,"message":"Moderate","currency":"$","rating":8.7},{"name":"Irish Rover","phone":"5028993544","address":"2319 Frankfort Ave","lat":38.25354,"lng":-85.702434,"neighborhood":"Clifton","city_fetched":"Louisville","state":"KY","country":"United States","canonicalUrl":"https://foursquare.com/v/irish-rover/4b2426d8f964a520476224e3","category":"Gastropub","checkinsCount":2033,"usersCount":1214,"tipCount":42,"visitsCount":2483,"url":"http://theirishroverky.com","tier":2,"message":"Moderate","currency":"$","rating":8.7},{"name":"The Brown Hotel Lobby Bar","address":"335 W Broadway","lat":38.24658337480873,"lng":-85.7581957432054,"neighborhood":"Central Business District","city_fetched":"Louisville","state":"KY","country":"United States","canonicalUrl":"https://foursquare.com/v/the-brown-hotel-lobby-bar/4c4f7cd192ce2d7f439fd02f","category":"Hotel Bar","checkinsCount":565,"usersCount":385,"tipCount":16,"visitsCount":574,"url":"http://brownhotel.com","tier":"","message":"","currency":"","rating":8.7},{"name":"3rd Turn Brewing","twitter":"3rdturnbrewing","address":"10408 Watterson Trl","lat":38.19317662527655,"lng":-85.56639871253206,"neighborhood":"East Louisville","city_fetched":"Louisville","state":"KY","country":"United States","canonicalUrl":"https://foursquare.com/v/3rd-turn-brewing/559478b9498e3643fcf9f8b5","category":"Brewery","checkinsCount":402,"usersCount":116,"tipCount":5,"visitsCount":552,"tier":2,"message":"Moderate","currency":"$","rating":8.5},{"name":"Coals Artisan Pizza","phone":"5027428200","twitter":"coalspizza","address":"3730 Frankfort Ave","lat":38.252875159715835,"lng":-85.65924167633057,"neighborhood":"East Louisville","city_fetched":"Louisville","state":"KY","country":"United States","canonicalUrl":"https://foursquare.com/coalspizza","category":"Pizza Place","checkinsCount":1444,"usersCount":702,"tipCount":26,"visitsCount":1695,"url":"http://www.coalsartisanpizza.com","tier":2,"message":"Moderate","currency":"$","rating":8.5},{"name":"New Albanian Bank Street Brewery","phone":"8129447112","address":"415 Bank St","lat":38.286822,"lng":-85.8223700045886,"neighborhood":"Downtown New Albany","city_fetched":"Louisville","state":"IN","country":"United States","canonicalUrl":"https://foursquare.com/v/new-albanian-bank-street-brewery/4b85c34df964a520917131e3","category":"Brewery","checkinsCount":2126,"usersCount":934,"tipCount":26,"visitsCount":2226,"url":"http://newalbanian.com","tier":2,"message":"Moderate","currency":"$","rating":8.5},{"name":"Mellow Mushroom","phone":"5024096874","twitter":"mellostmatthews","address":"3922 Shelbyville Rd","lat":38.252627960804325,"lng":-85.65413650528959,"neighborhood":"East Louisville","city_fetched":"Louisville","state":"KY","country":"United States","canonicalUrl":"https://foursquare.com/mellostmatthews","category":"Pizza Place","checkinsCount":2011,"usersCount":1007,"tipCount":15,"visitsCount":2179,"url":"http://www.mellowmushroom.com/stmatthews","tier":2,"message":"Moderate","currency":"$","rating":8.5},{"name":"Shenanigan's Irish Pub & Eatery","phone":"5024543919","address":"1601 Norris Pl","lat":38.22717374679635,"lng":-85.70844411849976,"neighborhood":"Deer Park","city_fetched":"Louisville","state":"KY","country":"United States","canonicalUrl":"https://foursquare.com/v/shenanigans-irish-pub--eatery/4b8c4da3f964a5207ac932e3","category":"Bar","checkinsCount":2202,"usersCount":823,"tipCount":26,"visitsCount":2833,"tier":1,"message":"Cheap","currency":"$","rating":8.4},{"name":"Wick's Pizza Parlor & Pub","phone":"5024561559","twitter":"wickspizza","address":"975 Baxter Ave","lat":38.24048622044541,"lng":-85.72436207940797,"neighborhood":"Cherokee Triangle","city_fetched":"Louisville","state":"KY","country":"United States","canonicalUrl":"https://foursquare.com/v/wicks-pizza-parlor--pub/4bc2b5da4cdfc9b68f7d9621","category":"Pizza Place","checkinsCount":5276,"usersCount":1917,"tipCount":39,"visitsCount":5533,"url":"http://www.wickspizza.com","tier":2,"message":"Moderate","currency":"$","rating":8.4},{"name":"Chill BAR Highlands","phone":"8599138679","address":"1117 Bardstown Rd","lat":38.23812950571394,"lng":-85.72008813194526,"neighborhood":"Cherokee Triangle","city_fetched":"Louisville","state":"KY","country":"United States","canonicalUrl":"https://foursquare.com/v/chill-bar-highlands/51cfab82498e703fe3817e69","category":"Bar","checkinsCount":714,"usersCount":253,"tipCount":7,"visitsCount":817,"url":"http://chillbarlouisville.com","tier":2,"message":"Moderate","currency":"$","rating":8.4},{"name":"Sergio's World Beers","phone":"5026182337","twitter":"sergiosbeers","address":"1605 Story Ave","lat":38.259176,"lng":-85.72138888,"neighborhood":"Butchertown","city_fetched":"Louisville","state":"KY","country":"United States","canonicalUrl":"https://foursquare.com/v/sergios-world-beers/4b08b06ff964a520d01023e3","category":"Bar","checkinsCount":2068,"usersCount":1004,"tipCount":35,"visitsCount":2239,"url":"http://www.sergiosworldbeers.com","tier":"","message":"","currency":"","rating":8.4},{"name":"The Back Door","phone":"5024510659","address":"1250 Bardstown Rd #116","lat":38.23485489757085,"lng":-85.71837444766419,"neighborhood":"Tyler Park","city_fetched":"Louisville","state":"KY","country":"United States","canonicalUrl":"https://foursquare.com/v/the-back-door/4b0d7bcdf964a520574923e3","category":"Dive Bar","checkinsCount":5195,"usersCount":1975,"tipCount":55,"visitsCount":6016,"url":"http://www.thebackdoorlouisville.com","tier":1,"message":"Cheap","currency":"$","rating":8.3},{"name":"Vint Coffee","phone":"5028948060","twitter":"vint_coffee","address":"2309 Frankfort Ave","lat":38.25348434,"lng":-85.703097,"neighborhood":"Clifton","city_fetched":"Louisville","state":"KY","country":"United States","canonicalUrl":"https://foursquare.com/v/vint-coffee/4ad2595cf964a5200de120e3","category":"Coffee Shop","checkinsCount":3063,"usersCount":843,"tipCount":23,"visitsCount":3495,"url":"http://www.vintcoffee.com","tier":2,"message":"Moderate","currency":"$","rating":8.3},{"name":"Bluegrass Brewing Company","phone":"5025620007","address":"300 W Main St","lat":38.25635756299692,"lng":-85.75484089225148,"neighborhood":"Central Business District","city_fetched":"Louisville","state":"KY","country":"United States","canonicalUrl":"https://foursquare.com/v/bluegrass-brewing-company/4c77e7e6765d8cfa07310637","category":"Brewery","checkinsCount":6414,"usersCount":4365,"tipCount":66,"visitsCount":6813,"url":"http://bbcbrew.com","tier":2,"message":"Moderate","currency":"$","rating":8.2},{"name":"Wick's","phone":"8129459425","twitter":"wickspizza","address":"225 State St","lat":38.28405439853668,"lng":-85.82355916500092,"neighborhood":"Downtown New Albany","city_fetched":"Louisville","state":"IN","country":"United States","canonicalUrl":"https://foursquare.com/v/wicks/4b490ef1f964a520066426e3","category":"Pizza Place","checkinsCount":3516,"usersCount":1146,"tipCount":28,"visitsCount":3800,"url":"http://www.wickspizza.com","tier":2,"message":"Moderate","currency":"$","rating":8.2},{"name":"Barrett Bar and Grille","phone":"5024589640","address":"1012 Barret Ave","lat":38.236014,"lng":-85.728256,"neighborhood":"Germantown","city_fetched":"Louisville","state":"KY","country":"United States","canonicalUrl":"https://foursquare.com/v/barrett-bar-and-grille/4dc8498cfa76e6c130df3883","category":"Bar","checkinsCount":1092,"usersCount":463,"tipCount":11,"visitsCount":1308,"tier":"","message":"","currency":"","rating":8.2},{"name":"Nach Bar","phone":"5026374377","address":"969 Charles St","lat":38.230249317517504,"lng":-85.73552883102087,"neighborhood":"Germantown","city_fetched":"Louisville","state":"KY","country":"United States","canonicalUrl":"https://foursquare.com/v/nach-bar/4b679284f964a520bd552be3","category":"Bar","checkinsCount":2686,"usersCount":1015,"tipCount":29,"visitsCount":3220,"tier":"","message":"","currency":"","rating":8.1},{"name":"Rye","phone":"5027496200","twitter":"ryeonmarket","address":"900 E Market St","lat":38.252804434939605,"lng":-85.73590452191466,"neighborhood":"East Market District","city_fetched":"Louisville","state":"KY","country":"United States","canonicalUrl":"https://foursquare.com/v/rye/4ef121009a52b8254dd63dff","category":"Gastropub","checkinsCount":1645,"usersCount":927,"tipCount":23,"visitsCount":1783,"url":"http://www.ryeonmarket.com","tier":3,"message":"Expensive","currency":"$","rating":8.1},{"name":"River City Drafthouse","phone":"5026905111","address":"1574 1/2 Bardstown Rd","lat":38.23094565652197,"lng":-85.70559522900045,"neighborhood":"Deer Park","city_fetched":"Louisville","state":"KY","country":"United States","canonicalUrl":"https://foursquare.com/v/river-city-drafthouse/4f7cdc13e4b09c3e2e892773","category":"Bar","checkinsCount":2496,"usersCount":446,"tipCount":20,"visitsCount":2634,"url":"http://rivercitydrafthouse.com","tier":"","message":"","currency":"","rating":8.1},{"name":"Bourbon Raw","lat":38.25164104550456,"lng":-85.75745969714745,"neighborhood":"Central Business District","city_fetched":"Louisville","state":"KY","country":"United States","canonicalUrl":"https://foursquare.com/v/bourbon-raw/5616ec17498e608ba2ff4dd8","category":"Speakeasy","checkinsCount":126,"usersCount":105,"tipCount":2,"visitsCount":129,"tier":"","message":"","currency":"","rating":8.1},{"name":"Brownie's The Shed Grille and Bar","phone":"5023269830","address":"237 Whittington Pkwy","lat":38.243983920117124,"lng":-85.57936817407608,"neighborhood":"East Louisville","city_fetched":"Louisville","state":"KY","country":"United States","canonicalUrl":"https://foursquare.com/v/brownies-the-shed-grille-and-bar/4beb153e6295c9b6b5428708","category":"Sports Bar","checkinsCount":2163,"usersCount":694,"tipCount":15,"visitsCount":2625,"url":"http://browniestheshed.com","tier":"","message":"","currency":"","rating":8.1},{"name":"Down One Bourbon Bar & Restaurant","phone":"5025663259","twitter":"downonebar","address":"321 W Main St","lat":38.256569050771986,"lng":-85.75507623949498,"neighborhood":"Central Business District","city_fetched":"Louisville","state":"KY","country":"United States","canonicalUrl":"https://foursquare.com/v/down-one-bourbon-bar--restaurant/512c0e6be4b0f474d48772c2","category":"Whisky Bar","checkinsCount":1162,"usersCount":975,"tipCount":23,"visitsCount":1293,"url":"http://downonebourbonbar.com","tier":2,"message":"Moderate","currency":"$","rating":8.1},{"name":"Headliners Music Hall","phone":"5025848088","address":"1386 Lexington Rd","lat":38.2508497309177,"lng":-85.72369570702435,"neighborhood":"The Highlands","city_fetched":"Louisville","state":"KY","country":"United States","canonicalUrl":"https://foursquare.com/v/headliners-music-hall/4bba6a0598c7ef3bd7143302","category":"Rock Club","checkinsCount":2602,"usersCount":1772,"tipCount":12,"visitsCount":3008,"url":"http://ticketsus.at/yahooinc/337657.html","tier":"","message":"","currency":"","rating":8.1},{"name":"Drake's","phone":"5023843921","twitter":"drakescomeplay","address":"3921 Summit Plaza Dr","lat":38.3076752067411,"lng":-85.57618684962533,"neighborhood":"East Louisville","city_fetched":"Louisville","state":"KY","country":"United States","canonicalUrl":"https://foursquare.com/v/drakes/4ee28abc61aff90fe4add12c","category":"American Restaurant","checkinsCount":2300,"usersCount":1461,"tipCount":36,"visitsCount":2972,"url":"http://drakescomeplay.com","tier":2,"message":"Moderate","currency":"$","rating":8.1},{"name":"The Troll Pub Under The Bridge","phone":"5026184829","twitter":"21clouisville","address":"150 W Washington St","lat":38.2567321834122,"lng":-85.75306323557099,"neighborhood":"Central Business District","city_fetched":"Louisville","state":"KY","country":"United States","canonicalUrl":"https://foursquare.com/v/the-troll-pub-under-the-bridge/4e970901d22dc0733166f559","category":"Pub","checkinsCount":3892,"usersCount":2334,"tipCount":54,"visitsCount":3930,"url":"http://www.trollpub.com","tier":2,"message":"Moderate","currency":"$","rating":8.1},{"name":"Manny & Merle","phone":"5022908888","twitter":"mannyandmerle","address":"122 W Main St","lat":38.256051079291765,"lng":-85.75251740784992,"neighborhood":"Central Business District","city_fetched":"Louisville","state":"KY","country":"United States","canonicalUrl":"https://foursquare.com/v/manny--merle/50a424f8e4b0cc0370e5594b","category":"Southern / Soul Food Restaurant","checkinsCount":1217,"usersCount":722,"tipCount":29,"visitsCount":1272,"url":"http://mannyandmerle.com","tier":2,"message":"Moderate","currency":"$","rating":8.1},{"name":"Monnik Beer Company","phone":"5027426564","twitter":"monnikbeer","address":"1036 E Burnett Ave","lat":38.22279502687841,"lng":-85.7391704156209,"neighborhood":"Schnitzelburg","city_fetched":"Louisville","state":"KY","country":"United States","canonicalUrl":"https://foursquare.com/v/monnik-beer-company/5647389a498eafa53ec74243","category":"Brewery","checkinsCount":301,"usersCount":231,"tipCount":2,"visitsCount":413,"tier":"","message":"","currency":"","rating":8.1},{"name":"Galt House Hotel","phone":"8008434258","address":"140 N 4th St","lat":38.257875943379915,"lng":-85.75652835885604,"neighborhood":"Central Business District","city_fetched":"Louisville","state":"KY","country":"United States","canonicalUrl":"https://foursquare.com/v/galt-house-hotel/4b438a72f964a520c9e225e3","category":"Hotel","checkinsCount":16862,"usersCount":9295,"tipCount":77,"visitsCount":20140,"url":"http://www.galthouse.com","tier":"","message":"","currency":"","rating":8.1},{"name":"Sidebar at Whiskey Row","phone":"5023841600","address":"129 N 2nd St","lat":38.25690565603294,"lng":-85.75318842461992,"neighborhood":"Central Business District","city_fetched":"Louisville","state":"KY","country":"United States","canonicalUrl":"https://foursquare.com/v/sidebar-at-whiskey-row/517c5385e4b042838ba8d692","category":"Cocktail Bar","checkinsCount":1889,"usersCount":1251,"tipCount":40,"visitsCount":1933,"url":"http://sidebarwhiskeyrow.com","tier":2,"message":"Moderate","currency":"$","rating":8.1},{"name":"Floyd County Brewing Company","lat":38.28304375287805,"lng":-85.82411777978801,"neighborhood":"Downtown New Albany","city_fetched":"Louisville","state":"IN","country":"United States","canonicalUrl":"https://foursquare.com/v/floyd-county-brewing-company/55f0bde8498e2a3d9b715d31","category":"Brewery","checkinsCount":102,"usersCount":110,"tipCount":6,"visitsCount":172,"tier":"","message":"","currency":"","rating":8},{"name":"Hilltop Tavern","address":"1800 Frankfort Ave","lat":38.2565837597772,"lng":-85.71659055365177,"neighborhood":"Clifton","city_fetched":"Louisville","state":"KY","country":"United States","canonicalUrl":"https://foursquare.com/v/hilltop-tavern/4f03a4aa8b81d71b4bce4396","category":"Bar","checkinsCount":1978,"usersCount":632,"tipCount":21,"visitsCount":2211,"url":"http://hilltoptavernlouisville.blogspot.com","tier":2,"message":"Moderate","currency":"$","rating":8},{"name":"Louisville Beer Store","phone":"5025692337","address":"746 E Market St","lat":38.253042697906494,"lng":-85.73826258333334,"neighborhood":"East Market District","city_fetched":"Louisville","state":"KY","country":"United States","canonicalUrl":"https://foursquare.com/v/louisville-beer-store/4b072877f964a5206df822e3","category":"Beer Garden","checkinsCount":2031,"usersCount":826,"tipCount":14,"visitsCount":2047,"url":"http://louisvillebeerstore.com","tier":2,"message":"Moderate","currency":"$","rating":8},{"name":"Flanagan's Ale House","phone":"5025853700","address":"934 Baxter Ave","lat":38.241441099020044,"lng":-85.72537915792361,"neighborhood":"Highlands","city_fetched":"Louisville","state":"KY","country":"United States","canonicalUrl":"https://foursquare.com/v/flanagans-ale-house/4b16b554f964a5205dbc23e3","category":"Pub","checkinsCount":5967,"usersCount":1937,"tipCount":36,"visitsCount":6201,"url":"http://flanagansalehouse.com","tier":2,"message":"Moderate","currency":"$","rating":8},{"name":"Play","phone":"5028823615","twitter":"playdancebar","address":"1101 E Washington St","lat":38.256362424063944,"lng":-85.7306546259149,"neighborhood":"Butchertown","city_fetched":"Louisville","state":"KY","country":"United States","canonicalUrl":"https://foursquare.com/v/play/52a126c8498e85a607a4ce8b","category":"Gay Bar","checkinsCount":1211,"usersCount":579,"tipCount":7,"visitsCount":1707,"url":"http://playdancebar.com/index.php/play-louisville","tier":2,"message":"Moderate","currency":"$","rating":8},{"name":"Bluegrass Brewing Company","phone":"5028997070","twitter":"bbc_stmatthewso","address":"3929 Shelbyville Rd","lat":38.253083706083615,"lng":-85.65402111598223,"neighborhood":"East Louisville","city_fetched":"Louisville","state":"KY","country":"United States","canonicalUrl":"https://foursquare.com/v/bluegrass-brewing-company/4b3b8902f964a5205a7525e3","category":"Brewery","checkinsCount":4460,"usersCount":1757,"tipCount":45,"visitsCount":4766,"url":"http://bbcbrew.com","tier":2,"message":"Moderate","currency":"$","rating":7.9},{"name":"Brasserie Provence","phone":"5028833153","twitter":"brasserieproven","address":"150 N Hurstbourne Pkwy","lat":38.24902357321948,"lng":-85.57839245079812,"neighborhood":"East Louisville","city_fetched":"Louisville","state":"KY","country":"United States","canonicalUrl":"https://foursquare.com/v/brasserie-provence/5259d1ba11d2ea8f31cbcc72","category":"French Restaurant","checkinsCount":175,"usersCount":143,"tipCount":11,"visitsCount":220,"url":"http://brasserieprovence.com","tier":3,"message":"Expensive","currency":"$","rating":7.9},{"name":"Match Lounge","phone":"8127257475","twitter":"matchlounge","address":"207 Spring St","lat":38.270903,"lng":-85.739627,"neighborhood":"Downtown Jeffersonville","city_fetched":"Louisville","state":"IN","country":"United States","canonicalUrl":"https://foursquare.com/v/match-lounge/50cd420fe4b0373cc5454345","category":"Lounge","checkinsCount":219,"usersCount":111,"tipCount":7,"visitsCount":230,"url":"http://www.matchcigarbar.com","tier":"","message":"","currency":"","rating":7.9},{"name":"Four Pegs Beer Lounge","phone":"5026341447","twitter":"fourpegsbeer","address":"1053 Goss Ave","lat":38.22732545391647,"lng":-85.73527693748473,"neighborhood":"Germantown","city_fetched":"Louisville","state":"KY","country":"United States","canonicalUrl":"https://foursquare.com/v/four-pegs-beer-lounge/4eb426b4722e578a4ee01655","category":"Gastropub","checkinsCount":1782,"usersCount":767,"tipCount":28,"visitsCount":2157,"url":"http://fourpegsbeerlounge.com","tier":2,"message":"Moderate","currency":"$","rating":7.9},{"name":"Haymarket Whiskey Bar","phone":"5024420523","address":"331 E Market St","lat":38.25426208643969,"lng":-85.74681842925094,"neighborhood":"Central Business District","city_fetched":"Louisville","state":"KY","country":"United States","canonicalUrl":"https://foursquare.com/v/haymarket-whiskey-bar/4f0de2f9e4b04a8cd81ef041","category":"Bar","checkinsCount":1564,"usersCount":1108,"tipCount":18,"visitsCount":1990,"url":"http://haymarketwhiskeybar.com","tier":"","message":"","currency":"","rating":7.9},{"name":"Louvino","phone":"5023651921","twitter":"louvinowine","address":"1606 Bardstown Rd","lat":38.23058,"lng":-85.704529,"neighborhood":"Deer Park","city_fetched":"Louisville","state":"KY","country":"United States","canonicalUrl":"https://foursquare.com/v/louvino/53dadfcb498e9230e3ed2e6a","category":"Lounge","checkinsCount":389,"usersCount":256,"tipCount":5,"visitsCount":475,"url":"http://louvino.com","tier":"","message":"","currency":"","rating":7.9},{"name":"Martini Italian Bistro","phone":"5023949797","twitter":"cmrcolumbus","address":"4021 Summit Plaza Dr","lat":38.30803787028417,"lng":-85.57731227023199,"neighborhood":"East Louisville","city_fetched":"Louisville","state":"KY","country":"United States","canonicalUrl":"https://foursquare.com/v/martini-italian-bistro/4afeff64f964a520bc3222e3","category":"Italian Restaurant","checkinsCount":1327,"usersCount":768,"tipCount":32,"visitsCount":1371,"url":"http://wefollow.com/CMRColumbus","tier":2,"message":"Moderate","currency":"$","rating":7.9},{"name":"galaxie","address":"732 E Market St","lat":38.25317846640115,"lng":-85.73879599571228,"neighborhood":"East Market District","city_fetched":"Louisville","state":"KY","country":"United States","canonicalUrl":"https://foursquare.com/v/galaxie/559899c8498e844b28301892","category":"Bar","checkinsCount":233,"usersCount":113,"tipCount":1,"visitsCount":265,"tier":"","message":"","currency":"","rating":7.9},{"name":"Napa River Grill","phone":"5024235822","twitter":"naparivergrill","address":"1211 Herr Ln","lat":38.2682265735975,"lng":-85.61244965539464,"neighborhood":"East Louisville","city_fetched":"Louisville","state":"KY","country":"United States","canonicalUrl":"https://foursquare.com/v/napa-river-grill/4b54f6f2f964a5209ad527e3","category":"Wine Bar","checkinsCount":1162,"usersCount":653,"tipCount":15,"visitsCount":1312,"url":"http://www.napariverlouisville.com","tier":"","message":"","currency":"","rating":7.8},{"name":"Check's Cafe","phone":"5026379515","address":"1101 E Burnett Ave","lat":38.222739,"lng":-85.7388,"neighborhood":"Schnitzelburg","city_fetched":"Louisville","state":"KY","country":"United States","canonicalUrl":"https://foursquare.com/v/checks-cafe/4b242dd0f964a520106324e3","category":"Dive Bar","checkinsCount":1072,"usersCount":611,"tipCount":20,"visitsCount":1577,"url":"http://checkscafe.com","tier":1,"message":"Cheap","currency":"$","rating":7.8},{"name":"The Old Seelbach Bar","phone":"5025853200","twitter":"hiltonhotels","address":"500 S 4th St","lat":38.25121848836435,"lng":-85.75761491859862,"neighborhood":"Central Business District","city_fetched":"Louisville","state":"KY","country":"United States","canonicalUrl":"https://foursquare.com/v/the-old-seelbach-bar/50ca02c6245f2d4aa8c2c912","category":"Hotel Bar","checkinsCount":1395,"usersCount":1128,"tipCount":25,"visitsCount":1403,"url":"http://www.hilton.com","tier":"","message":"","currency":"","rating":7.8},{"name":"Stevie Ray's Blues Bar","phone":"5025829945","address":"230 E Main St","lat":38.25561329919729,"lng":-85.74893474578857,"neighborhood":"Central Business District","city_fetched":"Louisville","state":"KY","country":"United States","canonicalUrl":"https://foursquare.com/v/stevie-rays-blues-bar/4b2b054ef964a520c0b324e3","category":"Bar","checkinsCount":586,"usersCount":551,"tipCount":8,"visitsCount":706,"url":"http://www.stevieraysbluesbar.com","tier":"","message":"","currency":"","rating":7.8},{"name":"Great Flood Brewing Company","phone":"5024577711","address":"2120 Bardstown Rd","lat":38.22467880771639,"lng":-85.6946226885561,"neighborhood":"Deer Park","city_fetched":"Louisville","state":"KY","country":"United States","canonicalUrl":"https://foursquare.com/v/great-flood-brewing-company/52c604ca498eb13cff59e993","category":"Brewery","checkinsCount":798,"usersCount":386,"tipCount":6,"visitsCount":1119,"url":"http://greatfloodbrewing.com","tier":"","message":"","currency":"","rating":7.8},{"name":"Apocalypse Brew Works","address":"1612 Mellwood Ave","lat":38.25666436994834,"lng":-85.72053169373766,"neighborhood":"Clifton","city_fetched":"Louisville","state":"KY","country":"United States","canonicalUrl":"https://foursquare.com/v/apocalypse-brew-works/4ed0271d0aafd1868ea4d306","category":"Brewery","checkinsCount":1065,"usersCount":628,"tipCount":18,"visitsCount":1354,"url":"http://apocalypsebrewworks.com","tier":1,"message":"Cheap","currency":"$","rating":7.8},{"name":"8up Elevated Food and Drinkery","phone":"5026314180","twitter":"8uplouisville","address":"350 W Chestnut St","lat":38.24881924051828,"lng":-85.75758988291156,"neighborhood":"Central Business District","city_fetched":"Louisville","state":"KY","country":"United States","canonicalUrl":"https://foursquare.com/v/8up-elevated-food-and-drinkery/5462b083498ecce55ba8952c","category":"American Restaurant","checkinsCount":713,"usersCount":683,"tipCount":9,"visitsCount":1104,"url":"http://www.8uplouisville.com","tier":"","message":"","currency":"","rating":7.7},{"name":"Uptown Cafe","phone":"5024584212","twitter":"uptnlouisville","address":"1624 Bardstown Rd","lat":38.2301333849356,"lng":-85.70400638132645,"neighborhood":"Deer Park","city_fetched":"Louisville","state":"KY","country":"United States","canonicalUrl":"https://foursquare.com/v/uptown-cafe/4b3ba092f964a520577725e3","category":"American Restaurant","checkinsCount":1555,"usersCount":503,"tipCount":12,"visitsCount":1753,"url":"http://uptownlouisville.com","tier":2,"message":"Moderate","currency":"$","rating":7.7},{"name":"B.C. Roosters","address":"7405 Preston Hwy","lat":38.14421266443048,"lng":-85.68928848219569,"neighborhood":"Okolona","city_fetched":"Louisville","state":"KY","country":"United States","canonicalUrl":"https://foursquare.com/v/bc-roosters/4b9ae610f964a520e9e035e3","category":"American Restaurant","checkinsCount":1365,"usersCount":766,"tipCount":16,"visitsCount":1971,"tier":1,"message":"Cheap","currency":"$","rating":7.7},{"name":"BJ's Restaurant and Brewhouse","phone":"5023263850","twitter":"bjsrestaurants","address":"7900 Shelbyville Road","lat":38.24761836,"lng":-85.60903537,"neighborhood":"East Louisville","city_fetched":"Louisville","state":"KY","country":"United States","canonicalUrl":"https://foursquare.com/v/bjs-restaurant-and-brewhouse/4b1ef2d3f964a520ea2124e3","category":"American Restaurant","checkinsCount":3729,"usersCount":2093,"tipCount":57,"visitsCount":4256,"url":"http://t.co/bl46gcjDLN","tier":2,"message":"Moderate","currency":"$","rating":7.7},{"name":"O'Shea's Irish Pub","phone":"5025897373","twitter":"osheaspub502","address":"956 Baxter Ave","lat":38.240697169170446,"lng":-85.72491320812324,"neighborhood":"Highlands","city_fetched":"Louisville","state":"KY","country":"United States","canonicalUrl":"https://foursquare.com/v/osheas-irish-pub/4b11e741f964a520c58623e3","category":"Pub","checkinsCount":5217,"usersCount":2724,"tipCount":44,"visitsCount":5577,"url":"http://www.osheaslouisville.net","tier":2,"message":"Moderate","currency":"$","rating":7.7},{"name":"Over The 9","phone":"5022526671","twitter":"overthe9","address":"120 S. 10th St.","lat":38.25670279409937,"lng":-85.76666704456521,"neighborhood":"Portland","city_fetched":"Louisville","state":"KY","country":"United States","canonicalUrl":"https://foursquare.com/overthe9","category":"Gastropub","checkinsCount":92,"usersCount":91,"tipCount":1,"visitsCount":119,"url":"http://www.gooverthe9.com","tier":2,"message":"Moderate","currency":"$","rating":7.7},{"name":"DiOrio's Pizza and Pub","phone":"5026148424","address":"919 Baxter Ave","lat":38.24213,"lng":-85.72575,"neighborhood":"Cherokee Triangle","city_fetched":"Louisville","state":"KY","country":"United States","canonicalUrl":"https://foursquare.com/v/diorios-pizza-and-pub/53023b17498e3e88ef47eb12","category":"Pizza Place","checkinsCount":386,"usersCount":250,"tipCount":6,"visitsCount":427,"url":"https://dioriospizzaandpub.hungerrush.com","tier":"","message":"","currency":"","rating":7.7},{"name":"Jock's Sports Bar And Grill","lat":38.19884928619066,"lng":-85.62246530304196,"neighborhood":"East Louisville","city_fetched":"Louisville","state":"Kentucky","country":"United States","canonicalUrl":"https://foursquare.com/v/jocks-sports-bar-and-grill/4ecf5b824690a03b5c170bef","category":"Sports Bar","checkinsCount":180,"usersCount":169,"tipCount":2,"visitsCount":328,"tier":"","message":"","currency":"","rating":7.7},{"name":"Louis's The Ton","lat":38.2591,"lng":-85.72141,"neighborhood":"Butchertown","city_fetched":"Louisville","state":"KY","country":"United States","canonicalUrl":"https://foursquare.com/v/louiss-the-ton/54a0923b498e1c9f0ed9163d","category":"Bar","checkinsCount":189,"usersCount":92,"tipCount":1,"visitsCount":207,"tier":"","message":"","currency":"","rating":7.7},{"name":"World Of Beer","phone":"5026904280","address":"9850 Von Allmen Ct","lat":38.312177339906896,"lng":-85.5696498989326,"neighborhood":"East Louisville","city_fetched":"Louisville","state":"KY","country":"United States","canonicalUrl":"https://foursquare.com/v/world-of-beer/564e5d51498e18ad321fd89c","category":"Bar","checkinsCount":203,"usersCount":311,"tipCount":7,"visitsCount":503,"url":"https://worldofbeer.com/Locations/Louisville","tier":"","message":"","currency":"","rating":7.7},{"name":"Bistro1860","address":"1765 Mellwood Ave","lat":38.260249,"lng":-85.71696,"neighborhood":"Butchertown","city_fetched":"Louisville","state":"KY","country":"United States","canonicalUrl":"https://foursquare.com/v/bistro1860/50d4d880e4b01e0c5c783d91","category":"Lounge","checkinsCount":223,"usersCount":206,"tipCount":12,"visitsCount":265,"tier":"","message":"","currency":"","rating":7.7},{"name":"Molly Malone's","phone":"5024731222","address":"933 Baxter Ave","lat":38.24175667,"lng":-85.725215,"neighborhood":"Cherokee Triangle","city_fetched":"Louisville","state":"KY","country":"United States","canonicalUrl":"https://foursquare.com/v/molly-malones/4b072e78f964a52005f922e3","category":"Pub","checkinsCount":3996,"usersCount":2204,"tipCount":34,"visitsCount":4093,"url":"http://mollymalonesirishpub.com","tier":2,"message":"Moderate","currency":"$","rating":7.7},{"name":"Gordon Biersch","phone":"5025898935","address":"400 S 4th St","lat":38.25282233974731,"lng":-85.75721935335484,"neighborhood":"Central Business District","city_fetched":"Louisville","state":"KY","country":"United States","canonicalUrl":"https://foursquare.com/v/gordon-biersch/4f89e628e4b0b1c4b0378bf0","category":"Brewery","checkinsCount":5382,"usersCount":3348,"tipCount":52,"visitsCount":5919,"url":"http://gordonbiersch.com","tier":2,"message":"Moderate","currency":"$","rating":7.7},{"name":"Third Street Dive","phone":"5025870706","address":"440 S 3rd St","lat":38.25142811664512,"lng":-85.75592994689941,"neighborhood":"Central Business District","city_fetched":"Louisville","state":"KY","country":"United States","canonicalUrl":"https://foursquare.com/v/third-street-dive/4acfe26af964a520a9d620e3","category":"Dive Bar","checkinsCount":1211,"usersCount":883,"tipCount":14,"visitsCount":1593,"tier":1,"message":"Cheap","currency":"$","rating":7.6},{"name":"Big Bar","phone":"5026182237","address":"1202 Bardstown Rd","lat":38.23689079164597,"lng":-85.71838974952698,"neighborhood":"Tyler Park","city_fetched":"Louisville","state":"KY","country":"United States","canonicalUrl":"https://foursquare.com/v/big-bar/4fa1ad8ae4b0da4fd9f83932","category":"Gay Bar","checkinsCount":2448,"usersCount":700,"tipCount":12,"visitsCount":2998,"url":"http://bigbar.co","tier":2,"message":"Moderate","currency":"$","rating":7.6},{"name":"Jack's Lounge","phone":"5028979721","address":"122 Sears Ave","lat":38.25406156,"lng":-85.64657,"neighborhood":"East Louisville","city_fetched":"Louisville","state":"KY","country":"United States","canonicalUrl":"https://foursquare.com/v/jacks-lounge/4b6229f0f964a52081392ae3","category":"Lounge","checkinsCount":558,"usersCount":301,"tipCount":11,"visitsCount":649,"tier":"","message":"","currency":"","rating":7.6},{"name":"Meta","address":"425 W Chestnut St","lat":38.249131589738006,"lng":-85.75900187711235,"neighborhood":"Central Business District","city_fetched":"Louisville","state":"KY","country":"United States","canonicalUrl":"https://foursquare.com/v/meta/520a732c11d29a45b64b67dc","category":"Cocktail Bar","checkinsCount":427,"usersCount":365,"tipCount":3,"visitsCount":616,"tier":"","message":"","currency":"","rating":7.6},{"name":"Cumberland Brews","phone":"5024588727","twitter":"findthebest","address":"1576 Bardstown Rd","lat":38.230927,"lng":-85.705428,"neighborhood":"Deer Park","city_fetched":"Louisville","state":"KY","country":"United States","canonicalUrl":"https://foursquare.com/v/cumberland-brews/4b298191f964a52006a024e3","category":"Brewery","checkinsCount":3629,"usersCount":1410,"tipCount":35,"visitsCount":3832,"url":"http://www.cumberlandbrewery.com","tier":2,"message":"Moderate","currency":"$","rating":7.6},{"name":"DiOrio's Pizza and Pub","phone":"5026183424","address":"310 Wallace Ave","lat":38.252183069261434,"lng":-85.6576165595245,"neighborhood":"East Louisville","city_fetched":"Louisville","state":"KY","country":"United States","canonicalUrl":"https://foursquare.com/v/diorios-pizza-and-pub/4cae417a562d224ba3ae0488","category":"Pizza Place","checkinsCount":712,"usersCount":358,"tipCount":20,"visitsCount":743,"url":"https://dioriospizzaandpub.hungerrush.com","tier":"","message":"","currency":"","rating":7.6},{"name":"Goodwood Brewing","twitter":"goodwoodbrewing","address":"636 E Main St","lat":38.25462407056798,"lng":-85.74000188394629,"neighborhood":"East Market District","city_fetched":"Louisville","state":"KY","country":"United States","canonicalUrl":"https://foursquare.com/v/goodwood-brewing/553ab975498e67b885704b6b","category":"Brewery","checkinsCount":279,"usersCount":232,"tipCount":3,"visitsCount":382,"url":"http://www.goodwood.beer","tier":"","message":"","currency":"","rating":7.6},{"name":"The Sea Hag","address":"11507 Park Rd","lat":38.26558302853618,"lng":-85.54035195657357,"neighborhood":"East Louisville","city_fetched":"Louisville","state":"KY","country":"United States","canonicalUrl":"https://foursquare.com/v/the-sea-hag/4be60fc02457a5938173ac15","category":"Lounge","checkinsCount":378,"usersCount":164,"tipCount":7,"visitsCount":386,"tier":"","message":"","currency":"","rating":7.6},{"name":"Noosh Nosh","address":"4816 Brownsboro Ctr","lat":38.27793202437327,"lng":-85.63638367968686,"neighborhood":"East Louisville","city_fetched":"Louisville","state":"KY","country":"United States","canonicalUrl":"https://foursquare.com/v/noosh-nosh/5745cb3c498eb2f2f661ee8d","category":"Gastropub","checkinsCount":31,"usersCount":28,"tipCount":1,"visitsCount":53,"tier":"","message":"","currency":"","rating":7.6},{"name":"Saints Bar","phone":"5028918883","address":"131 Breckenridge Ln","lat":38.25200022644123,"lng":-85.65439738454053,"neighborhood":"East Louisville","city_fetched":"Louisville","state":"KY","country":"United States","canonicalUrl":"https://foursquare.com/v/saints-bar/4b11e515f964a520a68623e3","category":"Bar","checkinsCount":1293,"usersCount":719,"tipCount":19,"visitsCount":1578,"url":"http://www.saintspizza.com","tier":"","message":"","currency":"","rating":7.6},{"name":"Main Event Entertainment","phone":"5022445555","address":"12500 Sycamore Station Pl","lat":38.222394635058784,"lng":-85.52978287924697,"neighborhood":"East Louisville","city_fetched":"Louisville","state":"KY","country":"United States","canonicalUrl":"https://foursquare.com/v/main-event-entertainment/56fafcce498e7f2fd82f6209","category":"Bowling Alley","checkinsCount":162,"usersCount":230,"tipCount":1,"visitsCount":343,"url":"http://www.mainevent.com","tier":"","message":"","currency":"","rating":7.6},{"name":"Jack's","phone":"8129481600","address":"3308 Plaza Dr","lat":38.32703,"lng":-85.8170876,"city_fetched":"Louisville","state":"IN","country":"United States","canonicalUrl":"https://foursquare.com/v/jacks/4b68c5f4f964a520318c2be3","category":"Dive Bar","checkinsCount":669,"usersCount":159,"tipCount":3,"visitsCount":788,"tier":"","message":"","currency":"","rating":7.5},{"name":"Bungalow Joe's","phone":"5029315637","address":"7813 Beulah Church Rd","lat":38.13533295196043,"lng":-85.61310768127441,"neighborhood":"Fern Creek","city_fetched":"Louisville","state":"KY","country":"United States","canonicalUrl":"https://foursquare.com/v/bungalow-joes/4c3369fe452620a1828b230f","category":"Sports Bar","checkinsCount":734,"usersCount":349,"tipCount":9,"visitsCount":900,"url":"http://bungalow-joes.com","tier":"","message":"","currency":"","rating":7.5},{"name":"HopCat","phone":"5028908676","address":"1064 Bardstown Rd","lat":38.238476,"lng":-85.721756,"neighborhood":"Cherokee Triangle","city_fetched":"Louisville","state":"KY","country":"United States","canonicalUrl":"https://foursquare.com/v/hopcat/577d22cb498e1165a3ae0712","category":"Brewery","checkinsCount":188,"usersCount":163,"tipCount":6,"visitsCount":235,"tier":"","message":"","currency":"","rating":7.5},{"name":"Hard Rock Cafe Louisville","phone":"5025682202","twitter":"hardrock","address":"424 S 4th St","lat":38.25210175219937,"lng":-85.75748974004459,"neighborhood":"Central Business District","city_fetched":"Louisville","state":"KY","country":"United States","canonicalUrl":"https://foursquare.com/v/hard-rock-cafe-louisville/4b4247dff964a520a2d025e3","category":"Theme Restaurant","checkinsCount":3934,"usersCount":3091,"tipCount":31,"visitsCount":3947,"url":"http://www.facebook.com/hardrock","tier":2,"message":"Moderate","currency":"$","rating":7.5},{"name":"Tumbleweed Tex Mex Grill","phone":"5029379951","twitter":"twtexmex","address":"9701 Dixie Hwy","lat":38.11516681005892,"lng":-85.86016627701689,"neighborhood":"Valley Station","city_fetched":"Louisville","state":"KY","country":"United States","canonicalUrl":"https://foursquare.com/v/tumbleweed-tex-mex-grill/4b881af5f964a5202ae031e3","category":"Mexican Restaurant","checkinsCount":734,"usersCount":340,"tipCount":8,"visitsCount":821,"url":"http://tumbleweedrestaurants.com","tier":2,"message":"Moderate","currency":"$","rating":7.5},{"name":"Nowhere Bar","phone":"5024510466","twitter":"nowherelville","address":"1133 Bardstown Rd","lat":38.23786882521955,"lng":-85.71954196373683,"neighborhood":"Highlands","city_fetched":"Louisville","state":"KY","country":"United States","canonicalUrl":"https://foursquare.com/v/nowhere-bar/5153bd7be4b0999e21ce171e","category":"Nightclub","checkinsCount":1511,"usersCount":699,"tipCount":16,"visitsCount":1841,"url":"http://nowherelouisville.com","tier":2,"message":"Moderate","currency":"$","rating":7.5},{"name":"The Connection","phone":"5025855752","address":"120 S Floyd St","lat":38.25477712446767,"lng":-85.74814349412918,"neighborhood":"Central Business District","city_fetched":"Louisville","state":"KY","country":"United States","canonicalUrl":"https://foursquare.com/v/the-connection/4b63a7f7f964a5201d8a2ae3","category":"Gay Bar","checkinsCount":4432,"usersCount":1756,"tipCount":34,"visitsCount":4626,"url":"http://www.theconnection.net","tier":2,"message":"Moderate","currency":"$","rating":7.5},{"name":"Fourth Street Live!","phone":"5025889003","lat":38.25229480292811,"lng":-85.75730948240529,"city_fetched":"Louisville","state":"KY","country":"United States","canonicalUrl":"https://foursquare.com/v/fourth-street-live/4b3b81d9f964a520d57425e3","category":"Plaza","checkinsCount":14338,"usersCount":7682,"tipCount":46,"visitsCount":14478,"tier":"","message":"","currency":"","rating":7.4},{"name":"The Golden Nugget","phone":"5024549914","address":"2922 Hikes Ln","lat":38.210264919806754,"lng":-85.64141709132325,"neighborhood":"Klondike","city_fetched":"Louisville","state":"KY","country":"United States","canonicalUrl":"https://foursquare.com/v/the-golden-nugget/4bb694a42f70c9b613af8530","category":"Bar","checkinsCount":634,"usersCount":227,"tipCount":5,"visitsCount":919,"url":"http://goldennugget.com","tier":"","message":"","currency":"","rating":7.4},{"name":"Khalil's","address":"10966 Dixie Hwy","lat":38.096847,"lng":-85.874265,"neighborhood":"Valley Station","city_fetched":"Louisville","state":"KY","country":"United States","canonicalUrl":"https://foursquare.com/v/khalils/4fdbde70e4b0735a6da5cebb","category":"Sports Bar","checkinsCount":414,"usersCount":228,"tipCount":12,"visitsCount":692,"url":"http://khalilsondixie.com","tier":"","message":"","currency":"","rating":7.4},{"name":"Buckhead Mountain Grill","phone":"8122842919","twitter":"buckheadmtgrill","address":"707 W Riverside Dr","lat":38.268167,"lng":-85.74817118,"city_fetched":"Louisville","state":"IN","country":"United States","canonicalUrl":"https://foursquare.com/v/buckhead-mountain-grill/4b68b75bf964a520d4882be3","category":"American Restaurant","checkinsCount":3547,"usersCount":2075,"tipCount":43,"visitsCount":4146,"url":"http://eatatbuckheads.com","tier":2,"message":"Moderate","currency":"$","rating":7.4},{"name":"Bambi Bar","phone":"5024569635","address":"2701 Bardstown Rd","lat":38.22155155243025,"lng":-85.68194805870995,"neighborhood":"Highlands Douglass","city_fetched":"Louisville","state":"KY","country":"United States","canonicalUrl":"https://foursquare.com/v/bambi-bar/4c018119cebfef3bd64197fd","category":"Bar","checkinsCount":241,"usersCount":186,"tipCount":7,"visitsCount":311,"tier":"","message":"","currency":"","rating":7.4},{"name":"Spring Street Bar and Grill","phone":"5025846630","address":"300 S Spring St","lat":38.25156523632324,"lng":-85.71892062791555,"neighborhood":"The Highlands","city_fetched":"Louisville","state":"KY","country":"United States","canonicalUrl":"https://foursquare.com/v/spring-street-bar-and-grill/4b5493ddf964a520dbc027e3","category":"Gastropub","checkinsCount":1355,"usersCount":521,"tipCount":16,"visitsCount":1597,"url":"http://springstreetbarandgrill.com","tier":1,"message":"Cheap","currency":"$","rating":7.4},{"name":"Prince Hookah of Louisville","address":"1489 S 4th St","lat":38.226064799190794,"lng":-85.76163048910587,"neighborhood":"Old Louisville","city_fetched":"Louisville","state":"KY","country":"United States","canonicalUrl":"https://foursquare.com/v/prince-hookah-of-louisville/4fade0cfe4b0f4503a11154d","category":"Hookah Bar","checkinsCount":428,"usersCount":131,"tipCount":10,"visitsCount":514,"url":"http://princehookahlounge.com","tier":"","message":"","currency":"","rating":7.4},{"name":"Mag Bar","phone":"5026379052","address":"1398 S 2nd St","lat":38.22887488380485,"lng":-85.75825082106914,"neighborhood":"Old Louisville","city_fetched":"Louisville","state":"KY","country":"United States","canonicalUrl":"https://foursquare.com/v/mag-bar/4af64000f964a520a10222e3","category":"Bar","checkinsCount":2953,"usersCount":784,"tipCount":19,"visitsCount":3197,"tier":2,"message":"Moderate","currency":"$","rating":7.3},{"name":"Monkey Wrench","phone":"5025822433","address":"1025 Barret Ave","lat":38.236048431532865,"lng":-85.72755353608292,"neighborhood":"Highlands","city_fetched":"Louisville","state":"KY","country":"United States","canonicalUrl":"https://foursquare.com/v/monkey-wrench/4b10a9b9f964a520867423e3","category":"Bar","checkinsCount":2022,"usersCount":1102,"tipCount":31,"visitsCount":2255,"url":"http://monkeywrench.com","tier":2,"message":"Moderate","currency":"$","rating":7.3},{"name":"R Place Pub","phone":"5024258516","address":"9603 Whipps Mill Rd","lat":38.268274345239924,"lng":-85.57940227431432,"neighborhood":"East Louisville","city_fetched":"Louisville","state":"KY","country":"United States","canonicalUrl":"https://foursquare.com/v/r-place-pub/4b14020cf964a5209f9b23e3","category":"Dive Bar","checkinsCount":1417,"usersCount":468,"tipCount":11,"visitsCount":1792,"url":"http://rplacepub.com","tier":"","message":"","currency":"","rating":7.3},{"name":"Diamonds Pub & Billiards","phone":"5026907040","address":"630 Barret Ave","lat":38.24591627736129,"lng":-85.73261838847537,"neighborhood":"Phoenix Hill","city_fetched":"Louisville","state":"KY","country":"United States","canonicalUrl":"https://foursquare.com/v/diamonds-pub--billiards/4efff8dcf9abd5b390b5856d","category":"Bar","checkinsCount":1725,"usersCount":1003,"tipCount":9,"visitsCount":2256,"url":"http://www.diamondpubandbilliards.com","tier":"","message":"","currency":"","rating":7.3},{"name":"Red Yeti Brewing Company","twitter":"redyetibrewing","address":"256 Spring St","lat":38.27179174838213,"lng":-85.74024731486776,"neighborhood":"Downtown Jeffersonville","city_fetched":"Louisville","state":"IN","country":"United States","canonicalUrl":"https://foursquare.com/v/red-yeti-brewing-company/537a761d498eed2021c164e2","category":"Brewery","checkinsCount":440,"usersCount":394,"tipCount":15,"visitsCount":621,"url":"http://redyetibrewing.com","tier":"","message":"","currency":"","rating":7.3},{"name":"BLU Italian Grille","phone":"5026714285","twitter":"blugrille","address":"280 W Jefferson St","lat":38.25339617301609,"lng":-85.75506622474003,"neighborhood":"Central Business District","city_fetched":"Louisville","state":"KY","country":"United States","canonicalUrl":"https://foursquare.com/v/blu-italian-grille/4b565330f964a5205f0b28e3","category":"Hotel Bar","checkinsCount":936,"usersCount":669,"tipCount":17,"visitsCount":941,"url":"http://www.blugrille.com","tier":3,"message":"Expensive","currency":"$","rating":7.3},{"name":"O'Connell's Irish Pub","lat":38.155808,"lng":-85.657441,"neighborhood":"Highview","city_fetched":"Louisville","state":"KY","country":"United States","canonicalUrl":"https://foursquare.com/v/oconnells-irish-pub/4ea62b892c5b614a68bc0006","category":"Bar","checkinsCount":107,"usersCount":75,"tipCount":4,"visitsCount":149,"tier":"","message":"","currency":"","rating":7.2},{"name":"The O'Line Sports Grill","phone":"5023846171","twitter":"olinegrill","address":"2813 N Hurstbourne Pkwy Ste 101","lat":38.286943477214166,"lng":-85.57083072923282,"neighborhood":"East Louisville","city_fetched":"Louisville","state":"KY","country":"United States","canonicalUrl":"https://foursquare.com/v/the-oline-sports-grill/50f8804690e7bb7c675ad3bb","category":"Sports Bar","checkinsCount":476,"usersCount":101,"tipCount":11,"visitsCount":499,"url":"http://www.olinegrill.com","tier":"","message":"","currency":"","rating":7.2},{"name":"Tumbleweed Tex Mex Grill","phone":"8129236011","twitter":"twtexmex","address":"718 Highlander Point Dr","lat":38.31646397723396,"lng":-85.89890161483515,"city_fetched":"Louisville","state":"IN","country":"United States","canonicalUrl":"https://foursquare.com/v/tumbleweed-tex-mex-grill/4b5098ddf964a520cd2827e3","category":"Restaurant","checkinsCount":804,"usersCount":312,"tipCount":5,"visitsCount":857,"url":"http://tumbleweedrestaurants.com","tier":2,"message":"Moderate","currency":"$","rating":7.2},{"name":"Tumbleweed Tex Mex Grill","phone":"5024128171","twitter":"twtexmex","address":"3550 Springhurst Commons Dr","lat":38.29749622899192,"lng":-85.5613883837886,"neighborhood":"East Louisville","city_fetched":"Louisville","state":"KY","country":"United States","canonicalUrl":"https://foursquare.com/v/tumbleweed-tex-mex-grill/4b6c4ef9f964a520762f2ce3","category":"Bar","checkinsCount":890,"usersCount":575,"tipCount":14,"visitsCount":1102,"url":"http://tumbleweedrestaurants.com","tier":2,"message":"Moderate","currency":"$","rating":7.2},{"name":"Granville Inn","phone":"5026356475","address":"1601 S 3rd St","lat":38.22456553492816,"lng":-85.76033372355062,"neighborhood":"Old Louisville","city_fetched":"Louisville","state":"KY","country":"United States","canonicalUrl":"https://foursquare.com/v/granville-inn/4b4ca466f964a52084b826e3","category":"Bar","checkinsCount":1713,"usersCount":730,"tipCount":14,"visitsCount":2047,"tier":1,"message":"Cheap","currency":"$","rating":7.1},{"name":"Joe's Older Than Dirt","phone":"5024262074","address":"8131 New La Grange Rd","lat":38.2600155292511,"lng":-85.60259784742237,"neighborhood":"East Louisville","city_fetched":"Louisville","state":"KY","country":"United States","canonicalUrl":"https://foursquare.com/v/joes-older-than-dirt/4b621e83f964a520ad362ae3","category":"Bar","checkinsCount":1955,"usersCount":848,"tipCount":21,"visitsCount":2200,"url":"http://joesotdirt.com","tier":"","message":"","currency":"","rating":7.1},{"name":"The Hub","lat":38.25363730161582,"lng":-85.7046679892989,"neighborhood":"Clifton","city_fetched":"Louisville","state":"KY","country":"United States","canonicalUrl":"https://foursquare.com/v/the-hub/5698534a498eac8f37383152","category":"Gastropub","checkinsCount":154,"usersCount":128,"tipCount":0,"visitsCount":200,"tier":"","message":"","currency":"","rating":7.1},{"name":"Howl at the Moon","phone":"5025629400","twitter":"_howlatthemoon","address":"434 S 4th St","lat":38.2521319773197,"lng":-85.75753981150181,"neighborhood":"Central Business District","city_fetched":"Louisville","state":"KY","country":"United States","canonicalUrl":"https://foursquare.com/v/howl-at-the-moon/4b253462f964a520fd6d24e3","category":"Piano Bar","checkinsCount":2898,"usersCount":2204,"tipCount":33,"visitsCount":2914,"url":"http://www.howlatthemoon.com","tier":"","message":"","currency":"","rating":7.1},{"name":"Kern's Korner Tavern","address":"2600 Bardstown Rd","lat":38.222414,"lng":-85.683556,"neighborhood":"Highlands Douglass","city_fetched":"Louisville","state":"KY","country":"United States","canonicalUrl":"https://foursquare.com/v/kerns-korner-tavern/4b32c5b8f964a5209c1325e3","category":"Dive Bar","checkinsCount":247,"usersCount":114,"tipCount":3,"visitsCount":247,"tier":"","message":"","currency":"","rating":7},{"name":"Al J's at the Conservatory","phone":"5025895200","twitter":"galthouse","address":"140 N 4th St","lat":38.257855322071244,"lng":-85.75644323571964,"neighborhood":"Central Business District","city_fetched":"Louisville","state":"KY","country":"United States","canonicalUrl":"https://foursquare.com/galthouse","category":"Bar","checkinsCount":958,"usersCount":686,"tipCount":10,"visitsCount":962,"url":"http://www.galthouse.com/Dining/Al-Js","tier":"","message":"","currency":"","rating":7},{"name":"Left Field Lounge","address":"2282 Bardstown Rd","lat":38.2240957,"lng":-85.691351,"neighborhood":"Belknap","city_fetched":"Louisville","state":"KY","country":"United States","canonicalUrl":"https://foursquare.com/v/left-field-lounge/4b32d104f964a5206d1425e3","category":"Dive Bar","checkinsCount":319,"usersCount":181,"tipCount":3,"visitsCount":331,"tier":"","message":"","currency":"","rating":7},{"name":"Pinot's Palette St. Matthews","phone":"5024094572","twitter":"pinotlouisville","address":"291 N Hubbards Ln, Suite 160","lat":38.25928251036874,"lng":-85.63732214842416,"neighborhood":"East Louisville","city_fetched":"Louisville","state":"KY","country":"United States","canonicalUrl":"https://foursquare.com/v/pinots-palette-st-matthews/50cbbac3e4b0373cba8da496","category":"General Entertainment","checkinsCount":99,"usersCount":55,"tipCount":6,"visitsCount":103,"url":"https://www.pinotspalette.com/louisville","tier":"","message":"","currency":"","rating":6.9},{"name":"Rubbie's","address":"Southside Dr.","lat":38.15728171921848,"lng":-85.76440415864847,"city_fetched":"Louisville","state":"KY","country":"United States","canonicalUrl":"https://foursquare.com/v/rubbies/4b80ca7af964a5203e8c30e3","category":"Bar","checkinsCount":160,"usersCount":81,"tipCount":3,"visitsCount":173,"tier":"","message":"","currency":"","rating":6.7}]