[{"name":"Cafe J","phone":"8067435400","twitter":"cafe_j_lbk","address":"2605 19th St","lat":33.57725049647928,"lng":-101.87336683273315,"neighborhood":"Tech Terrace- U.N.I.T.","city_fetched":"Lubbock","state":"TX","country":"United States","canonicalUrl":"https://foursquare.com/v/cafe-j/4b6cd4cdf964a520ad572ce3","category":"Caf√©","checkinsCount":1590,"usersCount":891,"tipCount":20,"visitsCount":1960,"url":"http://cafejlubbock.com","tier":"","message":"","currency":"","rating":8.6},{"name":"Llano Estacado Winery","phone":"8067452258","address":"3426 E FM 1586","lat":33.475788474477724,"lng":-101.79244959738575,"city_fetched":"Lubbock","state":"TX","country":"United States","canonicalUrl":"https://foursquare.com/v/llano-estacado-winery/4d21ec178629224b1b311f87","category":"Winery","checkinsCount":644,"usersCount":421,"tipCount":5,"visitsCount":764,"url":"http://www.llanowine.com","tier":"","message":"","currency":"","rating":8.5},{"name":"Caprock Cafe","phone":"8067840300","address":"3405 34th St","lat":33.562860109483815,"lng":-101.88908018823952,"city_fetched":"Lubbock","state":"TX","country":"United States","canonicalUrl":"https://foursquare.com/v/caprock-cafe/4b9ee6aaf964a520880937e3","category":"American Restaurant","checkinsCount":1932,"usersCount":1039,"tipCount":23,"visitsCount":2403,"url":"http://caprockcafe.com","tier":2,"message":"Moderate","currency":"$","rating":8.4},{"name":"The Funky Door","phone":"8066870505","address":"6015 82nd St","lat":33.51942678709884,"lng":-101.94642764359759,"city_fetched":"Lubbock","state":"TX","country":"United States","canonicalUrl":"https://foursquare.com/v/the-funky-door/4c6fc5eeb5fe9521dcf16111","category":"Wine Bar","checkinsCount":1101,"usersCount":729,"tipCount":26,"visitsCount":1296,"url":"http://www.thefunkydoorwineroom.com","tier":"","message":"","currency":"","rating":8.4},{"name":"Fuzzy's Taco Shop","phone":"8067408226","twitter":"fuzzyslubbock","address":"2102 Broadway","lat":33.58489715751203,"lng":-101.86223030090332,"neighborhood":"North Overton","city_fetched":"Lubbock","state":"TX","country":"United States","canonicalUrl":"https://foursquare.com/v/fuzzys-taco-shop/4b579ba5f964a5204e3928e3","category":"Taco Place","checkinsCount":6773,"usersCount":2248,"tipCount":44,"visitsCount":7650,"url":"http://www.fuzzystacoshop.com","tier":1,"message":"Cheap","currency":"$","rating":8.3},{"name":"Chimy's","phone":"8067637369","twitter":"chimys_","address":"2417 Broadway","lat":33.5843487,"lng":-101.86973875,"neighborhood":"South Overton","city_fetched":"Lubbock","state":"TX","country":"United States","canonicalUrl":"https://foursquare.com/v/chimys/4b55f89bf964a5209af927e3","category":"Bar","checkinsCount":8338,"usersCount":2085,"tipCount":36,"visitsCount":8499,"url":"http://chimys.com","tier":1,"message":"Cheap","currency":"$","rating":8.3},{"name":"Triple J Chophouse","phone":"8067716555","address":"1807 Buddy Holly Ave","lat":33.578639,"lng":-101.844152,"neighborhood":"Downtown Lubbock","city_fetched":"Lubbock","state":"TX","country":"United States","canonicalUrl":"https://foursquare.com/v/triple-j-chophouse/4b526e07f964a520ec7c27e3","category":"Steakhouse","checkinsCount":2966,"usersCount":1676,"tipCount":53,"visitsCount":3333,"url":"http://triplejchophouseandbrewco.com","tier":3,"message":"Expensive","currency":"$","rating":8.1},{"name":"TTU - Frazier Alumni Pavilion","twitter":"texastech","address":"600 Boston Ave","lat":33.58967876949731,"lng":-101.87471866607666,"city_fetched":"Lubbock","state":"TX","country":"United States","canonicalUrl":"https://foursquare.com/v/ttu--frazier-alumni-pavilion/4b5116bcf964a520bc4127e3","category":"University","checkinsCount":874,"usersCount":562,"tipCount":6,"visitsCount":1003,"url":"http://www.ttu.edu/map/?b=Frazier%20Alumni%20Pavilion","tier":"","message":"","currency":"","rating":8.1},{"name":"The Local","phone":"8063685127","address":"2420 Broadway","lat":33.58455715719926,"lng":-101.8700900270043,"neighborhood":"North Overton","city_fetched":"Lubbock","state":"TX","country":"United States","canonicalUrl":"https://foursquare.com/v/the-local/50956ddbe4b076702cbdd2a9","category":"Bar","checkinsCount":1021,"usersCount":431,"tipCount":7,"visitsCount":1179,"tier":"","message":"","currency":"","rating":7.9},{"name":"Nick's Sports Grill & Lounge","lat":33.50356472616697,"lng":-101.90464239818839,"city_fetched":"Lubbock","state":"TX","country":"United States","canonicalUrl":"https://foursquare.com/v/nicks-sports-grill--lounge/4c8318d0d4e23704d26d6e88","category":"Sports Bar","checkinsCount":1126,"usersCount":511,"tipCount":23,"visitsCount":1217,"tier":"","message":"","currency":"","rating":7.9},{"name":"The Lantern Tavern","phone":"8067852280","address":"3502 Slide Rd","lat":33.5620213,"lng":-101.922971,"city_fetched":"Lubbock","state":"TX","country":"United States","canonicalUrl":"https://foursquare.com/v/the-lantern-tavern/4ba41760f964a520808038e3","category":"Bar","checkinsCount":1802,"usersCount":704,"tipCount":28,"visitsCount":2296,"url":"http://lanterntavern.net","tier":2,"message":"Moderate","currency":"$","rating":7.9},{"name":"Louie Louie's Dueling Piano Bar","phone":"8067497464","address":"1703 Texas Ave","lat":33.579540052399985,"lng":-101.845321,"neighborhood":"Downtown Lubbock","city_fetched":"Lubbock","state":"TX","country":"United States","canonicalUrl":"https://foursquare.com/v/louie-louies-dueling-piano-bar/4ba467f4f964a520509b38e3","category":"Bar","checkinsCount":3809,"usersCount":904,"tipCount":13,"visitsCount":3908,"url":"http://louielouiespianobar.com","tier":"","message":"","currency":"","rating":7.8},{"name":"MamaRita's Border Cafe","phone":"8067944778","twitter":"mamaritascafe","address":"6602 Slide Rd","lat":33.53337302004097,"lng":-101.92288103872511,"city_fetched":"Lubbock","state":"TX","country":"United States","canonicalUrl":"https://foursquare.com/v/mamaritas-border-cafe/4b6b73eff964a520c4092ce3","category":"Sports Bar","checkinsCount":662,"usersCount":365,"tipCount":6,"visitsCount":714,"url":"http://www.mamaritasbordercafe.com","tier":"","message":"","currency":"","rating":7.8},{"name":"The Crafthouse Gastropub","phone":"8066871466","address":"3131 34th St","lat":33.56299439180199,"lng":-101.88303749584429,"city_fetched":"Lubbock","state":"TX","country":"United States","canonicalUrl":"https://foursquare.com/v/the-crafthouse-gastropub/501ada41e4b05ff27df4f679","category":"Gastropub","checkinsCount":833,"usersCount":576,"tipCount":18,"visitsCount":1334,"url":"http://crafthousepub.com","tier":2,"message":"Moderate","currency":"$","rating":7.6},{"name":"McPherson Cellars","phone":"8066879463","address":"1615 Texas Ave","lat":33.58023,"lng":-101.845354,"neighborhood":"Downtown Lubbock","city_fetched":"Lubbock","state":"TX","country":"United States","canonicalUrl":"https://foursquare.com/v/mcpherson-cellars/4bf81a838d30d13a921d0018","category":"Winery","checkinsCount":1225,"usersCount":364,"tipCount":6,"visitsCount":1278,"url":"http://www.mcphersoncellars.com","tier":"","message":"","currency":"","rating":7.6},{"name":"BJ's Restaurant and Brewhouse","phone":"8067838600","twitter":"bjsrestaurants","address":"4805 S Loop 289","lat":33.53159672,"lng":-101.9144577,"city_fetched":"Lubbock","state":"TX","country":"United States","canonicalUrl":"https://foursquare.com/v/bjs-restaurant-and-brewhouse/505c8e0ce4b0988dac45418d","category":"American Restaurant","checkinsCount":2802,"usersCount":1610,"tipCount":45,"visitsCount":3887,"url":"http://t.co/bl46gcjDLN","tier":2,"message":"Moderate","currency":"$","rating":7.6},{"name":"Caprock Cafe","phone":"8067712233","address":"5217 82nd St","lat":33.51886713254165,"lng":-101.92430171131649,"city_fetched":"Lubbock","state":"TX","country":"United States","canonicalUrl":"https://foursquare.com/v/caprock-cafe/4b59132af964a520577b28e3","category":"American Restaurant","checkinsCount":2015,"usersCount":1023,"tipCount":16,"visitsCount":2437,"url":"http://caprockcafe.com","tier":2,"message":"Moderate","currency":"$","rating":7.6},{"name":"The Library","phone":"8067476000","address":"1701 Texas Ave","lat":33.57971586,"lng":-101.84525191666667,"neighborhood":"Downtown Lubbock","city_fetched":"Lubbock","state":"TX","country":"United States","canonicalUrl":"https://foursquare.com/v/the-library/4b857a5cf964a5207f6031e3","category":"Bar","checkinsCount":2767,"usersCount":740,"tipCount":16,"visitsCount":2823,"tier":"","message":"","currency":"","rating":7.5},{"name":"La Diosa","lat":33.57974946498871,"lng":-101.844964,"neighborhood":"Downtown Lubbock","city_fetched":"Lubbock","state":"TX","country":"United States","canonicalUrl":"https://foursquare.com/v/la-diosa/4b6cd7d3f964a5207c582ce3","category":"Wine Bar","checkinsCount":637,"usersCount":438,"tipCount":13,"visitsCount":689,"tier":"","message":"","currency":"","rating":7.4},{"name":"Cujo's Sports Bar and Grill","phone":"8067912622","address":"5811 4th St","lat":33.59200405,"lng":-101.94121729,"city_fetched":"Lubbock","state":"TX","country":"United States","canonicalUrl":"https://foursquare.com/v/cujos-sports-bar-and-grill/4bae6508f964a5208eac3be3","category":"Sports Bar","checkinsCount":2158,"usersCount":725,"tipCount":17,"visitsCount":2343,"url":"http://www.cujossports.com","tier":2,"message":"Moderate","currency":"$","rating":7.4},{"name":"Fox & Hound","phone":"8067911526","twitter":"the_foxandhound","address":"4210 82nd Street","lat":33.52071643,"lng":-101.9017878,"city_fetched":"Lubbock","state":"TX","country":"United States","canonicalUrl":"https://foursquare.com/v/fox--hound/4b592339f964a520787e28e3","category":"Pub","checkinsCount":3737,"usersCount":1126,"tipCount":32,"visitsCount":3951,"url":"http://t.co/6Wlr3nrgdg","tier":2,"message":"Moderate","currency":"$","rating":7.4},{"name":"Lone Star Oyster Bar","phone":"8067960101","address":"3040 34th St","lat":33.56357414708662,"lng":-101.88068734334097,"neighborhood":"Tech Terrace- U.N.I.T.","city_fetched":"Lubbock","state":"TX","country":"United States","canonicalUrl":"https://foursquare.com/v/lone-star-oyster-bar/4b8b4504f964a5203c9a32e3","category":"Bar","checkinsCount":1182,"usersCount":511,"tipCount":6,"visitsCount":1438,"url":"http://lonestaroysterbar.com","tier":"","message":"","currency":"","rating":7.4},{"name":"Beef 'O' Brady's","phone":"8067923337","twitter":"beefobrady","address":"5510 4th St","lat":33.59277997241039,"lng":-101.93402767181396,"neighborhood":"North by Northwest","city_fetched":"Lubbock","state":"TX","country":"United States","canonicalUrl":"https://foursquare.com/v/beef-o-bradys/4b81e605f964a52027c330e3","category":"Sports Bar","checkinsCount":770,"usersCount":341,"tipCount":8,"visitsCount":781,"url":"http://beefobradys.com","tier":"","message":"","currency":"","rating":7.4},{"name":"Jazz, A Louisiana Kitchen","phone":"8067992124","twitter":"jazzlubbock","address":"3703 19th St","lat":33.57753,"lng":-101.89494057655658,"city_fetched":"Lubbock","state":"TX","country":"United States","canonicalUrl":"https://foursquare.com/jazzlubbock","category":"Cajun / Creole Restaurant","checkinsCount":880,"usersCount":682,"tipCount":17,"visitsCount":1100,"url":"http://lubbock.jazzkitchens.com","tier":1,"message":"Cheap","currency":"$","rating":7.2},{"name":"The Gaslight","phone":"8067851720","address":"5212 57th St","lat":33.54255435110386,"lng":-101.92410671591948,"city_fetched":"Lubbock","state":"TX","country":"United States","canonicalUrl":"https://foursquare.com/v/the-gaslight/4b63a256f964a520a7882ae3","category":"Bar","checkinsCount":1273,"usersCount":508,"tipCount":11,"visitsCount":1394,"url":"http://www.thegaslightlubbock.com","tier":2,"message":"Moderate","currency":"$","rating":7.2},{"name":"Heaven Nightclub","address":"1928 Buddy Holly Ave","lat":33.576467,"lng":-101.844754,"city_fetched":"Lubbock","state":"TX","country":"United States","canonicalUrl":"https://foursquare.com/v/heaven-nightclub/4c79d9eb81bca0936c05ff14","category":"Bar","checkinsCount":1112,"usersCount":392,"tipCount":9,"visitsCount":1240,"tier":"","message":"","currency":"","rating":7.1},{"name":"Melt","phone":"8066872034","twitter":"meltlounge","address":"1711 Texas Ave","lat":33.57935989318993,"lng":-101.84510727389194,"neighborhood":"Downtown Lubbock","city_fetched":"Lubbock","state":"TX","country":"United States","canonicalUrl":"https://foursquare.com/v/melt/4b92e651f964a520722534e3","category":"Bar","checkinsCount":1658,"usersCount":502,"tipCount":10,"visitsCount":1659,"url":"http://www.meltlounge.com","tier":"","message":"","currency":"","rating":7.1},{"name":"The Office Grill & Sports Bar","phone":"8066876242","address":"5004 Frankford Ave","lat":33.54788207274941,"lng":-101.93950687734342,"city_fetched":"Lubbock","state":"TX","country":"United States","canonicalUrl":"https://foursquare.com/v/the-office-grill--sports-bar/4b9af4ddf964a520bbe635e3","category":"Bar","checkinsCount":1034,"usersCount":527,"tipCount":11,"visitsCount":1158,"url":"http://theofficegrillandsportsbar.com","tier":"","message":"","currency":"","rating":7},{"name":"Blue Light Live","phone":"8067621185","address":"1806 Buddy Holly Ave","lat":33.578726,"lng":-101.8446341,"neighborhood":"Downtown Lubbock","city_fetched":"Lubbock","state":"TX","country":"United States","canonicalUrl":"https://foursquare.com/v/blue-light-live/4ba83e6ff964a5200ad339e3","category":"Bar","checkinsCount":1350,"usersCount":563,"tipCount":9,"visitsCount":1386,"url":"http://www.thebluelightlive.com","tier":"","message":"","currency":"","rating":7},{"name":"Cricket's Grill & Draft House","phone":"8067444677","address":"2412 Broadway","lat":33.584723,"lng":-101.869691,"neighborhood":"North Overton","city_fetched":"Lubbock","state":"TX","country":"United States","canonicalUrl":"https://foursquare.com/v/crickets-grill--draft-house/4b5f9ba8f964a52047c429e3","category":"Bar","checkinsCount":4990,"usersCount":1607,"tipCount":32,"visitsCount":5104,"tier":2,"message":"Moderate","currency":"$","rating":7},{"name":"Fast Eddie's","twitter":"fasteddies_","address":"7302 University Ave #400","lat":33.528184122803175,"lng":-101.87000650007585,"city_fetched":"Lubbock","state":"TX","country":"United States","canonicalUrl":"https://foursquare.com/v/fast-eddies/4c004cf9daf9c9b635a0fbef","category":"Sports Bar","checkinsCount":779,"usersCount":277,"tipCount":1,"visitsCount":812,"url":"http://fasteddiesbilliards.com","tier":"","message":"","currency":"","rating":7},{"name":"The Roof","phone":"8063685821","twitter":"therooflubbock","address":"2252 Marsha Sharp Frwy.","lat":33.59332700465938,"lng":-101.87394347414273,"neighborhood":"Arnett Benson","city_fetched":"Lubbock","state":"TX","country":"United States","canonicalUrl":"https://foursquare.com/v/the-roof/4e629cc6b993678bb68afe50","category":"Beer Garden","checkinsCount":1287,"usersCount":700,"tipCount":13,"visitsCount":1374,"url":"http://rooflubbock.com","tier":"","message":"","currency":"","rating":6.9},{"name":"Billiards Plus","lat":33.54255543075013,"lng":-101.94036498345721,"city_fetched":"Lubbock","state":"TX","country":"United States","canonicalUrl":"https://foursquare.com/v/billiards-plus/4c282659fe6e2d7f65ea523c","category":"Bar","checkinsCount":296,"usersCount":97,"tipCount":6,"visitsCount":298,"tier":"","message":"","currency":"","rating":6.9},{"name":"The Koko Club","phone":"8067440400","address":"5201 Avenue Q","lat":33.54717135429382,"lng":-101.85381352901459,"city_fetched":"Lubbock","state":"TX","country":"United States","canonicalUrl":"https://foursquare.com/v/the-koko-club/4c5e19ca9b28d13a9cb05b70","category":"Dive Bar","checkinsCount":125,"usersCount":70,"tipCount":4,"visitsCount":152,"url":"http://www.dannysfinsandhens.com","tier":"","message":"","currency":"","rating":6.7}]