[{"name":"Barley & Rye","phone":"2314254390","address":"107 W Ludington Ave","lat":43.95544386367924,"lng":-86.44817614700392,"city_fetched":"Ludington","state":"MI","country":"United States","canonicalUrl":"https://foursquare.com/v/barley--rye/51e0a2ac498eb4222b564daa","category":"Whisky Bar","checkinsCount":366,"usersCount":197,"tipCount":3,"visitsCount":369,"tier":2,"message":"Moderate","currency":"$","rating":8.7},{"name":"The Mitten Bar","phone":"2318437616","twitter":"mittenbar","address":"109 W Ludington Ave","lat":43.95536200200345,"lng":-86.44825025131755,"city_fetched":"Ludington","state":"MI","country":"United States","canonicalUrl":"https://foursquare.com/v/the-mitten-bar/4dc001680cb6f21c127e15c9","category":"Bar","checkinsCount":3178,"usersCount":769,"tipCount":19,"visitsCount":3340,"url":"http://mittenbar.com","tier":2,"message":"Moderate","currency":"$","rating":8.7},{"name":"Jamesport Brewing Company","phone":"2318452522","twitter":"jamesportbrew","address":"410 S James St","lat":43.952054,"lng":-86.44797460000001,"city_fetched":"Ludington","state":"MI","country":"United States","canonicalUrl":"https://foursquare.com/jamesportbrew","category":"Brewery","checkinsCount":2328,"usersCount":1771,"tipCount":48,"visitsCount":2945,"url":"http://www.jamesportbrewingco.com","tier":2,"message":"Moderate","currency":"$","rating":8.4},{"name":"Sportsman's Irish Pub","phone":"2318432138","address":"111 W Ludington Ave","lat":43.955478,"lng":-86.4483704,"city_fetched":"Ludington","state":"MI","country":"United States","canonicalUrl":"https://foursquare.com/v/sportsmans-irish-pub/4b527e9bf964a520cf7f27e3","category":"Sports Bar","checkinsCount":1651,"usersCount":576,"tipCount":13,"visitsCount":1678,"url":"http://www.sportsmansirishpub.com","tier":2,"message":"Moderate","currency":"$","rating":8.3},{"name":"Michael's Bar & Grille","phone":"2318457411","address":"129 W Ludington Ave","lat":43.95534185258953,"lng":-86.44900610904665,"city_fetched":"Ludington","state":"MI","country":"United States","canonicalUrl":"https://foursquare.com/v/michaels-bar--grille/4c6082d5de6920a137269664","category":"Sports Bar","checkinsCount":666,"usersCount":343,"tipCount":9,"visitsCount":691,"url":"http://www.michaelsbarandgrille.net","tier":"","message":"","currency":"","rating":6.7}]