[{"name":"Apocalypse Ale Works","phone":"4342588761","address":"1257 Burnbridge Rd","lat":37.362102,"lng":-79.287863,"city_fetched":"Lynchburg,US","state":"VA","country":"United States","canonicalUrl":"https://foursquare.com/v/apocalypse-ale-works/50e0b842e4b0fe643b66564e","categoryId":"4bf58dd8d48988d11b941735","category":"Pub","checkinsCount":616,"usersCount":288,"tipCount":6,"visitsCount":945,"url":"http://endofbadbeer.com","tier":"","message":"","currency":"","rating":8.5},{"name":"Vito's Amherst","address":"166-200 E Lexington Ave","lat":37.58515,"lng":-79.048489,"city_fetched":"Lynchburg,US","state":"VA","country":"United States","canonicalUrl":"https://foursquare.com/v/vitos-amherst/4d65bfc2a282a1cda25c2764","categoryId":"4bf58dd8d48988d116941735","category":"Bar","checkinsCount":327,"usersCount":158,"tipCount":0,"visitsCount":366,"tier":"","message":"","currency":"","rating":8.3},{"name":"Beer 88","phone":"4345825025","address":"113 Hexham Dr","lat":37.355948715909435,"lng":-79.23969913776943,"neighborhood":"Wyndhurst","city_fetched":"Lynchburg,US","state":"VA","country":"United States","canonicalUrl":"https://foursquare.com/v/beer-88/55c3dd47498e5f402db87f70","categoryId":"4bf58dd8d48988d11b941735","category":"Pub","checkinsCount":145,"usersCount":109,"tipCount":5,"visitsCount":281,"url":"http://www.beer88va.com","tier":"","message":"","currency":"","rating":7.9},{"name":"Stoney Badger Tavern","phone":"4345943674","address":"3009 Old Forest Rd","lat":37.41472363471985,"lng":-79.2061311006546,"neighborhood":"Linkhorne","city_fetched":"Lynchburg,US","state":"VA","country":"United States","canonicalUrl":"https://foursquare.com/v/stoney-badger-tavern/4c0eb8d175f99c743d83ecc4","categoryId":"4bf58dd8d48988d116941735","category":"Bar","checkinsCount":1434,"usersCount":456,"tipCount":12,"visitsCount":1702,"url":"http://stoneybadgertavern.com","tier":"","message":"","currency":"","rating":7.7},{"name":"Dahlia Restaurant","phone":"4349489321","address":"2231 Bedford Ave","lat":37.433243133333335,"lng":-79.164476,"city_fetched":"Lynchburg,US","state":"VA","country":"United States","canonicalUrl":"https://foursquare.com/v/dahlia-restaurant/4d23b0c4668f60fcda45b16f","categoryId":"4bf58dd8d48988d116941735","category":"Bar","checkinsCount":400,"usersCount":213,"tipCount":12,"visitsCount":483,"url":"http://thedahlialynchburg.com","tier":"","message":"","currency":"","rating":7.6},{"name":"Wards Road","lat":37.35060023581183,"lng":-79.18593177441356,"city_fetched":"Lynchburg,US","state":"VA","country":"United States","canonicalUrl":"https://foursquare.com/v/wards-road/4e8c6318469079cdfad6ea29","categoryId":"4bf58dd8d48988d11a941735","category":"Other Nightlife","checkinsCount":1488,"usersCount":196,"tipCount":3,"visitsCount":1518,"tier":"","message":"","currency":"","rating":6.2},{"name":"Gud Timz Hookah Lounge","phone":"4343858087","address":"17912 Forest Rd Suit B","lat":37.3762851,"lng":-79.24960434436798,"city_fetched":"Lynchburg,US","state":"VA","country":"United States","canonicalUrl":"https://foursquare.com/v/gud-timz-hookah-lounge/4d68675c342b8cfa90e2b92c","categoryId":"4bf58dd8d48988d119941735","category":"Hookah Bar","checkinsCount":266,"usersCount":111,"tipCount":6,"visitsCount":269,"url":"http://gudtimzhookah.com","tier":"","message":"","currency":"","rating":5.9}]