[{"name":"Kuhnhenn Brewing Co.","phone":"5869798361","twitter":"louco_none","address":"5919 Chicago Rd","lat":42.5277447220129,"lng":-83.0468076467514,"neighborhood":"Northwest Warren","city_fetched":"Macomb,US","state":"MI","country":"United States","canonicalUrl":"https://foursquare.com/v/kuhnhenn-brewing-co/4aac2e20f964a520b45c20e3","categoryId":"50327c8591d4c4b30a586d5d","category":"Brewery","checkinsCount":10905,"usersCount":3779,"tipCount":111,"visitsCount":12685,"url":"http://kbrewery.com","tier":2,"message":"Moderate","currency":"$","rating":9.2},{"name":"The Tavern At Tina's","phone":"5869492288","address":"50870 North Ave","lat":42.671892347824226,"lng":-82.87752439197628,"city_fetched":"Macomb,US","state":"MI","country":"United States","canonicalUrl":"https://foursquare.com/v/the-tavern-at-tinas/4e2a2624b61cd0108366c3fc","categoryId":"4bf58dd8d48988d11d941735","category":"Sports Bar","checkinsCount":523,"usersCount":390,"tipCount":6,"visitsCount":790,"url":"http://www.thetavernattinas.com","tier":1,"message":"Cheap","currency":"$","rating":9},{"name":"Johnny Black's East","address":"35000 Moravian Dr","lat":42.551885654747274,"lng":-82.98001594911388,"city_fetched":"Macomb,US","state":"MI","country":"United States","canonicalUrl":"https://foursquare.com/v/johnny-blacks-east/5656435e498ee88857da372d","categoryId":"4bf58dd8d48988d116941735","category":"Bar","checkinsCount":337,"usersCount":335,"tipCount":4,"visitsCount":729,"tier":"","message":"","currency":"","rating":9},{"name":"Blake's Ciderhouse & Winery","twitter":"blakeshardcider","address":"17985 Armada Center Rd","lat":42.85031041799203,"lng":-82.95142393932345,"city_fetched":"Macomb,US","state":"MI","country":"United States","canonicalUrl":"https://foursquare.com/v/blakes-ciderhouse--winery/526c52d211d2ebef60f32641","categoryId":"50327c8591d4c4b30a586d5d","category":"Brewery","checkinsCount":448,"usersCount":382,"tipCount":8,"visitsCount":540,"tier":"","message":"","currency":"","rating":8.8},{"name":"Dragonmead Brewery","phone":"5867769428","address":"14600 E 11 Mile Rd","lat":42.49275842639962,"lng":-82.97556468080234,"neighborhood":"Southeast Warren","city_fetched":"Macomb,US","state":"MI","country":"United States","canonicalUrl":"https://foursquare.com/v/dragonmead-brewery/41326e00f964a5204a0e1fe3","categoryId":"50327c8591d4c4b30a586d5d","category":"Brewery","checkinsCount":5297,"usersCount":2587,"tipCount":76,"visitsCount":5917,"url":"http://dragonmead.com","tier":2,"message":"Moderate","currency":"$","rating":8.7},{"name":"Eastside Tavern","phone":"5864634223","address":"129 Avery","lat":42.59126918182089,"lng":-82.86646262222119,"city_fetched":"Macomb,US","state":"MI","country":"United States","canonicalUrl":"https://foursquare.com/v/eastside-tavern/4be9da4162c0c928742ae0d4","categoryId":"4bf58dd8d48988d11b941735","category":"Pub","checkinsCount":913,"usersCount":309,"tipCount":7,"visitsCount":1099,"url":"http://frankseastsidetavern.com","tier":"","message":"","currency":"","rating":8.6},{"name":"Rochester Mills Beer Company","phone":"2486505080","twitter":"rochmillsbeerco","address":"400 Water St","lat":42.680579998989344,"lng":-83.13132187660007,"neighborhood":"Downtown Rochester","city_fetched":"Macomb,US","state":"MI","country":"United States","canonicalUrl":"https://foursquare.com/v/rochester-mills-beer-company/4b39257ff964a520225725e3","categoryId":"50327c8591d4c4b30a586d5d","category":"Brewery","checkinsCount":11130,"usersCount":5413,"tipCount":101,"visitsCount":13268,"url":"http://www.rochestermillsbeerco.com","tier":2,"message":"Moderate","currency":"$","rating":8.6},{"name":"Three Blind Mice Irish Pub","phone":"5869616371","twitter":"3blindmicepub","address":"101 North Main Street","lat":42.59973968268315,"lng":-82.87664120009357,"neighborhood":"Downtown Mount Clemens","city_fetched":"Macomb,US","state":"MI","country":"United States","canonicalUrl":"https://foursquare.com/3blindmicepub","categoryId":"56aa371ce4b08b9a8d57356c","category":"Beer Bar","checkinsCount":1532,"usersCount":908,"tipCount":23,"visitsCount":2213,"url":"http://www.threeblindmiceirishpub.com","tier":2,"message":"Moderate","currency":"$","rating":8.5},{"name":"Johnny Blacks Public House","phone":"2482939000","address":"1711 E Auburn Rd","lat":42.637933548228645,"lng":-83.0979700487902,"neighborhood":"Rochester","city_fetched":"Macomb,US","state":"MI","country":"United States","canonicalUrl":"https://foursquare.com/v/johnny-blacks-public-house/4b513f97f964a520a34827e3","categoryId":"4bf58dd8d48988d116941735","category":"Bar","checkinsCount":1066,"usersCount":503,"tipCount":12,"visitsCount":1676,"url":"http://www.johnnyblacks.com","tier":2,"message":"Moderate","currency":"$","rating":8.5},{"name":"CJ Mahoney's","phone":"2482932800","address":"3260 S Rochester Rd","lat":42.632323494830906,"lng":-83.13222785355431,"neighborhood":"Rochester","city_fetched":"Macomb,US","state":"MI","country":"United States","canonicalUrl":"https://foursquare.com/v/cj-mahoneys/4b81f167f964a520d3c430e3","categoryId":"4bf58dd8d48988d11b941735","category":"Pub","checkinsCount":4427,"usersCount":1403,"tipCount":20,"visitsCount":5108,"url":"http://www.cjmahoneys.com","tier":2,"message":"Moderate","currency":"$","rating":8.4},{"name":"Little Lorraine's","phone":"5864657670","address":"104 Macomb Pl","lat":42.599088237558774,"lng":-82.87905943578237,"neighborhood":"Downtown Mount Clemens","city_fetched":"Macomb,US","state":"MI","country":"United States","canonicalUrl":"https://foursquare.com/v/little-lorraines/4aaebd58f964a520186320e3","categoryId":"4bf58dd8d48988d116941735","category":"Bar","checkinsCount":1354,"usersCount":421,"tipCount":11,"visitsCount":1392,"tier":"","message":"","currency":"","rating":8.3},{"name":"Sugarbush Tavern","phone":"5869495260","address":"27900 21 Mile Rd","lat":42.64466643333435,"lng":-82.829093,"city_fetched":"Macomb,US","state":"MI","country":"United States","canonicalUrl":"https://foursquare.com/v/sugarbush-tavern/4bad7f70f964a520a9563be3","categoryId":"4bf58dd8d48988d116941735","category":"Bar","checkinsCount":2943,"usersCount":837,"tipCount":21,"visitsCount":3412,"url":"http://sugarbushtavern.com","tier":2,"message":"Moderate","currency":"$","rating":8.3},{"name":"Brown Iron Brewhouse","phone":"5866973300","address":"57695 Van Dyke Rd","lat":42.71881374519849,"lng":-83.0360091276307,"city_fetched":"Macomb,US","state":"MI","country":"United States","canonicalUrl":"https://foursquare.com/v/brown-iron-brewhouse/53bd8942498e1369b4d0d0ca","categoryId":"50327c8591d4c4b30a586d5d","category":"Brewery","checkinsCount":684,"usersCount":517,"tipCount":14,"visitsCount":1081,"url":"http://www.browniron.com","tier":"","message":"","currency":"","rating":8.3},{"name":"Sherwood Brewing Company","phone":"5865329669","address":"45689 Hayes Rd","lat":42.63209703942082,"lng":-82.97477727907531,"city_fetched":"Macomb,US","state":"MI","country":"United States","canonicalUrl":"https://foursquare.com/v/sherwood-brewing-company/4b26f7ecf964a520968324e3","categoryId":"50327c8591d4c4b30a586d5d","category":"Brewery","checkinsCount":6890,"usersCount":1567,"tipCount":41,"visitsCount":7501,"url":"http://sherwoodbrewing.com","tier":2,"message":"Moderate","currency":"$","rating":8.3},{"name":"Brooks Brewing","address":"52033 Van Dyke Ave","lat":42.6774464753041,"lng":-83.03439379834987,"city_fetched":"Macomb,US","state":"MI","country":"United States","canonicalUrl":"https://foursquare.com/v/brooks-brewing/55aba3a4498e838f55988a07","categoryId":"50327c8591d4c4b30a586d5d","category":"Brewery","checkinsCount":199,"usersCount":177,"tipCount":8,"visitsCount":358,"tier":2,"message":"Moderate","currency":"$","rating":8.3},{"name":"The Fire House","phone":"5869491717","address":"48925 Gratiot Ave","lat":42.65931015747485,"lng":-82.84597458705987,"city_fetched":"Macomb,US","state":"MI","country":"United States","canonicalUrl":"https://foursquare.com/v/the-fire-house/4c6c89b423c1a1cdb7051acf","categoryId":"4bf58dd8d48988d116941735","category":"Bar","checkinsCount":590,"usersCount":229,"tipCount":6,"visitsCount":749,"url":"http://newbaltimorefire.org","tier":"","message":"","currency":"","rating":8.2},{"name":"The Engine House","phone":"5864682442","address":"309 Cass Ave","lat":42.59799750880387,"lng":-82.892605192439,"city_fetched":"Macomb,US","state":"MI","country":"United States","canonicalUrl":"https://foursquare.com/v/the-engine-house/4aaebde8f964a5201c6320e3","categoryId":"4bf58dd8d48988d116941735","category":"Bar","checkinsCount":1757,"usersCount":783,"tipCount":23,"visitsCount":2143,"url":"http://theenginehouse.net","tier":"","message":"","currency":"","rating":8.2},{"name":"Art & Jake's Sports Bar and Grill Shelby","phone":"5869973255","twitter":"artjakes","address":"45537 Mound Rd","lat":42.628425094165344,"lng":-83.05325606604357,"city_fetched":"Macomb,US","state":"MI","country":"United States","canonicalUrl":"https://foursquare.com/v/art--jakes-sports-bar-and-grill-shelby/4ad15100f964a52001de20e3","categoryId":"4bf58dd8d48988d116941735","category":"Bar","checkinsCount":1546,"usersCount":689,"tipCount":15,"visitsCount":1890,"url":"http://www.artjakes.com/menu/html","tier":2,"message":"Moderate","currency":"$","rating":8.1},{"name":"Hamlin Pub","phone":"2486567700","address":"1988 S Rochester Rd","lat":42.65271004362558,"lng":-83.1338882446289,"neighborhood":"Rochester","city_fetched":"Macomb,US","state":"MI","country":"United States","canonicalUrl":"https://foursquare.com/v/hamlin-pub/438c38f3f964a5202a2b1fe3","categoryId":"4bf58dd8d48988d11b941735","category":"Pub","checkinsCount":7470,"usersCount":1489,"tipCount":34,"visitsCount":8049,"url":"http://hamlinpubs.com","tier":2,"message":"Moderate","currency":"$","rating":8.1},{"name":"Boston's Restaurant & Sports Bar","phone":"5862474992","twitter":"bostonscorp","address":"15133 Hall Rd","lat":42.62825861730525,"lng":-82.9749610069825,"city_fetched":"Macomb,US","state":"MI","country":"United States","canonicalUrl":"https://foursquare.com/v/bostons-restaurant--sports-bar/4b54f056f964a52027d427e3","categoryId":"4bf58dd8d48988d116941735","category":"Bar","checkinsCount":9472,"usersCount":3335,"tipCount":53,"visitsCount":10348,"url":"http://www.bostons.com","tier":2,"message":"Moderate","currency":"$","rating":8.1},{"name":"Tipsy McStaggers","phone":"5868064481","twitter":"tipsymcstaggers","address":"7280 E 12 Mile Rd","lat":42.506345752843785,"lng":-83.03133130073547,"neighborhood":"Northwest Warren","city_fetched":"Macomb,US","state":"MI","country":"United States","canonicalUrl":"https://foursquare.com/tipsymcstaggers","categoryId":"4bf58dd8d48988d116941735","category":"Bar","checkinsCount":6247,"usersCount":1146,"tipCount":31,"visitsCount":6771,"tier":2,"message":"Moderate","currency":"$","rating":8.1},{"name":"Art & Jake's","phone":"5865329600","address":"14741 23 Mile Rd","lat":42.67149599478005,"lng":-82.98085577749282,"city_fetched":"Macomb,US","state":"MI","country":"United States","canonicalUrl":"https://foursquare.com/v/art--jakes/545559ad498e46628edd5121","categoryId":"4bf58dd8d48988d11d941735","category":"Sports Bar","checkinsCount":576,"usersCount":674,"tipCount":7,"visitsCount":1639,"url":"http://artjakes.com/23-mile/","tier":"","message":"","currency":"","rating":8},{"name":"Shamrock Irish Pub","phone":"5867316886","address":"7715 Auburn Rd","lat":42.62619439090346,"lng":-83.03436233050303,"city_fetched":"Macomb,US","state":"MI","country":"United States","canonicalUrl":"https://foursquare.com/v/shamrock-irish-pub/41326e00f964a5204b101fe3","categoryId":"4bf58dd8d48988d11b941735","category":"Pub","checkinsCount":2407,"usersCount":1104,"tipCount":30,"visitsCount":2786,"url":"http://shamrockutica.com","tier":1,"message":"Cheap","currency":"$","rating":8},{"name":"Brooksy's Sports Bar and Grill","phone":"5864215273","address":"38730 Harper Ave","lat":42.58203659330539,"lng":-82.86858153457972,"city_fetched":"Macomb,US","state":"MI","country":"United States","canonicalUrl":"https://foursquare.com/v/brooksys-sports-bar-and-grill/5350559d498ef2f18c544479","categoryId":"4bf58dd8d48988d11d941735","category":"Sports Bar","checkinsCount":100,"usersCount":48,"tipCount":4,"visitsCount":132,"url":"http://www.brooksyssportsbar.com","tier":2,"message":"Moderate","currency":"$","rating":8},{"name":"Kuhnhenn Brewing Production & Taproom","address":"36000 Groesbeck Hwy","lat":42.56199218948952,"lng":-82.91704051510821,"city_fetched":"Macomb,US","state":"MI","country":"United States","canonicalUrl":"https://foursquare.com/v/kuhnhenn-brewing-production--taproom/54a62367498e6b7e2ce84e76","categoryId":"50327c8591d4c4b30a586d5d","category":"Brewery","checkinsCount":291,"usersCount":328,"tipCount":6,"visitsCount":550,"tier":"","message":"","currency":"","rating":7.9},{"name":"Town Pump","phone":"5867255505","address":"51110 Bedford St","lat":42.681392,"lng":-82.73493293333334,"city_fetched":"Macomb,US","state":"MI","country":"United States","canonicalUrl":"https://foursquare.com/v/town-pump/41326e00f964a520b9101fe3","categoryId":"4bf58dd8d48988d118941735","category":"Dive Bar","checkinsCount":524,"usersCount":200,"tipCount":6,"visitsCount":603,"tier":"","message":"","currency":"","rating":7.9},{"name":"Vivios II","phone":"5865760495","address":"3601 E 12 Mile Rd","lat":42.505855324665376,"lng":-83.06972793968288,"neighborhood":"Northwest Warren","city_fetched":"Macomb,US","state":"MI","country":"United States","canonicalUrl":"https://foursquare.com/v/vivios-ii/4b3feb39f964a5200db225e3","categoryId":"4bf58dd8d48988d116941735","category":"Bar","checkinsCount":5352,"usersCount":891,"tipCount":28,"visitsCount":5886,"tier":"","message":"","currency":"","rating":7.9},{"name":"Wiseguys Bar & Grill","phone":"5869616510","address":"37208 Harper Ave","lat":42.57114194704787,"lng":-82.87126294025087,"city_fetched":"Macomb,US","state":"MI","country":"United States","canonicalUrl":"https://foursquare.com/v/wiseguys-bar--grill/51c62849498e613d83eb1467","categoryId":"4bf58dd8d48988d116941735","category":"Bar","checkinsCount":386,"usersCount":275,"tipCount":8,"visitsCount":658,"url":"http://wiseguysbarandgrill.com","tier":2,"message":"Moderate","currency":"$","rating":7.8},{"name":"Island Bar and Grill","phone":"5868846283","address":"43711 Van Dyke Ave","lat":42.61513650676744,"lng":-83.03237982585077,"city_fetched":"Macomb,US","state":"MI","country":"United States","canonicalUrl":"https://foursquare.com/v/island-bar-and-grill/4c9d25a6542b224b0335e79f","categoryId":"4bf58dd8d48988d116941735","category":"Bar","checkinsCount":1904,"usersCount":482,"tipCount":13,"visitsCount":2194,"tier":"","message":"","currency":"","rating":7.8},{"name":"Kit Kat Klub","phone":"5867813171","address":"55140 Romeo Plank Rd","lat":42.70177879477128,"lng":-82.9588015015006,"city_fetched":"Macomb,US","state":"MI","country":"United States","canonicalUrl":"https://foursquare.com/v/kit-kat-klub/41326e00f964a5202b0f1fe3","categoryId":"4bf58dd8d48988d116941735","category":"Bar","checkinsCount":1053,"usersCount":482,"tipCount":11,"visitsCount":1262,"tier":"","message":"","currency":"","rating":7.8},{"name":"Royal Park Hotel Terrace","phone":"2486532600","address":"600 E University Dr","lat":42.68177849023179,"lng":-83.12913281685516,"neighborhood":"Downtown Rochester","city_fetched":"Macomb,US","state":"MI","country":"United States","canonicalUrl":"https://foursquare.com/v/royal-park-hotel-terrace/50282573e4b0f080a632adc1","categoryId":"4bf58dd8d48988d121941735","category":"Lounge","checkinsCount":105,"usersCount":66,"tipCount":0,"visitsCount":105,"url":"http://royalparkhotel.net","tier":"","message":"","currency":"","rating":7.8},{"name":"Bora Bora Bar & Grill","phone":"5865739390","address":"11650 E 13 Mile Rd","lat":42.52122757207597,"lng":-83.00676449164128,"neighborhood":"Northeast Warren","city_fetched":"Macomb,US","state":"MI","country":"United States","canonicalUrl":"https://foursquare.com/v/bora-bora-bar--grill/41326e00f964a520f10e1fe3","categoryId":"4bf58dd8d48988d11b941735","category":"Pub","checkinsCount":347,"usersCount":141,"tipCount":12,"visitsCount":371,"tier":"","message":"","currency":"","rating":7.8},{"name":"Freddy's","phone":"5864167777","address":"40000 Garfield Rd","lat":42.59090490695098,"lng":-82.95181778010075,"city_fetched":"Macomb,US","state":"MI","country":"United States","canonicalUrl":"https://foursquare.com/v/freddys/4ccf6fc56200b1f70f83ce28","categoryId":"4bf58dd8d48988d116941735","category":"Bar","checkinsCount":839,"usersCount":526,"tipCount":9,"visitsCount":1359,"url":"http://freddysbarrocks.com","tier":"","message":"","currency":"","rating":7.7},{"name":"Bentley's Roadhouse","phone":"5864653663","address":"28410 S River Rd","lat":42.590121,"lng":-82.8266104,"city_fetched":"Macomb,US","state":"MI","country":"United States","canonicalUrl":"https://foursquare.com/v/bentleys-roadhouse/4b7f2a74f964a520cd1b30e3","categoryId":"4bf58dd8d48988d116941735","category":"Bar","checkinsCount":799,"usersCount":429,"tipCount":8,"visitsCount":1093,"url":"http://www.bentleysroadhouse.net","tier":"","message":"","currency":"","rating":7.7},{"name":"Great Baraboo Brewing Company","phone":"5867927397","address":"35905 Utica Rd","lat":42.56024778427255,"lng":-82.96543273052144,"city_fetched":"Macomb,US","state":"MI","country":"United States","canonicalUrl":"https://foursquare.com/v/great-baraboo-brewing-company/4b5292e2f964a520be8227e3","categoryId":"50327c8591d4c4b30a586d5d","category":"Brewery","checkinsCount":4752,"usersCount":2209,"tipCount":43,"visitsCount":5770,"url":"http://greatbaraboo.com","tier":2,"message":"Moderate","currency":"$","rating":7.7},{"name":"Art & Jake's Sports Bar & Grill","phone":"5867527500","address":"65859 Van Dyke Rd","lat":42.778123538472634,"lng":-83.0158671268299,"city_fetched":"Macomb,US","state":"MI","country":"United States","canonicalUrl":"https://foursquare.com/v/art--jakes-sports-bar--grill/4b7c892df964a5207d992fe3","categoryId":"4bf58dd8d48988d11d941735","category":"Sports Bar","checkinsCount":1345,"usersCount":764,"tipCount":13,"visitsCount":2039,"tier":2,"message":"Moderate","currency":"$","rating":7.7},{"name":"Terrys Terrace","phone":"5864632671","twitter":"terrysterrace","address":"36470 Jefferson Ave","lat":42.56617243304391,"lng":-82.8423927437371,"city_fetched":"Macomb,US","state":"MI","country":"United States","canonicalUrl":"https://foursquare.com/v/terrys-terrace/4ba95436f964a5204b1f3ae3","categoryId":"4bf58dd8d48988d116941735","category":"Bar","checkinsCount":2861,"usersCount":1231,"tipCount":41,"visitsCount":3433,"url":"http://www.terrystime.com","tier":1,"message":"Cheap","currency":"$","rating":7.5},{"name":"Wiseguys Bar & Grill","phone":"5862630300","address":"42305 Garfield Rd","lat":42.607824560319926,"lng":-82.95328284726664,"city_fetched":"Macomb,US","state":"MI","country":"United States","canonicalUrl":"https://foursquare.com/v/wiseguys-bar--grill/4ab599d2f964a5209a7520e3","categoryId":"4bf58dd8d48988d11d941735","category":"Sports Bar","checkinsCount":2623,"usersCount":801,"tipCount":14,"visitsCount":2883,"url":"http://wiseguysbarandgrill.com","tier":"","message":"","currency":"","rating":7.5},{"name":"Coyote Joes","phone":"5862544666","twitter":"coyotejoesmi","address":"49440 Ryan Rd","lat":42.6569077973216,"lng":-83.07209014892578,"city_fetched":"Macomb,US","state":"MI","country":"United States","canonicalUrl":"https://foursquare.com/coyotejoesmi","categoryId":"4bf58dd8d48988d116941735","category":"Bar","checkinsCount":3172,"usersCount":1904,"tipCount":24,"visitsCount":3562,"url":"http://www.coyotejoes.com","tier":"","message":"","currency":"","rating":7.5},{"name":"Metro Bar & Grill","address":"30750-30998 Ryan Rd","lat":42.51947109722078,"lng":-83.06740052883038,"neighborhood":"Northwest Warren","city_fetched":"Macomb,US","state":"MI","country":"United States","canonicalUrl":"https://foursquare.com/v/metro-bar--grill/4d6eead0a045721eca9d1eb8","categoryId":"4bf58dd8d48988d116941735","category":"Bar","checkinsCount":1563,"usersCount":365,"tipCount":8,"visitsCount":1881,"tier":"","message":"","currency":"","rating":7.5},{"name":"Hamlin Pub Shelby Twp","phone":"5862474100","address":"48929 Hayes Rd","lat":42.65583316366299,"lng":-82.97616309985226,"city_fetched":"Macomb,US","state":"MI","country":"United States","canonicalUrl":"https://foursquare.com/v/hamlin-pub-shelby-twp/47c976f9f964a520fb4d1fe3","categoryId":"4bf58dd8d48988d11b941735","category":"Pub","checkinsCount":2738,"usersCount":1211,"tipCount":15,"visitsCount":2827,"url":"http://www.hamlinpubs.net","tier":2,"message":"Moderate","currency":"$","rating":7.5},{"name":"Winner's","phone":"5867919050","address":"34540 Harper Ave","lat":42.55156359798226,"lng":-82.87254051333268,"city_fetched":"Macomb,US","state":"MI","country":"United States","canonicalUrl":"https://foursquare.com/v/winners/4b8a044ff964a520d15b32e3","categoryId":"4bf58dd8d48988d116941735","category":"Bar","checkinsCount":781,"usersCount":404,"tipCount":2,"visitsCount":983,"tier":"","message":"","currency":"","rating":7.5},{"name":"Rochester Tap Room","address":"6870 N Rochester Rd","lat":42.6972630905791,"lng":-83.13614488099371,"neighborhood":"Rochester","city_fetched":"Macomb,US","state":"MI","country":"United States","canonicalUrl":"https://foursquare.com/v/rochester-tap-room/54f8e1f0498ecb535a6cb474","categoryId":"4bf58dd8d48988d116941735","category":"Bar","checkinsCount":341,"usersCount":282,"tipCount":6,"visitsCount":446,"url":"http://rochestertap.com","tier":"","message":"","currency":"","rating":7.5},{"name":"O'Connor's Public House","phone":"2486082537","address":"324 S Main St","lat":42.680340645373825,"lng":-83.13358941378802,"neighborhood":"Downtown Rochester","city_fetched":"Macomb,US","state":"MI","country":"United States","canonicalUrl":"https://foursquare.com/v/oconnors-public-house/4b3180a9f964a5200d0825e3","categoryId":"4bf58dd8d48988d11b941735","category":"Pub","checkinsCount":6351,"usersCount":2538,"tipCount":42,"visitsCount":6567,"url":"http://www.oconnorspublichous.us","tier":2,"message":"Moderate","currency":"$","rating":7.5},{"name":"Penny Black Grill & Tap","phone":"2488411522","twitter":"pbrochester","address":"124 W 4th St","lat":42.68084943294525,"lng":-83.13503551666666,"neighborhood":"Downtown Rochester","city_fetched":"Macomb,US","state":"MI","country":"United States","canonicalUrl":"https://foursquare.com/pbrochester","categoryId":"4bf58dd8d48988d116941735","category":"Bar","checkinsCount":5622,"usersCount":2315,"tipCount":46,"visitsCount":6538,"url":"http://www.pbrochester.com","tier":2,"message":"Moderate","currency":"$","rating":7.5},{"name":"Goldie's Saloon","phone":"5862866991","address":"45330 Romeo Plank Rd","lat":42.63059536,"lng":-82.93567299842834,"city_fetched":"Macomb,US","state":"MI","country":"United States","canonicalUrl":"https://foursquare.com/v/goldies-saloon/4afe5eb7f964a520422f22e3","categoryId":"4bf58dd8d48988d116941735","category":"Bar","checkinsCount":764,"usersCount":343,"tipCount":7,"visitsCount":843,"tier":"","message":"","currency":"","rating":7.4},{"name":"Pub Froggy","phone":"5867753764","address":"16420 E 13 Mile Rd","lat":42.52356545231954,"lng":-82.95341937517523,"city_fetched":"Macomb,US","state":"MI","country":"United States","canonicalUrl":"https://foursquare.com/v/pub-froggy/41326e00f964a520f30f1fe3","categoryId":"4bf58dd8d48988d11b941735","category":"Pub","checkinsCount":578,"usersCount":236,"tipCount":4,"visitsCount":704,"tier":"","message":"","currency":"","rating":7.4},{"name":"G Willies","phone":"5862937100","address":"31230 Harper Ave","lat":42.525254088052066,"lng":-82.89648056030273,"neighborhood":"Saint Clair Shores","city_fetched":"Macomb,US","state":"MI","country":"United States","canonicalUrl":"https://foursquare.com/v/g-willies/4b8099e3f964a5202b8030e3","categoryId":"4bf58dd8d48988d116941735","category":"Bar","checkinsCount":1387,"usersCount":414,"tipCount":11,"visitsCount":1516,"url":"http://www.gwilliesbar.com","tier":"","message":"","currency":"","rating":7.4},{"name":"The Sandbar","address":"37030 Jefferson Avenue","lat":42.571023737945026,"lng":-82.83565983255575,"city_fetched":"Macomb,US","state":"MI","country":"United States","canonicalUrl":"https://foursquare.com/v/the-sandbar/4d6c7ccc6fb7a35d2fad0c0d","categoryId":"4bf58dd8d48988d116941735","category":"Bar","checkinsCount":1435,"usersCount":478,"tipCount":12,"visitsCount":1916,"url":"http://sandbarboattown.com","tier":"","message":"","currency":"","rating":7.3},{"name":"The Butter Run Saloon","phone":"5866752115","address":"27626 Harper Ave","lat":42.49568428092861,"lng":-82.89764012742747,"neighborhood":"Saint Clair Shores","city_fetched":"Macomb,US","state":"MI","country":"United States","canonicalUrl":"https://foursquare.com/v/the-butter-run-saloon/4e5ec76d52b1425a3776a5a5","categoryId":"4bf58dd8d48988d116941735","category":"Bar","checkinsCount":1944,"usersCount":548,"tipCount":24,"visitsCount":2434,"url":"http://www.butterrun.com","tier":2,"message":"Moderate","currency":"$","rating":7.3},{"name":"Boat Works","phone":"5867775730","address":"29917 Harper Ave","lat":42.513462723359176,"lng":-82.89873325721997,"neighborhood":"Saint Clair Shores","city_fetched":"Macomb,US","state":"MI","country":"United States","canonicalUrl":"https://foursquare.com/v/boat-works/41326e00f964a520980d1fe3","categoryId":"4bf58dd8d48988d116941735","category":"Bar","checkinsCount":3634,"usersCount":787,"tipCount":21,"visitsCount":4208,"url":"http://boatworksbar.com","tier":"","message":"","currency":"","rating":7.3},{"name":"Orleans","phone":"5864652201","twitter":"orleansmc","address":"100 Macomb Pl","lat":42.599223682912715,"lng":-82.8797638618783,"neighborhood":"Downtown Mount Clemens","city_fetched":"Macomb,US","state":"MI","country":"United States","canonicalUrl":"https://foursquare.com/v/orleans/42dd9400f964a5204d261fe3","categoryId":"4bf58dd8d48988d116941735","category":"Bar","checkinsCount":2810,"usersCount":1215,"tipCount":16,"visitsCount":3055,"url":"http://www.orleansbilliards.com","tier":2,"message":"Moderate","currency":"$","rating":7.3},{"name":"Lava Hookah Lounge","phone":"5865325282","twitter":"lavahookah586","address":"45655 Hayes Rd","lat":42.63172634480592,"lng":-82.97467754085507,"city_fetched":"Macomb,US","state":"MI","country":"United States","canonicalUrl":"https://foursquare.com/v/lava-hookah-lounge/4d8564b8f9f3a1cdd879cb64","categoryId":"4bf58dd8d48988d119941735","category":"Hookah Bar","checkinsCount":928,"usersCount":336,"tipCount":2,"visitsCount":931,"url":"http://hookahloungedetroit.com","tier":"","message":"","currency":"","rating":7.3},{"name":"Gator Jake's Bar & Grill","phone":"5869833700","address":"36863 Van Dyke Ave","lat":42.56463993013789,"lng":-83.03015649318695,"city_fetched":"Macomb,US","state":"MI","country":"United States","canonicalUrl":"https://foursquare.com/v/gator-jakes-bar--grill/4a4ba117f964a52083ac1fe3","categoryId":"4bf58dd8d48988d116941735","category":"Bar","checkinsCount":7375,"usersCount":1794,"tipCount":29,"visitsCount":7971,"url":"http://www.gatorjakes.net","tier":2,"message":"Moderate","currency":"$","rating":7.3},{"name":"Rec Bowl","phone":"5864687746","address":"40 Crocker Blvd","lat":42.59530775680229,"lng":-82.87586839761326,"city_fetched":"Macomb,US","state":"MI","country":"United States","canonicalUrl":"https://foursquare.com/v/rec-bowl/4bb67274ef159c74a7f875f7","categoryId":"4bf58dd8d48988d116941735","category":"Bar","checkinsCount":1084,"usersCount":442,"tipCount":6,"visitsCount":1288,"url":"http://recbowl.com","tier":"","message":"","currency":"","rating":7.2},{"name":"Stray Cat Lounge","phone":"5867418544","twitter":"straycatlounge","address":"40813 Garfield Rd","lat":42.59714500379418,"lng":-82.95434355670588,"city_fetched":"Macomb,US","state":"MI","country":"United States","canonicalUrl":"https://foursquare.com/v/stray-cat-lounge/5352f3e6498eb5a763b07fad","categoryId":"4bf58dd8d48988d121941735","category":"Lounge","checkinsCount":149,"usersCount":96,"tipCount":5,"visitsCount":180,"url":"http://www.thestraycatlounge.com","tier":3,"message":"Expensive","currency":"$","rating":7.2},{"name":"Coachman's Lounge","phone":"5867310531","address":"5491 Auburn Rd","lat":42.636721012715114,"lng":-83.05635468717759,"city_fetched":"Macomb,US","state":"MI","country":"United States","canonicalUrl":"https://foursquare.com/v/coachmans-lounge/4b962829f964a520b0be34e3","categoryId":"4bf58dd8d48988d116941735","category":"Bar","checkinsCount":756,"usersCount":321,"tipCount":8,"visitsCount":990,"url":"http://www.coachmanslounge.com","tier":"","message":"","currency":"","rating":7.2},{"name":"Eastgate Pub","phone":"5867762740","address":"26449 Gratiot Ave","lat":42.49070599555638,"lng":-82.9408681357444,"city_fetched":"Macomb,US","state":"MI","country":"United States","canonicalUrl":"https://foursquare.com/v/eastgate-pub/4bd486f4cfa7b713c63f24da","categoryId":"4bf58dd8d48988d116941735","category":"Bar","checkinsCount":1052,"usersCount":367,"tipCount":15,"visitsCount":1314,"tier":"","message":"","currency":"","rating":7.2},{"name":"MacKenzie Tavern","phone":"5869793012","address":"40860 Van Dyke Ave","lat":42.59476062172887,"lng":-83.02868213796201,"city_fetched":"Macomb,US","state":"MI","country":"United States","canonicalUrl":"https://foursquare.com/v/mackenzie-tavern/4cc25c3c306e224bf119906c","categoryId":"4bf58dd8d48988d116941735","category":"Bar","checkinsCount":410,"usersCount":175,"tipCount":5,"visitsCount":464,"tier":"","message":"","currency":"","rating":7.2},{"name":"Mangan's Irish Hut","address":"49 N Rose St","lat":42.60112856666667,"lng":-82.898273,"city_fetched":"Macomb,US","state":"MI","country":"United States","canonicalUrl":"https://foursquare.com/v/mangans-irish-hut/4aac74c5f964a520035e20e3","categoryId":"4bf58dd8d48988d11b941735","category":"Pub","checkinsCount":395,"usersCount":149,"tipCount":8,"visitsCount":402,"tier":"","message":"","currency":"","rating":7.2},{"name":"The Godfather Cigar Martini Lounge","phone":"2486521400","address":"6876 N Rochester Rd","lat":42.69702914615523,"lng":-83.136228665111,"neighborhood":"Rochester","city_fetched":"Macomb,US","state":"MI","country":"United States","canonicalUrl":"https://foursquare.com/v/the-godfather-cigar-martini-lounge/4d38a90f928c224b90cf5b1a","categoryId":"4bf58dd8d48988d11e941735","category":"Cocktail Bar","checkinsCount":1373,"usersCount":325,"tipCount":16,"visitsCount":1390,"url":"http://tgfcigarmartini.com","tier":"","message":"","currency":"","rating":7.1},{"name":"Shooter's Bar and Grill","phone":"5862933440","address":"34360 Utica Rd","lat":42.548686265945435,"lng":-82.95792996883392,"city_fetched":"Macomb,US","state":"MI","country":"United States","canonicalUrl":"https://foursquare.com/v/shooters-bar-and-grill/4b942cd2f964a520ce6c34e3","categoryId":"4bf58dd8d48988d116941735","category":"Bar","checkinsCount":923,"usersCount":382,"tipCount":8,"visitsCount":999,"url":"http://www.shootersbarandgrill.com","tier":"","message":"","currency":"","rating":7},{"name":"Lux Hookah Lounge","address":"3290 S Rochester Rd","lat":42.63203025947672,"lng":-83.13195030125573,"neighborhood":"Rochester","city_fetched":"Macomb,US","state":"MI","country":"United States","canonicalUrl":"https://foursquare.com/v/lux-hookah-lounge/50cfdf89e4b07cbfc057e064","categoryId":"4bf58dd8d48988d119941735","category":"Hookah Bar","checkinsCount":169,"usersCount":93,"tipCount":5,"visitsCount":175,"tier":"","message":"","currency":"","rating":7},{"name":"Tapper's Pub","phone":"2488521983","twitter":"tapperpub","address":"877 E Auburn Rd","lat":42.637853833286904,"lng":-83.11361352852313,"neighborhood":"Rochester","city_fetched":"Macomb,US","state":"MI","country":"United States","canonicalUrl":"https://foursquare.com/v/tappers-pub/41326e00f964a5209b101fe3","categoryId":"4bf58dd8d48988d11b941735","category":"Pub","checkinsCount":1784,"usersCount":391,"tipCount":13,"visitsCount":2251,"url":"http://www.tapperpub.com","tier":1,"message":"Cheap","currency":"$","rating":7},{"name":"Esplendido Mexican Cuisine","phone":"5867391070","address":"50285 Mound Rd","lat":42.66393966830285,"lng":-83.05404253193291,"city_fetched":"Macomb,US","state":"MI","country":"United States","canonicalUrl":"https://foursquare.com/v/esplendido-mexican-cuisine/4ad5062ef964a5205a0121e3","categoryId":"4bf58dd8d48988d116941735","category":"Bar","checkinsCount":424,"usersCount":226,"tipCount":7,"visitsCount":496,"url":"http://esplendidomc.com/DidosNet/","tier":"","message":"","currency":"","rating":7},{"name":"Fillin Station Bar and Grille","phone":"5869490030","address":"49434 Gratiot Ave","lat":42.66329168490076,"lng":-82.84179312128771,"city_fetched":"Macomb,US","state":"MI","country":"United States","canonicalUrl":"https://foursquare.com/v/fillin-station-bar-and-grille/4ba5061df964a520f7d138e3","categoryId":"4bf58dd8d48988d116941735","category":"Bar","checkinsCount":520,"usersCount":260,"tipCount":9,"visitsCount":606,"tier":"","message":"","currency":"","rating":6.9},{"name":"Dooley's","phone":"5862945331","address":"32500 Gratiot Ave","lat":42.535872383234626,"lng":-82.91081955462255,"city_fetched":"Macomb,US","state":"MI","country":"United States","canonicalUrl":"https://foursquare.com/v/dooleys/4b5bb156f964a520631029e3","categoryId":"4bf58dd8d48988d116941735","category":"Bar","checkinsCount":5894,"usersCount":2162,"tipCount":37,"visitsCount":6878,"url":"http://dooleysirish.com","tier":2,"message":"Moderate","currency":"$","rating":6.9},{"name":"Chaps Bar","phone":"5867274500","address":"Main Street","lat":42.811270604592366,"lng":-82.75714529594167,"city_fetched":"Macomb,US","state":"MI","country":"United States","canonicalUrl":"https://foursquare.com/v/chaps-bar/4c1e3a38b306c92895ac66b7","categoryId":"4bf58dd8d48988d116941735","category":"Bar","checkinsCount":840,"usersCount":336,"tipCount":6,"visitsCount":971,"tier":"","message":"","currency":"","rating":6.9},{"name":"Dooley's","phone":"5863233501","address":"12414 Hall Rd","lat":42.627170235387254,"lng":-83.00870418548584,"city_fetched":"Macomb,US","state":"MI","country":"United States","canonicalUrl":"https://foursquare.com/v/dooleys/4743de45f964a5207e4c1fe3","categoryId":"4bf58dd8d48988d116941735","category":"Bar","checkinsCount":5391,"usersCount":1854,"tipCount":30,"visitsCount":5610,"url":"http://www.dooleysirish.com","tier":2,"message":"Moderate","currency":"$","rating":6.9},{"name":"Biggs Bar & Grill","phone":"5869495333","address":"48265 Gratiot Ave","lat":42.65471398830414,"lng":-82.84884989261627,"city_fetched":"Macomb,US","state":"MI","country":"United States","canonicalUrl":"https://foursquare.com/v/biggs-bar--grill/41326e00f964a520820d1fe3","categoryId":"4bf58dd8d48988d116941735","category":"Bar","checkinsCount":585,"usersCount":298,"tipCount":5,"visitsCount":744,"url":"http://www.biggsribs.com","tier":"","message":"","currency":"","rating":6.8},{"name":"Rosie O'Grady's","phone":"5864211962","address":"30400 23 Mile Rd","lat":42.67427796397681,"lng":-82.80340612557102,"city_fetched":"Macomb,US","state":"MI","country":"United States","canonicalUrl":"https://foursquare.com/v/rosie-ogradys/4b6e1745f964a520cba92ce3","categoryId":"4bf58dd8d48988d11b941735","category":"Pub","checkinsCount":3923,"usersCount":1747,"tipCount":22,"visitsCount":4645,"url":"http://www.rosieogradysirishpub.com","tier":2,"message":"Moderate","currency":"$","rating":6.8},{"name":"Blo Hookah Bar","phone":"5869972569","twitter":"blohookahbar","address":"47319 Van Dyke Ave","lat":42.64262033268973,"lng":-83.0317609365197,"city_fetched":"Macomb,US","state":"MI","country":"United States","canonicalUrl":"https://foursquare.com/v/blo-hookah-bar/50b80167e4b062ae35693175","categoryId":"4bf58dd8d48988d119941735","category":"Hookah Bar","checkinsCount":248,"usersCount":86,"tipCount":3,"visitsCount":257,"tier":"","message":"","currency":"","rating":6.8},{"name":"Hamlin Pub","phone":"5869480290","address":"50659 Gratiot Ave","lat":42.67251924179277,"lng":-82.83642783942777,"city_fetched":"Macomb,US","state":"MI","country":"United States","canonicalUrl":"https://foursquare.com/v/hamlin-pub/4b7998a3f964a5204c042fe3","categoryId":"4bf58dd8d48988d11b941735","category":"Pub","checkinsCount":2592,"usersCount":1165,"tipCount":20,"visitsCount":2879,"url":"http://www.hamlinpubs.com","tier":"","message":"","currency":"","rating":6.7},{"name":"Mainstreet Bar and Grill","phone":"5863360259","address":"223 N Main St","lat":42.80316771121971,"lng":-83.01361650561317,"city_fetched":"Macomb,US","state":"MI","country":"United States","canonicalUrl":"https://foursquare.com/v/mainstreet-bar-and-grill/4d5f2da75c39b1f7a9daf449","categoryId":"4bf58dd8d48988d11b941735","category":"Pub","checkinsCount":400,"usersCount":167,"tipCount":10,"visitsCount":428,"tier":"","message":"","currency":"","rating":6.7},{"name":"Club54","phone":"5867950054","address":"37722 Van Dyke Ave","lat":42.57133607799996,"lng":-83.02871360852151,"city_fetched":"Macomb,US","state":"MI","country":"United States","canonicalUrl":"https://foursquare.com/v/club54/50f6153d19a9e56d4c396a60","categoryId":"4bf58dd8d48988d11f941735","category":"Nightclub","checkinsCount":214,"usersCount":148,"tipCount":5,"visitsCount":214,"url":"http://nightclub54.com","tier":"","message":"","currency":"","rating":6.7},{"name":"Jamboozies Sports Bar & Grill","phone":"5867312000","twitter":"jambooziesgrill","address":"42066 Van Dyke Ave","lat":42.60255245461781,"lng":-83.03029236230387,"city_fetched":"Macomb,US","state":"MI","country":"United States","canonicalUrl":"https://foursquare.com/v/jamboozies-sports-bar--grill/41326e00f964a520030f1fe3","categoryId":"4bf58dd8d48988d11d941735","category":"Sports Bar","checkinsCount":2685,"usersCount":864,"tipCount":24,"visitsCount":2951,"url":"http://www.jamboozies.com","tier":"","message":"","currency":"","rating":6.7},{"name":"The Hub Sports Bistro","phone":"5862263399","address":"16780 21 Mile Rd","lat":42.64073962164736,"lng":-82.95460610592848,"city_fetched":"Macomb,US","state":"MI","country":"United States","canonicalUrl":"https://foursquare.com/v/the-hub-sports-bistro/4ac58209f964a5203eb220e3","categoryId":"4bf58dd8d48988d11d941735","category":"Sports Bar","checkinsCount":2850,"usersCount":783,"tipCount":22,"visitsCount":3149,"tier":"","message":"","currency":"","rating":6.6},{"name":"Cafe Mocha","phone":"5862760000","address":"33166 Ryan Rd","lat":42.5366481739204,"lng":-83.06805577671207,"city_fetched":"Macomb,US","state":"MI","country":"United States","canonicalUrl":"https://foursquare.com/v/cafe-mocha/4dd1f8f752b15d0acc743aa8","categoryId":"4bf58dd8d48988d119941735","category":"Hookah Bar","checkinsCount":547,"usersCount":172,"tipCount":9,"visitsCount":561,"url":"http://cafemochausa.com","tier":"","message":"","currency":"","rating":6.6},{"name":"Shelly Kelly's Irish Pub","phone":"5862941440","address":"18339 E 14 Mile Rd","lat":42.539343289091576,"lng":-82.93409788393052,"city_fetched":"Macomb,US","state":"MI","country":"United States","canonicalUrl":"https://foursquare.com/v/shelly-kellys-irish-pub/4bf60953bfeac928a3c89336","categoryId":"4bf58dd8d48988d11b941735","category":"Pub","checkinsCount":868,"usersCount":232,"tipCount":11,"visitsCount":894,"url":"http://www.shellykellyspub.com","tier":"","message":"","currency":"","rating":6.6},{"name":"Warfield Grille","phone":"5862939887","address":"34275 Utica Rd","lat":42.54846943984004,"lng":-82.95867548597577,"city_fetched":"Macomb,US","state":"MI","country":"United States","canonicalUrl":"https://foursquare.com/v/warfield-grille/4aeb9a0ef964a520b0c321e3","categoryId":"4bf58dd8d48988d116941735","category":"Bar","checkinsCount":2314,"usersCount":502,"tipCount":9,"visitsCount":2524,"tier":"","message":"","currency":"","rating":6.6},{"name":"Hamlin Pub","phone":"5867869350","address":"55076 Van Dyke Ave","lat":42.69904038419315,"lng":-83.03250570093554,"city_fetched":"Macomb,US","state":"MI","country":"United States","canonicalUrl":"https://foursquare.com/v/hamlin-pub/4ac3ffb2f964a520cf9d20e3","categoryId":"4bf58dd8d48988d11b941735","category":"Pub","checkinsCount":1985,"usersCount":1216,"tipCount":17,"visitsCount":2264,"url":"http://c4site.com/hamlin-pub/","tier":"","message":"","currency":"","rating":6.6},{"name":"Mr. B's Food & Spirits","phone":"2486516534","address":"423 S Main St","lat":42.68134320226347,"lng":-83.13411308324494,"neighborhood":"Downtown Rochester","city_fetched":"Macomb,US","state":"MI","country":"United States","canonicalUrl":"https://foursquare.com/v/mr-bs-food--spirits/4b15bbeef964a52075b323e3","categoryId":"4bf58dd8d48988d11b941735","category":"Pub","checkinsCount":4945,"usersCount":1973,"tipCount":28,"visitsCount":5090,"url":"http://mrbsrochester.com","tier":2,"message":"Moderate","currency":"$","rating":6.5},{"name":"Jager's Castle Rock","phone":"5864939910","address":"43785 N Gratiot Ave","lat":42.61769413948059,"lng":-82.86757171154022,"city_fetched":"Macomb,US","state":"MI","country":"United States","canonicalUrl":"https://foursquare.com/v/jagers-castle-rock/4ba9247ff964a520c80e3ae3","categoryId":"4bf58dd8d48988d116941735","category":"Bar","checkinsCount":344,"usersCount":156,"tipCount":4,"visitsCount":344,"url":"http://www.myspace.com/jagerscastlerock","tier":"","message":"","currency":"","rating":6.5},{"name":"Shelby Pub & Grill","phone":"5862545898","address":"47980 Van Dyke Ave","lat":42.64777389569009,"lng":-83.03271549220914,"city_fetched":"Macomb,US","state":"MI","country":"United States","canonicalUrl":"https://foursquare.com/v/shelby-pub--grill/4da0aef422a5f04d97d7ea54","categoryId":"4bf58dd8d48988d116941735","category":"Bar","checkinsCount":770,"usersCount":316,"tipCount":6,"visitsCount":965,"tier":1,"message":"Cheap","currency":"$","rating":6.5},{"name":"Packard Grill","phone":"5867266060","twitter":"packardgrill","address":"50055 Van Dyke","lat":42.66255695838176,"lng":-83.03428173065186,"city_fetched":"Macomb,US","state":"MI","country":"United States","canonicalUrl":"https://foursquare.com/v/packard-grill/4bd38c5c9854d13a4a1ffe4d","categoryId":"4bf58dd8d48988d116941735","category":"Bar","checkinsCount":1063,"usersCount":430,"tipCount":14,"visitsCount":1232,"url":"http://www.packardgrill.net","tier":"","message":"","currency":"","rating":6.5},{"name":"Jake O'Malley's Irish Pub","address":"11417 26 Mile Rd","lat":42.714700942126015,"lng":-83.01850586932261,"city_fetched":"Macomb,US","state":"MI","country":"United States","canonicalUrl":"https://foursquare.com/v/jake-omalleys-irish-pub/4d61cb415b276dcb1e0328c6","categoryId":"4bf58dd8d48988d116941735","category":"Bar","checkinsCount":529,"usersCount":238,"tipCount":8,"visitsCount":553,"tier":"","message":"","currency":"","rating":6.5},{"name":"The Double D Bar & Grill","phone":"5866497291","twitter":"allensriver","address":"240 N River Rd","lat":42.59709858404868,"lng":-82.86249802511813,"city_fetched":"Macomb,US","state":"MI","country":"United States","canonicalUrl":"https://foursquare.com/v/the-double-d-bar--grill/4d351d1f280e2c0fd49b59bc","categoryId":"4bf58dd8d48988d116941735","category":"Bar","checkinsCount":599,"usersCount":333,"tipCount":14,"visitsCount":848,"tier":"","message":"","currency":"","rating":6.5},{"name":"Clancy's Irish Pub","phone":"5862860008","address":"42012 Hayes Rd","lat":42.60468400572354,"lng":-82.97175407409668,"city_fetched":"Macomb,US","state":"MI","country":"United States","canonicalUrl":"https://foursquare.com/v/clancys-irish-pub/4c6a07f91a6620a1cd46658c","categoryId":"4bf58dd8d48988d116941735","category":"Bar","checkinsCount":1906,"usersCount":706,"tipCount":13,"visitsCount":2022,"url":"http://clancysirishpub1.com","tier":"","message":"","currency":"","rating":6.5},{"name":"Pub 1281","phone":"5864630270","address":"1281 Gratiot Ave.","lat":42.580641,"lng":-82.88548350334167,"city_fetched":"Macomb,US","state":"MI","country":"United States","canonicalUrl":"https://foursquare.com/v/pub-1281/4b5bb4b2f964a520321129e3","categoryId":"4bf58dd8d48988d116941735","category":"Bar","checkinsCount":689,"usersCount":316,"tipCount":7,"visitsCount":771,"url":"http://www.pub1281.com","tier":"","message":"","currency":"","rating":6.5},{"name":"Waldenburg Bar","address":"48920 Romeo Plank Rd","lat":42.656884,"lng":-82.93684780597687,"city_fetched":"Macomb,US","state":"MI","country":"United States","canonicalUrl":"https://foursquare.com/v/waldenburg-bar/41326e00f964a520d8101fe3","categoryId":"4bf58dd8d48988d118941735","category":"Dive Bar","checkinsCount":493,"usersCount":282,"tipCount":2,"visitsCount":640,"tier":"","message":"","currency":"","rating":6.4},{"name":"Traffic Light Limited","phone":"5864688900","address":"24500 Henry B Joy Blvd","lat":42.60951305564466,"lng":-82.86041047034462,"city_fetched":"Macomb,US","state":"MI","country":"United States","canonicalUrl":"https://foursquare.com/v/traffic-light-limited/4c509b3f9426c928ba6a5e72","categoryId":"4bf58dd8d48988d1d6941735","category":"Strip Club","checkinsCount":753,"usersCount":347,"tipCount":9,"visitsCount":878,"tier":"","message":"","currency":"","rating":6.3},{"name":"Fruicota","phone":"5864655780","address":"20828 Hall Rd","lat":42.62825810797537,"lng":-82.91326807636243,"city_fetched":"Macomb,US","state":"MI","country":"United States","canonicalUrl":"https://foursquare.com/v/fruicota/4ba03118f964a5208f6037e3","categoryId":"4bf58dd8d48988d119941735","category":"Hookah Bar","checkinsCount":349,"usersCount":181,"tipCount":8,"visitsCount":367,"tier":1,"message":"Cheap","currency":"$","rating":6.3},{"name":"Jefferson Street Pub","phone":"5864637000","address":"36611 Jefferson Ave","lat":42.568392,"lng":-82.840579,"city_fetched":"Macomb,US","state":"MI","country":"United States","canonicalUrl":"https://foursquare.com/v/jefferson-street-pub/4c2ea000a0ced13ae4450f6e","categoryId":"4bf58dd8d48988d116941735","category":"Bar","checkinsCount":496,"usersCount":220,"tipCount":5,"visitsCount":739,"tier":"","message":"","currency":"","rating":6.3},{"name":"JP Shakers","phone":"5862931243","twitter":"jpshakers","address":"15015 E 13 Mile Rd","lat":42.52401210850976,"lng":-82.97069838826255,"city_fetched":"Macomb,US","state":"MI","country":"United States","canonicalUrl":"https://foursquare.com/v/jp-shakers/4b4854aef964a520b94b26e3","categoryId":"4bf58dd8d48988d116941735","category":"Bar","checkinsCount":2455,"usersCount":407,"tipCount":10,"visitsCount":2594,"url":"http://jpshakers-hub.com","tier":"","message":"","currency":"","rating":6.3},{"name":"Madison's","phone":"5864687777","address":"15 N Walnut St","lat":42.597295226805514,"lng":-82.87949050338037,"neighborhood":"Downtown Mount Clemens","city_fetched":"Macomb,US","state":"MI","country":"United States","canonicalUrl":"https://foursquare.com/v/madisons/4b477ad0f964a5206f3326e3","categoryId":"4bf58dd8d48988d11b941735","category":"Pub","checkinsCount":2576,"usersCount":1337,"tipCount":12,"visitsCount":3069,"url":"http://www.madisonspubmtclemens.com","tier":"","message":"","currency":"","rating":6.3},{"name":"Stonewood Lounge","phone":"5867795630","address":"28775 Utica Rd","lat":42.50834135004255,"lng":-82.93554758473235,"city_fetched":"Macomb,US","state":"MI","country":"United States","canonicalUrl":"https://foursquare.com/v/stonewood-lounge/41326e00f964a52080101fe3","categoryId":"4bf58dd8d48988d121941735","category":"Lounge","checkinsCount":237,"usersCount":125,"tipCount":1,"visitsCount":272,"tier":"","message":"","currency":"","rating":6.3},{"name":"The Detroit Pub","phone":"5867911288","address":"33401 Harper Ave","lat":42.54055714292635,"lng":-82.88244481858598,"city_fetched":"Macomb,US","state":"MI","country":"United States","canonicalUrl":"https://foursquare.com/v/the-detroit-pub/4bb7ed9d53649c74658246fb","categoryId":"4bf58dd8d48988d11b941735","category":"Pub","checkinsCount":2084,"usersCount":921,"tipCount":11,"visitsCount":2221,"tier":2,"message":"Moderate","currency":"$","rating":6.2},{"name":"Wintergarden Tavern East","address":"46777 Gratiot Ave","lat":42.643316,"lng":-82.854606,"city_fetched":"Macomb,US","state":"MI","country":"United States","canonicalUrl":"https://foursquare.com/v/wintergarden-tavern-east/4b637a46f964a520ef7c2ae3","categoryId":"4bf58dd8d48988d116941735","category":"Bar","checkinsCount":1035,"usersCount":531,"tipCount":9,"visitsCount":1148,"tier":"","message":"","currency":"","rating":6.1},{"name":"Riparian Grille","phone":"2488797500","twitter":"embassysuites","address":"850 Tower Dr","lat":42.59732,"lng":-83.163442,"city_fetched":"Macomb,US","state":"MI","country":"United States","canonicalUrl":"https://foursquare.com/v/riparian-grille/4ba80e02f964a52080c939e3","categoryId":"4bf58dd8d48988d1d5941735","category":"Hotel Bar","checkinsCount":528,"usersCount":172,"tipCount":3,"visitsCount":554,"tier":"","message":"","currency":"","rating":6},{"name":"Ciccarelli's Sports Bar Theater","phone":"5862472223","twitter":"ciccarellis22","address":"46793 Hayes Road","lat":42.64041071381419,"lng":-82.97506599412912,"city_fetched":"Macomb,US","state":"MI","country":"United States","canonicalUrl":"https://foursquare.com/v/ciccarellis-sports-bar-theater/51ce1d2f454af9db234cb106","categoryId":"4bf58dd8d48988d11d941735","category":"Sports Bar","checkinsCount":2368,"usersCount":1216,"tipCount":14,"visitsCount":2826,"url":"http://ciccarellis-22-sports-bar.com","tier":2,"message":"Moderate","currency":"$","rating":6},{"name":"Sentimental Lady Saloon","phone":"5864655230","address":"36509 Jefferson Ave","lat":42.56680586,"lng":-82.84242,"city_fetched":"Macomb,US","state":"MI","country":"United States","canonicalUrl":"https://foursquare.com/v/sentimental-lady-saloon/4bd7b040e914a59368e551fa","categoryId":"4bf58dd8d48988d116941735","category":"Bar","checkinsCount":770,"usersCount":292,"tipCount":9,"visitsCount":811,"tier":"","message":"","currency":"","rating":6},{"name":"Roger's Roost","phone":"5869797550","twitter":"rogersroost1","address":"33626 Schoenherr Rd","lat":42.54278641101995,"lng":-82.98893333237828,"city_fetched":"Macomb,US","state":"MI","country":"United States","canonicalUrl":"https://foursquare.com/v/rogers-roost/42dd9400f964a5204e261fe3","categoryId":"4bf58dd8d48988d11d941735","category":"Sports Bar","checkinsCount":4892,"usersCount":2276,"tipCount":41,"visitsCount":5872,"url":"http://rogersroost1.com","tier":2,"message":"Moderate","currency":"$","rating":6},{"name":"RJ's Pub","phone":"2486529550","address":"288 W Tienken Rd","lat":42.69633006851564,"lng":-83.13890970011195,"neighborhood":"Rochester","city_fetched":"Macomb,US","state":"MI","country":"United States","canonicalUrl":"https://foursquare.com/v/rjs-pub/41326e00f964a520f90f1fe3","categoryId":"4bf58dd8d48988d116941735","category":"Bar","checkinsCount":1547,"usersCount":540,"tipCount":13,"visitsCount":1858,"tier":"","message":"","currency":"","rating":5.9},{"name":"Old Stone Bar & Grill","phone":"5867816544","address":"60730 Van Dyke Rd","lat":42.74102452626034,"lng":-83.03023466764868,"city_fetched":"Macomb,US","state":"MI","country":"United States","canonicalUrl":"https://foursquare.com/v/old-stone-bar--grill/4d41f10c33268cfaf36f5301","categoryId":"4bf58dd8d48988d11d941735","category":"Sports Bar","checkinsCount":95,"usersCount":78,"tipCount":2,"visitsCount":124,"tier":"","message":"","currency":"","rating":5.9},{"name":"Dooleys","phone":"5869541800","twitter":"dooleysmtclem","address":"235 N Groesbeck Hwy","lat":42.610016222559544,"lng":-82.89418719105963,"city_fetched":"Macomb,US","state":"MI","country":"United States","canonicalUrl":"https://foursquare.com/v/dooleys/4c38c8000a71c9b64d4f41c9","categoryId":"4bf58dd8d48988d116941735","category":"Bar","checkinsCount":1754,"usersCount":794,"tipCount":25,"visitsCount":2088,"url":"http://www.dooleysirish.com","tier":2,"message":"Moderate","currency":"$","rating":5.9},{"name":"John Barleycorn's","twitter":"barleycornsjohn","address":"112 Macomb Pl","lat":42.599734539811806,"lng":-82.87977963252672,"neighborhood":"Downtown Mount Clemens","city_fetched":"Macomb,US","state":"MI","country":"United States","canonicalUrl":"https://foursquare.com/v/john-barleycorns/4ad3b7d2f964a520e2e520e3","categoryId":"4bf58dd8d48988d11b941735","category":"Pub","checkinsCount":681,"usersCount":315,"tipCount":2,"visitsCount":704,"tier":"","message":"","currency":"","rating":5.9},{"name":"Blue Goose Inn","phone":"5862960950","address":"28911 Jefferson Ave","lat":42.504728030014604,"lng":-82.88243956191349,"neighborhood":"Saint Clair Shores","city_fetched":"Macomb,US","state":"MI","country":"United States","canonicalUrl":"https://foursquare.com/v/blue-goose-inn/41326e00f964a5208f0d1fe3","categoryId":"4bf58dd8d48988d116941735","category":"Bar","checkinsCount":931,"usersCount":465,"tipCount":18,"visitsCount":1099,"url":"http://www.bluegooseinn.net/index.html","tier":1,"message":"Cheap","currency":"$","rating":5.8},{"name":"Piper's Alley Bar & Grill","address":"34802 S Gratiot Ave","lat":42.55275878333333,"lng":-82.90016864,"city_fetched":"Macomb,US","state":"MI","country":"United States","canonicalUrl":"https://foursquare.com/v/pipers-alley-bar--grill/4ba80d48f964a52051c939e3","categoryId":"4bf58dd8d48988d116941735","category":"Bar","checkinsCount":839,"usersCount":436,"tipCount":11,"visitsCount":863,"tier":"","message":"","currency":"","rating":5.8},{"name":"Limelight Sports Pub & Grill","phone":"2486508170","twitter":"limelightgrill","address":"543 N Main St","lat":42.683648,"lng":-83.134637,"neighborhood":"Downtown Rochester","city_fetched":"Macomb,US","state":"MI","country":"United States","canonicalUrl":"https://foursquare.com/v/limelight-sports-pub--grill/4b7b33dff964a520a1572fe3","categoryId":"4bf58dd8d48988d116941735","category":"Bar","checkinsCount":1541,"usersCount":725,"tipCount":17,"visitsCount":1546,"tier":"","message":"","currency":"","rating":5.8},{"name":"Rosie O'Gradys","address":"36759 Mound Rd","lat":42.56347574934468,"lng":-83.04937078658442,"city_fetched":"Macomb,US","state":"MI","country":"United States","canonicalUrl":"https://foursquare.com/v/rosie-ogradys/4b8703b7f964a5207cab31e3","categoryId":"4bf58dd8d48988d11b941735","category":"Pub","checkinsCount":1826,"usersCount":1041,"tipCount":15,"visitsCount":1958,"url":"http://www.rosieogradysirishpub.com","tier":"","message":"","currency":"","rating":5.8},{"name":"Hatchy's","phone":"5869910407","address":"7759 Auburn Rd","lat":42.626172967491605,"lng":-83.03396898114927,"city_fetched":"Macomb,US","state":"MI","country":"United States","canonicalUrl":"https://foursquare.com/v/hatchys/4b3ed759f964a5208aa225e3","categoryId":"4bf58dd8d48988d11d941735","category":"Sports Bar","checkinsCount":3206,"usersCount":913,"tipCount":22,"visitsCount":3317,"url":"http://www.hatchys.com","tier":2,"message":"Moderate","currency":"$","rating":5.8},{"name":"Muldoon's","phone":"5867396946","twitter":"muldoonstavern","address":"7636 Auburn Rd","lat":42.62581825025301,"lng":-83.0353640495841,"city_fetched":"Macomb,US","state":"MI","country":"United States","canonicalUrl":"https://foursquare.com/v/muldoons/4b9c77c0f964a520c66a36e3","categoryId":"4bf58dd8d48988d116941735","category":"Bar","checkinsCount":3399,"usersCount":988,"tipCount":21,"visitsCount":3642,"url":"http://muldoonstavern.com","tier":2,"message":"Moderate","currency":"$","rating":5.7},{"name":"Luna Kai","phone":"5864682611","address":"37400 Jefferson Ave","lat":42.56978925,"lng":-82.82761216163635,"city_fetched":"Macomb,US","state":"MI","country":"United States","canonicalUrl":"https://foursquare.com/v/luna-kai/4c1d2421b306c928f50d65b7","categoryId":"4bf58dd8d48988d116941735","category":"Bar","checkinsCount":438,"usersCount":302,"tipCount":4,"visitsCount":457,"url":"http://www.lunakai.com","tier":"","message":"","currency":"","rating":5.7},{"name":"Paint Creek Tavern","phone":"2486562322","address":"613 N Main St","lat":42.68388032913208,"lng":-83.134168,"neighborhood":"Downtown Rochester","city_fetched":"Macomb,US","state":"MI","country":"United States","canonicalUrl":"https://foursquare.com/v/paint-creek-tavern/41326e00f964a520ce0f1fe3","categoryId":"4bf58dd8d48988d116941735","category":"Bar","checkinsCount":2210,"usersCount":690,"tipCount":16,"visitsCount":2274,"tier":1,"message":"Cheap","currency":"$","rating":5.6},{"name":"Bugsy's Sports Pub","address":"50225 Gratiot Ave","lat":42.66945447147257,"lng":-82.83771659830211,"city_fetched":"Macomb,US","state":"MI","country":"United States","canonicalUrl":"https://foursquare.com/v/bugsys-sports-pub/4ed005df8231b9ef881d9119","categoryId":"4bf58dd8d48988d116941735","category":"Bar","checkinsCount":242,"usersCount":122,"tipCount":4,"visitsCount":299,"tier":"","message":"","currency":"","rating":5.5},{"name":"Locker Room Saloon","phone":"5867313362","address":"7790 Auburn Rd","lat":42.6258704,"lng":-83.03348779678345,"city_fetched":"Macomb,US","state":"MI","country":"United States","canonicalUrl":"https://foursquare.com/v/locker-room-saloon/41326e00f964a520490f1fe3","categoryId":"4bf58dd8d48988d116941735","category":"Bar","checkinsCount":1049,"usersCount":703,"tipCount":10,"visitsCount":1096,"url":"http://thelockerroomsaloon.com","tier":"","message":"","currency":"","rating":5.3},{"name":"Colleen's Irish Pub","phone":"5864150571","address":"32307 Harper Ave","lat":42.53277871666667,"lng":-82.8882659,"neighborhood":"Saint Clair Shores","city_fetched":"Macomb,US","state":"MI","country":"United States","canonicalUrl":"https://foursquare.com/v/colleens-irish-pub/41326e00f964a5200e0e1fe3","categoryId":"4bf58dd8d48988d118941735","category":"Dive Bar","checkinsCount":461,"usersCount":215,"tipCount":4,"visitsCount":513,"tier":"","message":"","currency":"","rating":4.9}]