[{"name":"The Rookery","phone":"4787468658","twitter":"rookerymacon","address":"543 Cherry St","lat":32.836201365466934,"lng":-83.62812280654907,"city_fetched":"Macon","state":"GA","country":"United States","canonicalUrl":"https://foursquare.com/rookerymacon","category":"American Restaurant","checkinsCount":6453,"usersCount":2204,"tipCount":77,"visitsCount":7309,"url":"http://rookerymacon.com","tier":2,"message":"Moderate","currency":"$","rating":9.4},{"name":"Just Tap'd","phone":"4785999951","twitter":"justtapd","address":"488 1st St","lat":32.83626529263612,"lng":-83.63129150389919,"city_fetched":"Macon","state":"GA","country":"United States","canonicalUrl":"https://foursquare.com/v/just-tapd/5414862e498eda811625ec63","category":"Beer Garden","checkinsCount":452,"usersCount":232,"tipCount":5,"visitsCount":657,"url":"http://www.justtapd.com","tier":"","message":"","currency":"","rating":9},{"name":"Mercer Village","twitter":"mercervillage","address":"1602 Montpelier Ave","lat":32.832820689627695,"lng":-83.6508726517465,"city_fetched":"Macon","state":"GA","country":"United States","canonicalUrl":"https://foursquare.com/mercervillage","category":"Bar","checkinsCount":584,"usersCount":165,"tipCount":0,"visitsCount":592,"url":"http://www.mercervillage.com","tier":"","message":"","currency":"","rating":8.3},{"name":"Bearfoot Tavern Gastropub & Beer Garden","address":"468 2nd St","lat":32.835770905078476,"lng":-83.62985735591755,"city_fetched":"Macon","state":"GA","country":"United States","canonicalUrl":"https://foursquare.com/v/bearfoot-tavern-gastropub--beer-garden/56b16157498ec3bd193dcab0","category":"Gastropub","checkinsCount":169,"usersCount":120,"tipCount":2,"visitsCount":261,"tier":"","message":"","currency":"","rating":8.3},{"name":"Margaritas Mercer Village","phone":"4782547707","address":"1602 Montpelier Ave Ste 106","lat":32.832827185220594,"lng":-83.65148560019584,"neighborhood":"Mercer University","city_fetched":"Macon","state":"GA","country":"United States","canonicalUrl":"https://foursquare.com/v/margaritas-mercer-village/4e5578d652b1f848a9a259da","category":"Mexican Restaurant","checkinsCount":1298,"usersCount":532,"tipCount":13,"visitsCount":1618,"tier":1,"message":"Cheap","currency":"$","rating":8.3},{"name":"Tic Toc Room","phone":"4787440123","address":"408 Martin Luther King Jr Blvd","lat":32.834521,"lng":-83.626116,"city_fetched":"Macon","state":"GA","country":"United States","canonicalUrl":"https://foursquare.com/v/tic-toc-room/4aff7e15f964a5200f3922e3","category":"Lounge","checkinsCount":949,"usersCount":354,"tipCount":10,"visitsCount":984,"tier":"","message":"","currency":"","rating":8.1},{"name":"Hummingbird Stage & Taproom","phone":"4787419130","twitter":"hbmacon","address":"430 Cherry St","lat":32.83506961526433,"lng":-83.62665118900416,"city_fetched":"Macon","state":"GA","country":"United States","canonicalUrl":"https://foursquare.com/v/hummingbird-stage--taproom/4b004eccf964a5209d3c22e3","category":"Bar","checkinsCount":5225,"usersCount":1012,"tipCount":29,"visitsCount":5639,"url":"http://www.hummingbirdmacon.com","tier":1,"message":"Cheap","currency":"$","rating":8},{"name":"Macon Beer Company","phone":"4782167117","twitter":"maconbeer","address":"345 Oglethorpe St","lat":32.82819601552562,"lng":-83.63010764122009,"city_fetched":"Macon","state":"GA","country":"United States","canonicalUrl":"https://foursquare.com/v/macon-beer-company/50608b6b45b0223cf0a15cc4","category":"Brewery","checkinsCount":39,"usersCount":65,"tipCount":1,"visitsCount":83,"url":"http://www.maconbeercompany.com","tier":"","message":"","currency":"","rating":8},{"name":"Roasted Cafe & Lounge","phone":"4787466914","twitter":"roastedmacon","address":"442 2nd St","lat":32.83610135822312,"lng":-83.62945204727784,"city_fetched":"Macon","state":"GA","country":"United States","canonicalUrl":"https://foursquare.com/v/roasted-cafe--lounge/4da504a5a86ed93def2f338d","category":"Sandwich Place","checkinsCount":1492,"usersCount":339,"tipCount":14,"visitsCount":1546,"url":"http://www.roastedmacon.com","tier":1,"message":"Cheap","currency":"$","rating":7.9},{"name":"Cherry Street Hookah","phone":"4782543733","address":"557 Cherry St","lat":32.836529223994425,"lng":-83.62827248029446,"city_fetched":"Macon","state":"GA","country":"United States","canonicalUrl":"https://foursquare.com/v/cherry-street-hookah/50415e9ce4b09fb67aa20f63","category":"Hookah Bar","checkinsCount":260,"usersCount":111,"tipCount":3,"visitsCount":261,"tier":"","message":"","currency":"","rating":7.7},{"name":"Billy's Clubhouse","address":"Forest Hill Rd","lat":32.89838527760531,"lng":-83.7033462594047,"city_fetched":"Macon","state":"GA","country":"United States","canonicalUrl":"https://foursquare.com/v/billys-clubhouse/4bca6ccf511f952135dfafc7","category":"Bar","checkinsCount":782,"usersCount":200,"tipCount":6,"visitsCount":835,"tier":"","message":"","currency":"","rating":7.5},{"name":"Growler Spot","phone":"4786214340","twitter":"growler_spot","address":"3841 Northside Dr","lat":32.8981907535639,"lng":-83.69425247299543,"city_fetched":"Macon","state":"GA","country":"United States","canonicalUrl":"https://foursquare.com/v/growler-spot/533ae39d498e53507b8933bb","category":"Beer Garden","checkinsCount":114,"usersCount":56,"tipCount":2,"visitsCount":136,"tier":2,"message":"Moderate","currency":"$","rating":7.5},{"name":"The Crazy Bull","address":"2nd Street","lat":32.8359003069925,"lng":-83.6299301033446,"city_fetched":"Macon","state":"GA","country":"United States","canonicalUrl":"https://foursquare.com/v/the-crazy-bull/51f44b7d498e255156c43d38","category":"Bar","checkinsCount":266,"usersCount":163,"tipCount":8,"visitsCount":304,"tier":"","message":"","currency":"","rating":7.5},{"name":"BJ's Billiards","phone":"4782542460","address":"430 Martin Luther King Jr Blvd","lat":32.83426410031533,"lng":-83.62618869758245,"city_fetched":"Macon","state":"GA","country":"United States","canonicalUrl":"https://foursquare.com/v/bjs-billiards/4b004de7f964a5208c3c22e3","category":"Pool Hall","checkinsCount":1026,"usersCount":257,"tipCount":6,"visitsCount":1049,"url":"http://www.bjbilliards.com","tier":"","message":"","currency":"","rating":7.3},{"name":"Rivalry's Sports Bar","phone":"4784740606","address":"3986 Northside Dr","lat":32.89818135459529,"lng":-83.7022303696266,"city_fetched":"Macon","state":"GA","country":"United States","canonicalUrl":"https://foursquare.com/v/rivalrys-sports-bar/4bc1803b2a89ef3ba17df288","category":"Bar","checkinsCount":2014,"usersCount":199,"tipCount":12,"visitsCount":2067,"url":"http://rivalryssportsbar-macon.com","tier":"","message":"","currency":"","rating":7.2},{"name":"Club Envy","address":"420 Coleman Ave","lat":32.83430454648994,"lng":-83.6261055526953,"city_fetched":"Macon","state":"GA","country":"United States","canonicalUrl":"https://foursquare.com/v/club-envy/4b94568ff964a5203b7534e3","category":"Nightclub","checkinsCount":461,"usersCount":133,"tipCount":5,"visitsCount":466,"tier":"","message":"","currency":"","rating":6.9},{"name":"Bearfoot Tavern","phone":"4787434645","address":"401 Cherry St","lat":32.83496898378588,"lng":-83.62632380778884,"city_fetched":"Macon","state":"GA","country":"United States","canonicalUrl":"https://foursquare.com/v/bearfoot-tavern/4eb9ec3761af5dcdb447844b","category":"Pub","checkinsCount":1488,"usersCount":506,"tipCount":13,"visitsCount":1539,"tier":1,"message":"Cheap","currency":"$","rating":6.8},{"name":"Element Nightclub","phone":"4787429929","address":"425 Cherry St","lat":32.835281868717175,"lng":-83.62612724304199,"city_fetched":"Macon","state":"GA","country":"United States","canonicalUrl":"https://foursquare.com/v/element-nightclub/4d5ee1ee73e76a31cd4ac496","category":"Nightclub","checkinsCount":566,"usersCount":244,"tipCount":3,"visitsCount":574,"tier":"","message":"","currency":"","rating":6.4},{"name":"El Azteca Mexican Restaurant","phone":"4784759199","address":"169 Tom Hill SR Blvd","lat":32.898143,"lng":-83.688757,"city_fetched":"Macon","state":"GA","country":"United States","canonicalUrl":"https://foursquare.com/v/el-azteca-mexican-restaurant/4b8c61b0f964a520e1cd32e3","category":"Mexican Restaurant","checkinsCount":528,"usersCount":196,"tipCount":10,"visitsCount":528,"tier":2,"message":"Moderate","currency":"$","rating":6.2},{"name":"McDonald's","phone":"4787884233","address":"1450 Rocky Creek Rd","lat":32.790645,"lng":-83.670391,"city_fetched":"Macon","state":"GA","country":"United States","canonicalUrl":"https://foursquare.com/v/mcdonalds/4bb5e2046edc76b0681b301c","category":"Fast Food Restaurant","checkinsCount":250,"usersCount":173,"tipCount":5,"visitsCount":300,"url":"http://mcdonalds.com","tier":"","message":"","currency":"","rating":5.7}]