[{"name":"Oakcrest Tavern","phone":"6082331243","address":"5371 Old Middleton Rd","lat":43.074126298435466,"lng":-89.4726046012295,"city_fetched":"Madison","state":"WI","country":"United States","canonicalUrl":"https://foursquare.com/v/oakcrest-tavern/4be5e7ae2457a5935d32ac15","category":"Burger Joint","checkinsCount":1214,"usersCount":649,"tipCount":16,"visitsCount":1719,"tier":1,"message":"Cheap","currency":"$","rating":9.2},{"name":"The Old Fashioned Tavern & Restaurant","phone":"6083104545","address":"23 N Pinckney St","lat":43.076117691348934,"lng":-89.3840092420578,"neighborhood":"Downtown Madison","city_fetched":"Madison","state":"WI","country":"United States","canonicalUrl":"https://foursquare.com/v/the-old-fashioned-tavern--restaurant/4afcc582f964a520bc2522e3","category":"Bar","checkinsCount":20165,"usersCount":11789,"tipCount":228,"visitsCount":23062,"url":"http://theoldfashioned.com","tier":2,"message":"Moderate","currency":"$","rating":9.2},{"name":"Tornado Room Steakhouse","phone":"6082563570","address":"116 S Hamilton St","lat":43.07270171212516,"lng":-89.38456804081056,"neighborhood":"Downtown Madison","city_fetched":"Madison","state":"WI","country":"United States","canonicalUrl":"https://foursquare.com/v/tornado-room-steakhouse/4b4d1adff964a52024cb26e3","category":"Steakhouse","checkinsCount":3689,"usersCount":2035,"tipCount":51,"visitsCount":3734,"url":"http://www.tornadosteakhouse.com","tier":3,"message":"Expensive","currency":"$","rating":9.1},{"name":"Capital Brewery & Bier Garten","phone":"6088367100","twitter":"capbrew","address":"7734 Terrace Ave","lat":43.077626950455596,"lng":-89.51562555570497,"city_fetched":"Madison","state":"WI","country":"United States","canonicalUrl":"https://foursquare.com/v/capital-brewery--bier-garten/41326e00f964a52097151fe3","category":"Brewery","checkinsCount":5227,"usersCount":2739,"tipCount":27,"visitsCount":5923,"url":"http://capitalbrewery.com","tier":1,"message":"Cheap","currency":"$","rating":9},{"name":"Dotty Dumpling's Dowry","phone":"6082590000","address":"317 N Frances St","lat":43.07286751454869,"lng":-89.39558496964708,"city_fetched":"Madison","state":"WI","country":"United States","canonicalUrl":"https://foursquare.com/v/dotty-dumplings-dowry/4aea28ebf964a520deb921e3","category":"Burger Joint","checkinsCount":5224,"usersCount":3112,"tipCount":62,"visitsCount":5357,"url":"http://dottydumplingsdowry.com","tier":2,"message":"Moderate","currency":"$","rating":9},{"name":"Brasserie V","phone":"6082558500","twitter":"brasseriev","address":"1923 Monroe St","lat":43.06411350160011,"lng":-89.41821056295392,"neighborhood":"Vilas","city_fetched":"Madison","state":"WI","country":"United States","canonicalUrl":"https://foursquare.com/v/brasserie-v/4af5bfd0f964a5204efc21e3","category":"Gastropub","checkinsCount":3630,"usersCount":1897,"tipCount":57,"visitsCount":4395,"url":"http://www.brasseriev.com","tier":2,"message":"Moderate","currency":"$","rating":8.9},{"name":"Graze","phone":"6082512700","twitter":"grazeletoile","address":"1 S Pinckney St","lat":43.07485104602632,"lng":-89.38221348413478,"neighborhood":"Downtown Madison","city_fetched":"Madison","state":"WI","country":"United States","canonicalUrl":"https://foursquare.com/v/graze/4c24b64bb012b713988a0893","category":"Gastropub","checkinsCount":8783,"usersCount":4540,"tipCount":126,"visitsCount":9082,"url":"http://www.grazemadison.com","tier":2,"message":"Moderate","currency":"$","rating":8.9},{"name":"Great Dane Pub & Brewing Company","phone":"6084429000","twitter":"greatdanepub","address":"123 E Doty St","lat":43.07468710955784,"lng":-89.3803908048707,"neighborhood":"Downtown Madison","city_fetched":"Madison","state":"WI","country":"United States","canonicalUrl":"https://foursquare.com/v/great-dane-pub--brewing-company/4d686a320a25b60c55821790","category":"Brewery","checkinsCount":18240,"usersCount":9479,"tipCount":136,"visitsCount":19886,"url":"http://www.greatdanepub.com","tier":2,"message":"Moderate","currency":"$","rating":8.9},{"name":"Fromagination","phone":"6082552430","address":"12 S Carroll St","lat":43.07343351270188,"lng":-89.38522696495056,"neighborhood":"Downtown Madison","city_fetched":"Madison","state":"WI","country":"United States","canonicalUrl":"https://foursquare.com/v/fromagination/4b3a79eaf964a5202d6825e3","category":"Cheese Shop","checkinsCount":2007,"usersCount":1188,"tipCount":21,"visitsCount":2129,"url":"http://fromagination.com","tier":"","message":"","currency":"","rating":8.9},{"name":"Vintage Brewing Co.","phone":"6082042739","address":"674 S Whitney Way","lat":43.050996865825205,"lng":-89.47396615406878,"city_fetched":"Madison","state":"WI","country":"United States","canonicalUrl":"https://foursquare.com/v/vintage-brewing-co/4eb077438b813ed007ba567e","category":"Brewery","checkinsCount":9121,"usersCount":3276,"tipCount":61,"visitsCount":10162,"url":"http://www.vintagebrewingco.com","tier":2,"message":"Moderate","currency":"$","rating":8.8},{"name":"The Malt House","phone":"6082046258","twitter":"malthousetavern","address":"2609 E Washington Ave","lat":43.100512124516136,"lng":-89.34828603008422,"city_fetched":"Madison","state":"WI","country":"United States","canonicalUrl":"https://foursquare.com/v/the-malt-house/4ad3e7abf964a520dfe620e3","category":"Bar","checkinsCount":2713,"usersCount":1166,"tipCount":15,"visitsCount":3103,"url":"http://malthousetavern.com","tier":2,"message":"Moderate","currency":"$","rating":8.8},{"name":"Ale Asylum","phone":"6086633926","twitter":"ale_asylum","address":"2002 Pankratz St","lat":43.1209241029901,"lng":-89.35448961955046,"city_fetched":"Madison","state":"WI","country":"United States","canonicalUrl":"https://foursquare.com/v/ale-asylum/4ac7f435f964a520cbba20e3","category":"Brewery","checkinsCount":7452,"usersCount":4184,"tipCount":61,"visitsCount":8870,"url":"http://aleasylum.com","tier":2,"message":"Moderate","currency":"$","rating":8.8},{"name":"Eno Vino Wine Bar and Bistro","phone":"6086649565","twitter":"enovino","address":"601 Junction Rd","lat":43.07308867539017,"lng":-89.52505588531494,"city_fetched":"Madison","state":"WI","country":"United States","canonicalUrl":"https://foursquare.com/v/eno-vino-wine-bar-and-bistro/4af4c534f964a520fef521e3","category":"Wine Bar","checkinsCount":2738,"usersCount":1397,"tipCount":49,"visitsCount":2870,"url":"http://www.eno-vino.com","tier":3,"message":"Expensive","currency":"$","rating":8.7},{"name":"Karben 4 Brewing","phone":"6082414812","twitter":"karben4","address":"3698 Kinsman Blvd","lat":43.12598611881668,"lng":-89.32565331913707,"city_fetched":"Madison","state":"WI","country":"United States","canonicalUrl":"https://foursquare.com/v/karben-4-brewing/50de2528e4b04716420268ff","category":"Brewery","checkinsCount":2256,"usersCount":1626,"tipCount":37,"visitsCount":3174,"url":"http://www.karben4.com","tier":2,"message":"Moderate","currency":"$","rating":8.7},{"name":"The Alchemy Cafe","phone":"6082047644","address":"1980 Atwood Ave","lat":43.09235636430359,"lng":-89.35527194442233,"neighborhood":"Marquette","city_fetched":"Madison","state":"WI","country":"United States","canonicalUrl":"https://foursquare.com/v/the-alchemy-cafe/4b5f92d2f964a52068c229e3","category":"American Restaurant","checkinsCount":4206,"usersCount":1818,"tipCount":52,"visitsCount":4402,"url":"http://alchemycafe.net","tier":2,"message":"Moderate","currency":"$","rating":8.7},{"name":"Barriques","phone":"6082849463","twitter":"barriques","address":"1825 Monroe St","lat":43.065025684553824,"lng":-89.41675004122582,"neighborhood":"Vilas","city_fetched":"Madison","state":"WI","country":"United States","canonicalUrl":"https://foursquare.com/v/barriques/4ae46e70f964a5208e9a21e3","category":"Coffee Shop","checkinsCount":2270,"usersCount":830,"tipCount":15,"visitsCount":2314,"url":"http://www.barriquesmarket.com","tier":2,"message":"Moderate","currency":"$","rating":8.7},{"name":"Jordan's Big Ten Pub","phone":"6082516375","address":"1330 Regent St","lat":43.067948,"lng":-89.40814912319183,"city_fetched":"Madison","state":"WI","country":"United States","canonicalUrl":"https://foursquare.com/v/jordans-big-ten-pub/41326e00f964a52086151fe3","category":"Bar","checkinsCount":7889,"usersCount":2736,"tipCount":36,"visitsCount":9128,"url":"http://www.jordansbig10pub.com","tier":2,"message":"Moderate","currency":"$","rating":8.6},{"name":"The Cooper's Tavern","phone":"6082561600","address":"20 W Mifflin St","lat":43.075047952490074,"lng":-89.38626766204834,"neighborhood":"Downtown Madison","city_fetched":"Madison","state":"WI","country":"United States","canonicalUrl":"https://foursquare.com/v/the-coopers-tavern/4b4d2a3ef964a52015cd26e3","category":"Pub","checkinsCount":10245,"usersCount":5233,"tipCount":91,"visitsCount":11527,"url":"http://www.thecooperstavern.com","tier":2,"message":"Moderate","currency":"$","rating":8.5},{"name":"Mr Brews Taphouse","phone":"6084225424","twitter":"mrbrewsmadeast","address":"5271 High Crossing BLVD","lat":43.13819713810926,"lng":-89.2893648147583,"neighborhood":"High Crossing","city_fetched":"Madison","state":"WI","country":"United States","canonicalUrl":"https://foursquare.com/mrbrewsmadeast","category":"American Restaurant","checkinsCount":113,"usersCount":64,"tipCount":1,"visitsCount":160,"tier":"","message":"","currency":"","rating":8.4},{"name":"Opus Lounge","phone":"6084416787","address":"116 King St","lat":43.07471073165622,"lng":-89.38093206600679,"neighborhood":"Downtown Madison","city_fetched":"Madison","state":"WI","country":"United States","canonicalUrl":"https://foursquare.com/v/opus-lounge/44eb1401f964a520c3371fe3","category":"Cocktail Bar","checkinsCount":2515,"usersCount":1022,"tipCount":28,"visitsCount":2526,"url":"http://opuslounge.com","tier":3,"message":"Expensive","currency":"$","rating":8.4},{"name":"Orpheum Theatre","phone":"6082558755","twitter":"orpheummadison","address":"216 State St","lat":43.075170200823116,"lng":-89.38879109299198,"neighborhood":"State Street","city_fetched":"Madison","state":"WI","country":"United States","canonicalUrl":"https://foursquare.com/v/orpheum-theatre/4b464783f964a520561c26e3","category":"Indie Movie Theater","checkinsCount":3531,"usersCount":2521,"tipCount":16,"visitsCount":3842,"url":"http://www.madisonorpheum.com","tier":"","message":"","currency":"","rating":8.4},{"name":"The Greenbush Bar","phone":"6082572874","address":"914 Regent St","lat":43.06776176769867,"lng":-89.40197196205133,"city_fetched":"Madison","state":"WI","country":"United States","canonicalUrl":"https://foursquare.com/v/the-greenbush-bar/41326e00f964a520b9151fe3","category":"Bar","checkinsCount":1199,"usersCount":747,"tipCount":14,"visitsCount":1329,"url":"http://greenbushbar.net","tier":"","message":"","currency":"","rating":8.3},{"name":"Mr. Brews Taphouse","phone":"6088196841","address":"305 W Johnson St","lat":43.0745057075688,"lng":-89.39018326111925,"neighborhood":"State Street","city_fetched":"Madison","state":"WI","country":"United States","canonicalUrl":"https://foursquare.com/v/mr-brews-taphouse/557c8eff498e9ec203a4dfaf","category":"Bar","checkinsCount":261,"usersCount":204,"tipCount":8,"visitsCount":280,"url":"http://mrbrewstaphouse.com","tier":"","message":"","currency":"","rating":8.3},{"name":"Great Dane Pub & Brewing Company","phone":"6084429000","address":"2980 Cahill Main","lat":43.017667,"lng":-89.423586,"city_fetched":"Madison","state":"WI","country":"United States","canonicalUrl":"https://foursquare.com/v/great-dane-pub--brewing-company/4af9aa84f964a5201a1322e3","category":"Brewery","checkinsCount":8990,"usersCount":4318,"tipCount":60,"visitsCount":10389,"url":"http://www.greatdanepub.com ","tier":2,"message":"Moderate","currency":"$","rating":8.3},{"name":"Natt Spil","phone":"6082588787","twitter":"bhip","address":"211 King St","lat":43.074550302041295,"lng":-89.37994033098221,"neighborhood":"Downtown Madison","city_fetched":"Madison","state":"WI","country":"United States","canonicalUrl":"https://foursquare.com/v/natt-spil/4b21d965f964a520f54124e3","category":"Dim Sum Restaurant","checkinsCount":4136,"usersCount":1583,"tipCount":34,"visitsCount":4197,"url":"http://www.nattspil.com","tier":2,"message":"Moderate","currency":"$","rating":8.3},{"name":"Dexter's Pub","phone":"6082443535","twitter":"dextersmadison","address":"301 North St","lat":43.10347393117321,"lng":-89.35021877288818,"city_fetched":"Madison","state":"WI","country":"United States","canonicalUrl":"https://foursquare.com/v/dexters-pub/4ac28d04f964a520b09920e3","category":"Bar","checkinsCount":5059,"usersCount":1541,"tipCount":27,"visitsCount":5962,"url":"http://www.dexterspubmadison.com","tier":2,"message":"Moderate","currency":"$","rating":8.3},{"name":"Hopcat","phone":"6088071361","address":"222 W Gorham St","lat":43.07498154570284,"lng":-89.39180200033941,"neighborhood":"State Street","city_fetched":"Madison","state":"WI","country":"United States","canonicalUrl":"https://foursquare.com/v/hopcat/5596dacf498ef8cc220fb07f","category":"Pub","checkinsCount":1349,"usersCount":1363,"tipCount":25,"visitsCount":2127,"url":"http://hopcat.com","tier":2,"message":"Moderate","currency":"$","rating":8.3},{"name":"Tipsy Cow","phone":"6082871455","address":"102 King St","lat":43.074734472363474,"lng":-89.38161134719849,"neighborhood":"Downtown Madison","city_fetched":"Madison","state":"WI","country":"United States","canonicalUrl":"https://foursquare.com/v/tipsy-cow/4dd4937a1f6ec4e0bb7df712","category":"Bar","checkinsCount":6895,"usersCount":3252,"tipCount":78,"visitsCount":7123,"url":"http://www.tipsycowmadison.com","tier":2,"message":"Moderate","currency":"$","rating":8.2},{"name":"Caf√© Hollander","phone":"6082373168","address":"726 N Midvale Blvd","lat":43.073146205027676,"lng":-89.45376423303172,"neighborhood":"Midvale","city_fetched":"Madison","state":"WI","country":"United States","canonicalUrl":"https://foursquare.com/v/caf%C3%A9-hollander/56218518498ed6af88a19b46","category":"Gastropub","checkinsCount":753,"usersCount":818,"tipCount":16,"visitsCount":1495,"url":"http://cafehollander.com/hilldale/","tier":"","message":"","currency":"","rating":8.2},{"name":"Village Bar","phone":"6082339956","address":"3801 Mineral Point Rd","lat":43.060587012829416,"lng":-89.43891406059265,"neighborhood":"Westmorland","city_fetched":"Madison","state":"WI","country":"United States","canonicalUrl":"https://foursquare.com/v/village-bar/41326e00f964a52030161fe3","category":"Bar","checkinsCount":727,"usersCount":431,"tipCount":15,"visitsCount":859,"tier":"","message":"","currency":"","rating":8.2},{"name":"High Noon Saloon","phone":"6082681122","twitter":"highnoonmadison","address":"701A E. Washington Ave.","lat":43.07977,"lng":-89.376168,"neighborhood":"Marquette","city_fetched":"Madison","state":"WI","country":"United States","canonicalUrl":"https://foursquare.com/v/high-noon-saloon/4af38c2df964a52087ee21e3","category":"Music Venue","checkinsCount":5688,"usersCount":2578,"tipCount":17,"visitsCount":5905,"url":"http://www.high-noon.com","tier":"","message":"","currency":"","rating":8.2},{"name":"Ivory Room Piano Bar","phone":"6084672404","twitter":"ivoryroompiano","address":"111 State St.","lat":43.07443666475789,"lng":-89.38708305358887,"neighborhood":"State Street","city_fetched":"Madison","state":"WI","country":"United States","canonicalUrl":"https://foursquare.com/v/ivory-room-piano-bar/4b1b2820f964a520f9f823e3","category":"Piano Bar","checkinsCount":3860,"usersCount":1745,"tipCount":14,"visitsCount":3918,"url":"http://www.ivoryroompianobar.com","tier":"","message":"","currency":"","rating":8.2},{"name":"The Rigby","phone":"6084421112","address":"119 E Main St","lat":43.07516241153533,"lng":-89.38132528531885,"neighborhood":"Downtown Madison","city_fetched":"Madison","state":"WI","country":"United States","canonicalUrl":"https://foursquare.com/v/the-rigby/4e4d9f9ed4c0b6da5d650fa3","category":"Pub","checkinsCount":2324,"usersCount":1034,"tipCount":22,"visitsCount":2368,"url":"http://therigbypub.com","tier":"","message":"","currency":"","rating":8.2},{"name":"Christy's Landing","phone":"6082225391","address":"2952 Waubesa Ave","lat":43.006217052847624,"lng":-89.33485706712722,"city_fetched":"Madison","state":"WI","country":"United States","canonicalUrl":"https://foursquare.com/v/christys-landing/4b6f0873f964a52040d82ce3","category":"Bar","checkinsCount":1409,"usersCount":685,"tipCount":12,"visitsCount":1710,"url":"http://www.christyslanding.net","tier":2,"message":"Moderate","currency":"$","rating":8.1},{"name":"Mid Town Pub","phone":"6088265129","address":"2405 Allen Blvd","lat":43.10142362964234,"lng":-89.485862756326,"city_fetched":"Madison","state":"WI","country":"United States","canonicalUrl":"https://foursquare.com/v/mid-town-pub/4b6373c8f964a520e87a2ae3","category":"Pub","checkinsCount":2436,"usersCount":729,"tipCount":20,"visitsCount":2873,"url":"http://www.midtownpub.com","tier":2,"message":"Moderate","currency":"$","rating":8.1},{"name":"Shamrock Bar & Grille","phone":"6082555029","address":"117 W Main St","lat":43.07260337718885,"lng":-89.38481320279554,"neighborhood":"Downtown Madison","city_fetched":"Madison","state":"WI","country":"United States","canonicalUrl":"https://foursquare.com/v/shamrock-bar--grille/41326e00f964a52014161fe3","category":"Gay Bar","checkinsCount":9154,"usersCount":1582,"tipCount":36,"visitsCount":9383,"tier":2,"message":"Moderate","currency":"$","rating":8.1},{"name":"The Mason Lounge","phone":"6082557777","address":"416 S Park St","lat":43.062711827316,"lng":-89.40091196739836,"neighborhood":"Greenbush","city_fetched":"Madison","state":"WI","country":"United States","canonicalUrl":"https://foursquare.com/v/the-mason-lounge/4bc8e5afcc8cd13a3388bacf","category":"Bar","checkinsCount":1441,"usersCount":669,"tipCount":14,"visitsCount":1695,"tier":2,"message":"Moderate","currency":"$","rating":8.1},{"name":"The Free House Pub","phone":"6088315000","twitter":"freehousepub","address":"1902 Parmenter St","lat":43.096157446293,"lng":-89.51201997153768,"neighborhood":"Downtown Middleton","city_fetched":"Madison","state":"WI","country":"United States","canonicalUrl":"https://foursquare.com/v/the-free-house-pub/4ff3890fe4b033b239f90c7b","category":"American Restaurant","checkinsCount":2901,"usersCount":1437,"tipCount":34,"visitsCount":3513,"url":"http://www.freehousepub.com","tier":2,"message":"Moderate","currency":"$","rating":8.1},{"name":"Echo Tap & Grill","phone":"6082566928","twitter":"echotapmadison","address":"554 W Main St","lat":43.06819526801092,"lng":-89.39142275874156,"neighborhood":"Bassett","city_fetched":"Madison","state":"WI","country":"United States","canonicalUrl":"https://foursquare.com/v/echo-tap--grill/41326e00f964a520ac151fe3","category":"Sports Bar","checkinsCount":10444,"usersCount":2035,"tipCount":36,"visitsCount":11454,"url":"http://www.echotapmadison.com","tier":2,"message":"Moderate","currency":"$","rating":8.1},{"name":"Gib's Bar","address":"1380 Williamson St","lat":43.085543907522535,"lng":-89.36130783142686,"neighborhood":"Marquette","city_fetched":"Madison","state":"WI","country":"United States","canonicalUrl":"https://foursquare.com/v/gibs-bar/5532f3c2498e6ce7cfb8ec1a","category":"Cocktail Bar","checkinsCount":331,"usersCount":227,"tipCount":7,"visitsCount":376,"url":"http://gibs.bar","tier":"","message":"","currency":"","rating":8},{"name":"Parched Eagle","address":"5440 Willow Rd","lat":43.150778,"lng":-89.416234,"city_fetched":"Madison","state":"WI","country":"United States","canonicalUrl":"https://foursquare.com/v/parched-eagle/553c2b06498e047845a86aae","category":"Brewery","checkinsCount":175,"usersCount":142,"tipCount":4,"visitsCount":286,"url":"http://parchedeaglebrewpub.com","tier":"","message":"","currency":"","rating":8},{"name":"Jade Monkey Cocktail Lounge","phone":"6088198501","address":"109 Cottage Grove Rd","lat":43.08353617883898,"lng":-89.32421721464736,"city_fetched":"Madison","state":"WI","country":"United States","canonicalUrl":"https://foursquare.com/v/jade-monkey-cocktail-lounge/4b2278d6f964a520524724e3","category":"Lounge","checkinsCount":2676,"usersCount":914,"tipCount":17,"visitsCount":2879,"url":"http://jademonkeybar.com/home/","tier":2,"message":"Moderate","currency":"$","rating":8},{"name":"Mr. Brews Taphouse","phone":"6082861131","address":"103 West Broadway, Suite B","lat":43.047961712754166,"lng":-89.32600075606324,"city_fetched":"Madison","state":"WI","country":"United States","canonicalUrl":"https://foursquare.com/v/mr-brews-taphouse/5638fe08cd108f6bf6c227a6","category":"Bar","checkinsCount":191,"usersCount":121,"tipCount":2,"visitsCount":231,"url":"http://www.mrbrewstaphouse.com/locations/monona-wi/","tier":"","message":"","currency":"","rating":8},{"name":"Jac's Dining & Tap House","phone":"6084415444","twitter":"jacsofmadison","address":"2611 Monroe St","lat":43.05751359878414,"lng":-89.42831258186574,"neighborhood":"Dudgeon - Monroe","city_fetched":"Madison","state":"WI","country":"United States","canonicalUrl":"https://foursquare.com/jacsofmadison","category":"Gastropub","checkinsCount":1966,"usersCount":960,"tipCount":24,"visitsCount":2161,"url":"http://www.jacsdiningandtaphouse.com","tier":2,"message":"Moderate","currency":"$","rating":8},{"name":"Mickey's Tavern","phone":"6082519964","address":"1524 Williamson St","lat":43.087856483959285,"lng":-89.35866492831728,"neighborhood":"Marquette","city_fetched":"Madison","state":"WI","country":"United States","canonicalUrl":"https://foursquare.com/v/mickeys-tavern/4b1aff78f964a52018f623e3","category":"Bar","checkinsCount":4732,"usersCount":2073,"tipCount":43,"visitsCount":5627,"tier":2,"message":"Moderate","currency":"$","rating":8},{"name":"Craftsman Table & Tap","phone":"6088363988","address":"6712 Frank Lloyd Wright Ave","lat":43.10659672552982,"lng":-89.49784343471737,"neighborhood":"Middleton Hills","city_fetched":"Madison","state":"WI","country":"United States","canonicalUrl":"https://foursquare.com/v/craftsman-table--tap/4ecaeb240e011bec79c48651","category":"Gastropub","checkinsCount":2928,"usersCount":1538,"tipCount":39,"visitsCount":3570,"url":"http://www.craftsmantableandtap.com","tier":2,"message":"Moderate","currency":"$","rating":8},{"name":"Chico's Villa Tap","address":"2302 Packers Ave","lat":43.12341638,"lng":-89.355436,"neighborhood":"Sherman","city_fetched":"Madison","state":"WI","country":"United States","canonicalUrl":"https://foursquare.com/v/chicos-villa-tap/41326e00f964a5202f161fe3","category":"Dive Bar","checkinsCount":823,"usersCount":358,"tipCount":14,"visitsCount":935,"tier":"","message":"","currency":"","rating":8},{"name":"Fresco","phone":"6086637374","address":"227 State St","lat":43.07478764227683,"lng":-89.38931836502628,"neighborhood":"State Street","city_fetched":"Madison","state":"WI","country":"United States","canonicalUrl":"https://foursquare.com/v/fresco/4b60eb52f964a52069012ae3","category":"Cocktail Bar","checkinsCount":1693,"usersCount":1049,"tipCount":35,"visitsCount":1699,"url":"http://www.frescomadison.com","tier":"","message":"","currency":"","rating":8},{"name":"The Robin Room","address":"821 E Johnson St","lat":43.08372164764596,"lng":-89.37714308435609,"neighborhood":"Tenney-Lapham","city_fetched":"Madison","state":"WI","country":"United States","canonicalUrl":"https://foursquare.com/v/the-robin-room/56cd0e99cd109364c9000ba4","category":"Lounge","checkinsCount":132,"usersCount":96,"tipCount":5,"visitsCount":169,"tier":"","message":"","currency":"","rating":8},{"name":"Maduro Cigar Bar","phone":"6082949371","address":"117 E Main St","lat":43.07514283232835,"lng":-89.3812697722384,"neighborhood":"Downtown Madison","city_fetched":"Madison","state":"WI","country":"United States","canonicalUrl":"https://foursquare.com/v/maduro-cigar-bar/41326e00f964a52046161fe3","category":"Lounge","checkinsCount":2849,"usersCount":1139,"tipCount":21,"visitsCount":2862,"url":"http://madurocigarbar.com","tier":"","message":"","currency":"","rating":7.9},{"name":"Great Dane Pub & Brewing Company","phone":"6084421333","address":"876 Jupiter Dr","lat":43.08523518364689,"lng":-89.28000926971436,"city_fetched":"Madison","state":"WI","country":"United States","canonicalUrl":"https://foursquare.com/v/great-dane-pub--brewing-company/4ce714cd678aa0937f25e0ea","category":"Brewery","checkinsCount":7352,"usersCount":2896,"tipCount":43,"visitsCount":8517,"url":"http://www.greatdanepub.com ","tier":2,"message":"Moderate","currency":"$","rating":7.9},{"name":"Blue Velvet Lounge","phone":"6082509900","twitter":"bvlmadison","address":"430 W Gilman St","lat":43.07425058665836,"lng":-89.39431785353048,"neighborhood":"State Street","city_fetched":"Madison","state":"WI","country":"United States","canonicalUrl":"https://foursquare.com/bvlmadison","category":"Bar","checkinsCount":7954,"usersCount":1484,"tipCount":47,"visitsCount":8265,"url":"http://www.thebluevelvetlounge.com","tier":2,"message":"Moderate","currency":"$","rating":7.9},{"name":"Blue Moon Bar and Grill","phone":"6082330441","address":"2535 University Ave","lat":43.07220793389022,"lng":-89.42976805992292,"neighborhood":"Regent","city_fetched":"Madison","state":"WI","country":"United States","canonicalUrl":"https://foursquare.com/v/blue-moon-bar-and-grill/41326e00f964a52089151fe3","category":"Bar","checkinsCount":5345,"usersCount":1351,"tipCount":23,"visitsCount":6072,"url":"http://bluemoonbar.com","tier":2,"message":"Moderate","currency":"$","rating":7.9},{"name":"Crystal Corner Bar","phone":"6082562953","address":"1302 Williamson St","lat":43.08456792297574,"lng":-89.36271946835157,"neighborhood":"Marquette","city_fetched":"Madison","state":"WI","country":"United States","canonicalUrl":"https://foursquare.com/v/crystal-corner-bar/41326e00f964a520aa151fe3","category":"Bar","checkinsCount":2270,"usersCount":1175,"tipCount":9,"visitsCount":2759,"url":"http://www.thecrystalcornerbar.com","tier":2,"message":"Moderate","currency":"$","rating":7.9},{"name":"Brocach Irish Pub","phone":"6088198653","address":"1843 Monroe St","lat":43.064857,"lng":-89.417069,"neighborhood":"Vilas","city_fetched":"Madison","state":"WI","country":"United States","canonicalUrl":"https://foursquare.com/v/brocach-irish-pub/4eaadbf10aafb00bd8b72871","category":"Restaurant","checkinsCount":1239,"usersCount":800,"tipCount":20,"visitsCount":1269,"url":"http://brocach.com","tier":2,"message":"Moderate","currency":"$","rating":7.9},{"name":"Essen Haus","phone":"6082554674","address":"514 E Wilson St","lat":43.07615597293445,"lng":-89.37663878503282,"neighborhood":"Downtown Madison","city_fetched":"Madison","state":"WI","country":"United States","canonicalUrl":"https://foursquare.com/v/essen-haus/4b18a434f964a520e1d423e3","category":"German Restaurant","checkinsCount":5420,"usersCount":3315,"tipCount":37,"visitsCount":5645,"url":"http://essen-haus.com","tier":2,"message":"Moderate","currency":"$","rating":7.9},{"name":"Nitty Gritty Restaurant & Bar","phone":"6082512521","address":"223 N Frances St","lat":43.071879363581864,"lng":-89.39568670715576,"neighborhood":"Johnson Street Bend","city_fetched":"Madison","state":"WI","country":"United States","canonicalUrl":"https://foursquare.com/v/nitty-gritty-restaurant--bar/4ad43881f964a52075e720e3","category":"Bar","checkinsCount":12916,"usersCount":6139,"tipCount":98,"visitsCount":14517,"url":"http://thegritty.com","tier":1,"message":"Cheap","currency":"$","rating":7.9},{"name":"Wilson's Bar","phone":"6082412226","address":"2144 Atwood Ave","lat":43.09306705769743,"lng":-89.35041109897762,"city_fetched":"Madison","state":"WI","country":"United States","canonicalUrl":"https://foursquare.com/v/wilsons-bar/41326e00f964a5203c161fe3","category":"Karaoke Bar","checkinsCount":1885,"usersCount":773,"tipCount":21,"visitsCount":2119,"url":"http://wilsonssportsbarandgrill.com","tier":"","message":"","currency":"","rating":7.9},{"name":"Nitty Gritty Restaurant & Bar","phone":"6088336489","address":"1021 N Gammon Rd","lat":43.084484811182186,"lng":-89.5014226353064,"city_fetched":"Madison","state":"WI","country":"United States","canonicalUrl":"https://foursquare.com/v/nitty-gritty-restaurant--bar/4ad43835f964a52074e720e3","category":"Bar","checkinsCount":5140,"usersCount":1565,"tipCount":40,"visitsCount":5538,"url":"http://thegritty.com","tier":2,"message":"Moderate","currency":"$","rating":7.9},{"name":"The Flying Hound Alehouse","phone":"6083104422","twitter":"flyingpub","address":"6317 McKee Rd","lat":43.01541300742148,"lng":-89.48253594285846,"city_fetched":"Madison","state":"WI","country":"United States","canonicalUrl":"https://foursquare.com/v/the-flying-hound-alehouse/533cbd6711d29c2479da163d","category":"Pub","checkinsCount":1172,"usersCount":813,"tipCount":25,"visitsCount":1826,"url":"http://www.flyinghoundpub.com","tier":1,"message":"Cheap","currency":"$","rating":7.8},{"name":"The Green Lantern","phone":"6088384730","address":"4412 Sigglekow Rd","lat":43.02573748219521,"lng":-89.30633573589496,"city_fetched":"Madison","state":"WI","country":"United States","canonicalUrl":"https://foursquare.com/v/the-green-lantern/4b74b527f964a52099ed2de3","category":"American Restaurant","checkinsCount":3594,"usersCount":941,"tipCount":11,"visitsCount":4229,"url":"http://thegreenlanternrestaurant.com","tier":2,"message":"Moderate","currency":"$","rating":7.8},{"name":"Missouri Tavern","phone":"6084383800","twitter":"explorewis","address":"7071 Kickaboo Rd","lat":43.169287587568846,"lng":-89.53810751438141,"city_fetched":"Madison","state":"WI","country":"United States","canonicalUrl":"https://foursquare.com/v/missouri-tavern/4c269dc3905a0f47c4a96360","category":"Bar","checkinsCount":801,"usersCount":430,"tipCount":3,"visitsCount":951,"url":"http://www.missouritavern.net","tier":"","message":"","currency":"","rating":7.8},{"name":"Bonfyre American Grille","phone":"6082733973","address":"2601 W Beltline Hwy","lat":43.03463234520819,"lng":-89.42223596484975,"city_fetched":"Madison","state":"WI","country":"United States","canonicalUrl":"https://foursquare.com/v/bonfyre-american-grille/4b282cddf964a520479024e3","category":"American Restaurant","checkinsCount":4544,"usersCount":2274,"tipCount":35,"visitsCount":5134,"url":"http://www.bonfyregrille.net","tier":2,"message":"Moderate","currency":"$","rating":7.8},{"name":"Heritage Tavern","twitter":"heritage_tavern","address":"131 E Mifflin St","lat":43.07687878221499,"lng":-89.38326819462738,"neighborhood":"Downtown Madison","city_fetched":"Madison","state":"WI","country":"United States","canonicalUrl":"https://foursquare.com/v/heritage-tavern/520666c211d28a4db871d61d","category":"New American Restaurant","checkinsCount":975,"usersCount":597,"tipCount":21,"visitsCount":1037,"url":"http://www.heritagetavern.com","tier":3,"message":"Expensive","currency":"$","rating":7.8},{"name":"Great Dane Pub & Brewing Company","phone":"6086619400","address":"357 Price Pl","lat":43.0709736803921,"lng":-89.45226807044364,"city_fetched":"Madison","state":"WI","country":"United States","canonicalUrl":"https://foursquare.com/v/great-dane-pub--brewing-company/4af9aac2f964a5201f1322e3","category":"Brewery","checkinsCount":9855,"usersCount":4928,"tipCount":70,"visitsCount":10829,"url":"http://www.greatdanepub.com ","tier":2,"message":"Moderate","currency":"$","rating":7.8},{"name":"Vintage Spirits & Grill","phone":"6082500700","address":"529 University Ave","lat":43.073035,"lng":-89.39557492733002,"neighborhood":"Johnson Street Bend","city_fetched":"Madison","state":"WI","country":"United States","canonicalUrl":"https://foursquare.com/v/vintage-spirits--grill/4b0ae619f964a520ab2923e3","category":"Bar","checkinsCount":12097,"usersCount":4127,"tipCount":54,"visitsCount":12340,"url":"http://www.vintagemadison.com","tier":2,"message":"Moderate","currency":"$","rating":7.8},{"name":"Eagle Crest","phone":"6082445413","address":"3710 County Road T","lat":43.10720721817707,"lng":-89.28738446957186,"city_fetched":"Madison","state":"WI","country":"United States","canonicalUrl":"https://foursquare.com/v/eagle-crest/4c48d60cfbafc928e3461ada","category":"Bar","checkinsCount":939,"usersCount":341,"tipCount":6,"visitsCount":1008,"tier":"","message":"","currency":"","rating":7.8},{"name":"Tip Top Tavern","phone":"6082492468","address":"601 North St","lat":43.10692182412546,"lng":-89.35128609462976,"city_fetched":"Madison","state":"WI","country":"United States","canonicalUrl":"https://foursquare.com/v/tip-top-tavern/41326e00f964a52026161fe3","category":"Cocktail Bar","checkinsCount":646,"usersCount":519,"tipCount":11,"visitsCount":1086,"url":"http://www.thetiptoptavern.com","tier":2,"message":"Moderate","currency":"$","rating":7.8},{"name":"Paradise Lounge","phone":"6982562263","address":"119 W Main St","lat":43.07258709038212,"lng":-89.384765625,"neighborhood":"Downtown Madison","city_fetched":"Madison","state":"WI","country":"United States","canonicalUrl":"https://foursquare.com/v/paradise-lounge/4b115ebff964a520127b23e3","category":"Dive Bar","checkinsCount":2515,"usersCount":1029,"tipCount":14,"visitsCount":2544,"url":"http://thenewparadiselounge.com","tier":1,"message":"Cheap","currency":"$","rating":7.8},{"name":"Five Nightclub & Showbar","phone":"6082779700","twitter":"club5madisonwis","address":"5 Applegate Ct","lat":43.032478359181205,"lng":-89.40721035003662,"city_fetched":"Madison","state":"WI","country":"United States","canonicalUrl":"https://foursquare.com/v/five-nightclub--showbar/4b4aeca8f964a520e28f26e3","category":"Gay Bar","checkinsCount":6606,"usersCount":1182,"tipCount":18,"visitsCount":7460,"url":"http://www.club-5.com","tier":1,"message":"Cheap","currency":"$","rating":7.7},{"name":"Paisan's","phone":"6082573832","address":"131 W Wilson St","lat":43.07078215541324,"lng":-89.3833052015083,"neighborhood":"Downtown Madison","city_fetched":"Madison","state":"WI","country":"United States","canonicalUrl":"https://foursquare.com/v/paisans/4abe946ef964a520988e20e3","category":"Italian Restaurant","checkinsCount":3109,"usersCount":2203,"tipCount":39,"visitsCount":3762,"url":"http://www.paisansrestaurant.biz","tier":2,"message":"Moderate","currency":"$","rating":7.7},{"name":"Baldwin Street Grille","phone":"6084428400","address":"1304 E Washington Ave","lat":43.08756821447214,"lng":-89.3663108187942,"neighborhood":"Tenney-Lapham","city_fetched":"Madison","state":"WI","country":"United States","canonicalUrl":"https://foursquare.com/v/baldwin-street-grille/4d6ae50292f6b60c6ca29ae0","category":"Burger Joint","checkinsCount":1694,"usersCount":569,"tipCount":13,"visitsCount":1990,"url":"http://baldwinstgrille.com","tier":1,"message":"Cheap","currency":"$","rating":7.7},{"name":"Babes American Grill","phone":"6082747300","twitter":"babesofhouston","address":"5614 Schroeder Rd","lat":43.04686471168291,"lng":-89.4770444761684,"city_fetched":"Madison","state":"WI","country":"United States","canonicalUrl":"https://foursquare.com/v/babes-american-grill/4ba56a80f964a520f10439e3","category":"American Restaurant","checkinsCount":3242,"usersCount":1559,"tipCount":21,"visitsCount":4209,"url":"http://babesmadison.com","tier":2,"message":"Moderate","currency":"$","rating":7.7},{"name":"Club Tavern","phone":"6088363773","address":"1915 Branch St","lat":43.096903983333334,"lng":-89.4946064,"neighborhood":"Lakeview","city_fetched":"Madison","state":"WI","country":"United States","canonicalUrl":"https://foursquare.com/v/club-tavern/4b89a373f964a5203e4832e3","category":"Bar","checkinsCount":3600,"usersCount":1078,"tipCount":27,"visitsCount":4032,"url":"http://www.clubtavern.com","tier":1,"message":"Cheap","currency":"$","rating":7.7},{"name":"The Village Green Bar & Grill","phone":"6088319962","address":"7508 Hubbard Ave","lat":43.09569733601891,"lng":-89.51208452452192,"neighborhood":"Downtown Middleton","city_fetched":"Madison","state":"WI","country":"United States","canonicalUrl":"https://foursquare.com/v/the-village-green-bar--grill/41326e00f964a52031161fe3","category":"Bar","checkinsCount":1601,"usersCount":750,"tipCount":13,"visitsCount":1715,"url":"http://www.thevillagegreenmiddleton.com","tier":1,"message":"Cheap","currency":"$","rating":7.6},{"name":"Genna's Lounge","phone":"6082554770","address":"105 W Main St","lat":43.07292510097469,"lng":-89.38437838616912,"neighborhood":"Downtown Madison","city_fetched":"Madison","state":"WI","country":"United States","canonicalUrl":"https://foursquare.com/v/gennas-lounge/41326e00f964a520b5151fe3","category":"Bar","checkinsCount":7061,"usersCount":2872,"tipCount":47,"visitsCount":7337,"url":"http://www.gennaslounge.com","tier":1,"message":"Cheap","currency":"$","rating":7.6},{"name":"The Wise","phone":"6088198230","address":"1501 Monroe St","lat":43.06760238268602,"lng":-89.41266861652574,"neighborhood":"Vilas","city_fetched":"Madison","state":"WI","country":"United States","canonicalUrl":"https://foursquare.com/v/the-wise/4ec8361f49010f98cd70cf7b","category":"American Restaurant","checkinsCount":196,"usersCount":116,"tipCount":1,"visitsCount":196,"url":"http://thewiserestaurant.com","tier":"","message":"","currency":"","rating":7.6},{"name":"The Tasting Room","phone":"6082231641","address":"6000 Monona Dr","lat":43.05368085,"lng":-89.32507287,"city_fetched":"Madison","state":"WI","country":"United States","canonicalUrl":"https://foursquare.com/v/the-tasting-room/4baaa1a2f964a520367b3ae3","category":"Whisky Bar","checkinsCount":338,"usersCount":94,"tipCount":6,"visitsCount":353,"url":"http://www.tastingroomofmonona.com","tier":"","message":"","currency":"","rating":7.6},{"name":"Alt n Bachs","phone":"6082719955","address":"2602 Whalen Ln","lat":43.03680722510588,"lng":-89.418625831604,"city_fetched":"Madison","state":"WI","country":"United States","canonicalUrl":"https://foursquare.com/v/alt-n-bachs/4b748ed0f964a520efe32de3","category":"Bar","checkinsCount":1361,"usersCount":623,"tipCount":16,"visitsCount":1678,"url":"http://altnbach.com","tier":1,"message":"Cheap","currency":"$","rating":7.6},{"name":"One Barrel Brewing Company","phone":"6086309286","address":"2001 Atwood Ave","lat":43.09180151384473,"lng":-89.35514695863277,"neighborhood":"Marquette","city_fetched":"Madison","state":"WI","country":"United States","canonicalUrl":"https://foursquare.com/v/one-barrel-brewing-company/4fc813c4e4b0ab3d6544b5ee","category":"Brewery","checkinsCount":2934,"usersCount":1306,"tipCount":31,"visitsCount":3103,"url":"http://www.onebarrelbrewing.com","tier":2,"message":"Moderate","currency":"$","rating":7.6},{"name":"Parkside Pub","phone":"6088386045","address":"5016 Erling Ave","lat":43.01346929610015,"lng":-89.29546117274586,"city_fetched":"Madison","state":"WI","country":"United States","canonicalUrl":"https://foursquare.com/v/parkside-pub/41326e00f964a520fb151fe3","category":"Bar","checkinsCount":2042,"usersCount":169,"tipCount":4,"visitsCount":2100,"tier":"","message":"","currency":"","rating":7.5},{"name":"Paul's Neighborhood Bar","phone":"6088277285","address":"2401 Parmenter St","lat":43.10143475,"lng":-89.511056,"city_fetched":"Madison","state":"WI","country":"United States","canonicalUrl":"https://foursquare.com/v/pauls-neighborhood-bar/4bb6bf6f941ad13a84f81fe3","category":"Bar","checkinsCount":1143,"usersCount":482,"tipCount":11,"visitsCount":1544,"url":"http://paulsneighborhoodbar.com","tier":"","message":"","currency":"","rating":7.5},{"name":"Mr. Brews Taphouse","phone":"6088249600","twitter":"mrbrewstaphouse","address":"610 Junction Rd Ste 107","lat":43.073185995022556,"lng":-89.52678142282514,"city_fetched":"Madison","state":"WI","country":"United States","canonicalUrl":"https://foursquare.com/v/mr-brews-taphouse/52afbdcc498e01fe4531af3f","category":"Pub","checkinsCount":959,"usersCount":415,"tipCount":19,"visitsCount":1179,"url":"http://www.mrbrewstaphouse.com","tier":2,"message":"Moderate","currency":"$","rating":7.5},{"name":"Harmony Bar & Grill","phone":"6082494333","address":"2201 Atwood Ave","lat":43.09310023823305,"lng":-89.34945274850897,"neighborhood":"Marquette","city_fetched":"Madison","state":"WI","country":"United States","canonicalUrl":"https://foursquare.com/v/harmony-bar--grill/41326e00f964a520bb151fe3","category":"Bar","checkinsCount":1538,"usersCount":791,"tipCount":21,"visitsCount":1823,"url":"http://www.myspace.com/theharmonybar","tier":2,"message":"Moderate","currency":"$","rating":7.5},{"name":"Willy Street Pub & Grill","phone":"6082568211","twitter":"willystreetcoop","address":"852 Williamson St","lat":43.079450537022716,"lng":-89.36991110219847,"neighborhood":"Marquette","city_fetched":"Madison","state":"WI","country":"United States","canonicalUrl":"https://foursquare.com/v/willy-street-pub--grill/41326e00f964a5203b161fe3","category":"Bar","checkinsCount":1366,"usersCount":596,"tipCount":10,"visitsCount":1558,"tier":1,"message":"Cheap","currency":"$","rating":7.5},{"name":"Knuckle Down Saloon","phone":"6082227800","address":"2513 Seiferth Rd","lat":43.06131618313985,"lng":-89.30715607611548,"city_fetched":"Madison","state":"WI","country":"United States","canonicalUrl":"https://foursquare.com/v/knuckle-down-saloon/4bb6d5e06edc76b08097311c","category":"Jazz Club","checkinsCount":839,"usersCount":236,"tipCount":8,"visitsCount":930,"tier":"","message":"","currency":"","rating":7.5},{"name":"Fleming's Prime Steakhouse & Wine Bar","phone":"6082339550","address":"750 N Midvale Blvd","lat":43.07481581864422,"lng":-89.45148764233475,"city_fetched":"Madison","state":"WI","country":"United States","canonicalUrl":"https://foursquare.com/v/flemings-prime-steakhouse--wine-bar/4b5a611af964a52045c128e3","category":"Steakhouse","checkinsCount":1131,"usersCount":777,"tipCount":8,"visitsCount":1349,"url":"http://www.flemingssteakhouse.com/locations/wi/madison","tier":4,"message":"Very Expensive","currency":"$","rating":7.5},{"name":"State Street Brats","phone":"6082555544","twitter":"statestbrats","address":"603 State St","lat":43.07479716851709,"lng":-89.39586192369461,"neighborhood":"State Street","city_fetched":"Madison","state":"WI","country":"United States","canonicalUrl":"https://foursquare.com/v/state-street-brats/4bedc694e24d20a1aff97114","category":"Bar","checkinsCount":13405,"usersCount":6975,"tipCount":63,"visitsCount":14209,"url":"http://www.statestreetbrats.com","tier":1,"message":"Cheap","currency":"$","rating":7.5},{"name":"Wisconsin Brewing Tap Haus","phone":"6083101010","twitter":"capitaltaphaus","address":"107 State St","lat":43.07469514999046,"lng":-89.38697333875382,"neighborhood":"State Street","city_fetched":"Madison","state":"WI","country":"United States","canonicalUrl":"https://foursquare.com/v/wisconsin-brewing-tap-haus/4cedbaf23b03f04dba3236dc","category":"American Restaurant","checkinsCount":4251,"usersCount":2467,"tipCount":49,"visitsCount":4296,"url":"http://www.capitaltaphaus.com","tier":2,"message":"Moderate","currency":"$","rating":7.5},{"name":"Freiburg Gastropub","phone":"6082042755","address":"2612 Monroe St","lat":43.05757141113281,"lng":-89.428466796875,"neighborhood":"Dudgeon - Monroe","city_fetched":"Madison","state":"WI","country":"United States","canonicalUrl":"https://foursquare.com/v/freiburg-gastropub/55a439fc498eacf2d8a14883","category":"German Restaurant","checkinsCount":162,"usersCount":125,"tipCount":10,"visitsCount":186,"url":"http://www.freiburgmadison.com","tier":"","message":"","currency":"","rating":7.4},{"name":"Slices' bar & grill","phone":"6082436925","address":"2417 Pennsylvania Ave","lat":43.10413695952666,"lng":-89.35780860885455,"city_fetched":"Madison","state":"WI","country":"United States","canonicalUrl":"https://foursquare.com/v/slices-bar--grill/4bc4dc104cdfc9b659459921","category":"Bar","checkinsCount":710,"usersCount":195,"tipCount":5,"visitsCount":877,"tier":"","message":"","currency":"","rating":7.4},{"name":"The Plaza Tavern","phone":"6082556592","twitter":"plazatavernandgrillinc","address":"319 N Henry St","lat":43.07524387675487,"lng":-89.39068794250488,"neighborhood":"State Street","city_fetched":"Madison","state":"WI","country":"United States","canonicalUrl":"https://foursquare.com/v/the-plaza-tavern/4b08ddeff964a520fe1223e3","category":"Bar","checkinsCount":5256,"usersCount":2106,"tipCount":35,"visitsCount":5519,"url":"http://theplazatavern.com","tier":1,"message":"Cheap","currency":"$","rating":7.4},{"name":"Connie's Home Plate","address":"7113 County Road K","lat":43.14021542,"lng":-89.54033726,"city_fetched":"Madison","state":"WI","country":"United States","canonicalUrl":"https://foursquare.com/v/connies-home-plate/41326e00f964a520a5151fe3","category":"Dive Bar","checkinsCount":243,"usersCount":110,"tipCount":6,"visitsCount":265,"tier":"","message":"","currency":"","rating":7.4},{"name":"Erin's Snug Irish Pub","phone":"6082427616","address":"4601 American Pkwy","lat":43.1485811519438,"lng":-89.28927628804414,"city_fetched":"Madison","state":"WI","country":"United States","canonicalUrl":"https://foursquare.com/v/erins-snug-irish-pub/4ad61acef964a520170521e3","category":"Gastropub","checkinsCount":3426,"usersCount":1972,"tipCount":42,"visitsCount":4083,"url":"http://www.erinssnug.com","tier":2,"message":"Moderate","currency":"$","rating":7.4},{"name":"Brocach Irish Pub on the Square","phone":"6082552015","twitter":"brocach","address":"7 W Main St","lat":43.07351596523944,"lng":-89.38346710621006,"neighborhood":"Downtown Madison","city_fetched":"Madison","state":"WI","country":"United States","canonicalUrl":"https://foursquare.com/v/brocach-irish-pub-on-the-square/4b723457f964a520cb732de3","category":"Pub","checkinsCount":6847,"usersCount":4006,"tipCount":58,"visitsCount":7059,"url":"http://www.brocach.com","tier":2,"message":"Moderate","currency":"$","rating":7.4},{"name":"Brickhouse Barbeque","phone":"6082577675","address":"408 W Gorham St","lat":43.073993260264054,"lng":-89.39303219832951,"neighborhood":"State Street","city_fetched":"Madison","state":"WI","country":"United States","canonicalUrl":"https://foursquare.com/v/brickhouse-barbeque/4b7b46f6f964a520085c2fe3","category":"Bar","checkinsCount":6446,"usersCount":2818,"tipCount":47,"visitsCount":6715,"url":"http://www.thebrickhousebbq.com","tier":2,"message":"Moderate","currency":"$","rating":7.4},{"name":"Next Door Brewing Company","phone":"6087293683","twitter":"nextdoorbrewing","address":"2439 Atwood Ave","lat":43.09376110103537,"lng":-89.34571635201273,"neighborhood":"Atwood","city_fetched":"Madison","state":"WI","country":"United States","canonicalUrl":"https://foursquare.com/v/next-door-brewing-company/52210bfc11d259e6cb65c9e8","category":"Brewery","checkinsCount":1914,"usersCount":1187,"tipCount":36,"visitsCount":2624,"url":"http://nextdoorbrewing.com","tier":2,"message":"Moderate","currency":"$","rating":7.4},{"name":"Drackenberg's","phone":"6085132596","address":"605 N Sherman Ave","lat":43.1072837851292,"lng":-89.36303881538312,"city_fetched":"Madison","state":"WI","country":"United States","canonicalUrl":"https://foursquare.com/v/drackenbergs/4b9c2fc7f964a520cb5236e3","category":"Lounge","checkinsCount":701,"usersCount":202,"tipCount":5,"visitsCount":748,"tier":"","message":"","currency":"","rating":7.4},{"name":"Atomic Koi","phone":"6084415077","address":"2685 Research Park Dr","lat":43.00050145,"lng":-89.42578176,"city_fetched":"Madison","state":"WI","country":"United States","canonicalUrl":"https://foursquare.com/v/atomic-koi/4bc7ba050050b7136456b93b","category":"Bar","checkinsCount":2124,"usersCount":757,"tipCount":26,"visitsCount":2340,"url":"http://atomickoi.com","tier":1,"message":"Cheap","currency":"$","rating":7.4},{"name":"Farm Tavern","phone":"6082211646","address":"1701 Moorland Rd","lat":43.032170066626236,"lng":-89.35491255484521,"city_fetched":"Madison","state":"WI","country":"United States","canonicalUrl":"https://foursquare.com/v/farm-tavern/41326e00f964a520af151fe3","category":"Dive Bar","checkinsCount":212,"usersCount":104,"tipCount":5,"visitsCount":273,"url":"http://www.band-in-a-box-karaoke.com","tier":"","message":"","currency":"","rating":7.4},{"name":"Legend's Sports Bar & Grill","phone":"6088314463","address":"439 Grand Canyon Dr","lat":43.05832530584627,"lng":-89.49553707770083,"city_fetched":"Madison","state":"WI","country":"United States","canonicalUrl":"https://foursquare.com/v/legends-sports-bar--grill/4b77462cf964a520de8d2ee3","category":"Sports Bar","checkinsCount":5294,"usersCount":1005,"tipCount":21,"visitsCount":5628,"url":"http://www.legendssportsbarmadison.com","tier":"","message":"","currency":"","rating":7.3},{"name":"TGI Fridays","phone":"6082494544","twitter":"tgifridays","address":"2502 East Springs Dr","lat":43.13134133,"lng":-89.29851711,"city_fetched":"Madison","state":"WI","country":"United States","canonicalUrl":"https://foursquare.com/v/tgi-fridays/4ab2b390f964a520ec6b20e3","category":"American Restaurant","checkinsCount":4528,"usersCount":2163,"tipCount":23,"visitsCount":5337,"url":"http://tgifridays.com","tier":2,"message":"Moderate","currency":"$","rating":7.3},{"name":"Club Lamark","address":"1525 N Stoughton Rd","lat":43.118918118377,"lng":-89.32430986809825,"city_fetched":"Madison","state":"WI","country":"United States","canonicalUrl":"https://foursquare.com/v/club-lamark/41326e00f964a520a1151fe3","category":"Bar","checkinsCount":1824,"usersCount":377,"tipCount":10,"visitsCount":2088,"url":"http://stansclublamark.com","tier":1,"message":"Cheap","currency":"$","rating":7.3},{"name":"Riley's Wines of the World","phone":"6082570400","twitter":"rileyswow","address":"402 W Gorham St","lat":43.07415452990184,"lng":-89.39303755760193,"neighborhood":"State Street","city_fetched":"Madison","state":"WI","country":"United States","canonicalUrl":"https://foursquare.com/v/rileys-wines-of-the-world/4b1b0afcf964a52001f723e3","category":"Wine Shop","checkinsCount":8815,"usersCount":1022,"tipCount":13,"visitsCount":8900,"url":"http://www.rileyswinesoftheworld.com","tier":"","message":"","currency":"","rating":7.3},{"name":"Irish Pub","phone":"6082566071","address":"317 State St","lat":43.074754398325524,"lng":-89.39090476440737,"neighborhood":"State Street","city_fetched":"Madison","state":"WI","country":"United States","canonicalUrl":"https://foursquare.com/v/irish-pub/41326e00f964a520c4151fe3","category":"Pub","checkinsCount":2194,"usersCount":1268,"tipCount":9,"visitsCount":2210,"tier":"","message":"","currency":"","rating":7.3},{"name":"Le Tigre Lounge","phone":"6082740944","address":"1328 S Midvale Blvd","lat":43.037920106852056,"lng":-89.45259132020921,"city_fetched":"Madison","state":"WI","country":"United States","canonicalUrl":"https://foursquare.com/v/le-tigre-lounge/4b2279a4f964a5205f4724e3","category":"Cocktail Bar","checkinsCount":1121,"usersCount":709,"tipCount":21,"visitsCount":1277,"tier":"","message":"","currency":"","rating":7.3},{"name":"Fluno Center Study Pub","phone":"6084417117","twitter":"uwmadison","address":"601 University Ave","lat":43.07302232,"lng":-89.396308,"city_fetched":"Madison","state":"WI","country":"United States","canonicalUrl":"https://foursquare.com/v/fluno-center-study-pub/4be9d277b3352d7f3a7454d2","category":"Bar","checkinsCount":226,"usersCount":113,"tipCount":2,"visitsCount":227,"url":"http://www.facebook.com/uwmadison","tier":"","message":"","currency":"","rating":7.3},{"name":"The Tower Inn Bar and Grill","phone":"6082227855","address":"1008 E Broadway","lat":43.0477169866493,"lng":-89.31496697306382,"city_fetched":"Madison","state":"WI","country":"United States","canonicalUrl":"https://foursquare.com/v/the-tower-inn-bar-and-grill/4bbbfadde436ef3b2c225664","category":"American Restaurant","checkinsCount":6563,"usersCount":331,"tipCount":5,"visitsCount":6863,"tier":"","message":"","currency":"","rating":7.3},{"name":"Willows Tavern","phone":"6082448458","twitter":"willowtavern","address":"5485 Willow Rd","lat":43.1501268374076,"lng":-89.41783619380703,"city_fetched":"Madison","state":"WI","country":"United States","canonicalUrl":"https://foursquare.com/v/willows-tavern/41326e00f964a5203a161fe3","category":"Bar","checkinsCount":812,"usersCount":177,"tipCount":4,"visitsCount":913,"tier":1,"message":"Cheap","currency":"$","rating":7.2},{"name":"Main Depot","phone":"6082573100","address":"627 W Main St","lat":43.067306085354076,"lng":-89.39223673628358,"neighborhood":"Downtown Madison","city_fetched":"Madison","state":"WI","country":"United States","canonicalUrl":"https://foursquare.com/v/main-depot/41326e00f964a520e7151fe3","category":"Pub","checkinsCount":1540,"usersCount":572,"tipCount":4,"visitsCount":1791,"tier":1,"message":"Cheap","currency":"$","rating":7.2},{"name":"Roast Public House","phone":"6082600088","twitter":"roast_madison","address":"558 State St","lat":43.07486925232174,"lng":-89.39479880744167,"neighborhood":"State Street","city_fetched":"Madison","state":"WI","country":"United States","canonicalUrl":"https://foursquare.com/v/roast-public-house/506fa1e8e4b0efff48ea5e96","category":"Pub","checkinsCount":1739,"usersCount":882,"tipCount":13,"visitsCount":1750,"url":"http://www.roastmadison.com","tier":2,"message":"Moderate","currency":"$","rating":7.2},{"name":"VFW Post 7591","address":"301 Cottage Grove Rd","lat":43.083468,"lng":-89.32161187,"city_fetched":"Madison","state":"WI","country":"United States","canonicalUrl":"https://foursquare.com/v/vfw-post-7591/45c4ee70f964a5204c421fe3","category":"Lounge","checkinsCount":421,"usersCount":228,"tipCount":2,"visitsCount":475,"tier":"","message":"","currency":"","rating":7.2},{"name":"The Frequency","phone":"6088198777","twitter":"thefrequencywi","address":"121 W Main St","lat":43.072854,"lng":-89.384447,"neighborhood":"Downtown Madison","city_fetched":"Madison","state":"WI","country":"United States","canonicalUrl":"https://foursquare.com/v/the-frequency/4b2053cdf964a520a43024e3","category":"Music Venue","checkinsCount":2416,"usersCount":1150,"tipCount":16,"visitsCount":2452,"url":"http://madisonfrequency-hub.com","tier":"","message":"","currency":"","rating":7.2},{"name":"The Icon","phone":"6082680126","address":"206 State St","lat":43.07472187446638,"lng":-89.38833781849485,"neighborhood":"State Street","city_fetched":"Madison","state":"WI","country":"United States","canonicalUrl":"https://foursquare.com/v/the-icon/4ae3d048f964a5201f9921e3","category":"Cocktail Bar","checkinsCount":2236,"usersCount":1152,"tipCount":20,"visitsCount":2244,"url":"http://theiconmadison.com","tier":2,"message":"Moderate","currency":"$","rating":7.2},{"name":"Granite City Food & Brewery","phone":"6088290700","twitter":"gcfb","address":"72 W Towne Mall","lat":43.05629609932115,"lng":-89.50493694842207,"city_fetched":"Madison","state":"WI","country":"United States","canonicalUrl":"https://foursquare.com/v/granite-city-food--brewery/4c55990b6a4bb7137c1c5327","category":"Brewery","checkinsCount":6664,"usersCount":2964,"tipCount":55,"visitsCount":7215,"url":"http://gcfb.com","tier":2,"message":"Moderate","currency":"$","rating":7.2},{"name":"Argus Bar & Grill","phone":"6082564141","address":"123 E Main St","lat":43.07522204934939,"lng":-89.38104771914665,"neighborhood":"Downtown Madison","city_fetched":"Madison","state":"WI","country":"United States","canonicalUrl":"https://foursquare.com/v/argus-bar--grill/41326e00f964a52040161fe3","category":"Bar","checkinsCount":4986,"usersCount":1667,"tipCount":17,"visitsCount":5153,"tier":1,"message":"Cheap","currency":"$","rating":7.2},{"name":"The Red Zone Madison","address":"1212 Regent St","lat":43.06784534177917,"lng":-89.4063949584961,"city_fetched":"Madison","state":"WI","country":"United States","canonicalUrl":"https://foursquare.com/v/the-red-zone-madison/520a3afc8bbd7d98ff06a21f","category":"Sports Bar","checkinsCount":879,"usersCount":765,"tipCount":4,"visitsCount":1267,"url":"http://theredzonemadison.com","tier":"","message":"","currency":"","rating":7.1},{"name":"The Governor's Club at The Concourse Hotel","address":"1 W Dayton St","lat":43.075464697590306,"lng":-89.38656629849716,"neighborhood":"Downtown Madison","city_fetched":"Madison","state":"WI","country":"United States","canonicalUrl":"https://foursquare.com/v/the-governors-club-at-the-concourse-hotel/4c2e79473896e21e2d5be290","category":"Hotel Bar","checkinsCount":665,"usersCount":326,"tipCount":9,"visitsCount":668,"tier":"","message":"","currency":"","rating":7.1},{"name":"Madison's","phone":"6082290900","twitter":"madisonsbar","address":"119 King St","lat":43.074595,"lng":-89.380618,"neighborhood":"Downtown Madison","city_fetched":"Madison","state":"WI","country":"United States","canonicalUrl":"https://foursquare.com/v/madisons/4aff2293f964a520bc3422e3","category":"Cocktail Bar","checkinsCount":7136,"usersCount":2618,"tipCount":30,"visitsCount":7212,"url":"http://www.madisonsdowntown.com","tier":1,"message":"Cheap","currency":"$","rating":7.1},{"name":"Greenway Station Shopping Center","phone":"6088249111","address":"1650 Deming Way","lat":43.09139371868015,"lng":-89.52681541442871,"neighborhood":"Greenway Station","city_fetched":"Madison","state":"WI","country":"United States","canonicalUrl":"https://foursquare.com/v/greenway-station-shopping-center/4bf303cc6ba2b7133f128977","category":"Shopping Mall","checkinsCount":1906,"usersCount":683,"tipCount":4,"visitsCount":1927,"tier":"","message":"","currency":"","rating":7.1},{"name":"The Brink Lounge","phone":"6086618599","twitter":"brinklounge","address":"701 E Washington Ave Ste 105","lat":43.079811805212955,"lng":-89.37627327971835,"neighborhood":"Marquette","city_fetched":"Madison","state":"WI","country":"United States","canonicalUrl":"https://foursquare.com/v/the-brink-lounge/4b11d25ff964a520658523e3","category":"Lounge","checkinsCount":1963,"usersCount":1083,"tipCount":12,"visitsCount":2001,"url":"http://www.thebrinklounge.com","tier":2,"message":"Moderate","currency":"$","rating":7.1},{"name":"Woody & Anne's","phone":"6082495157","address":"2236 Winnebago St","lat":43.09607663,"lng":-89.35218,"neighborhood":"Marquette","city_fetched":"Madison","state":"WI","country":"United States","canonicalUrl":"https://foursquare.com/v/woody--annes/41326e00f964a5203e161fe3","category":"Dive Bar","checkinsCount":532,"usersCount":229,"tipCount":8,"visitsCount":627,"tier":"","message":"","currency":"","rating":7.1},{"name":"Sundown Saloon","phone":"6082429646","address":"57 S Stoughton Rd","lat":43.09701109173078,"lng":-89.314825679834,"city_fetched":"Madison","state":"WI","country":"United States","canonicalUrl":"https://foursquare.com/v/sundown-saloon/4b590489f964a520b47828e3","category":"Bar","checkinsCount":1343,"usersCount":229,"tipCount":5,"visitsCount":1517,"url":"http://www.goodtimes.bz","tier":"","message":"","currency":"","rating":7.1},{"name":"Players Sports Bar","phone":"6082449722","address":"2013 Winnebago St","lat":43.092457,"lng":-89.354572,"neighborhood":"Marquette","city_fetched":"Madison","state":"WI","country":"United States","canonicalUrl":"https://foursquare.com/v/players-sports-bar/41326e00f964a52003161fe3","category":"Bar","checkinsCount":1338,"usersCount":388,"tipCount":10,"visitsCount":1385,"tier":"","message":"","currency":"","rating":7.1},{"name":"8 Seasons Grille","phone":"6088191082","twitter":"8seasonsgrille","address":"45 S Bassett St","lat":43.06936822581416,"lng":-89.38959124870068,"neighborhood":"Bassett","city_fetched":"Madison","state":"WI","country":"United States","canonicalUrl":"https://foursquare.com/v/8-seasons-grille/4bc09a5d74a9a5936a42d0f6","category":"American Restaurant","checkinsCount":968,"usersCount":436,"tipCount":16,"visitsCount":1061,"url":"http://www.8seasonsgrille.com","tier":1,"message":"Cheap","currency":"$","rating":7.1},{"name":"Come Back In","phone":"6082588619","address":"508 E Wilson St","lat":43.07598955767107,"lng":-89.37682847634923,"neighborhood":"Downtown Madison","city_fetched":"Madison","state":"WI","country":"United States","canonicalUrl":"https://foursquare.com/v/come-back-in/41326e00f964a520a3151fe3","category":"Bar","checkinsCount":5090,"usersCount":1898,"tipCount":33,"visitsCount":5298,"url":"http://www.comebackintavern.com","tier":2,"message":"Moderate","currency":"$","rating":7.1},{"name":"Pooley's","phone":"6082258074","twitter":"pooleyssports","address":"5441 High Crossing Blvd","lat":43.14180542499412,"lng":-89.28487581844779,"neighborhood":"High Crossing","city_fetched":"Madison","state":"WI","country":"United States","canonicalUrl":"https://foursquare.com/v/pooleys/41326e00f964a5204a161fe3","category":"Bar","checkinsCount":3086,"usersCount":1312,"tipCount":7,"visitsCount":3893,"url":"http://www.pooleysmadison.com","tier":1,"message":"Cheap","currency":"$","rating":7},{"name":"Beach House","phone":"6088387248","address":"4506 Larson Beach Rd","lat":43.01774786665908,"lng":-89.30388851998215,"city_fetched":"Madison","state":"WI","country":"United States","canonicalUrl":"https://foursquare.com/v/beach-house/4b2ad095f964a52028b024e3","category":"American Restaurant","checkinsCount":989,"usersCount":467,"tipCount":11,"visitsCount":1162,"url":"http://thebeachhouserestaurantandbar.com","tier":2,"message":"Moderate","currency":"$","rating":7},{"name":"Lucky's Bar & Grille","phone":"6082508989","twitter":"luckys_madison","address":"1421 Regent St","lat":43.06768322326501,"lng":-89.41006608601532,"neighborhood":"Vilas","city_fetched":"Madison","state":"WI","country":"United States","canonicalUrl":"https://foursquare.com/v/luckys-bar--grille/4b3aa223f964a520976b25e3","category":"Bar","checkinsCount":3944,"usersCount":2135,"tipCount":17,"visitsCount":4601,"url":"http://www.luckysbarandgrille.com","tier":1,"message":"Cheap","currency":"$","rating":7},{"name":"House of Brews","phone":"6083477243","address":"4539 Helgesen Dr","lat":43.06671589727099,"lng":-89.30544585641253,"city_fetched":"Madison","state":"WI","country":"United States","canonicalUrl":"https://foursquare.com/v/house-of-brews/50074fb6e4b0d3e9fb3ab10f","category":"Brewery","checkinsCount":406,"usersCount":246,"tipCount":7,"visitsCount":589,"url":"http://houseofbrewsmadison.com","tier":"","message":"","currency":"","rating":7},{"name":"Martin O'Gradys Irish Pub","phone":"6088334262","address":"7436 Mineral Point Rd","lat":43.06115448474884,"lng":-89.51176,"city_fetched":"Madison","state":"WI","country":"United States","canonicalUrl":"https://foursquare.com/v/martin-ogradys-irish-pub/4b7b2eeaf964a52077562fe3","category":"Bar","checkinsCount":3856,"usersCount":787,"tipCount":11,"visitsCount":4128,"tier":2,"message":"Moderate","currency":"$","rating":7},{"name":"Laurel Tavern","phone":"6082331043","address":"2505 Monroe St","lat":43.057819842614016,"lng":-89.42768096923828,"neighborhood":"Dudgeon - Monroe","city_fetched":"Madison","state":"WI","country":"United States","canonicalUrl":"https://foursquare.com/v/laurel-tavern/41326e00f964a520de151fe3","category":"Pub","checkinsCount":1314,"usersCount":612,"tipCount":8,"visitsCount":1388,"url":"http://laureltavern.net","tier":1,"message":"Cheap","currency":"$","rating":7},{"name":"Middleton Sport Bowl","phone":"6088315238","address":"6815 University Ave","lat":43.09681724080185,"lng":-89.49986369330371,"city_fetched":"Madison","state":"WI","country":"United States","canonicalUrl":"https://foursquare.com/v/middleton-sport-bowl/4bacedd3f964a520b71a3be3","category":"Bowling Alley","checkinsCount":1836,"usersCount":533,"tipCount":8,"visitsCount":1952,"url":"http://www.sportbowl.com","tier":"","message":"","currency":"","rating":7},{"name":"Caribou Tavern","phone":"6082575993","address":"703 E Johnson St","lat":43.08193,"lng":-89.37951,"neighborhood":"Tenney-Lapham","city_fetched":"Madison","state":"WI","country":"United States","canonicalUrl":"https://foursquare.com/v/caribou-tavern/41326e00f964a5209a151fe3","category":"Dive Bar","checkinsCount":1999,"usersCount":721,"tipCount":19,"visitsCount":2123,"tier":1,"message":"Cheap","currency":"$","rating":7},{"name":"Rockhound Brewing Company","address":"444 S. Park St.","lat":43.062109553317356,"lng":-89.40097670085215,"neighborhood":"Greenbush","city_fetched":"Madison","state":"WI","country":"United States","canonicalUrl":"https://foursquare.com/v/rockhound-brewing-company/5704352b38fad4ea22a2da45","category":"Brewery","checkinsCount":188,"usersCount":221,"tipCount":3,"visitsCount":280,"tier":"","message":"","currency":"","rating":7},{"name":"Licari's Tavern","address":"1405 Emil St","lat":43.036366983248406,"lng":-89.40710278529954,"city_fetched":"Madison","state":"WI","country":"United States","canonicalUrl":"https://foursquare.com/v/licaris-tavern/41326e00f964a520e1151fe3","category":"Bar","checkinsCount":480,"usersCount":180,"tipCount":8,"visitsCount":553,"tier":"","message":"","currency":"","rating":7},{"name":"Bennett's Meadowood Country Club","phone":"6082713827","address":"2009 Freeport Rd","lat":43.03192131666667,"lng":-89.46042537689209,"city_fetched":"Madison","state":"WI","country":"United States","canonicalUrl":"https://foursquare.com/v/bennetts-meadowood-country-club/41326e00f964a52085151fe3","category":"Dive Bar","checkinsCount":777,"usersCount":358,"tipCount":7,"visitsCount":965,"tier":"","message":"","currency":"","rating":7},{"name":"Pitcher's Pub","address":"323 W Beltline Hwy","lat":43.0364697036853,"lng":-89.38881884432494,"city_fetched":"Madison","state":"WI","country":"United States","canonicalUrl":"https://foursquare.com/v/pitchers-pub/41326e00f964a52001161fe3","category":"Bar","checkinsCount":1882,"usersCount":576,"tipCount":6,"visitsCount":2173,"tier":"","message":"","currency":"","rating":6.9},{"name":"Murphy's Bar & Restaurant","address":"Hwy 113","lat":43.14931106567383,"lng":-89.39967346191406,"city_fetched":"Madison","state":"Wisconsin","country":"United States","canonicalUrl":"https://foursquare.com/v/murphys-bar--restaurant/51e47b20498e78be264633d1","category":"Bar","checkinsCount":380,"usersCount":202,"tipCount":5,"visitsCount":565,"tier":"","message":"","currency":"","rating":6.9}]