[{"name":"TJ's Restaurant and Drinkery","phone":"6107250100","twitter":"tjsbeer","address":"35 Paoli Plz","lat":40.04240040574681,"lng":-75.48554669782752,"city_fetched":"Malvern,US","state":"PA","country":"United States","canonicalUrl":"https://foursquare.com/v/tjs-restaurant-and-drinkery/4b0e1ccbf964a520215523e3","categoryId":"4bf58dd8d48988d116941735","category":"Bar","checkinsCount":7315,"usersCount":2086,"tipCount":50,"visitsCount":8449,"url":"http://www.tjseveryday.com","tier":2,"message":"Moderate","currency":"$","rating":9},{"name":"The Flying Pig Saloon","phone":"6105789208","address":"121 E King St","lat":40.03680092111254,"lng":-75.51300081797731,"city_fetched":"Malvern,US","state":"PA","country":"United States","canonicalUrl":"https://foursquare.com/v/the-flying-pig-saloon/4b381d83f964a520d04b25e3","categoryId":"4bf58dd8d48988d116941735","category":"Bar","checkinsCount":3758,"usersCount":1463,"tipCount":29,"visitsCount":4451,"tier":2,"message":"Moderate","currency":"$","rating":8.4},{"name":"McKenzie Brew House","phone":"6102962222","twitter":"mckenziebrew","address":"240 Lancaster Ave","lat":40.03991691943704,"lng":-75.5429005425588,"city_fetched":"Malvern,US","state":"PA","country":"United States","canonicalUrl":"https://foursquare.com/v/mckenzie-brew-house/4aa56ad0f964a520434820e3","categoryId":"50327c8591d4c4b30a586d5d","category":"Brewery","checkinsCount":4498,"usersCount":2349,"tipCount":56,"visitsCount":5413,"url":"http://www.mckenziebrewhouse.com","tier":2,"message":"Moderate","currency":"$","rating":8.2},{"name":"Twenty9 Restaurant And Bar","phone":"6102519299","address":"16 Great Valley Pkwy","lat":40.0622075299449,"lng":-75.53686762899967,"city_fetched":"Malvern,US","state":"PA","country":"United States","canonicalUrl":"https://foursquare.com/v/twenty9-restaurant-and-bar/4cd4af3067c7236ab8ce0e77","categoryId":"4bf58dd8d48988d116941735","category":"Bar","checkinsCount":1758,"usersCount":1205,"tipCount":27,"visitsCount":2420,"url":"http://twenty9restaurant.com","tier":3,"message":"Expensive","currency":"$","rating":7.9}]