[{"name":"Puritan Backroom","phone":"6036696890","address":"245 Hooksett Rd","lat":43.01053583621979,"lng":-71.453962,"city_fetched":"Manchester","state":"NH","country":"United States","canonicalUrl":"https://foursquare.com/v/puritan-backroom/4a8b64d2f964a5205a0c20e3","category":"American Restaurant","checkinsCount":6817,"usersCount":3314,"tipCount":80,"visitsCount":8529,"url":"http://www.puritanbackroom.com","tier":2,"message":"Moderate","currency":"$","rating":9},{"name":"New England's Tap House Grille","phone":"6037825137","address":"1292 Hooksett Rd","lat":43.05122430570222,"lng":-71.43874027472961,"city_fetched":"Manchester","state":"NH","country":"United States","canonicalUrl":"https://foursquare.com/v/new-englands-tap-house-grille/50fb2634e4b00afffb71baca","category":"American Restaurant","checkinsCount":1744,"usersCount":1106,"tipCount":30,"visitsCount":2774,"url":"http://www.taphousenh.com","tier":2,"message":"Moderate","currency":"$","rating":8.8},{"name":"Republic Caf√© & Bistro","phone":"6036663723","twitter":"republiccafe","address":"1069 Elm St","lat":42.993322089668695,"lng":-71.4629158428828,"neighborhood":"Downtown Manchester","city_fetched":"Manchester","state":"NH","country":"United States","canonicalUrl":"https://foursquare.com/v/republic-caf%C3%A9--bistro/4b5b41d1f964a520f2ee28e3","category":"Bistro","checkinsCount":4512,"usersCount":1451,"tipCount":81,"visitsCount":4729,"url":"http://www.republiccafe.com","tier":2,"message":"Moderate","currency":"$","rating":8.8},{"name":"River Road Tavern","phone":"6032065837","twitter":"riverroadtavern","address":"193 S River Rd","lat":42.94448721305204,"lng":-71.47560011230422,"city_fetched":"Manchester","state":"NH","country":"United States","canonicalUrl":"https://foursquare.com/v/river-road-tavern/4f01ece461af974bcff160e4","category":"Pub","checkinsCount":2733,"usersCount":975,"tipCount":37,"visitsCount":3519,"url":"http://riverroadtavern.com","tier":2,"message":"Moderate","currency":"$","rating":8.5},{"name":"Copper Door","phone":"6034882677","address":"15 Leavey Dr","lat":42.95867074033511,"lng":-71.50508869865955,"city_fetched":"Manchester","state":"NH","country":"United States","canonicalUrl":"https://foursquare.com/v/copper-door/4e8c41b27ee6beb5b5fd5b6a","category":"Bar","checkinsCount":2501,"usersCount":1370,"tipCount":36,"visitsCount":3342,"url":"http://copperdoorrestaurant.com","tier":3,"message":"Expensive","currency":"$","rating":8.4},{"name":"8one5","phone":"6037828086","twitter":"815nh","address":"815 Elm St","lat":42.989875629186045,"lng":-71.4630259915979,"neighborhood":"Downtown Manchester","city_fetched":"Manchester","state":"NH","country":"United States","canonicalUrl":"https://foursquare.com/v/8one5/548b2da3498efbecf5c31a15","category":"Cocktail Bar","checkinsCount":274,"usersCount":162,"tipCount":4,"visitsCount":316,"tier":"","message":"","currency":"","rating":8.4},{"name":"Thirsty Moose Tap House - Manchester","address":"795 Elm St","lat":42.98937278847267,"lng":-71.46300280239755,"neighborhood":"Downtown Manchester","city_fetched":"Manchester","state":"NH","country":"United States","canonicalUrl":"https://foursquare.com/v/thirsty-moose-tap-house--manchester/56589d75498ea8fe55e4845a","category":"Pub","checkinsCount":484,"usersCount":373,"tipCount":2,"visitsCount":693,"tier":"","message":"","currency":"","rating":8.4},{"name":"Portland Pie Co. Pizzeria & Pub","phone":"6036227437","twitter":"portlandpieco","address":"786 Elm St","lat":42.989468914430745,"lng":-71.4633390456544,"neighborhood":"Downtown Manchester","city_fetched":"Manchester","state":"NH","country":"United States","canonicalUrl":"https://foursquare.com/v/portland-pie-co-pizzeria--pub/4c0e57dfb40eef3b2633f6db","category":"Pizza Place","checkinsCount":3949,"usersCount":1970,"tipCount":53,"visitsCount":4246,"url":"http://portlandpie.com","tier":2,"message":"Moderate","currency":"$","rating":8.3},{"name":"Firefly American Bistro","phone":"6039359740","twitter":"fireflybstrobar","address":"22 Concord St","lat":42.9928780769332,"lng":-71.46227813912444,"neighborhood":"Downtown Manchester","city_fetched":"Manchester","state":"NH","country":"United States","canonicalUrl":"https://foursquare.com/v/firefly-american-bistro/4b7c41e5f964a520d1872fe3","category":"American Restaurant","checkinsCount":2242,"usersCount":1298,"tipCount":31,"visitsCount":2476,"url":"http://www.fireflynh.com","tier":3,"message":"Expensive","currency":"$","rating":8.3},{"name":"T-Bones Great American Eatery","phone":"6036416100","address":"25 S River Rd","lat":42.96339367759243,"lng":-71.47982037181238,"city_fetched":"Manchester","state":"NH","country":"United States","canonicalUrl":"https://foursquare.com/v/tbones-great-american-eatery/4b68f156f964a52029942be3","category":"American Restaurant","checkinsCount":4549,"usersCount":1369,"tipCount":39,"visitsCount":5398,"url":"http://t-bones.com","tier":2,"message":"Moderate","currency":"$","rating":8.3},{"name":"Holy Smokes Cigars","phone":"6036233337","twitter":"holysmokescigar","address":"297 S Willow St","lat":42.96922275,"lng":-71.453444,"neighborhood":"Southside","city_fetched":"Manchester","state":"NH","country":"United States","canonicalUrl":"https://foursquare.com/holysmokescigar","category":"Smoke Shop","checkinsCount":99,"usersCount":40,"tipCount":5,"visitsCount":102,"url":"http://holysmokescigars.com","tier":"","message":"","currency":"","rating":8.2},{"name":"Auburn Pitts Bar And Grill","address":"167 Rockingham Rd","lat":43.01454377994904,"lng":-71.37987727599031,"city_fetched":"Manchester","state":"NH","country":"United States","canonicalUrl":"https://foursquare.com/v/auburn-pitts-bar-and-grill/4bc76d7f14d79521fb5d67e9","category":"Bar","checkinsCount":435,"usersCount":110,"tipCount":4,"visitsCount":513,"tier":"","message":"","currency":"","rating":8.1},{"name":"The Wild Rover Pub","phone":"6036697722","twitter":"wildroverpub","address":"21 Kosciuszko St","lat":42.99394207994074,"lng":-71.46168101547717,"neighborhood":"Downtown Manchester","city_fetched":"Manchester","state":"NH","country":"United States","canonicalUrl":"https://foursquare.com/v/the-wild-rover-pub/4afa02adf964a520f81522e3","category":"Pub","checkinsCount":5847,"usersCount":1259,"tipCount":41,"visitsCount":6282,"url":"http://www.wildroverpub.com","tier":2,"message":"Moderate","currency":"$","rating":8.1},{"name":"Strange Brew Tavern","phone":"6036664292","address":"88 Market St","lat":42.990671847328244,"lng":-71.46526783704758,"neighborhood":"Downtown Manchester","city_fetched":"Manchester","state":"NH","country":"United States","canonicalUrl":"https://foursquare.com/v/strange-brew-tavern/4afad567f964a520e21822e3","category":"Beer Garden","checkinsCount":11292,"usersCount":3568,"tipCount":103,"visitsCount":12703,"url":"http://strangebrewtavern.net","tier":2,"message":"Moderate","currency":"$","rating":8.1},{"name":"Sam Adams Bar & Grill","address":"in Northeast Delta Dental Stadium","lat":42.982047935943115,"lng":-71.46656232693226,"neighborhood":"Downtown Manchester","city_fetched":"Manchester","state":"NH","country":"United States","canonicalUrl":"https://foursquare.com/v/sam-adams-bar--grill/4bc678bbbf29c9b6f1f9f92a","category":"Baseball Field","checkinsCount":859,"usersCount":271,"tipCount":3,"visitsCount":870,"tier":"","message":"","currency":"","rating":8.1},{"name":"Cactus Jacks","phone":"6036278600","address":"782 S Willow St","lat":42.96454108492937,"lng":-71.44512176513672,"neighborhood":"Southside","city_fetched":"Manchester","state":"NH","country":"United States","canonicalUrl":"https://foursquare.com/v/cactus-jacks/4b0c7fd7f964a520593e23e3","category":"Taco Place","checkinsCount":4397,"usersCount":1864,"tipCount":52,"visitsCount":5061,"url":"http://go2cjs.com","tier":2,"message":"Moderate","currency":"$","rating":8.1},{"name":"Coffee Shop and Pub","phone":"6036417000","twitter":"saintanselm","address":"100 Saint Anselm Dr","lat":42.98487704598687,"lng":-71.50858014822006,"city_fetched":"Manchester","state":"NH","country":"United States","canonicalUrl":"https://foursquare.com/v/coffee-shop-and-pub/4bcf82989854d13a0139f64d","category":"College Cafeteria","checkinsCount":610,"usersCount":143,"tipCount":2,"visitsCount":660,"url":"http://www.anselm.edu","tier":"","message":"","currency":"","rating":8},{"name":"Hooked Seafood Restaurant","phone":"6036061189","address":"110 Hanover St","lat":42.9909813,"lng":-71.46078,"neighborhood":"Downtown Manchester","city_fetched":"Manchester","state":"NH","country":"United States","canonicalUrl":"https://foursquare.com/v/hooked-seafood-restaurant/4d69a3f29bd6a143369262df","category":"Seafood Restaurant","checkinsCount":528,"usersCount":406,"tipCount":16,"visitsCount":547,"url":"http://www.hookednh.com","tier":3,"message":"Expensive","currency":"$","rating":8},{"name":"Ninety Nine Restaurant","phone":"6036415999","twitter":"99restaurants","address":"1685 S Willow St","lat":42.95166313518263,"lng":-71.43634581889809,"neighborhood":"Lower South Willow","city_fetched":"Manchester","state":"NH","country":"United States","canonicalUrl":"https://foursquare.com/v/ninety-nine-restaurant/4b783e0ef964a52003bf2ee3","category":"American Restaurant","checkinsCount":1588,"usersCount":987,"tipCount":17,"visitsCount":1713,"url":"http://www.facebook.com/99restaurants","tier":2,"message":"Moderate","currency":"$","rating":7.9},{"name":"Elm St","lat":42.990090243563564,"lng":-71.46287526176863,"neighborhood":"Downtown Manchester","city_fetched":"Manchester","state":"New Hampshire","country":"United States","canonicalUrl":"https://foursquare.com/v/elm-st/4e4aa35c45dd81ecad8f7298","category":"Bar","checkinsCount":923,"usersCount":208,"tipCount":2,"visitsCount":933,"tier":"","message":"","currency":"","rating":7.8},{"name":"XO on Elm","phone":"6035607998","twitter":"xoonelm","address":"827 Elm St","lat":42.99004794683396,"lng":-71.4630389213562,"neighborhood":"Downtown Manchester","city_fetched":"Manchester","state":"NH","country":"United States","canonicalUrl":"https://foursquare.com/v/xo-on-elm/4aff4d87f964a520213722e3","category":"Mediterranean Restaurant","checkinsCount":1064,"usersCount":625,"tipCount":30,"visitsCount":1084,"url":"http://www.xoonelm.com","tier":3,"message":"Expensive","currency":"$","rating":7.8},{"name":"Ignite Bar & Grille","phone":"6036440064","twitter":"ignitebar","address":"100 Hanover St","lat":42.990882,"lng":-71.4608234167099,"neighborhood":"Downtown Manchester","city_fetched":"Manchester","state":"NH","country":"United States","canonicalUrl":"https://foursquare.com/v/ignite-bar--grille/4afae0cff964a520441922e3","category":"New American Restaurant","checkinsCount":1369,"usersCount":644,"tipCount":30,"visitsCount":1386,"url":"http://www.ignitebng.com","tier":2,"message":"Moderate","currency":"$","rating":7.8},{"name":"Luigi's Pizza Bar & Grill","phone":"6036221021","address":"712 Valley St","lat":42.98153,"lng":-71.44479,"city_fetched":"Manchester","state":"NH","country":"United States","canonicalUrl":"https://foursquare.com/v/luigis-pizza-bar--grill/4b66435df964a520361b2be3","category":"Greek Restaurant","checkinsCount":198,"usersCount":97,"tipCount":10,"visitsCount":265,"url":"http://nhluigispizza.com","tier":2,"message":"Moderate","currency":"$","rating":7.7},{"name":"Corks Wine Bar","address":"1-21 Old Bedford Rd","lat":42.95614,"lng":-71.508726,"city_fetched":"Manchester","state":"NH","country":"United States","canonicalUrl":"https://foursquare.com/v/corks-wine-bar/4c265be03703d13a0741a536","category":"Wine Bar","checkinsCount":322,"usersCount":109,"tipCount":2,"visitsCount":325,"tier":"","message":"","currency":"","rating":7.6},{"name":"Element Lounge","phone":"6036272922","address":"1055 Elm St","lat":42.99314298804146,"lng":-71.46321150514616,"neighborhood":"Downtown Manchester","city_fetched":"Manchester","state":"NH","country":"United States","canonicalUrl":"https://foursquare.com/v/element-lounge/4d5f31dad7206ea8c310e6f1","category":"Gay Bar","checkinsCount":1121,"usersCount":235,"tipCount":2,"visitsCount":1180,"url":"http://www.elementlounge.net","tier":"","message":"","currency":"","rating":7.5},{"name":"Grand Slam Grille & Bar","address":"S Main St, Manchester, NH 03102","lat":42.97580633660583,"lng":-71.47931023322953,"neighborhood":"West Side Manchester","city_fetched":"Manchester","state":"NH","country":"United States","canonicalUrl":"https://foursquare.com/v/grand-slam-grille--bar/4f121ea3e4b09e81d9781766","category":"Karaoke Bar","checkinsCount":529,"usersCount":108,"tipCount":2,"visitsCount":610,"tier":"","message":"","currency":"","rating":7.4},{"name":"SNHU Last Chapter Pub","phone":"6036294631","address":"2500 N River Rd","lat":43.03961883333333,"lng":-71.45417773333334,"city_fetched":"Manchester","state":"NH","country":"United States","canonicalUrl":"https://foursquare.com/v/snhu-last-chapter-pub/4e8b9084775bb28051ed19e4","category":"Pub","checkinsCount":453,"usersCount":83,"tipCount":3,"visitsCount":457,"tier":"","message":"","currency":"","rating":7.4},{"name":"British Beer Company","phone":"6032320589","address":"1071 S Willow St","lat":42.96094459852675,"lng":-71.43916350617862,"neighborhood":"Southside","city_fetched":"Manchester","state":"NH","country":"United States","canonicalUrl":"https://foursquare.com/v/british-beer-company/4fc8daa6e4b07661cee6ca9d","category":"Restaurant","checkinsCount":3619,"usersCount":2127,"tipCount":48,"visitsCount":4071,"url":"http://www.britishbeer.com","tier":2,"message":"Moderate","currency":"$","rating":7.4},{"name":"TGI Fridays","phone":"6036448995","twitter":"tgifridays","address":"1516 S Willow St","lat":42.9529792527455,"lng":-71.43576085567474,"neighborhood":"Lower South Willow","city_fetched":"Manchester","state":"NH","country":"United States","canonicalUrl":"https://foursquare.com/v/tgi-fridays/4bf2da07706e20a1328fa798","category":"American Restaurant","checkinsCount":3938,"usersCount":2079,"tipCount":34,"visitsCount":4817,"url":"http://tgifridays.com","tier":2,"message":"Moderate","currency":"$","rating":7.4},{"name":"Margaritas Mexican Restaurant and Watering Hole","phone":"6036477717","twitter":"margsmex","address":"1037 Elm St","lat":42.992751952785916,"lng":-71.46326368081415,"neighborhood":"Downtown Manchester","city_fetched":"Manchester","state":"NH","country":"United States","canonicalUrl":"https://foursquare.com/v/margaritas-mexican-restaurant-and-watering-hole/4b678659f964a520bb532be3","category":"Mexican Restaurant","checkinsCount":4852,"usersCount":2405,"tipCount":46,"visitsCount":5413,"url":"http://www.margs.com","tier":2,"message":"Moderate","currency":"$","rating":7.3},{"name":"Murphy's Tap Room","phone":"6036443535","twitter":"murphystaproom","address":"494 Elm St","lat":42.985202,"lng":-71.4632,"neighborhood":"Downtown Manchester","city_fetched":"Manchester","state":"NH","country":"United States","canonicalUrl":"https://foursquare.com/v/murphys-tap-room/4b5d2a3ff964a5203b5529e3","category":"Bar","checkinsCount":9802,"usersCount":2863,"tipCount":57,"visitsCount":11057,"url":"http://www.murphystaproom.net","tier":2,"message":"Moderate","currency":"$","rating":7.2},{"name":"Jokers Sports Bar And Bistro","lat":42.95839500032323,"lng":-71.43767349735215,"neighborhood":"Southside","city_fetched":"Manchester","state":"NH","country":"United States","canonicalUrl":"https://foursquare.com/v/jokers-sports-bar-and-bistro/4ea980cde3005b03fea2573d","category":"Sports Bar","checkinsCount":921,"usersCount":396,"tipCount":10,"visitsCount":1000,"tier":2,"message":"Moderate","currency":"$","rating":7.2},{"name":"Milly's Tavern","phone":"6036254444","twitter":"millystavern94","address":"500 North Commercial St","lat":42.99455636830464,"lng":-71.46780252456665,"neighborhood":"Downtown Manchester","city_fetched":"Manchester","state":"NH","country":"United States","canonicalUrl":"https://foursquare.com/v/millys-tavern/4afad8d8f964a520fd1822e3","category":"Brewery","checkinsCount":3657,"usersCount":1533,"tipCount":41,"visitsCount":4155,"url":"http://millystavern.com","tier":2,"message":"Moderate","currency":"$","rating":7.2},{"name":"Doogie's Bar and Grill","address":"37 Manchester St","lat":42.99020580038103,"lng":-71.46231292299532,"neighborhood":"Downtown Manchester","city_fetched":"Manchester","state":"NH","country":"United States","canonicalUrl":"https://foursquare.com/v/doogies-bar-and-grill/4fbe66dae4b01ffcf9cc5135","category":"Gay Bar","checkinsCount":551,"usersCount":165,"tipCount":3,"visitsCount":651,"tier":"","message":"","currency":"","rating":7.1},{"name":"Karma Hookah and Cigar Lounge","phone":"6036476653","address":"1077 Elm St","lat":42.99333443668754,"lng":-71.46302019429797,"neighborhood":"Downtown Manchester","city_fetched":"Manchester","state":"NH","country":"United States","canonicalUrl":"https://foursquare.com/v/karma-hookah-and-cigar-lounge/4bc8bc7f92b376b01414523a","category":"Hookah Bar","checkinsCount":777,"usersCount":375,"tipCount":6,"visitsCount":785,"tier":"","message":"","currency":"","rating":7.1},{"name":"McGarvey's","phone":"6036272721","address":"1097 Elm St","lat":42.993657246732816,"lng":-71.46293323478746,"neighborhood":"Downtown Manchester","city_fetched":"Manchester","state":"NH","country":"United States","canonicalUrl":"https://foursquare.com/v/mcgarveys/4afade5ff964a5202f1922e3","category":"Pub","checkinsCount":2989,"usersCount":748,"tipCount":8,"visitsCount":3072,"url":"http://mcgarveysnh.com","tier":"","message":"","currency":"","rating":7}]