[{"name":"Temptations","phone":"9205534007","address":"1200 Madison St","lat":44.144260635275266,"lng":-87.57320165634155,"city_fetched":"Manitowoc,US","state":"WI","country":"United States","canonicalUrl":"https://foursquare.com/v/temptations/4d79beb270de54818a2ec099","categoryId":"4bf58dd8d48988d116941735","category":"Bar","checkinsCount":452,"usersCount":95,"tipCount":6,"visitsCount":469,"tier":"","message":"","currency":"","rating":8.6},{"name":"Courthouse Pub","phone":"9206861166","twitter":"courthousepub","address":"1001 S 8th St","lat":44.088663426657405,"lng":-87.65757113904797,"city_fetched":"Manitowoc,US","state":"WI","country":"United States","canonicalUrl":"https://foursquare.com/v/courthouse-pub/4b58c4b0f964a5201e6a28e3","categoryId":"50327c8591d4c4b30a586d5d","category":"Brewery","checkinsCount":1205,"usersCount":735,"tipCount":33,"visitsCount":1355,"url":"http://courthousepub.com","tier":2,"message":"Moderate","currency":"$","rating":8.6},{"name":"Capone's Pub & Grill","phone":"9206838888","address":"1036 S 10th St","lat":44.087275115322804,"lng":-87.66073560885776,"city_fetched":"Manitowoc,US","state":"WI","country":"United States","canonicalUrl":"https://foursquare.com/v/capones-pub--grill/4bc7d2542f94d13a04c1127f","categoryId":"4bf58dd8d48988d116941735","category":"Bar","checkinsCount":877,"usersCount":345,"tipCount":15,"visitsCount":1071,"url":"http://caponespub.com","tier":2,"message":"Moderate","currency":"$","rating":8.5},{"name":"Fat Seagull","phone":"9206849123","address":"807 Quay St","lat":44.091116285259446,"lng":-87.65845258877914,"city_fetched":"Manitowoc,US","state":"WI","country":"United States","canonicalUrl":"https://foursquare.com/v/fat-seagull/4ce7159f9f776ea821b55522","categoryId":"4bf58dd8d48988d116941735","category":"Bar","checkinsCount":724,"usersCount":219,"tipCount":7,"visitsCount":945,"url":"http://fatseagull.com","tier":"","message":"","currency":"","rating":8.2},{"name":"Tower Tavern","address":"600-698 U.S. 10","lat":44.0989768,"lng":-87.660739,"city_fetched":"Manitowoc,US","state":"WI","country":"United States","canonicalUrl":"https://foursquare.com/v/tower-tavern/4c64c57ee0c4be9a329c8658","categoryId":"4bf58dd8d48988d116941735","category":"Bar","checkinsCount":785,"usersCount":303,"tipCount":6,"visitsCount":1129,"tier":"","message":"","currency":"","rating":8.1},{"name":"Wisco Tech Bar and Grille","phone":"9204823970","address":"1228 Memorial Dr","lat":44.118845420885506,"lng":-87.63084019429826,"city_fetched":"Manitowoc,US","state":"WI","country":"United States","canonicalUrl":"https://foursquare.com/v/wisco-tech-bar-and-grille/5379516a498e3603d5ff961f","categoryId":"4bf58dd8d48988d11d941735","category":"Sports Bar","checkinsCount":489,"usersCount":121,"tipCount":3,"visitsCount":695,"tier":"","message":"","currency":"","rating":8.1},{"name":"Shooter Malone's","phone":"9206824116","address":"900-924 Buffalo St","lat":44.09442400809018,"lng":-87.65931957189241,"city_fetched":"Manitowoc,US","state":"WI","country":"United States","canonicalUrl":"https://foursquare.com/v/shooter-malones/4cdf3e6170bba1cdd6aa65c4","categoryId":"4bf58dd8d48988d116941735","category":"Bar","checkinsCount":1700,"usersCount":385,"tipCount":8,"visitsCount":1858,"tier":"","message":"","currency":"","rating":7.9},{"name":"Vans Bar and Grill","phone":"9206843007","address":"426 N 9th St","lat":44.096515,"lng":-87.65939,"city_fetched":"Manitowoc,US","state":"WI","country":"United States","canonicalUrl":"https://foursquare.com/v/vans-bar-and-grill/4d030e0254d0236aa3dee6d5","categoryId":"4bf58dd8d48988d116941735","category":"Bar","checkinsCount":903,"usersCount":239,"tipCount":4,"visitsCount":1252,"tier":"","message":"","currency":"","rating":7.8},{"name":"Bridgeview Bar","address":"2 Maritime Dr","lat":44.09302378446854,"lng":-87.6603984611885,"city_fetched":"Manitowoc,US","state":"WI","country":"United States","canonicalUrl":"https://foursquare.com/v/bridgeview-bar/509b0317e4b0eaba8ede15d5","categoryId":"4bf58dd8d48988d116941735","category":"Bar","checkinsCount":857,"usersCount":82,"tipCount":0,"visitsCount":1019,"tier":"","message":"","currency":"","rating":7.8},{"name":"Waverly Inn Pub & Pizzeria","phone":"9207941709","twitter":"waverlyinnpub","address":"1402 16th St","lat":44.14797057579038,"lng":-87.5669898755342,"city_fetched":"Manitowoc,US","state":"WI","country":"United States","canonicalUrl":"https://foursquare.com/v/waverly-inn-pub--pizzeria/4bedc80c1059d13accf151d8","categoryId":"4bf58dd8d48988d11b941735","category":"Pub","checkinsCount":734,"usersCount":197,"tipCount":4,"visitsCount":798,"url":"http://www.waverlyinn.net","tier":"","message":"","currency":"","rating":7.5},{"name":"Timeout Sports Bar & Grill","phone":"9206861380","address":"1027 N Rapids Rd","lat":44.10751732914158,"lng":-87.69987593449639,"city_fetched":"Manitowoc,US","state":"WI","country":"United States","canonicalUrl":"https://foursquare.com/v/timeout-sports-bar--grill/4b9e73c1f964a5201ae536e3","categoryId":"4bf58dd8d48988d11d941735","category":"Sports Bar","checkinsCount":1257,"usersCount":586,"tipCount":21,"visitsCount":1694,"url":"http://timeoutsportsbarandgrill.net","tier":"","message":"","currency":"","rating":7.5},{"name":"TJ'S Sports Bar & Grill","address":"1502 Clark St","lat":44.092462900414716,"lng":-87.66770660877228,"city_fetched":"Manitowoc,US","state":"WI","country":"United States","canonicalUrl":"https://foursquare.com/v/tjs-sports-bar--grill/4bedcc471059d13a32f251d8","categoryId":"4bf58dd8d48988d11d941735","category":"Sports Bar","checkinsCount":557,"usersCount":163,"tipCount":3,"visitsCount":686,"tier":"","message":"","currency":"","rating":7.4},{"name":"Digger Daves","lat":44.09473597883067,"lng":-87.65720988423567,"city_fetched":"Manitowoc,US","state":"WI","country":"United States","canonicalUrl":"https://foursquare.com/v/digger-daves/4d310d675c2db60c6569b46c","categoryId":"4bf58dd8d48988d116941735","category":"Bar","checkinsCount":457,"usersCount":116,"tipCount":1,"visitsCount":496,"tier":"","message":"","currency":"","rating":7},{"name":"Knox's Silver Valley Sports Bar and Banquet Hall","phone":"9206862004","address":"1222 S Alverno Rd","lat":44.08421349365246,"lng":-87.74111252099792,"city_fetched":"Manitowoc,US","state":"WI","country":"United States","canonicalUrl":"https://foursquare.com/v/knoxs-silver-valley-sports-bar-and-banquet-hall/4c5e1e14ed29ef3b2d129976","categoryId":"4bf58dd8d48988d11d941735","category":"Sports Bar","checkinsCount":274,"usersCount":213,"tipCount":1,"visitsCount":344,"url":"http://www.knoxsilvervalley.com","tier":"","message":"","currency":"","rating":7},{"name":"Wenzel's Perfect World","phone":"9206826911","address":"3920 Calumet Ave","lat":44.08036768465776,"lng":-87.6959778545424,"city_fetched":"Manitowoc,US","state":"WI","country":"United States","canonicalUrl":"https://foursquare.com/v/wenzels-perfect-world/4d9f536e7ec88cfa5807815a","categoryId":"4bf58dd8d48988d11b941735","category":"Pub","checkinsCount":556,"usersCount":214,"tipCount":7,"visitsCount":772,"tier":1,"message":"Cheap","currency":"$","rating":6.7},{"name":"Saucy's Sports Bar","phone":"9206825447","address":"1915 Washington St","lat":44.08881578125121,"lng":-87.67341536669947,"city_fetched":"Manitowoc,US","state":"WI","country":"United States","canonicalUrl":"https://foursquare.com/v/saucys-sports-bar/4bb6cd9c2ea19521134cac2f","categoryId":"4bf58dd8d48988d11d941735","category":"Sports Bar","checkinsCount":1516,"usersCount":273,"tipCount":8,"visitsCount":1625,"tier":"","message":"","currency":"","rating":6.6},{"name":"Rock-N-Blues Haus","address":"600-798 Washington St","lat":44.08903533002166,"lng":-87.65766747318125,"city_fetched":"Manitowoc,US","state":"WI","country":"United States","canonicalUrl":"https://foursquare.com/v/rocknblues-haus/4da9e4be6e81162ae7c97f33","categoryId":"4bf58dd8d48988d116941735","category":"Bar","checkinsCount":427,"usersCount":195,"tipCount":3,"visitsCount":435,"tier":"","message":"","currency":"","rating":6.4},{"name":"Chewy's","phone":"9206828084","address":"215 N 8th St","lat":44.0945141442902,"lng":-87.65765783977709,"city_fetched":"Manitowoc,US","state":"WI","country":"United States","canonicalUrl":"https://foursquare.com/v/chewys/4bef7db25e4aa593f22159bb","categoryId":"4bf58dd8d48988d116941735","category":"Bar","checkinsCount":539,"usersCount":195,"tipCount":0,"visitsCount":557,"tier":"","message":"","currency":"","rating":6.4},{"name":"Shoot The Bull","phone":"9206822855","address":"806 Buffalo St","lat":44.094705199560124,"lng":-87.65828132629395,"city_fetched":"Manitowoc,US","state":"WI","country":"United States","canonicalUrl":"https://foursquare.com/v/shoot-the-bull/4c5ba6e07735c9b61d5b8a72","categoryId":"4bf58dd8d48988d116941735","category":"Bar","checkinsCount":1141,"usersCount":275,"tipCount":2,"visitsCount":1197,"tier":"","message":"","currency":"","rating":6.3},{"name":"westfield bar","address":"Western ave..","lat":44.09287751716224,"lng":-87.67088740189415,"city_fetched":"Manitowoc,US","state":"WI","country":"United States","canonicalUrl":"https://foursquare.com/v/westfield-bar/4cfc4ca5c671721e3019c818","categoryId":"4bf58dd8d48988d116941735","category":"Bar","checkinsCount":606,"usersCount":130,"tipCount":3,"visitsCount":685,"tier":"","message":"","currency":"","rating":6.1},{"name":"The Linebacker","phone":"9206826510","address":"527 N 10th St","lat":44.09832546028123,"lng":-87.66035992986755,"city_fetched":"Manitowoc,US","state":"WI","country":"United States","canonicalUrl":"https://foursquare.com/v/the-linebacker/4d1f9ffa16cfb60c03a25261","categoryId":"4bf58dd8d48988d116941735","category":"Bar","checkinsCount":604,"usersCount":246,"tipCount":1,"visitsCount":716,"tier":"","message":"","currency":"","rating":6.1},{"name":"MC3's","phone":"9206828477","address":"714 York St","lat":44.09388797813051,"lng":-87.65751815518793,"city_fetched":"Manitowoc,US","state":"WI","country":"United States","canonicalUrl":"https://foursquare.com/v/mc3s/4c0b4852bbc676b031674bd5","categoryId":"4bf58dd8d48988d116941735","category":"Bar","checkinsCount":949,"usersCount":229,"tipCount":4,"visitsCount":984,"tier":"","message":"","currency":"","rating":5.4}]