[{"name":"Big Dog Sports Cafe","phone":"5073868463","address":"1712 Commerce Dr","lat":44.17917246772671,"lng":-94.03550148010254,"city_fetched":"Mankato,US","state":"MN","country":"United States","canonicalUrl":"https://foursquare.com/v/big-dog-sports-cafe/4bac0a91f964a52023e03ae3","categoryId":"4bf58dd8d48988d11d941735","category":"Sports Bar","checkinsCount":1656,"usersCount":345,"tipCount":7,"visitsCount":1824,"tier":"","message":"","currency":"","rating":8.2},{"name":"Mankato Brewery","phone":"5073862337","twitter":"mankatobrewery","address":"1119 Center St","lat":44.18230971910315,"lng":-94.0138320775557,"city_fetched":"Mankato,US","state":"MN","country":"United States","canonicalUrl":"https://foursquare.com/v/mankato-brewery/4f0477d9823162ada6b69145","categoryId":"50327c8591d4c4b30a586d5d","category":"Brewery","checkinsCount":500,"usersCount":383,"tipCount":10,"visitsCount":649,"url":"http://www.mankatobrewery.com","tier":"","message":"","currency":"","rating":8.1},{"name":"Patrick's on Third","phone":"5079319051","address":"125 S 3rd St","lat":44.32565944613348,"lng":-93.95756721496582,"city_fetched":"Mankato,US","state":"MN","country":"United States","canonicalUrl":"https://foursquare.com/v/patricks-on-third/4b522faff964a520386e27e3","categoryId":"4bf58dd8d48988d116941735","category":"Bar","checkinsCount":4317,"usersCount":1133,"tipCount":31,"visitsCount":4920,"tier":1,"message":"Cheap","currency":"$","rating":8.1},{"name":"Westwood Marina Bar & Grill","phone":"5072433048","twitter":"westwoodmarinag","address":"1400 Lake Washington Access Rd","lat":44.2519457,"lng":-93.88678339,"city_fetched":"Mankato,US","state":"MN","country":"United States","canonicalUrl":"https://foursquare.com/v/westwood-marina-bar--grill/4c02d165310fc9b69409c561","categoryId":"4bf58dd8d48988d116941735","category":"Bar","checkinsCount":477,"usersCount":290,"tipCount":8,"visitsCount":660,"url":"http://www.westwoodmarina.com/index.php","tier":"","message":"","currency":"","rating":8},{"name":"The Wine Cafe","phone":"5073451516","twitter":"winecafe","address":"301 N Riverfront Dr","lat":44.16935977485193,"lng":-94.00067751157934,"city_fetched":"Mankato,US","state":"MN","country":"United States","canonicalUrl":"https://foursquare.com/winecafe","categoryId":"4bf58dd8d48988d123941735","category":"Wine Bar","checkinsCount":525,"usersCount":228,"tipCount":8,"visitsCount":563,"url":"http://www.winecafebar.com","tier":"","message":"","currency":"","rating":7.8},{"name":"Mum's","phone":"5076255565","address":"12 Civic Center Plz #1675","lat":44.1642717797038,"lng":-94.00528297445233,"city_fetched":"Mankato,US","state":"MN","country":"United States","canonicalUrl":"https://foursquare.com/v/mums/4c030fb2f423a593f5c9cf16","categoryId":"4bf58dd8d48988d116941735","category":"Bar","checkinsCount":2115,"usersCount":310,"tipCount":7,"visitsCount":2126,"tier":"","message":"","currency":"","rating":7.6},{"name":"Blue Bricks Bar & Eatery","phone":"5073861700","address":"424 S Front St","lat":44.164133216773344,"lng":-94.00615028274277,"city_fetched":"Mankato,US","state":"MN","country":"United States","canonicalUrl":"https://foursquare.com/v/blue-bricks-bar--eatery/4bdce647383276b0c9e17369","categoryId":"4bf58dd8d48988d116941735","category":"Bar","checkinsCount":3292,"usersCount":1028,"tipCount":20,"visitsCount":3406,"url":"http://bluebricksmankato.com","tier":2,"message":"Moderate","currency":"$","rating":7.6},{"name":"Savoy Grill & Bar","phone":"5073850072","address":"526 S Front St","lat":44.16314050111433,"lng":-94.00729674700987,"city_fetched":"Mankato,US","state":"MN","country":"United States","canonicalUrl":"https://foursquare.com/v/savoy-grill--bar/4b9c6c85f964a520a36736e3","categoryId":"4bf58dd8d48988d116941735","category":"Bar","checkinsCount":444,"usersCount":205,"tipCount":6,"visitsCount":444,"url":"http://www.savoymankato.com","tier":"","message":"","currency":"","rating":7.4},{"name":"Loose Moose","phone":"5073451446","address":"121 S Front St","lat":44.1666043,"lng":-94.0028762,"city_fetched":"Mankato,US","state":"MN","country":"United States","canonicalUrl":"https://foursquare.com/v/loose-moose/4c8c3a39f0ce236a608b16ef","categoryId":"4bf58dd8d48988d116941735","category":"Bar","checkinsCount":448,"usersCount":277,"tipCount":4,"visitsCount":482,"url":"http://www.theloosemoosesaloon.com","tier":2,"message":"Moderate","currency":"$","rating":7.3},{"name":"Tav on the Ave","phone":"5073453308","address":"1120 Madison Ave","lat":44.16725559397657,"lng":-93.97728768579506,"city_fetched":"Mankato,US","state":"MN","country":"United States","canonicalUrl":"https://foursquare.com/v/tav-on-the-ave/4af4b396f964a52036f521e3","categoryId":"4bf58dd8d48988d116941735","category":"Bar","checkinsCount":1980,"usersCount":1006,"tipCount":17,"visitsCount":2507,"url":"http://www.tavontheavenue.com","tier":2,"message":"Moderate","currency":"$","rating":7.2},{"name":"Chopps","phone":"5076255090","address":"521 S Front St","lat":44.16303900827991,"lng":-94.00663877311224,"city_fetched":"Mankato,US","state":"MN","country":"United States","canonicalUrl":"https://foursquare.com/v/chopps/4ba595fbf964a520691439e3","categoryId":"4bf58dd8d48988d116941735","category":"Bar","checkinsCount":1406,"usersCount":305,"tipCount":8,"visitsCount":1469,"tier":"","message":"","currency":"","rating":7},{"name":"Hooligan's Neighborhood Pub","address":"1361 Adams St","lat":44.1697315,"lng":-93.97223639374188,"city_fetched":"Mankato,US","state":"MN","country":"United States","canonicalUrl":"https://foursquare.com/v/hooligans-neighborhood-pub/4bec623ab68520a18d091287","categoryId":"4bf58dd8d48988d116941735","category":"Bar","checkinsCount":634,"usersCount":204,"tipCount":5,"visitsCount":683,"tier":"","message":"","currency":"","rating":7},{"name":"Red Sky Lounge","phone":"5076258131","address":"520 S Front St","lat":44.16331515,"lng":-94.00702166666666,"city_fetched":"Mankato,US","state":"MN","country":"United States","canonicalUrl":"https://foursquare.com/v/red-sky-lounge/4b92a800f964a520460e34e3","categoryId":"4bf58dd8d48988d116941735","category":"Bar","checkinsCount":864,"usersCount":318,"tipCount":6,"visitsCount":864,"url":"http://redskymankato.com","tier":"","message":"","currency":"","rating":6.9},{"name":"Mully's On Madison","phone":"5073881441","address":"1030 Madison Ave","lat":44.16715385,"lng":-93.97984027862549,"city_fetched":"Mankato,US","state":"MN","country":"United States","canonicalUrl":"https://foursquare.com/v/mullys-on-madison/4d30d997f714236aa98f7ca5","categoryId":"4bf58dd8d48988d116941735","category":"Bar","checkinsCount":345,"usersCount":94,"tipCount":3,"visitsCount":376,"tier":"","message":"","currency":"","rating":6.8},{"name":"Underground Bar & Grill","phone":"5073888000","address":"12 Civic Center Plz #1B","lat":44.16457131920801,"lng":-94.00566678150305,"city_fetched":"Mankato,US","state":"MN","country":"United States","canonicalUrl":"https://foursquare.com/v/underground-bar--grill/4bd742d235aad13ad7818ef3","categoryId":"4bf58dd8d48988d116941735","category":"Bar","checkinsCount":2838,"usersCount":718,"tipCount":20,"visitsCount":2973,"tier":1,"message":"Cheap","currency":"$","rating":6.6},{"name":"Buster's Sports Bar and Grill","phone":"5073898999","address":"1325 Madison Ave","lat":44.166214434017455,"lng":-93.97401475092195,"city_fetched":"Mankato,US","state":"MN","country":"United States","canonicalUrl":"https://foursquare.com/v/busters-sports-bar-and-grill/4b5ba0e9f964a520230c29e3","categoryId":"4bf58dd8d48988d11d941735","category":"Sports Bar","checkinsCount":1887,"usersCount":745,"tipCount":15,"visitsCount":2312,"url":"http://www.bustersbar.com","tier":1,"message":"Cheap","currency":"$","rating":6.6},{"name":"Rounders Bar","phone":"5073887767","address":"414 S Front St","lat":44.16425519623878,"lng":-94.00570167319407,"city_fetched":"Mankato,US","state":"MN","country":"United States","canonicalUrl":"https://foursquare.com/v/rounders-bar/4b5259c2f964a520b77827e3","categoryId":"4bf58dd8d48988d11d941735","category":"Sports Bar","checkinsCount":4273,"usersCount":1029,"tipCount":22,"visitsCount":4334,"url":"http://www.roundersbar.com","tier":2,"message":"Moderate","currency":"$","rating":6.5},{"name":"South Street Saloon","address":"515 S Front St","lat":44.163141266495074,"lng":-94.00649920396542,"city_fetched":"Mankato,US","state":"MN","country":"United States","canonicalUrl":"https://foursquare.com/v/south-street-saloon/4b76550ff964a5208c482ee3","categoryId":"4bf58dd8d48988d116941735","category":"Bar","checkinsCount":1406,"usersCount":475,"tipCount":4,"visitsCount":1429,"tier":"","message":"","currency":"","rating":6.4},{"name":"Red Rocks Bar & Nightlife","phone":"5076254293","address":"12 Civic Center Plz","lat":44.16420871526477,"lng":-94.00526303650139,"city_fetched":"Mankato,US","state":"MN","country":"United States","canonicalUrl":"https://foursquare.com/v/red-rocks-bar--nightlife/4bd749f835aad13a28908ef3","categoryId":"4bf58dd8d48988d116941735","category":"Bar","checkinsCount":3345,"usersCount":519,"tipCount":14,"visitsCount":3387,"tier":"","message":"","currency":"","rating":5.9},{"name":"Midtown Tavern","phone":"5073451909","address":"524 N Riverfront Dr.","lat":44.17197974957396,"lng":-93.99880886077881,"city_fetched":"Mankato,US","state":"MN","country":"United States","canonicalUrl":"https://foursquare.com/v/midtown-tavern/4c706ad8b3ce224b75f473c6","categoryId":"4bf58dd8d48988d116941735","category":"Bar","checkinsCount":383,"usersCount":185,"tipCount":6,"visitsCount":495,"tier":"","message":"","currency":"","rating":5.8}]