[{"name":"The Phoenix Brewing Co.","phone":"4195222552","address":"131 N Diamond St","lat":40.76197384715351,"lng":-82.5141204254179,"city_fetched":"Mansfield,US","state":"OH","country":"United States","canonicalUrl":"https://foursquare.com/v/the-phoenix-brewing-co/532911f9498e0c20455f2dbe","categoryId":"50327c8591d4c4b30a586d5d","category":"Brewery","checkinsCount":179,"usersCount":196,"tipCount":7,"visitsCount":359,"url":"http://www.phoenixbrewing.com","tier":"","message":"","currency":"","rating":8.9},{"name":"The Happy Grape","lat":40.679559,"lng":-82.5716673,"city_fetched":"Mansfield,US","state":"Ohio","country":"United States","canonicalUrl":"https://foursquare.com/v/the-happy-grape/4d18d5e4cc216ea85bec78d3","categoryId":"4bf58dd8d48988d123941735","category":"Wine Bar","checkinsCount":216,"usersCount":131,"tipCount":3,"visitsCount":254,"tier":"","message":"","currency":"","rating":7.8},{"name":"Martini's On Main","phone":"4197755936","address":"108 N Main St","lat":40.76142425,"lng":-82.51527988333333,"neighborhood":"Downtown - Carousel District","city_fetched":"Mansfield,US","state":"OH","country":"United States","canonicalUrl":"https://foursquare.com/v/martinis-on-main/4bc152ed74a9a59304ccd1f6","categoryId":"4bf58dd8d48988d11e941735","category":"Cocktail Bar","checkinsCount":716,"usersCount":209,"tipCount":8,"visitsCount":743,"url":"http://martinisonmain.net","tier":"","message":"","currency":"","rating":7.8},{"name":"City Grille","phone":"4197099199","address":"37 E 4th St","lat":40.76101595,"lng":-82.5143258,"city_fetched":"Mansfield,US","state":"OH","country":"United States","canonicalUrl":"https://foursquare.com/v/city-grille/4e448251e4cd394059eb8e8b","categoryId":"4bf58dd8d48988d116941735","category":"Bar","checkinsCount":317,"usersCount":210,"tipCount":5,"visitsCount":476,"url":"http://citygrilleandbar.com","tier":"","message":"","currency":"","rating":7.6},{"name":"MVP's Sports Bar","phone":"4195263061","address":"275 Park Ave W","lat":40.758633,"lng":-82.525628,"city_fetched":"Mansfield,US","state":"OH","country":"United States","canonicalUrl":"https://foursquare.com/v/mvps-sports-bar/4d858fbd8de9721eb7134a51","categoryId":"4bf58dd8d48988d116941735","category":"Bar","checkinsCount":397,"usersCount":177,"tipCount":5,"visitsCount":572,"tier":"","message":"","currency":"","rating":7.5},{"name":"The Old Bag Of Nails","phone":"4197755937","address":"625 Lexington Ave","lat":40.73840975437278,"lng":-82.52808807252157,"city_fetched":"Mansfield,US","state":"OH","country":"United States","canonicalUrl":"https://foursquare.com/v/the-old-bag-of-nails/4bdca8cf2a3a0f4728d6b3b6","categoryId":"4bf58dd8d48988d11b941735","category":"Pub","checkinsCount":928,"usersCount":546,"tipCount":17,"visitsCount":1379,"url":"http://www.oldbagofnails.com","tier":2,"message":"Moderate","currency":"$","rating":7.5},{"name":"O'Bryan's","phone":"4192078400","address":"1065 Claremont Ave","lat":40.85887810336993,"lng":-82.32755184173584,"city_fetched":"Mansfield,US","state":"OH","country":"United States","canonicalUrl":"https://foursquare.com/v/obryans/4c5378e6728920a101072081","categoryId":"4bf58dd8d48988d116941735","category":"Bar","checkinsCount":422,"usersCount":269,"tipCount":10,"visitsCount":687,"url":"http://obryansashland.com","tier":"","message":"","currency":"","rating":7.5},{"name":"Legend's Sports Grill & Pub","phone":"4193427782","address":"63 W Main St","lat":40.88146290066808,"lng":-82.6618355512619,"city_fetched":"Mansfield,US","state":"OH","country":"United States","canonicalUrl":"https://foursquare.com/v/legends-sports-grill--pub/4c379e040a71c9b6ac303fc9","categoryId":"4bf58dd8d48988d11d941735","category":"Sports Bar","checkinsCount":179,"usersCount":96,"tipCount":3,"visitsCount":215,"tier":"","message":"","currency":"","rating":7.2},{"name":"Bucks Bar & Grill","phone":"4198842825","address":"192 E Main St","lat":40.67849422646823,"lng":-82.57543962645772,"city_fetched":"Mansfield,US","state":"OH","country":"United States","canonicalUrl":"https://foursquare.com/v/bucks-bar--grill/4b6c5283f964a52097302ce3","categoryId":"4bf58dd8d48988d11d941735","category":"Sports Bar","checkinsCount":232,"usersCount":140,"tipCount":6,"visitsCount":233,"url":"http://www.bucksbarandgrill.net","tier":"","message":"","currency":"","rating":7},{"name":"Red Fox Tavern","address":"271-363 Marion Avenue Rd","lat":40.7552896,"lng":-82.533333,"city_fetched":"Mansfield,US","state":"OH","country":"United States","canonicalUrl":"https://foursquare.com/v/red-fox-tavern/4cd36248ecc3a093a44e9a93","categoryId":"4bf58dd8d48988d116941735","category":"Bar","checkinsCount":310,"usersCount":122,"tipCount":4,"visitsCount":334,"tier":"","message":"","currency":"","rating":6.2},{"name":"Goodfellows","address":"1349 Park Ave W","lat":40.75906358622984,"lng":-82.56470334359481,"city_fetched":"Mansfield,US","state":"OH","country":"United States","canonicalUrl":"https://foursquare.com/v/goodfellows/4cd4c333aeb1224bdaaf1eff","categoryId":"4bf58dd8d48988d116941735","category":"Bar","checkinsCount":750,"usersCount":124,"tipCount":2,"visitsCount":809,"tier":"","message":"","currency":"","rating":5.9}]