[{"name":"Ogden Club","lat":45.107767,"lng":-87.606803,"city_fetched":"Marinette","state":"MI","country":"United States","canonicalUrl":"https://foursquare.com/v/ogden-club/4fbad94be4b0bc547243c506","category":"Lounge","checkinsCount":366,"usersCount":153,"tipCount":5,"visitsCount":478,"tier":"","message":"","currency":"","rating":7.9},{"name":"Pirate's Cove","phone":"9068633005","address":"727 1st St","lat":45.105706,"lng":-87.603611,"city_fetched":"Marinette","state":"MI","country":"United States","canonicalUrl":"https://foursquare.com/v/pirates-cove/4be5ff319026ef3bd8cb0a38","category":"Bar","checkinsCount":320,"usersCount":153,"tipCount":4,"visitsCount":324,"url":"http://piratescovepubgrill.com","tier":"","message":"","currency":"","rating":7.9},{"name":"The Brothers Three","phone":"7157359054","address":"1302 Marinette Ave","lat":45.0925841738802,"lng":-87.64700227370115,"city_fetched":"Marinette","state":"WI","country":"United States","canonicalUrl":"https://foursquare.com/v/the-brothers-three/4bae2ebaf964a520e08e3be3","category":"American Restaurant","checkinsCount":505,"usersCount":327,"tipCount":12,"visitsCount":660,"tier":1,"message":"Cheap","currency":"$","rating":7.9},{"name":"Murray's Irish Pub & Grille","phone":"9062424123","address":"715 1st St","lat":45.105296933005,"lng":-87.60372899980435,"city_fetched":"Marinette","state":"MI","country":"United States","canonicalUrl":"https://foursquare.com/v/murrays-irish-pub--grille/4bc11faf920eb713ac4d1a2c","category":"Pub","checkinsCount":741,"usersCount":338,"tipCount":7,"visitsCount":893,"url":"http://www.murraysonfirst.com","tier":2,"message":"Moderate","currency":"$","rating":7.6},{"name":"The Sports Corner","lat":45.097915,"lng":-87.627991,"city_fetched":"Marinette","state":"WI","country":"United States","canonicalUrl":"https://foursquare.com/v/the-sports-corner/4c6b41f0e503c928dadc47b3","category":"Bar","checkinsCount":130,"usersCount":67,"tipCount":2,"visitsCount":151,"tier":"","message":"","currency":"","rating":6.9},{"name":"Rail House Restaurant & Brewpub","phone":"7157324646","address":"2029 Old Peshtigo Rd","lat":45.085118,"lng":-87.6543488,"city_fetched":"Marinette","state":"WI","country":"United States","canonicalUrl":"https://foursquare.com/v/rail-house-restaurant--brewpub/4ca91daa44a8224b76a81e40","category":"Brewery","checkinsCount":830,"usersCount":519,"tipCount":17,"visitsCount":1091,"url":"http://www.railhousebrewpub.com","tier":"","message":"","currency":"","rating":6.1},{"name":"Schooner Pub & Grill","phone":"9068634003","address":"2203 11th Ave","lat":45.10870350333808,"lng":-87.63068675994873,"city_fetched":"Marinette","state":"MI","country":"United States","canonicalUrl":"https://foursquare.com/v/schooner-pub--grill/4e7a515b2271c8169b5132fd","category":"Burger Joint","checkinsCount":69,"usersCount":46,"tipCount":4,"visitsCount":75,"tier":"","message":"","currency":"","rating":5.5}]