[{"name":"Sun King Brewing Co.","phone":"3176023702","address":"135 N College Ave","lat":39.76913756093357,"lng":-86.14505933870417,"neighborhood":"Downtown Indianapolis","city_fetched":"Marion,US","state":"IN","country":"United States","canonicalUrl":"https://foursquare.com/v/sun-king-brewing-co/4ad78002f964a5207b0b21e3","categoryId":"50327c8591d4c4b30a586d5d","category":"Brewery","checkinsCount":12036,"usersCount":4997,"tipCount":61,"visitsCount":13729,"url":"http://www.sunkingbrewing.com","tier":1,"message":"Cheap","currency":"$","rating":9.4},{"name":"Tomlinson Tap Room","phone":"3174232337","twitter":"tomtaproom","address":"222 E Market St","lat":39.76855186272191,"lng":-86.15379810333252,"neighborhood":"Downtown Indianapolis","city_fetched":"Marion,US","state":"IN","country":"United States","canonicalUrl":"https://foursquare.com/tomtaproom","categoryId":"4bf58dd8d48988d116941735","category":"Bar","checkinsCount":3591,"usersCount":1396,"tipCount":22,"visitsCount":3666,"url":"http://www.tomlinsontaproom.com","tier":2,"message":"Moderate","currency":"$","rating":9.3},{"name":"St Elmo's 1933 Lounge","phone":"3176350636","twitter":"stelmo","address":"127 S Illinois St","lat":39.76478103689806,"lng":-86.15989750074556,"neighborhood":"Downtown Indianapolis","city_fetched":"Marion,US","state":"IN","country":"United States","canonicalUrl":"https://foursquare.com/v/st-elmos-1933-lounge/4e73d5c37d8b91760256c71f","categoryId":"4bf58dd8d48988d1d4941735","category":"Speakeasy","checkinsCount":2048,"usersCount":1196,"tipCount":17,"visitsCount":2063,"url":"http://stelmos.com","tier":"","message":"","currency":"","rating":9.2},{"name":"Twenty Tap","phone":"3176028440","twitter":"twentytap","address":"5408 N College Ave","lat":39.851225,"lng":-86.14599789,"neighborhood":"Meridian Kessler","city_fetched":"Marion,US","state":"IN","country":"United States","canonicalUrl":"https://foursquare.com/v/twenty-tap/4e5e532814954da39fee1853","categoryId":"4bf58dd8d48988d116941735","category":"Bar","checkinsCount":8715,"usersCount":2975,"tipCount":71,"visitsCount":9671,"url":"http://www.twentytap.com","tier":2,"message":"Moderate","currency":"$","rating":9.2},{"name":"Ale Emporium","phone":"3178421333","address":"8617 Allisonville Rd","lat":39.91323906061099,"lng":-86.07270033943027,"neighborhood":"Castleton","city_fetched":"Marion,US","state":"IN","country":"United States","canonicalUrl":"https://foursquare.com/v/ale-emporium/4ae724e5f964a520d4a821e3","categoryId":"4bf58dd8d48988d11d941735","category":"Sports Bar","checkinsCount":14382,"usersCount":5565,"tipCount":103,"visitsCount":17866,"url":"http://ale-emporium.com","tier":2,"message":"Moderate","currency":"$","rating":9.1},{"name":"The Tick Tock Lounge","phone":"3176314182","address":"2602 E 10th St","lat":39.781457337121715,"lng":-86.11789128642668,"neighborhood":"Near Eastside","city_fetched":"Marion,US","state":"IN","country":"United States","canonicalUrl":"https://foursquare.com/v/the-tick-tock-lounge/4f322d3419836c91c7bdb294","categoryId":"4bf58dd8d48988d121941735","category":"Lounge","checkinsCount":636,"usersCount":314,"tipCount":17,"visitsCount":879,"tier":"","message":"","currency":"","rating":9.1},{"name":"Triton Brewing Company","phone":"3177352706","twitter":"tritonbrewing","address":"5764 Wheeler Rd","lat":39.86009656946654,"lng":-86.00682791732211,"city_fetched":"Marion,US","state":"IN","country":"United States","canonicalUrl":"https://foursquare.com/v/triton-brewing-company/4e5587d1e4cd779e833777c6","categoryId":"50327c8591d4c4b30a586d5d","category":"Brewery","checkinsCount":5748,"usersCount":1575,"tipCount":43,"visitsCount":6304,"url":"http://www.tritonbrewing.com","tier":2,"message":"Moderate","currency":"$","rating":9},{"name":"Ball & Biscuit","phone":"3176360539","address":"331 Massachusetts Ave","lat":39.77170419848229,"lng":-86.15354733365133,"neighborhood":"Downtown Indianapolis","city_fetched":"Marion,US","state":"IN","country":"United States","canonicalUrl":"https://foursquare.com/v/ball--biscuit/4b9d68dcf964a520c3aa36e3","categoryId":"4bf58dd8d48988d11e941735","category":"Cocktail Bar","checkinsCount":8003,"usersCount":3242,"tipCount":75,"visitsCount":8062,"url":"http://ballandbiscuit.com","tier":2,"message":"Moderate","currency":"$","rating":9},{"name":"Black Acre Brewing Co.","phone":"3172076266","address":"5614 E Washington St","lat":39.77103352546692,"lng":-86.07098758220673,"neighborhood":"Irvington","city_fetched":"Marion,US","state":"IN","country":"United States","canonicalUrl":"https://foursquare.com/v/black-acre-brewing-co/4e1a01b5b61c8f9ada5b4d2c","categoryId":"50327c8591d4c4b30a586d5d","category":"Brewery","checkinsCount":4369,"usersCount":1830,"tipCount":40,"visitsCount":5364,"url":"http://blackacrebrewing.com","tier":2,"message":"Moderate","currency":"$","rating":9},{"name":"St Joseph Brewery & Public House","phone":"3176027005","twitter":"stjosephpub","address":"540 N College Ave","lat":39.77489940405044,"lng":-86.14568058043324,"neighborhood":"Downtown Indianapolis","city_fetched":"Marion,US","state":"IN","country":"United States","canonicalUrl":"https://foursquare.com/v/st-joseph-brewery--public-house/5553d03a498e069f13e0d042","categoryId":"50327c8591d4c4b30a586d5d","category":"Brewery","checkinsCount":957,"usersCount":1129,"tipCount":14,"visitsCount":1715,"url":"http://www.saintjoseph.beer","tier":"","message":"","currency":"","rating":9},{"name":"Flat12 Bierwerks","phone":"3176352334","twitter":"flat12bierwerks","address":"414 Dorman St","lat":39.77279135,"lng":-86.138496,"neighborhood":"Near Eastside","city_fetched":"Marion,US","state":"IN","country":"United States","canonicalUrl":"https://foursquare.com/v/flat12-bierwerks/4cd850152a805481f3719b2c","categoryId":"50327c8591d4c4b30a586d5d","category":"Brewery","checkinsCount":6754,"usersCount":2729,"tipCount":40,"visitsCount":7525,"url":"http://flat12.me","tier":1,"message":"Cheap","currency":"$","rating":9},{"name":"Bier Brewery Taproom","phone":"3172532437","twitter":"bierbrewery","address":"5133 E 65th St","lat":39.87562105125533,"lng":-86.08288221452781,"neighborhood":"Eastwood","city_fetched":"Marion,US","state":"IN","country":"United States","canonicalUrl":"https://foursquare.com/v/bier-brewery-taproom/4ced6bc7821254812bf35ea1","categoryId":"50327c8591d4c4b30a586d5d","category":"Brewery","checkinsCount":2868,"usersCount":1367,"tipCount":30,"visitsCount":3579,"url":"http://bierbrewery.com","tier":1,"message":"Cheap","currency":"$","rating":9},{"name":"Fountain Square Brewing Company","phone":"3174931410","twitter":"fountainsqrbrew","address":"1301 Barth Ave","lat":39.74972540214757,"lng":-86.14027801022124,"neighborhood":"Fountain Square","city_fetched":"Marion,US","state":"IN","country":"United States","canonicalUrl":"https://foursquare.com/v/fountain-square-brewing-company/4e7e1920b8f700d320a85b00","categoryId":"50327c8591d4c4b30a586d5d","category":"Brewery","checkinsCount":3857,"usersCount":2122,"tipCount":35,"visitsCount":4513,"url":"http://fountainsquarebrewery.com","tier":1,"message":"Cheap","currency":"$","rating":8.9},{"name":"Red Lion Grog House","phone":"3178224764","twitter":"redliongroghous","address":"1043 Virginia Ave","lat":39.752436206213915,"lng":-86.14066064357758,"neighborhood":"Fountain Square","city_fetched":"Marion,US","state":"IN","country":"United States","canonicalUrl":"https://foursquare.com/v/red-lion-grog-house/4b1eb588f964a520401e24e3","categoryId":"4bf58dd8d48988d11b941735","category":"Pub","checkinsCount":5684,"usersCount":2377,"tipCount":62,"visitsCount":5784,"url":"http://www.redliongroghouse.com","tier":2,"message":"Moderate","currency":"$","rating":8.9},{"name":"Hotel Tango Whisky","phone":"3176531806","address":"702 Virginia Ave","lat":39.75754800057733,"lng":-86.1448605397594,"neighborhood":"Fletcher Place","city_fetched":"Marion,US","state":"IN","country":"United States","canonicalUrl":"https://foursquare.com/v/hotel-tango-whisky/541a289e498eaa82cbea98ef","categoryId":"4bf58dd8d48988d122941735","category":"Whisky Bar","checkinsCount":827,"usersCount":573,"tipCount":11,"visitsCount":964,"url":"http://hoteltangowhiskey.com","tier":"","message":"","currency":"","rating":8.9},{"name":"Boathouse Grille","phone":"3173288812","twitter":"boathousebi","address":"6225 W 56th St","lat":39.85232706373771,"lng":-86.26981973648071,"city_fetched":"Marion,US","state":"IN","country":"United States","canonicalUrl":"https://foursquare.com/v/boathouse-grille/4b1936daf964a52052d923e3","categoryId":"4bf58dd8d48988d116941735","category":"Bar","checkinsCount":2128,"usersCount":616,"tipCount":25,"visitsCount":2483,"url":"http://boathousegrill.com","tier":2,"message":"Moderate","currency":"$","rating":8.9},{"name":"Chatham Tap","phone":"3179178425","twitter":"chathamtap","address":"719 Massachusetts Ave","lat":39.77658353989152,"lng":-86.14644080400467,"neighborhood":"Chatham Arch","city_fetched":"Marion,US","state":"IN","country":"United States","canonicalUrl":"https://foursquare.com/v/chatham-tap/4b2444bff964a520016524e3","categoryId":"4bf58dd8d48988d116941735","category":"Bar","checkinsCount":13389,"usersCount":4310,"tipCount":97,"visitsCount":13608,"url":"http://chathamtap.com","tier":2,"message":"Moderate","currency":"$","rating":8.8},{"name":"English Ivy's","phone":"3178225070","address":"944 N Alabama St","lat":39.780735,"lng":-86.152124,"neighborhood":"St. Joseph Historic Neighborhood","city_fetched":"Marion,US","state":"IN","country":"United States","canonicalUrl":"https://foursquare.com/v/english-ivys/4b14599cf964a520a5a123e3","categoryId":"4bf58dd8d48988d1d8941735","category":"Gay Bar","checkinsCount":10634,"usersCount":1471,"tipCount":49,"visitsCount":12347,"url":"http://www.englishivys.com","tier":2,"message":"Moderate","currency":"$","rating":8.8},{"name":"Indiana City Brewing Co","phone":"3176431103","twitter":"indianacitybeer","address":"24 Shelby St","lat":39.76620574955985,"lng":-86.14115776840077,"neighborhood":"Near Southeast","city_fetched":"Marion,US","state":"IN","country":"United States","canonicalUrl":"https://foursquare.com/v/indiana-city-brewing-co/519e8dc0498e1e71c5b78f6d","categoryId":"50327c8591d4c4b30a586d5d","category":"Brewery","checkinsCount":1634,"usersCount":1161,"tipCount":21,"visitsCount":2153,"url":"http://www.indianacitybeer.com","tier":1,"message":"Cheap","currency":"$","rating":8.8},{"name":"Si Greene's Pub","phone":"3173536474","address":"5109 E 10th St","lat":39.781417950963,"lng":-86.0827130307107,"neighborhood":"Irvington","city_fetched":"Marion,US","state":"IN","country":"United States","canonicalUrl":"https://foursquare.com/v/si-greenes-pub/4b5253abf964a520657727e3","categoryId":"4bf58dd8d48988d116941735","category":"Bar","checkinsCount":2612,"usersCount":286,"tipCount":9,"visitsCount":2789,"tier":"","message":"","currency":"","rating":8.8},{"name":"Tappers Arcade Bar","address":"501 Virginia Ave","lat":39.75949345512792,"lng":-86.14776292774421,"neighborhood":"Fletcher Place","city_fetched":"Marion,US","state":"IN","country":"United States","canonicalUrl":"https://foursquare.com/v/tappers-arcade-bar/56ff2471498ed95cb1bb2c54","categoryId":"4bf58dd8d48988d116941735","category":"Bar","checkinsCount":296,"usersCount":233,"tipCount":7,"visitsCount":331,"tier":"","message":"","currency":"","rating":8.7},{"name":"Deviate Brewing","twitter":"deviatebrewing","address":"4004 W 96th St","lat":39.92638480451927,"lng":-86.22901255670357,"city_fetched":"Marion,US","state":"IN","country":"United States","canonicalUrl":"https://foursquare.com/v/deviate-brewing/55e1f142498eececa6efd1d7","categoryId":"50327c8591d4c4b30a586d5d","category":"Brewery","checkinsCount":498,"usersCount":271,"tipCount":8,"visitsCount":771,"url":"http://deviatebrewing.com","tier":"","message":"","currency":"","rating":8.7},{"name":"Sahm's Place","phone":"3172021577","twitter":"sahmsplace","address":"2411 E 65th St","lat":39.87553363144034,"lng":-86.12108051776886,"neighborhood":"Glendale","city_fetched":"Marion,US","state":"IN","country":"United States","canonicalUrl":"https://foursquare.com/v/sahms-place/4ad5006af964a520350121e3","categoryId":"4bf58dd8d48988d116941735","category":"Bar","checkinsCount":2737,"usersCount":907,"tipCount":35,"visitsCount":3324,"url":"http://www.sahms.com","tier":2,"message":"Moderate","currency":"$","rating":8.7},{"name":"Big Lug Canteen","phone":"3175550580","address":"1435 E 86th St","lat":39.91178569379031,"lng":-86.13624186384166,"neighborhood":"Nora - Far Northside","city_fetched":"Marion,US","state":"IN","country":"United States","canonicalUrl":"https://foursquare.com/v/big-lug-canteen/5601614b498e3854e9eaff2c","categoryId":"50327c8591d4c4b30a586d5d","category":"Brewery","checkinsCount":637,"usersCount":379,"tipCount":6,"visitsCount":761,"tier":"","message":"","currency":"","rating":8.7},{"name":"Sinking Ship 2","lat":39.92601664399817,"lng":-86.08710167804094,"neighborhood":"Keystone at The Crossing","city_fetched":"Marion,US","state":"IN","country":"United States","canonicalUrl":"https://foursquare.com/v/sinking-ship-2/560ecb1f498eb0212f2fb296","categoryId":"4bf58dd8d48988d11d941735","category":"Sports Bar","checkinsCount":244,"usersCount":170,"tipCount":3,"visitsCount":309,"tier":"","message":"","currency":"","rating":8.6},{"name":"Taylor's Pub","phone":"3172590952","twitter":"taylorspubindy","address":"1325 W 86th St","lat":39.911164717692564,"lng":-86.18285686073803,"neighborhood":"St. Vincent - Greenbriar","city_fetched":"Marion,US","state":"IN","country":"United States","canonicalUrl":"https://foursquare.com/v/taylors-pub/4c0736158b4520a138ac8697","categoryId":"4bf58dd8d48988d116941735","category":"Bar","checkinsCount":2339,"usersCount":486,"tipCount":14,"visitsCount":2420,"url":"http://www.taylorspubindy.com","tier":2,"message":"Moderate","currency":"$","rating":8.6},{"name":"Aristocrat Pub & Restaurant","phone":"3172837388","address":"5212 N College Ave","lat":39.84734885206481,"lng":-86.14606326158771,"neighborhood":"Meridian Kessler","city_fetched":"Marion,US","state":"IN","country":"United States","canonicalUrl":"https://foursquare.com/v/aristocrat-pub--restaurant/4b3f98eaf964a520f5a925e3","categoryId":"4bf58dd8d48988d11b941735","category":"Pub","checkinsCount":3458,"usersCount":1757,"tipCount":47,"visitsCount":3861,"url":"http://www.aristocratpub.com‎ ","tier":2,"message":"Moderate","currency":"$","rating":8.6},{"name":"MacNiven's Restaurant & Bar","phone":"3176327268","twitter":"macnivens","address":"339 Massachusetts Ave","lat":39.7718215446039,"lng":-86.15320801734924,"neighborhood":"Downtown Indianapolis","city_fetched":"Marion,US","state":"IN","country":"United States","canonicalUrl":"https://foursquare.com/v/macnivens-restaurant--bar/4ae0cd1df964a520aa8221e3","categoryId":"4bf58dd8d48988d11b941735","category":"Pub","checkinsCount":9184,"usersCount":3865,"tipCount":86,"visitsCount":9343,"url":"http://www.macnivens.com‎","tier":2,"message":"Moderate","currency":"$","rating":8.6},{"name":"The District Tap","phone":"3172888251","twitter":"thedistrictindy","address":"3720 E 82nd St","lat":39.910480466723904,"lng":-86.10277236237991,"neighborhood":"Castleton","city_fetched":"Marion,US","state":"IN","country":"United States","canonicalUrl":"https://foursquare.com/v/the-district-tap/541be8fb498e784f1bc25cc3","categoryId":"4bf58dd8d48988d11d941735","category":"Sports Bar","checkinsCount":1042,"usersCount":1112,"tipCount":15,"visitsCount":2086,"url":"http://www.thedistrictindy.com","tier":"","message":"","currency":"","rating":8.6},{"name":"Redemption Alewerks","phone":"3173483330","twitter":"redemptionales","address":"7035 E 96th St Ste K","lat":39.92650363809335,"lng":-86.04497613557861,"neighborhood":"Castleton","city_fetched":"Marion,US","state":"IN","country":"United States","canonicalUrl":"https://foursquare.com/redemptionales","categoryId":"50327c8591d4c4b30a586d5d","category":"Brewery","checkinsCount":612,"usersCount":479,"tipCount":9,"visitsCount":1009,"url":"http://www.redemptionalewerks.com","tier":2,"message":"Moderate","currency":"$","rating":8.6},{"name":"Downtown Olly's","phone":"3176365597","address":"822 N Illinois St","lat":39.7784635096575,"lng":-86.15963459014893,"neighborhood":"Downtown Indianapolis","city_fetched":"Marion,US","state":"IN","country":"United States","canonicalUrl":"https://foursquare.com/v/downtown-ollys/4b0ab5c9f964a520b62623e3","categoryId":"4bf58dd8d48988d1d8941735","category":"Gay Bar","checkinsCount":14827,"usersCount":2034,"tipCount":63,"visitsCount":16500,"tier":2,"message":"Moderate","currency":"$","rating":8.5},{"name":"Thr3e Wise Men Brewing Co.","phone":"3172555151","twitter":"brewhouse","address":"1021 Broad Ripple Ave","lat":39.8695722,"lng":-86.1408269,"neighborhood":"Broad Ripple","city_fetched":"Marion,US","state":"IN","country":"United States","canonicalUrl":"https://foursquare.com/v/thr3e-wise-men-brewing-co/4cd2d899a60d224b549331d1","categoryId":"50327c8591d4c4b30a586d5d","category":"Brewery","checkinsCount":16821,"usersCount":6404,"tipCount":92,"visitsCount":18045,"url":"http://www.scottysbrewhouse.com","tier":2,"message":"Moderate","currency":"$","rating":8.5},{"name":"Louie's Wine Dive","phone":"3179291644","twitter":"louieswinedive","address":"345 Massachusetts Ave","lat":39.77203383636837,"lng":-86.15308023234738,"neighborhood":"Downtown Indianapolis","city_fetched":"Marion,US","state":"IN","country":"United States","canonicalUrl":"https://foursquare.com/v/louies-wine-dive/5563aee9498ef35244198530","categoryId":"4bf58dd8d48988d123941735","category":"Wine Bar","checkinsCount":482,"usersCount":297,"tipCount":5,"visitsCount":522,"url":"http://louieswinedive.com","tier":"","message":"","currency":"","rating":8.5},{"name":"Union Jack Pub","phone":"3172574343","address":"924 Broad Ripple Ave","lat":39.869876827632446,"lng":-86.14200711250305,"neighborhood":"Broad Ripple","city_fetched":"Marion,US","state":"IN","country":"United States","canonicalUrl":"https://foursquare.com/v/union-jack-pub/4b3d3c1bf964a520c09025e3","categoryId":"4bf58dd8d48988d11b941735","category":"Pub","checkinsCount":6475,"usersCount":2956,"tipCount":53,"visitsCount":6759,"url":"http://unionjackpub-broadripple.com","tier":2,"message":"Moderate","currency":"$","rating":8.5},{"name":"Tastings - A Wine Experience","phone":"3174232400","twitter":"tastingsindy","address":"50 W Washington St","lat":39.76727363464625,"lng":-86.15954339504242,"neighborhood":"Downtown Indianapolis","city_fetched":"Marion,US","state":"IN","country":"United States","canonicalUrl":"https://foursquare.com/tastingsindy","categoryId":"4bf58dd8d48988d123941735","category":"Wine Bar","checkinsCount":4077,"usersCount":2416,"tipCount":46,"visitsCount":4097,"url":"http://www.awineexperience.com","tier":2,"message":"Moderate","currency":"$","rating":8.5},{"name":"Mass Ave Pub","phone":"3179740745","twitter":"massavepub","address":"745 Massachusetts Ave","lat":39.77706833021887,"lng":-86.14581973754753,"neighborhood":"Chatham Arch","city_fetched":"Marion,US","state":"IN","country":"United States","canonicalUrl":"https://foursquare.com/v/mass-ave-pub/4bd8c357e914a593156d54fa","categoryId":"4bf58dd8d48988d116941735","category":"Bar","checkinsCount":7142,"usersCount":2105,"tipCount":46,"visitsCount":7605,"url":"http://massavepub.com","tier":2,"message":"Moderate","currency":"$","rating":8.4},{"name":"Ralston's DraftHouse","phone":"3174931143","twitter":"ralstonsdraft","address":"635 Massachusetts Ave","lat":39.77579471704908,"lng":-86.14769335187441,"neighborhood":"Chatham Arch","city_fetched":"Marion,US","state":"IN","country":"United States","canonicalUrl":"https://foursquare.com/v/ralstons-drafthouse/5057b021e4b04bd69ed75e78","categoryId":"4bf58dd8d48988d11b941735","category":"Pub","checkinsCount":6123,"usersCount":3020,"tipCount":54,"visitsCount":7015,"url":"http://www.ralstonsdrafthouse.com","tier":2,"message":"Moderate","currency":"$","rating":8.4},{"name":"HopCat","phone":"3175654236","address":"6280 N College Ave","lat":39.869443492304676,"lng":-86.14616762867902,"neighborhood":"Broad Ripple","city_fetched":"Marion,US","state":"IN","country":"United States","canonicalUrl":"https://foursquare.com/v/hopcat/53ed3d00498eaae8948b30e6","categoryId":"4bf58dd8d48988d116941735","category":"Bar","checkinsCount":3487,"usersCount":2465,"tipCount":49,"visitsCount":5348,"url":"http://hopcat.com","tier":"","message":"","currency":"","rating":8.4},{"name":"TwoDEEP Brewing Co.","phone":"3176531884","twitter":"twodeepbrewing","address":"714 N Capitol Ave","lat":39.77725142976855,"lng":-86.16174817085266,"neighborhood":"Downtown Indianapolis","city_fetched":"Marion,US","state":"IN","country":"United States","canonicalUrl":"https://foursquare.com/v/twodeep-brewing-co/53d41f02498e2a83f39f52a0","categoryId":"50327c8591d4c4b30a586d5d","category":"Brewery","checkinsCount":614,"usersCount":591,"tipCount":5,"visitsCount":978,"url":"http://www.twodeepbrewing.com","tier":"","message":"","currency":"","rating":8.4},{"name":"Daredevil Brewing Co","twitter":"daredevilbeer","address":"1151 Main Street","lat":39.782630805496005,"lng":-86.2407656974303,"city_fetched":"Marion,US","state":"IN","country":"United States","canonicalUrl":"https://foursquare.com/v/daredevil-brewing-co/535aa0f5498efe844cc60b8d","categoryId":"50327c8591d4c4b30a586d5d","category":"Brewery","checkinsCount":485,"usersCount":386,"tipCount":5,"visitsCount":701,"url":"http://www.daredevilbeer.com","tier":"","message":"","currency":"","rating":8.4},{"name":"Scotty's Brewhouse","phone":"3175710808","twitter":"brewhouse","address":"1 Virginia Ave","lat":39.76609949939799,"lng":-86.1559371650219,"neighborhood":"Downtown Indianapolis","city_fetched":"Marion,US","state":"IN","country":"United States","canonicalUrl":"https://foursquare.com/v/scottys-brewhouse/4ad9e1c3f964a5208e1b21e3","categoryId":"4bf58dd8d48988d11d941735","category":"Sports Bar","checkinsCount":25600,"usersCount":10590,"tipCount":140,"visitsCount":26288,"url":"http://www.scottysbrewhouse.com","tier":2,"message":"Moderate","currency":"$","rating":8.4},{"name":"Fort Ben Pub","lat":39.856288552353746,"lng":-86.00970819810401,"city_fetched":"Marion,US","state":"IN","country":"United States","canonicalUrl":"https://foursquare.com/v/fort-ben-pub/523dfd3611d241f550da6e5b","categoryId":"4bf58dd8d48988d116941735","category":"Bar","checkinsCount":623,"usersCount":202,"tipCount":7,"visitsCount":928,"tier":2,"message":"Moderate","currency":"$","rating":8.3},{"name":"The Sinking Ship","phone":"3179207999","twitter":"sinkingshipindy","address":"4923 N College Ave","lat":39.84346389770508,"lng":-86.145392,"neighborhood":"Meridian Kessler","city_fetched":"Marion,US","state":"IN","country":"United States","canonicalUrl":"https://foursquare.com/v/the-sinking-ship/4d4f10a25fb0b1f7347f8191","categoryId":"4bf58dd8d48988d11b941735","category":"Pub","checkinsCount":12008,"usersCount":2877,"tipCount":92,"visitsCount":13895,"url":"http://www.sinkingshipindy.com","tier":2,"message":"Moderate","currency":"$","rating":8.3},{"name":"La Revolucion Cafe & Bar","phone":"3174239490","address":"1132 Prospect St","lat":39.75251218915367,"lng":-86.13876697786954,"neighborhood":"Fountain Square","city_fetched":"Marion,US","state":"IN","country":"United States","canonicalUrl":"https://foursquare.com/v/la-revolucion-cafe--bar/4df429bf22718759f82298c4","categoryId":"4bf58dd8d48988d116941735","category":"Bar","checkinsCount":4113,"usersCount":1797,"tipCount":59,"visitsCount":4410,"tier":2,"message":"Moderate","currency":"$","rating":8.3},{"name":"Rathskeller Biergarten","phone":"3176360396","address":"401 E Michigan St","lat":39.77335943710805,"lng":-86.1499571800232,"neighborhood":"Downtown Indianapolis","city_fetched":"Marion,US","state":"IN","country":"United States","canonicalUrl":"https://foursquare.com/v/rathskeller-biergarten/4bda090ac79cc928b2277de9","categoryId":"4bf58dd8d48988d117941735","category":"Beer Garden","checkinsCount":3314,"usersCount":2029,"tipCount":18,"visitsCount":3324,"url":"http://rathskeller.com","tier":"","message":"","currency":"","rating":8.3},{"name":"Radio Radio","phone":"3179550995","address":"1119 Prospect St","lat":39.7520608990667,"lng":-86.13915860652924,"neighborhood":"Fountain Square","city_fetched":"Marion,US","state":"IN","country":"United States","canonicalUrl":"https://foursquare.com/v/radio-radio/4ad4bff8f964a520fde920e3","categoryId":"4bf58dd8d48988d116941735","category":"Bar","checkinsCount":2840,"usersCount":1397,"tipCount":14,"visitsCount":2859,"url":"http://futureshock.net","tier":1,"message":"Cheap","currency":"$","rating":8.3},{"name":"Coaches Tavern","phone":"3179171191","twitter":"coachestavern","address":"28 S Pennsylvania St","lat":39.76616906056067,"lng":-86.1561461279613,"neighborhood":"Downtown Indianapolis","city_fetched":"Marion,US","state":"IN","country":"United States","canonicalUrl":"https://foursquare.com/coachestavern","categoryId":"4bf58dd8d48988d11d941735","category":"Sports Bar","checkinsCount":7981,"usersCount":1948,"tipCount":41,"visitsCount":8112,"url":"http://www.coachestavern.com","tier":2,"message":"Moderate","currency":"$","rating":8.3},{"name":"Books & Brews Brewing Company","phone":"3172885136","twitter":"booksbrews","address":"9402 Uptown Dr Ste 1400","lat":39.924126480825215,"lng":-86.03638054884603,"neighborhood":"Castleton","city_fetched":"Marion,US","state":"IN","country":"United States","canonicalUrl":"https://foursquare.com/booksbrews","categoryId":"50327c8591d4c4b30a586d5d","category":"Brewery","checkinsCount":782,"usersCount":504,"tipCount":15,"visitsCount":1165,"url":"http://www.booksnbrews.com","tier":"","message":"","currency":"","rating":8.3},{"name":"Libertine on Mass","lat":39.775752,"lng":-86.148296,"neighborhood":"Chatham Arch","city_fetched":"Marion,US","state":"IN","country":"United States","canonicalUrl":"https://foursquare.com/v/libertine-on-mass/54d2a0f7498e78c8c2192313","categoryId":"4bf58dd8d48988d116941735","category":"Bar","checkinsCount":425,"usersCount":297,"tipCount":3,"visitsCount":455,"tier":"","message":"","currency":"","rating":8.3},{"name":"Kilroy's Bar & Grill","phone":"3176389464","twitter":"kilroysindy","address":"201 S Meridian St","lat":39.764181049204616,"lng":-86.15800380706787,"neighborhood":"Downtown Indianapolis","city_fetched":"Marion,US","state":"IN","country":"United States","canonicalUrl":"https://foursquare.com/v/kilroys-bar--grill/4b17629bf964a52025c523e3","categoryId":"4bf58dd8d48988d11d941735","category":"Sports Bar","checkinsCount":25463,"usersCount":11212,"tipCount":133,"visitsCount":27286,"url":"http://www.kilroysindy.com","tier":2,"message":"Moderate","currency":"$","rating":8.3},{"name":"Greg's (Our Place)","phone":"3176388138","address":"231 E 16th St","lat":39.788315231285495,"lng":-86.15275723427199,"neighborhood":"Old Northside","city_fetched":"Marion,US","state":"IN","country":"United States","canonicalUrl":"https://foursquare.com/v/gregs-our-place/4b0e1963f964a520f75423e3","categoryId":"4bf58dd8d48988d1d8941735","category":"Gay Bar","checkinsCount":11651,"usersCount":1661,"tipCount":27,"visitsCount":12986,"url":"http://www.gregsindianapolis.com","tier":1,"message":"Cheap","currency":"$","rating":8.3},{"name":"The Grill","phone":"3178422087","twitter":"grillfallcreek","address":"9755 Fall Creek Rd","lat":39.89723863262372,"lng":-85.99562419454936,"city_fetched":"Marion,US","state":"IN","country":"United States","canonicalUrl":"https://foursquare.com/v/the-grill/4b5b9c8ff964a520e40a29e3","categoryId":"4bf58dd8d48988d116941735","category":"Bar","checkinsCount":969,"usersCount":511,"tipCount":12,"visitsCount":1264,"url":"http://www.thegrillatgeist.com","tier":2,"message":"Moderate","currency":"$","rating":8.3},{"name":"Repeal","phone":"3176727514","twitter":"repealdine","address":"636 Virginia Ave","lat":39.75814914156416,"lng":-86.14599865328175,"neighborhood":"Fletcher Place","city_fetched":"Marion,US","state":"IN","country":"United States","canonicalUrl":"https://foursquare.com/v/repeal/559f1827498ecf68f08ef678","categoryId":"4bf58dd8d48988d11e941735","category":"Cocktail Bar","checkinsCount":198,"usersCount":179,"tipCount":7,"visitsCount":230,"url":"http://www.repealrestaurant.com","tier":"","message":"","currency":"","rating":8.3},{"name":"Melody Inn","phone":"3179234707","address":"3826 N Illinois St","lat":39.82556141860407,"lng":-86.15947902202606,"neighborhood":"Butler - Tarkington","city_fetched":"Marion,US","state":"IN","country":"United States","canonicalUrl":"https://foursquare.com/v/melody-inn/4ad77854f964a520fb0a21e3","categoryId":"4bf58dd8d48988d116941735","category":"Bar","checkinsCount":3730,"usersCount":1295,"tipCount":29,"visitsCount":4146,"url":"http://www.melodyindy.com","tier":1,"message":"Cheap","currency":"$","rating":8.3},{"name":"The Tap","phone":"3178205880","twitter":"thetapmassave","address":"306 N. Delaware Street","lat":39.77120651429656,"lng":-86.15454612107307,"neighborhood":"Downtown Indianapolis","city_fetched":"Marion,US","state":"IN","country":"United States","canonicalUrl":"https://foursquare.com/v/the-tap/55fdc727498e62f1d9ab9633","categoryId":"4bf58dd8d48988d116941735","category":"Bar","checkinsCount":940,"usersCount":836,"tipCount":9,"visitsCount":1607,"url":"http://www.thetapmassave.com","tier":"","message":"","currency":"","rating":8.2},{"name":"Metazoa Brewing Company","phone":"3175220251","twitter":"metazoabrewing","address":"140 S College Ave","lat":39.76418929628385,"lng":-86.1459982395172,"neighborhood":"Downtown Indianapolis","city_fetched":"Marion,US","state":"IN","country":"United States","canonicalUrl":"https://foursquare.com/v/metazoa-brewing-company/55e71ab8498e42d80720e30a","categoryId":"50327c8591d4c4b30a586d5d","category":"Brewery","checkinsCount":266,"usersCount":289,"tipCount":2,"visitsCount":483,"tier":"","message":"","currency":"","rating":8.2},{"name":"Manley's Irish Mutt","phone":"3173510009","address":"7041 E 10th St","lat":39.78165179860514,"lng":-86.0437859861517,"neighborhood":"East Gate","city_fetched":"Marion,US","state":"IN","country":"United States","canonicalUrl":"https://foursquare.com/v/manleys-irish-mutt/4d28d075068e8cfaeb91c94c","categoryId":"4bf58dd8d48988d116941735","category":"Bar","checkinsCount":3400,"usersCount":688,"tipCount":13,"visitsCount":3747,"tier":"","message":"","currency":"","rating":8.2},{"name":"Rock Bottom Restaurant & Brewery","phone":"3176818180","twitter":"rockbottom","address":"10 W Washington St","lat":39.76713866912979,"lng":-86.15860069967036,"neighborhood":"Downtown Indianapolis","city_fetched":"Marion,US","state":"IN","country":"United States","canonicalUrl":"https://foursquare.com/v/rock-bottom-restaurant--brewery/4a974801f964a520382920e3","categoryId":"50327c8591d4c4b30a586d5d","category":"Brewery","checkinsCount":10267,"usersCount":7154,"tipCount":92,"visitsCount":10503,"url":"http://www.rockbottom.com/DisplayLocationRBR.php?F","tier":2,"message":"Moderate","currency":"$","rating":8.2},{"name":"New Day Craft Mead & Cider","phone":"8886323379","twitter":"newdaycraft","address":"1102 Prospect St","lat":39.75248569711372,"lng":-86.13958239555359,"neighborhood":"Fountain Square","city_fetched":"Marion,US","state":"IN","country":"United States","canonicalUrl":"https://foursquare.com/v/new-day-craft-mead--cider/4beda0ed6c5c9521d0e7068a","categoryId":"50327c8591d4c4b30a586d5d","category":"Brewery","checkinsCount":3410,"usersCount":1722,"tipCount":32,"visitsCount":3765,"url":"http://www.newdaycraft.com","tier":2,"message":"Moderate","currency":"$","rating":8.2},{"name":"The Brass Ring","phone":"3176357464","address":"1245 Shelby St","lat":39.75037666,"lng":-86.13965661,"neighborhood":"Fountain Square","city_fetched":"Marion,US","state":"IN","country":"United States","canonicalUrl":"https://foursquare.com/v/the-brass-ring/4ada0331f964a520361d21e3","categoryId":"4bf58dd8d48988d116941735","category":"Bar","checkinsCount":4145,"usersCount":1797,"tipCount":35,"visitsCount":4554,"url":"http://thebrassringlounge.com","tier":2,"message":"Moderate","currency":"$","rating":8.1},{"name":"Keystone Sports Review","phone":"3172519902","address":"5602 N Keystone Ave","lat":39.85531632,"lng":-86.12243142,"city_fetched":"Marion,US","state":"IN","country":"United States","canonicalUrl":"https://foursquare.com/v/keystone-sports-review/4bba39f7b35776b097aeca01","categoryId":"4bf58dd8d48988d11b941735","category":"Pub","checkinsCount":1396,"usersCount":667,"tipCount":19,"visitsCount":1696,"url":"http://keystonesportsreview.com","tier":1,"message":"Cheap","currency":"$","rating":8.1},{"name":"Thunderbird","phone":"3179749580","twitter":"thunderbirdindy","address":"1127 Shelby St","lat":39.751525,"lng":-86.139579,"neighborhood":"Fountain Square","city_fetched":"Marion,US","state":"IN","country":"United States","canonicalUrl":"https://foursquare.com/v/thunderbird/52a00826498ee805b3256475","categoryId":"4bf58dd8d48988d11e941735","category":"Cocktail Bar","checkinsCount":1312,"usersCount":902,"tipCount":24,"visitsCount":1600,"url":"http://thunderbirdindy.com","tier":3,"message":"Expensive","currency":"$","rating":8.1},{"name":"The Pawn Shop Pub","phone":"3172555430","address":"2222 E 54th St","lat":39.85179168833948,"lng":-86.12406313419342,"city_fetched":"Marion,US","state":"IN","country":"United States","canonicalUrl":"https://foursquare.com/v/the-pawn-shop-pub/4aee2c9cf964a520b4d221e3","categoryId":"4bf58dd8d48988d123941735","category":"Wine Bar","checkinsCount":4164,"usersCount":918,"tipCount":23,"visitsCount":4570,"tier":1,"message":"Cheap","currency":"$","rating":8.1},{"name":"Blind Owl Brewery","phone":"3179241000","twitter":"blindowlbrewery","address":"5014 E 62nd St","lat":39.870006862912966,"lng":-86.08457402210999,"neighborhood":"Eastwood","city_fetched":"Marion,US","state":"IN","country":"United States","canonicalUrl":"https://foursquare.com/v/blind-owl-brewery/559e9921498e4d1770ad7e3c","categoryId":"50327c8591d4c4b30a586d5d","category":"Brewery","checkinsCount":764,"usersCount":740,"tipCount":15,"visitsCount":1397,"url":"http://blindowlbrewery.com","tier":"","message":"","currency":"","rating":8.1},{"name":"Dorman Street Saloon","phone":"3172379008","address":"901 Dorman St","lat":39.77904305,"lng":-86.138843,"neighborhood":"Near Eastside","city_fetched":"Marion,US","state":"IN","country":"United States","canonicalUrl":"https://foursquare.com/v/dorman-street-saloon/4af4d7edf964a520d1f621e3","categoryId":"4bf58dd8d48988d116941735","category":"Bar","checkinsCount":3441,"usersCount":1167,"tipCount":25,"visitsCount":3999,"url":"http://www.dormanstreet.com‎","tier":2,"message":"Moderate","currency":"$","rating":8.1},{"name":"Howl at the Moon","phone":"3179550300","twitter":"_howlatthemoon","address":"20 E Georgia St","lat":39.764308808444106,"lng":-86.15741317866772,"neighborhood":"Downtown Indianapolis","city_fetched":"Marion,US","state":"IN","country":"United States","canonicalUrl":"https://foursquare.com/v/howl-at-the-moon/4aeccbeff964a52046cb21e3","categoryId":"4bf58dd8d48988d11f941735","category":"Nightclub","checkinsCount":14369,"usersCount":7788,"tipCount":69,"visitsCount":14805,"url":"http://www.howlatthemoon.com","tier":2,"message":"Moderate","currency":"$","rating":8.1},{"name":"GG's Bar and Grill","phone":"3175958900","address":"5701 E 71st St","lat":39.88285775362082,"lng":-86.0714212421104,"city_fetched":"Marion,US","state":"IN","country":"United States","canonicalUrl":"https://foursquare.com/v/ggs-bar-and-grill/545d7c41498e65bd941b15eb","categoryId":"4bf58dd8d48988d116941735","category":"Bar","checkinsCount":831,"usersCount":268,"tipCount":7,"visitsCount":870,"url":"http://ggsbarandgrill.com","tier":1,"message":"Cheap","currency":"$","rating":8},{"name":"Rock Bottom Restaurant & Brewery","phone":"3174718840","twitter":"rockbottom","address":"2801 Lake Circle Dr","lat":39.91265151523272,"lng":-86.20930910110474,"neighborhood":"College Park","city_fetched":"Marion,US","state":"IN","country":"United States","canonicalUrl":"https://foursquare.com/v/rock-bottom-restaurant--brewery/4ae78f09f964a52061ac21e3","categoryId":"50327c8591d4c4b30a586d5d","category":"Brewery","checkinsCount":6130,"usersCount":2860,"tipCount":53,"visitsCount":7204,"url":"http://rockbottom.com","tier":2,"message":"Moderate","currency":"$","rating":8},{"name":"Moe & Johnny's","phone":"3172556376","twitter":"moeandjohnnys","address":"5380 N College Ave","lat":39.85085852,"lng":-86.14604566666667,"neighborhood":"Meridian Kessler","city_fetched":"Marion,US","state":"IN","country":"United States","canonicalUrl":"https://foursquare.com/v/moe--johnnys/4adcff79f964a5204e6321e3","categoryId":"4bf58dd8d48988d11d941735","category":"Sports Bar","checkinsCount":10303,"usersCount":2813,"tipCount":55,"visitsCount":11312,"url":"http://www.moeandjohnnys.com","tier":1,"message":"Cheap","currency":"$","rating":8},{"name":"Koelschip","address":"2505 N Delaware St","lat":39.80322307935146,"lng":-86.15288146454219,"neighborhood":"Fall Creek Place","city_fetched":"Marion,US","state":"IN","country":"United States","canonicalUrl":"https://foursquare.com/v/koelschip/56a547af498e83d8fabc9914","categoryId":"4bf58dd8d48988d11b941735","category":"Pub","checkinsCount":171,"usersCount":87,"tipCount":5,"visitsCount":172,"tier":"","message":"","currency":"","rating":8},{"name":"Lockerbie Pub","phone":"3176319545","address":"631 E Michigan St","lat":39.77372334397242,"lng":-86.14585452676702,"neighborhood":"Downtown Indianapolis","city_fetched":"Marion,US","state":"IN","country":"United States","canonicalUrl":"https://foursquare.com/v/lockerbie-pub/4b0deb07f964a5209c5223e3","categoryId":"4bf58dd8d48988d11b941735","category":"Pub","checkinsCount":3651,"usersCount":1067,"tipCount":22,"visitsCount":3844,"tier":"","message":"","currency":"","rating":8},{"name":"Severin Bar & Grille","phone":"3176346664","twitter":"omnihotels","address":"40 Jackson Pl","lat":39.76375200546121,"lng":-86.15968882233193,"neighborhood":"Downtown Indianapolis","city_fetched":"Marion,US","state":"IN","country":"United States","canonicalUrl":"https://foursquare.com/v/severin-bar--grille/4b76ab5ef964a52074572ee3","categoryId":"4bf58dd8d48988d1d5941735","category":"Hotel Bar","checkinsCount":926,"usersCount":547,"tipCount":10,"visitsCount":935,"url":"http://omnihotels.com","tier":"","message":"","currency":"","rating":8},{"name":"Broad Ripple Brew Pub","phone":"3172532739","twitter":"brbrewpub","address":"842 E 65th St","lat":39.87350208529361,"lng":-86.14281286572519,"neighborhood":"Broad Ripple","city_fetched":"Marion,US","state":"IN","country":"United States","canonicalUrl":"https://foursquare.com/v/broad-ripple-brew-pub/4b16de74f964a520b2be23e3","categoryId":"50327c8591d4c4b30a586d5d","category":"Brewery","checkinsCount":7277,"usersCount":3414,"tipCount":65,"visitsCount":7854,"url":"http://www.broadripplebrewpub.com","tier":2,"message":"Moderate","currency":"$","rating":8},{"name":"O'Reilly Irish Bar","lat":39.63668687420443,"lng":-86.15782061575777,"city_fetched":"Marion,US","state":"IN","country":"United States","canonicalUrl":"https://foursquare.com/v/oreilly-irish-bar/56859506498e433ef351054e","categoryId":"4bf58dd8d48988d11b941735","category":"Pub","checkinsCount":180,"usersCount":118,"tipCount":3,"visitsCount":321,"tier":"","message":"","currency":"","rating":8},{"name":"IMS SnakePit","lat":39.79865994945439,"lng":-86.23411799029908,"city_fetched":"Marion,US","state":"IN","country":"United States","canonicalUrl":"https://foursquare.com/v/ims-snakepit/4dd6a73ad1647fcf3e370d90","categoryId":"4bf58dd8d48988d11e941735","category":"Cocktail Bar","checkinsCount":599,"usersCount":440,"tipCount":1,"visitsCount":615,"tier":"","message":"","currency":"","rating":8},{"name":"Schneider's Pub","address":"8017 S Meridian St","lat":39.65079170370129,"lng":-86.15727405306467,"city_fetched":"Marion,US","state":"IN","country":"United States","canonicalUrl":"https://foursquare.com/v/schneiders-pub/4c8978f82e3337048461bb41","categoryId":"4bf58dd8d48988d11b941735","category":"Pub","checkinsCount":685,"usersCount":173,"tipCount":3,"visitsCount":719,"tier":"","message":"","currency":"","rating":8},{"name":"Ike & Jonesy's","phone":"3176324553","twitter":"ikeandjonesys","address":"17 Jackson Pl","lat":39.76364374825342,"lng":-86.15894353533476,"neighborhood":"Downtown Indianapolis","city_fetched":"Marion,US","state":"IN","country":"United States","canonicalUrl":"https://foursquare.com/ikeandjonesys","categoryId":"4bf58dd8d48988d11f941735","category":"Nightclub","checkinsCount":3879,"usersCount":2277,"tipCount":23,"visitsCount":4017,"url":"http://ikeandjonesys.com","tier":1,"message":"Cheap","currency":"$","rating":7.9},{"name":"Ricks Cabaret","phone":"3172970429","address":"3551 Lafayette Rd","lat":39.82005830675659,"lng":-86.23029268438852,"neighborhood":"Eagledale","city_fetched":"Marion,US","state":"IN","country":"United States","canonicalUrl":"https://foursquare.com/v/ricks-cabaret/4dd3075752b1f20e6806ff92","categoryId":"4bf58dd8d48988d1d6941735","category":"Strip Club","checkinsCount":1094,"usersCount":225,"tipCount":4,"visitsCount":1275,"url":"http://www.ricksindy.com‎ ","tier":"","message":"","currency":"","rating":7.9},{"name":"Triton Tap","phone":"3172575604","twitter":"tritonbrewing","address":"915 Broad Ripple Ave","lat":39.8695474505932,"lng":-86.1423397064209,"neighborhood":"Broad Ripple","city_fetched":"Marion,US","state":"IN","country":"United States","canonicalUrl":"https://foursquare.com/v/triton-tap/5155940de4b08bfe22686be2","categoryId":"4bf58dd8d48988d11b941735","category":"Pub","checkinsCount":1187,"usersCount":620,"tipCount":11,"visitsCount":1202,"url":"http://tritonbrewing.com/tap-room/triton-tap-in-broad-ripple/","tier":2,"message":"Moderate","currency":"$","rating":7.9},{"name":"The Egyptian Cafe & Hookah Bar","phone":"3172554400","address":"6265 Carrollton Ave","lat":39.86934158914056,"lng":-86.14454984664917,"neighborhood":"Broad Ripple","city_fetched":"Marion,US","state":"IN","country":"United States","canonicalUrl":"https://foursquare.com/v/the-egyptian-cafe--hookah-bar/4b0c7b07f964a5200d3e23e3","categoryId":"4bf58dd8d48988d119941735","category":"Hookah Bar","checkinsCount":4839,"usersCount":1790,"tipCount":64,"visitsCount":4904,"url":"http://www.theegyptianindy.com","tier":"","message":"","currency":"","rating":7.9},{"name":"Elbow Room Pub","phone":"3176353354","twitter":"elbowroompub","address":"605 N Pennsylvania St","lat":39.77575523,"lng":-86.15577881,"neighborhood":"St. Joseph Historic Neighborhood","city_fetched":"Marion,US","state":"IN","country":"United States","canonicalUrl":"https://foursquare.com/v/elbow-room-pub/4ad8b6d5f964a520eb1321e3","categoryId":"4bf58dd8d48988d11b941735","category":"Pub","checkinsCount":6040,"usersCount":2505,"tipCount":45,"visitsCount":6741,"url":"http://www.elbowroompub.com","tier":2,"message":"Moderate","currency":"$","rating":7.8},{"name":"Chilly Water Brewing Company","phone":"3179640518","twitter":"chillywaterbrew","address":"719 Virginia Ave Ste 105","lat":39.75727694394007,"lng":-86.1451686777949,"neighborhood":"Fletcher Place","city_fetched":"Marion,US","state":"IN","country":"United States","canonicalUrl":"https://foursquare.com/v/chilly-water-brewing-company/53a8a7df498ecad91b05584e","categoryId":"50327c8591d4c4b30a586d5d","category":"Brewery","checkinsCount":1556,"usersCount":1027,"tipCount":12,"visitsCount":2281,"url":"http://www.chillywaterbrewing.com","tier":"","message":"","currency":"","rating":7.8},{"name":"George's Neighborhood Grill","phone":"3175771600","twitter":"georges_grill","address":"6935 Lake Plaza Dr","lat":39.88147655914229,"lng":-86.06763851167021,"city_fetched":"Marion,US","state":"IN","country":"United States","canonicalUrl":"https://foursquare.com/v/georges-neighborhood-grill/4afdf6acf964a5207c2c22e3","categoryId":"4bf58dd8d48988d116941735","category":"Bar","checkinsCount":3890,"usersCount":1723,"tipCount":43,"visitsCount":4214,"url":"http://www.georgesneighborhoodgrill.com","tier":2,"message":"Moderate","currency":"$","rating":7.8},{"name":"The Wellington","phone":"3172555159","address":"6331 Guilford Ave","lat":39.87050629106446,"lng":-86.14278304462482,"neighborhood":"Broad Ripple","city_fetched":"Marion,US","state":"IN","country":"United States","canonicalUrl":"https://foursquare.com/v/the-wellington/4add0caef964a520be6321e3","categoryId":"4bf58dd8d48988d11b941735","category":"Pub","checkinsCount":2712,"usersCount":1030,"tipCount":24,"visitsCount":2742,"tier":2,"message":"Moderate","currency":"$","rating":7.8},{"name":"Dancers Showclub","phone":"3172441989","twitter":"dancersshowclub","address":"8013 W Washington St","lat":39.736208278036834,"lng":-86.303464311719,"city_fetched":"Marion,US","state":"IN","country":"United States","canonicalUrl":"https://foursquare.com/v/dancers-showclub/4b8f26cff964a520534b33e3","categoryId":"4bf58dd8d48988d1d6941735","category":"Strip Club","checkinsCount":540,"usersCount":373,"tipCount":4,"visitsCount":674,"url":"http://www.dancersshowclub.com","tier":"","message":"","currency":"","rating":7.8},{"name":"Nicky Blaine's Cocktail Lounge","phone":"3176385588","twitter":"nickyblaines","address":"20 N Meridian St","lat":39.767948815730854,"lng":-86.15807402011639,"neighborhood":"Downtown Indianapolis","city_fetched":"Marion,US","state":"IN","country":"United States","canonicalUrl":"https://foursquare.com/v/nicky-blaines-cocktail-lounge/4adce7e1f964a520686221e3","categoryId":"4bf58dd8d48988d11f941735","category":"Nightclub","checkinsCount":4421,"usersCount":2260,"tipCount":53,"visitsCount":4447,"url":"http://nickyblaines.com","tier":2,"message":"Moderate","currency":"$","rating":7.7},{"name":"Old Point Tavern","phone":"3176348943","address":"401 Massachusetts Ave","lat":39.77272272339838,"lng":-86.15204166204576,"neighborhood":"Downtown Indianapolis","city_fetched":"Marion,US","state":"IN","country":"United States","canonicalUrl":"https://foursquare.com/v/old-point-tavern/4b1b2d3af964a52039f923e3","categoryId":"4bf58dd8d48988d116941735","category":"Bar","checkinsCount":6445,"usersCount":2878,"tipCount":57,"visitsCount":6566,"tier":2,"message":"Moderate","currency":"$","rating":7.7},{"name":"Sangrita Saloon","lat":39.872651,"lng":-86.143119,"neighborhood":"Broad Ripple","city_fetched":"Marion,US","state":"IN","country":"United States","canonicalUrl":"https://foursquare.com/v/sangrita-saloon/55690075498e7a84d0b6268d","categoryId":"4bf58dd8d48988d11e941735","category":"Cocktail Bar","checkinsCount":113,"usersCount":91,"tipCount":2,"visitsCount":133,"tier":"","message":"","currency":"","rating":7.7},{"name":"The Night Porter","phone":"3172535252","address":"921 Broad Ripple Ave","lat":39.869570704361564,"lng":-86.14225123208641,"neighborhood":"Broad Ripple","city_fetched":"Marion,US","state":"IN","country":"United States","canonicalUrl":"https://foursquare.com/v/the-night-porter/503bf0d1e4b0451d7e343da9","categoryId":"4bf58dd8d48988d116941735","category":"Bar","checkinsCount":902,"usersCount":385,"tipCount":14,"visitsCount":902,"tier":"","message":"","currency":"","rating":7.7},{"name":"Revel Nightclub & Lounge","phone":"3172004836","twitter":"revel317","address":"225 S Meridian St","lat":39.763665935053695,"lng":-86.15803923920029,"neighborhood":"Downtown Indianapolis","city_fetched":"Marion,US","state":"IN","country":"United States","canonicalUrl":"https://foursquare.com/v/revel-nightclub--lounge/53d1b1ca498e902ed0077394","categoryId":"4bf58dd8d48988d11f941735","category":"Nightclub","checkinsCount":187,"usersCount":137,"tipCount":2,"visitsCount":193,"url":"http://revelnightlife.com","tier":"","message":"","currency":"","rating":7.7},{"name":"Plump's Last Shot","phone":"3172575867","address":"6416 Cornell Ave","lat":39.87311784714371,"lng":-86.14262399846302,"neighborhood":"Broad Ripple","city_fetched":"Marion,US","state":"IN","country":"United States","canonicalUrl":"https://foursquare.com/v/plumps-last-shot/4b5a7773f964a520dec628e3","categoryId":"4bf58dd8d48988d116941735","category":"Bar","checkinsCount":2658,"usersCount":1208,"tipCount":19,"visitsCount":2687,"tier":1,"message":"Cheap","currency":"$","rating":7.7},{"name":"Billy O'Neals","address":"869-919 Chapelwood Blvd","lat":39.777965832560135,"lng":-86.29292494562137,"neighborhood":"Chapel Hill Village","city_fetched":"Marion,US","state":"IN","country":"United States","canonicalUrl":"https://foursquare.com/v/billy-oneals/4b96ea9ef964a52096ed34e3","categoryId":"4bf58dd8d48988d11b941735","category":"Pub","checkinsCount":471,"usersCount":199,"tipCount":8,"visitsCount":517,"tier":"","message":"","currency":"","rating":7.7},{"name":"Joe's Grille on 82nd","phone":"3178455146","address":"6645 E 82nd St","lat":39.90478182440485,"lng":-86.05286121368408,"neighborhood":"Castleton","city_fetched":"Marion,US","state":"IN","country":"United States","canonicalUrl":"https://foursquare.com/v/joes-grille-on-82nd/4b4ce351f964a52009c326e3","categoryId":"4bf58dd8d48988d116941735","category":"Bar","checkinsCount":2007,"usersCount":550,"tipCount":7,"visitsCount":2113,"tier":"","message":"","currency":"","rating":7.6},{"name":"The Sawmill","address":"1313 N Sherman Dr","lat":39.78517798301257,"lng":-86.10187204922418,"neighborhood":"Near Eastside","city_fetched":"Marion,US","state":"IN","country":"United States","canonicalUrl":"https://foursquare.com/v/the-sawmill/4ca7ebcef47ea143610e7021","categoryId":"4bf58dd8d48988d116941735","category":"Bar","checkinsCount":169,"usersCount":112,"tipCount":3,"visitsCount":238,"tier":"","message":"","currency":"","rating":7.6},{"name":"Lava Lounge","address":"6308 Guilford Ave","lat":39.870060262257745,"lng":-86.14311107577403,"neighborhood":"Broad Ripple","city_fetched":"Marion,US","state":"IN","country":"United States","canonicalUrl":"https://foursquare.com/v/lava-lounge/4f2b4923e4b03d6f91fc670a","categoryId":"4bf58dd8d48988d119941735","category":"Hookah Bar","checkinsCount":2702,"usersCount":981,"tipCount":47,"visitsCount":2766,"url":"http://lavaindy.com","tier":2,"message":"Moderate","currency":"$","rating":7.6},{"name":"Metro Nightclub & Restaurant","phone":"3176396022","twitter":"metroindy","address":"707 Massachusetts Ave","lat":39.776535277846314,"lng":-86.1466397628633,"neighborhood":"Chatham Arch","city_fetched":"Marion,US","state":"IN","country":"United States","canonicalUrl":"https://foursquare.com/v/metro-nightclub--restaurant/4ad8b86df964a520fd1321e3","categoryId":"4bf58dd8d48988d1d8941735","category":"Gay Bar","checkinsCount":10830,"usersCount":2191,"tipCount":39,"visitsCount":11203,"url":"http://www.metro-indy.com‎ ","tier":1,"message":"Cheap","currency":"$","rating":7.6},{"name":"Granite City Food & Brewery","phone":"3172187185","address":"150 W 96th St","lat":39.92727953636944,"lng":-86.16014957427979,"city_fetched":"Marion,US","state":"IN","country":"United States","canonicalUrl":"https://foursquare.com/v/granite-city-food--brewery/4b8c3669f964a52067c432e3","categoryId":"50327c8591d4c4b30a586d5d","category":"Brewery","checkinsCount":7598,"usersCount":4100,"tipCount":74,"visitsCount":9117,"url":"http://www.gcfb.net/locations_in_carmel","tier":2,"message":"Moderate","currency":"$","rating":7.6},{"name":"Kilroy's Bar N' Grill","phone":"3172577849","twitter":"kilroysindy","address":"831 Broad Ripple Ave","lat":39.86956210132732,"lng":-86.14362299897648,"neighborhood":"Broad Ripple","city_fetched":"Marion,US","state":"IN","country":"United States","canonicalUrl":"https://foursquare.com/v/kilroys-bar-n-grill/4fa8abe07beba7c9958a0c2a","categoryId":"4bf58dd8d48988d11d941735","category":"Sports Bar","checkinsCount":13607,"usersCount":4666,"tipCount":60,"visitsCount":14679,"url":"http://www.kilroysindy.com/index.aspx","tier":1,"message":"Cheap","currency":"$","rating":7.6},{"name":"Red Key Tavern","phone":"3172834601","address":"5170 N College Ave","lat":39.846982,"lng":-86.146005,"neighborhood":"Meridian Kessler","city_fetched":"Marion,US","state":"IN","country":"United States","canonicalUrl":"https://foursquare.com/v/red-key-tavern/4ad78c3ef964a5200c0c21e3","categoryId":"4bf58dd8d48988d11b941735","category":"Pub","checkinsCount":1888,"usersCount":592,"tipCount":23,"visitsCount":1925,"tier":"","message":"","currency":"","rating":7.6},{"name":"Tini","address":"717 Massachusetts Ave","lat":39.776577188665065,"lng":-86.14654036655465,"neighborhood":"Chatham Arch","city_fetched":"Marion,US","state":"IN","country":"United States","canonicalUrl":"https://foursquare.com/v/tini/4ee2c7bad3e34ebcee422f3a","categoryId":"4bf58dd8d48988d116941735","category":"Bar","checkinsCount":4837,"usersCount":1176,"tipCount":21,"visitsCount":4986,"url":"http://tiniontheave.com","tier":2,"message":"Moderate","currency":"$","rating":7.6},{"name":"HandleBar Indy","address":"Its A Bike!","lat":39.76212447764745,"lng":-86.15489892192184,"neighborhood":"Downtown Indianapolis","city_fetched":"Marion,US","state":"IN","country":"United States","canonicalUrl":"https://foursquare.com/v/handlebar-indy/51869273498e6ba53d04d7bf","categoryId":"4bf58dd8d48988d116941735","category":"Bar","checkinsCount":181,"usersCount":156,"tipCount":4,"visitsCount":184,"tier":"","message":"","currency":"","rating":7.6},{"name":"Plat 99","phone":"3176248220","address":"333 S Delaware St","lat":39.761705,"lng":-86.154327,"neighborhood":"Downtown Indianapolis","city_fetched":"Marion,US","state":"IN","country":"United States","canonicalUrl":"https://foursquare.com/v/plat-99/50f87fcae4b02f78640121a4","categoryId":"4bf58dd8d48988d11e941735","category":"Cocktail Bar","checkinsCount":1565,"usersCount":803,"tipCount":16,"visitsCount":1578,"url":"http://thealexander.com/dining/lounge.asp","tier":"","message":"","currency":"","rating":7.6},{"name":"Recovery Room","phone":"3176343001","address":"1868 Lafayette Rd","lat":39.79162377,"lng":-86.202308,"neighborhood":"Eagledale","city_fetched":"Marion,US","state":"IN","country":"United States","canonicalUrl":"https://foursquare.com/v/recovery-room/4c4b9a4cbad7a593e6ab0cac","categoryId":"4bf58dd8d48988d116941735","category":"Bar","checkinsCount":98,"usersCount":61,"tipCount":5,"visitsCount":134,"tier":"","message":"","currency":"","rating":7.5},{"name":"Upland Brewing Company Tasting Room","phone":"3176023931","twitter":"uplandindy","address":"4842 N College Ave","lat":39.842664954689326,"lng":-86.14585876464844,"neighborhood":"Meridian Kessler","city_fetched":"Marion,US","state":"IN","country":"United States","canonicalUrl":"https://foursquare.com/v/upland-brewing-company-tasting-room/4af8961df964a520790e22e3","categoryId":"50327c8591d4c4b30a586d5d","category":"Brewery","checkinsCount":3284,"usersCount":1361,"tipCount":33,"visitsCount":3552,"url":"http://uplandbeer.com","tier":1,"message":"Cheap","currency":"$","rating":7.5},{"name":"Miller Lite Party Deck @IMS","lat":39.800553,"lng":-86.236817,"city_fetched":"Marion,US","state":"IN","country":"United States","canonicalUrl":"https://foursquare.com/v/miller-lite-party-deck-ims/4bf992dc5ec320a1ed7c8ad3","categoryId":"4bf58dd8d48988d11d941735","category":"Sports Bar","checkinsCount":201,"usersCount":121,"tipCount":2,"visitsCount":204,"url":"http://www.indianapolismotorspeedway.com","tier":"","message":"","currency":"","rating":7.5},{"name":"Mikie's Pub","address":"Emerson Ave","lat":39.691513843176615,"lng":-86.08111073286872,"neighborhood":"I65-South Emerson","city_fetched":"Marion,US","state":"IN","country":"United States","canonicalUrl":"https://foursquare.com/v/mikies-pub/52967ef2498e1161162ef430","categoryId":"4bf58dd8d48988d116941735","category":"Bar","checkinsCount":442,"usersCount":187,"tipCount":3,"visitsCount":796,"tier":"","message":"","currency":"","rating":7.5},{"name":"Gas Light Inn","address":"2280 S Meridian St","lat":39.73490554,"lng":-86.15914056,"neighborhood":"Garfield Park","city_fetched":"Marion,US","state":"IN","country":"United States","canonicalUrl":"https://foursquare.com/v/gas-light-inn/4b9c074df964a520814236e3","categoryId":"4bf58dd8d48988d116941735","category":"Bar","checkinsCount":416,"usersCount":206,"tipCount":4,"visitsCount":543,"tier":"","message":"","currency":"","rating":7.5},{"name":"The Dugout","phone":"3179161514","address":"621 Virginia Ave","lat":39.75827421,"lng":-86.14646717,"neighborhood":"Fletcher Place","city_fetched":"Marion,US","state":"IN","country":"United States","canonicalUrl":"https://foursquare.com/v/the-dugout/4b36d2cff964a5200c3d25e3","categoryId":"4bf58dd8d48988d118941735","category":"Dive Bar","checkinsCount":1112,"usersCount":470,"tipCount":7,"visitsCount":1273,"url":"http://tomsdugout.ewbz.net","tier":1,"message":"Cheap","currency":"$","rating":7.5},{"name":"Golden Ace","address":"2533 E Washington St","lat":39.768022,"lng":-86.118777,"neighborhood":"Near Southeast","city_fetched":"Marion,US","state":"IN","country":"United States","canonicalUrl":"https://foursquare.com/v/golden-ace/4adcc367f964a5208c2f21e3","categoryId":"4bf58dd8d48988d11b941735","category":"Pub","checkinsCount":445,"usersCount":277,"tipCount":3,"visitsCount":496,"tier":"","message":"","currency":"","rating":7.5},{"name":"The Vogue Theater","phone":"3172597029","twitter":"thevogue","address":"6259 N College Ave","lat":39.86916866504292,"lng":-86.1459231376648,"neighborhood":"Broad Ripple","city_fetched":"Marion,US","state":"IN","country":"United States","canonicalUrl":"https://foursquare.com/v/the-vogue-theater/4afe1b71f964a520f22d22e3","categoryId":"4bf58dd8d48988d11f941735","category":"Nightclub","checkinsCount":11511,"usersCount":4572,"tipCount":56,"visitsCount":11726,"url":"http://www.thevogue.com","tier":2,"message":"Moderate","currency":"$","rating":7.5},{"name":"Daddy Jack's","phone":"3178431609","address":"9419 N Meridian St","lat":39.92489990134985,"lng":-86.15650388663347,"neighborhood":"Nora - Far Northside","city_fetched":"Marion,US","state":"IN","country":"United States","canonicalUrl":"https://foursquare.com/v/daddy-jacks/4aef9ebef964a5209ed921e3","categoryId":"4bf58dd8d48988d116941735","category":"Bar","checkinsCount":1893,"usersCount":1002,"tipCount":23,"visitsCount":1921,"url":"http://www.konajacksindy.com","tier":3,"message":"Expensive","currency":"$","rating":7.4},{"name":"Ash & Elm Cider Co","address":"2104 E Washington St","lat":39.76787407179997,"lng":-86.1251408224379,"neighborhood":"Near Eastside","city_fetched":"Marion,US","state":"IN","country":"United States","canonicalUrl":"https://foursquare.com/v/ash--elm-cider-co/57758351498e9c00b00923e5","categoryId":"50327c8591d4c4b30a586d5d","category":"Brewery","checkinsCount":29,"usersCount":27,"tipCount":1,"visitsCount":37,"tier":"","message":"","currency":"","rating":7.4},{"name":"Ram Restaurant & Brewery","phone":"3179559900","twitter":"theram","address":"140 S Illinois St","lat":39.76486039904524,"lng":-86.16014689207077,"neighborhood":"Downtown Indianapolis","city_fetched":"Marion,US","state":"IN","country":"United States","canonicalUrl":"https://foursquare.com/v/ram-restaurant--brewery/4ada3fe0f964a520832021e3","categoryId":"50327c8591d4c4b30a586d5d","category":"Brewery","checkinsCount":9350,"usersCount":6317,"tipCount":92,"visitsCount":9476,"url":"http://theram.com","tier":2,"message":"Moderate","currency":"$","rating":7.4},{"name":"Visions Sports Pub","address":"7411 Heathrow Way","lat":39.678914098482096,"lng":-86.29213700640476,"neighborhood":"Ameriplex","city_fetched":"Marion,US","state":"IN","country":"United States","canonicalUrl":"https://foursquare.com/v/visions-sports-pub/4d9ba2f86432530cb0d85ae3","categoryId":"4bf58dd8d48988d11d941735","category":"Sports Bar","checkinsCount":331,"usersCount":123,"tipCount":5,"visitsCount":331,"tier":"","message":"","currency":"","rating":7.4},{"name":"Rockhouse Cafe","address":"3940 S Keystone Ave","lat":39.709477569468866,"lng":-86.12057641918739,"neighborhood":"University Heights","city_fetched":"Marion,US","state":"IN","country":"United States","canonicalUrl":"https://foursquare.com/v/rockhouse-cafe/4c5e0683d25320a1e7dbc77a","categoryId":"4bf58dd8d48988d121941735","category":"Lounge","checkinsCount":438,"usersCount":307,"tipCount":7,"visitsCount":448,"tier":"","message":"","currency":"","rating":7.4},{"name":"8 Seconds Saloon","phone":"3174861569","address":"111 N Lynhurst Dr","lat":39.76765528863284,"lng":-86.249247703197,"city_fetched":"Marion,US","state":"IN","country":"United States","canonicalUrl":"https://foursquare.com/v/8-seconds-saloon/4b2251a6f964a520854524e3","categoryId":"4bf58dd8d48988d11f941735","category":"Nightclub","checkinsCount":3093,"usersCount":1761,"tipCount":20,"visitsCount":3573,"url":"http://8secondssaloon.net","tier":2,"message":"Moderate","currency":"$","rating":7.4},{"name":"Connor's Pub","phone":"3172555039","address":"6331 Ferguson St","lat":39.8715689772379,"lng":-86.1437076330185,"neighborhood":"Broad Ripple","city_fetched":"Marion,US","state":"IN","country":"United States","canonicalUrl":"https://foursquare.com/v/connors-pub/4b107954f964a520417123e3","categoryId":"4bf58dd8d48988d116941735","category":"Bar","checkinsCount":3802,"usersCount":1244,"tipCount":20,"visitsCount":4184,"tier":1,"message":"Cheap","currency":"$","rating":7.4},{"name":"JW Marriott Executive Lounge","phone":"3178605800","twitter":"jwmarriottindy","address":"10 S West St","lat":39.766617804290945,"lng":-86.16758322917242,"neighborhood":"Downtown Indianapolis","city_fetched":"Marion,US","state":"IN","country":"United States","canonicalUrl":"https://foursquare.com/v/jw-marriott-executive-lounge/4d4d4affa7f86ea8edef34de","categoryId":"4bf58dd8d48988d121941735","category":"Lounge","checkinsCount":1247,"usersCount":372,"tipCount":6,"visitsCount":1247,"url":"http://www.jwindy.com","tier":"","message":"","currency":"","rating":7.4},{"name":"The Hookah House","phone":"3176241700","address":"937 S East St","lat":39.75429994551138,"lng":-86.14937308574952,"neighborhood":"Fletcher Place","city_fetched":"Marion,US","state":"IN","country":"United States","canonicalUrl":"https://foursquare.com/v/the-hookah-house/4e4f28efd164978659c73295","categoryId":"4bf58dd8d48988d119941735","category":"Hookah Bar","checkinsCount":759,"usersCount":231,"tipCount":13,"visitsCount":764,"url":"http://indyhookahhouse.com","tier":"","message":"","currency":"","rating":7.4},{"name":"Tiki Bob's","phone":"3173848622","address":"231 S Meridian St","lat":39.76353784282296,"lng":-86.1584069219743,"neighborhood":"Downtown Indianapolis","city_fetched":"Marion,US","state":"IN","country":"United States","canonicalUrl":"https://foursquare.com/v/tiki-bobs/4be5ffbdcf200f476413143c","categoryId":"4bf58dd8d48988d11f941735","category":"Nightclub","checkinsCount":345,"usersCount":240,"tipCount":3,"visitsCount":352,"url":"http://www.tikibobsindy.com","tier":"","message":"","currency":"","rating":7.4},{"name":"501 Eagle","phone":"3176322100","address":"501 N College Ave","lat":39.773946,"lng":-86.145258,"neighborhood":"Downtown Indianapolis","city_fetched":"Marion,US","state":"IN","country":"United States","canonicalUrl":"https://foursquare.com/v/501-eagle/4b300dcef964a52039f524e3","categoryId":"4bf58dd8d48988d1d8941735","category":"Gay Bar","checkinsCount":4933,"usersCount":961,"tipCount":21,"visitsCount":5731,"url":"http://501eagle.com","tier":1,"message":"Cheap","currency":"$","rating":7.4},{"name":"Monkey's Tale","phone":"3172532883","address":"925 E Westfield Blvd","lat":39.87052655479613,"lng":-86.14226117255832,"neighborhood":"Broad Ripple","city_fetched":"Marion,US","state":"IN","country":"United States","canonicalUrl":"https://foursquare.com/v/monkeys-tale/4ad90cfff964a5208c1721e3","categoryId":"4bf58dd8d48988d120941735","category":"Karaoke Bar","checkinsCount":5113,"usersCount":1395,"tipCount":15,"visitsCount":5177,"url":"http://www.myspace.com/monkeystale","tier":1,"message":"Cheap","currency":"$","rating":7.4},{"name":"86th Street Pub","phone":"3178721019","twitter":"86thstpub","address":"3661 W. 86th St.","lat":39.911137,"lng":-86.22494786666667,"city_fetched":"Marion,US","state":"IN","country":"United States","canonicalUrl":"https://foursquare.com/v/86th-street-pub/4b402209f964a52002b625e3","categoryId":"4bf58dd8d48988d116941735","category":"Bar","checkinsCount":3999,"usersCount":820,"tipCount":27,"visitsCount":4517,"url":"http://86thstpub.com","tier":2,"message":"Moderate","currency":"$","rating":7.4},{"name":"Skyline Club","phone":"3172635000","address":"1 American Square","lat":39.770523524339794,"lng":-86.1603446659085,"neighborhood":"Downtown Indianapolis","city_fetched":"Marion,US","state":"IN","country":"United States","canonicalUrl":"https://foursquare.com/v/skyline-club/4b08280df964a520fa0423e3","categoryId":"4bf58dd8d48988d121941735","category":"Lounge","checkinsCount":2261,"usersCount":1158,"tipCount":14,"visitsCount":2304,"url":"http://www.clubcorp.com/Clubs/Skyline-Club-Indianapolis/Amenities/Dining","tier":"","message":"","currency":"","rating":7.4},{"name":"Main Event","phone":"3172984771","twitter":"maineventindy","address":"7038 Shore Ter","lat":39.830340291900484,"lng":-86.28426611423492,"neighborhood":"Eagle Creek","city_fetched":"Marion,US","state":"IN","country":"United States","canonicalUrl":"https://foursquare.com/maineventindy","categoryId":"4bf58dd8d48988d116941735","category":"Bar","checkinsCount":1592,"usersCount":503,"tipCount":15,"visitsCount":1927,"url":"http://www.maineventindy.com","tier":"","message":"","currency":"","rating":7.3},{"name":"That Place Bar & Grill","phone":"3178887100","twitter":"thatplacebar","address":"8810 S Emerson Ave","lat":39.63951282797496,"lng":-86.0839122334139,"city_fetched":"Marion,US","state":"IN","country":"United States","canonicalUrl":"https://foursquare.com/thatplacebar","categoryId":"4bf58dd8d48988d116941735","category":"Bar","checkinsCount":2856,"usersCount":1173,"tipCount":22,"visitsCount":3290,"url":"http://www.thatplacebarandgrill.com","tier":2,"message":"Moderate","currency":"$","rating":7.3},{"name":"Alley Cat Lounge","phone":"3172574036","twitter":"alleycatlounge","address":"6267 Carrollton Ave","lat":39.8694160352739,"lng":-86.14421199166539,"neighborhood":"Broad Ripple","city_fetched":"Marion,US","state":"IN","country":"United States","canonicalUrl":"https://foursquare.com/v/alley-cat-lounge/4ad9d164f964a5200b1b21e3","categoryId":"4bf58dd8d48988d118941735","category":"Dive Bar","checkinsCount":6730,"usersCount":2175,"tipCount":53,"visitsCount":6876,"tier":1,"message":"Cheap","currency":"$","rating":7.3},{"name":"Wild Beaver Saloon","phone":"3174233080","twitter":"wildbeaver","address":"20 E Maryland St","lat":39.765501,"lng":-86.157451,"neighborhood":"Downtown Indianapolis","city_fetched":"Marion,US","state":"IN","country":"United States","canonicalUrl":"https://foursquare.com/v/wild-beaver-saloon/4b1450dff964a5200ea123e3","categoryId":"4bf58dd8d48988d116941735","category":"Bar","checkinsCount":3227,"usersCount":1825,"tipCount":16,"visitsCount":3261,"url":"http://www.wildbeaversaloon.com","tier":"","message":"","currency":"","rating":7.3},{"name":"Alley Cat Front Room","lat":39.86954039450089,"lng":-86.1445822199404,"neighborhood":"Broad Ripple","city_fetched":"Marion,US","state":"IN","country":"United States","canonicalUrl":"https://foursquare.com/v/alley-cat-front-room/54f00069498eac22e344cdd5","categoryId":"4bf58dd8d48988d116941735","category":"Bar","checkinsCount":96,"usersCount":50,"tipCount":2,"visitsCount":97,"tier":"","message":"","currency":"","rating":7.3},{"name":"The Famous Grand","address":"5462 Massachusetts Ave","lat":39.81531637,"lng":-86.07445929,"city_fetched":"Marion,US","state":"IN","country":"United States","canonicalUrl":"https://foursquare.com/v/the-famous-grand/4e3b3edf483b04e17a794735","categoryId":"4bf58dd8d48988d11f941735","category":"Nightclub","checkinsCount":345,"usersCount":91,"tipCount":5,"visitsCount":438,"tier":"","message":"","currency":"","rating":7.3},{"name":"Claddagh Irish Pub","phone":"3178226274","twitter":"claddagh_indy","address":"234 S Meridian St","lat":39.76354155413158,"lng":-86.15838207862686,"neighborhood":"Downtown Indianapolis","city_fetched":"Marion,US","state":"IN","country":"United States","canonicalUrl":"https://foursquare.com/v/claddagh-irish-pub/4ad4bff8f964a520ffe920e3","categoryId":"4bf58dd8d48988d116941735","category":"Bar","checkinsCount":6313,"usersCount":4342,"tipCount":51,"visitsCount":6471,"url":"http://www.claddaghirishpubs.com","tier":2,"message":"Moderate","currency":"$","rating":7.2},{"name":"Tilted Kilt Indianapolis","phone":"3176003633","twitter":"tiltedkiltindy","address":"141 S Meridian St","lat":39.764348817972156,"lng":-86.15794483373743,"neighborhood":"Downtown Indianapolis","city_fetched":"Marion,US","state":"IN","country":"United States","canonicalUrl":"https://foursquare.com/v/tilted-kilt-indianapolis/4e1cbb47d1649b0f792a8019","categoryId":"4bf58dd8d48988d11b941735","category":"Pub","checkinsCount":7332,"usersCount":4474,"tipCount":59,"visitsCount":7398,"url":"http://www.tiltedkilt.com","tier":2,"message":"Moderate","currency":"$","rating":7.2},{"name":"O'Gara's Irish Pub","phone":"3177847474","address":"522 Main St","lat":39.72186,"lng":-86.08819,"city_fetched":"Marion,US","state":"IN","country":"United States","canonicalUrl":"https://foursquare.com/v/ogaras-irish-pub/4d4395a24e5d3704597ae193","categoryId":"4bf58dd8d48988d116941735","category":"Bar","checkinsCount":677,"usersCount":209,"tipCount":3,"visitsCount":726,"tier":"","message":"","currency":"","rating":7.2},{"name":"Tow Yard Brewing","phone":"3176389273","twitter":"towyardbrewing","address":"501 Madison Ave","lat":39.76013429516695,"lng":-86.15757217889373,"neighborhood":"Downtown Indianapolis","city_fetched":"Marion,US","state":"IN","country":"United States","canonicalUrl":"https://foursquare.com/v/tow-yard-brewing/5307b70e498e5f237ea60ebd","categoryId":"50327c8591d4c4b30a586d5d","category":"Brewery","checkinsCount":2028,"usersCount":1805,"tipCount":19,"visitsCount":3142,"url":"http://www.towyardbrewing.com","tier":2,"message":"Moderate","currency":"$","rating":7.2},{"name":"6 Lounge & Restaurant","phone":"3176386660","twitter":"6_lounge","address":"247 S Meridian St","lat":39.763200313417975,"lng":-86.15798955213629,"neighborhood":"Downtown Indianapolis","city_fetched":"Marion,US","state":"IN","country":"United States","canonicalUrl":"https://foursquare.com/v/6-lounge--restaurant/4adc92d4f964a5206d2d21e3","categoryId":"4bf58dd8d48988d121941735","category":"Lounge","checkinsCount":746,"usersCount":384,"tipCount":10,"visitsCount":752,"url":"http://www.6indy.com","tier":"","message":"","currency":"","rating":7.2},{"name":"Bubbaz Northeast Side","address":"7506 N Shadeland Ave","lat":39.89153666,"lng":-86.046571,"city_fetched":"Marion,US","state":"IN","country":"United States","canonicalUrl":"https://foursquare.com/v/bubbaz-northeast-side/4c12e2d0b7b9c9281eb1a837","categoryId":"4bf58dd8d48988d118941735","category":"Dive Bar","checkinsCount":538,"usersCount":214,"tipCount":7,"visitsCount":550,"tier":"","message":"","currency":"","rating":7.2},{"name":"Corner Wine Bar","phone":"3172555159","address":"6331 Guilford Ave","lat":39.87052734263877,"lng":-86.14268839359283,"neighborhood":"Broad Ripple","city_fetched":"Marion,US","state":"IN","country":"United States","canonicalUrl":"https://foursquare.com/v/corner-wine-bar/4b14586cf964a52090a123e3","categoryId":"4bf58dd8d48988d123941735","category":"Wine Bar","checkinsCount":1525,"usersCount":783,"tipCount":17,"visitsCount":1537,"url":"http://cornerwinebar.com","tier":"","message":"","currency":"","rating":7.2},{"name":"Zonie's Closet","phone":"3172660535","address":"1446 E Washington St","lat":39.76729885914877,"lng":-86.13336367862442,"neighborhood":"Near Eastside","city_fetched":"Marion,US","state":"IN","country":"United States","canonicalUrl":"https://foursquare.com/v/zonies-closet/4b737b1ff964a5208fb02de3","categoryId":"4bf58dd8d48988d1d8941735","category":"Gay Bar","checkinsCount":2701,"usersCount":742,"tipCount":18,"visitsCount":3029,"url":"http://www.zoniesclosets.com","tier":1,"message":"Cheap","currency":"$","rating":7.1},{"name":"Brick House Dueling Piano","lat":39.86944691356291,"lng":-86.14298185163267,"neighborhood":"Broad Ripple","city_fetched":"Marion,US","state":"IN","country":"United States","canonicalUrl":"https://foursquare.com/v/brick-house-dueling-piano/5441b88f498e4f1be830a328","categoryId":"4bf58dd8d48988d11a941735","category":"Other Nightlife","checkinsCount":207,"usersCount":116,"tipCount":1,"visitsCount":210,"tier":"","message":"","currency":"","rating":7.1},{"name":"The Party","lat":39.66162035744603,"lng":-86.12621971244917,"city_fetched":"Marion,US","state":"Indiana","country":"United States","canonicalUrl":"https://foursquare.com/v/the-party/4d7178e27e95224b7969366f","categoryId":"4bf58dd8d48988d116941735","category":"Bar","checkinsCount":230,"usersCount":89,"tipCount":1,"visitsCount":251,"tier":"","message":"","currency":"","rating":7.1},{"name":"The Colonial Inn","address":"4343 Madison Ave","lat":39.70231533050537,"lng":-86.139568,"city_fetched":"Marion,US","state":"IN","country":"United States","canonicalUrl":"https://foursquare.com/v/the-colonial-inn/4b8f0d45f964a520954633e3","categoryId":"4bf58dd8d48988d116941735","category":"Bar","checkinsCount":420,"usersCount":295,"tipCount":6,"visitsCount":554,"tier":"","message":"","currency":"","rating":7.1},{"name":"Tin Roof","phone":"3179512220","twitter":"indytinroof","address":"36 S Pennsylvania St","lat":39.765674430833485,"lng":-86.15633494534997,"neighborhood":"Downtown Indianapolis","city_fetched":"Marion,US","state":"IN","country":"United States","canonicalUrl":"https://foursquare.com/v/tin-roof/4fa16190e4b0b74f3581021f","categoryId":"4bf58dd8d48988d116941735","category":"Bar","checkinsCount":5786,"usersCount":2922,"tipCount":32,"visitsCount":5998,"url":"http://tinroofbars.com","tier":2,"message":"Moderate","currency":"$","rating":7},{"name":"O'Reilly's Irish Bar and Restaurant","phone":"3179740674","twitter":"oreillysbar","address":"36 S Pennsylvania St","lat":39.76607919641571,"lng":-86.15624550562113,"neighborhood":"Downtown Indianapolis","city_fetched":"Marion,US","state":"IN","country":"United States","canonicalUrl":"https://foursquare.com/v/oreillys-irish-bar-and-restaurant/4b8d9b62f964a520e70333e3","categoryId":"4bf58dd8d48988d11b941735","category":"Pub","checkinsCount":6362,"usersCount":2348,"tipCount":30,"visitsCount":6385,"url":"http://oreillysirishbar.com","tier":2,"message":"Moderate","currency":"$","rating":7},{"name":"Tilly's Pub","phone":"3175760022","address":"3948 E 82nd St","lat":39.908990068046684,"lng":-86.09881285629444,"neighborhood":"Castleton","city_fetched":"Marion,US","state":"IN","country":"United States","canonicalUrl":"https://foursquare.com/v/tillys-pub/4b7f26ebf964a5208f1a30e3","categoryId":"4bf58dd8d48988d11b941735","category":"Pub","checkinsCount":829,"usersCount":339,"tipCount":6,"visitsCount":843,"url":"http://www.tillyspub.com","tier":"","message":"","currency":"","rating":7},{"name":"Bert & Den's Grille & Chill","address":"Southern Plaza","lat":39.70309273910418,"lng":-86.15023280987442,"city_fetched":"Marion,US","state":"IN","country":"United States","canonicalUrl":"https://foursquare.com/v/bert--dens-grille--chill/4bf749c25efe2d7f70d96834","categoryId":"4bf58dd8d48988d11d941735","category":"Sports Bar","checkinsCount":489,"usersCount":212,"tipCount":7,"visitsCount":524,"tier":"","message":"","currency":"","rating":7},{"name":"Checkered Flag Tavern","phone":"3172476209","twitter":"chflagtavern","address":"5725 W Morris St","lat":39.75011229515076,"lng":-86.25827550888062,"city_fetched":"Marion,US","state":"IN","country":"United States","canonicalUrl":"https://foursquare.com/v/checkered-flag-tavern/4d520329c305b60c7038961e","categoryId":"4bf58dd8d48988d116941735","category":"Bar","checkinsCount":222,"usersCount":147,"tipCount":3,"visitsCount":289,"tier":"","message":"","currency":"","rating":7},{"name":"Free Spirit Lounge","phone":"3178420200","twitter":"whitepages","address":"8110 N Shadeland Ave","lat":39.90273673607568,"lng":-86.04637041799374,"city_fetched":"Marion,US","state":"IN","country":"United States","canonicalUrl":"https://foursquare.com/v/free-spirit-lounge/4b71ae13f964a520ab552de3","categoryId":"4bf58dd8d48988d116941735","category":"Bar","checkinsCount":503,"usersCount":224,"tipCount":9,"visitsCount":537,"tier":"","message":"","currency":"","rating":7},{"name":"outliers brewing company","twitter":"outliersbrewing","address":"534 E North St","lat":39.775233585609676,"lng":-86.1473603803316,"neighborhood":"Chatham Arch","city_fetched":"Marion,US","state":"IN","country":"United States","canonicalUrl":"https://foursquare.com/v/outliers-brewing-company/52d9a4da498e599e10f05eea","categoryId":"50327c8591d4c4b30a586d5d","category":"Brewery","checkinsCount":175,"usersCount":168,"tipCount":4,"visitsCount":206,"url":"http://outliersbrewing.com","tier":"","message":"","currency":"","rating":7},{"name":"JW Marriott Lobby Lounge","phone":"3178605800","address":"10 S West St","lat":39.76642822258091,"lng":-86.16748884132369,"neighborhood":"Downtown Indianapolis","city_fetched":"Marion,US","state":"IN","country":"United States","canonicalUrl":"https://foursquare.com/v/jw-marriott-lobby-lounge/4d19fd44f3cda0908c4044aa","categoryId":"4bf58dd8d48988d1d5941735","category":"Hotel Bar","checkinsCount":3852,"usersCount":1831,"tipCount":10,"visitsCount":3863,"url":"http://www.jwindy.com/indianapolis-restaurants/lobby-lounge/","tier":2,"message":"Moderate","currency":"$","rating":7},{"name":"Bugsy's Sports Grill","phone":"3177551784","twitter":"bugsysgrill","address":"7802 Brookville Rd","lat":39.75121914293538,"lng":-86.0301545782994,"neighborhood":"Raymond Park","city_fetched":"Marion,US","state":"IN","country":"United States","canonicalUrl":"https://foursquare.com/v/bugsys-sports-grill/4c14ec8882a3c9b66cebfdf8","categoryId":"4bf58dd8d48988d116941735","category":"Bar","checkinsCount":1083,"usersCount":544,"tipCount":10,"visitsCount":1196,"url":"http://www.bugsysportsgrill.com","tier":"","message":"","currency":"","rating":7},{"name":"Big Woods Speedway","phone":"3177573250","twitter":"bigwoodsbrewing","address":"1002 Main St","lat":39.7802463,"lng":-86.2412924,"city_fetched":"Marion,US","state":"IN","country":"United States","canonicalUrl":"https://foursquare.com/v/big-woods-speedway/571885a3cd10a651ba0789bf","categoryId":"4bf58dd8d48988d117941735","category":"Beer Garden","checkinsCount":338,"usersCount":463,"tipCount":8,"visitsCount":632,"url":"http://quaffon.com/big-woods-speedway/","tier":"","message":"","currency":"","rating":7},{"name":"PT's Showclub","phone":"3175455777","twitter":"ptsshowclubindy","address":"7916 Pendleton Pike","lat":39.83554320559505,"lng":-86.0294223548622,"city_fetched":"Marion,US","state":"IN","country":"United States","canonicalUrl":"https://foursquare.com/v/pts-showclub/4b764cd1f964a52053472ee3","categoryId":"4bf58dd8d48988d1d6941735","category":"Strip Club","checkinsCount":1724,"usersCount":723,"tipCount":15,"visitsCount":1977,"url":"http://www.ptsshowclub.com","tier":"","message":"","currency":"","rating":7},{"name":"Brad's Brass Flamingo","lat":39.750562440464385,"lng":-86.09485304518734,"neighborhood":"Near Southeast","city_fetched":"Marion,US","state":"IN","country":"United States","canonicalUrl":"https://foursquare.com/v/brads-brass-flamingo/4b7de731f964a520ffd82fe3","categoryId":"4bf58dd8d48988d1d6941735","category":"Strip Club","checkinsCount":685,"usersCount":708,"tipCount":12,"visitsCount":1239,"tier":"","message":"","currency":"","rating":7},{"name":"Tantrum Lounge","address":"8215 Center Run Drm","lat":39.90670285,"lng":-86.05696499347687,"neighborhood":"Castleton","city_fetched":"Marion,US","state":"IN","country":"United States","canonicalUrl":"https://foursquare.com/v/tantrum-lounge/4ca5bf7b14c337044588b83b","categoryId":"4bf58dd8d48988d121941735","category":"Lounge","checkinsCount":325,"usersCount":181,"tipCount":7,"visitsCount":329,"tier":"","message":"","currency":"","rating":7},{"name":"Taylor's Pub II","phone":"3178158615","twitter":"taylorspubindy","address":"1546 E 86th St","lat":39.913151441519695,"lng":-86.13389611244202,"neighborhood":"Nora - Far Northside","city_fetched":"Marion,US","state":"IN","country":"United States","canonicalUrl":"https://foursquare.com/v/taylors-pub-ii/4ade4df9f964a520d57421e3","categoryId":"4bf58dd8d48988d11b941735","category":"Pub","checkinsCount":1881,"usersCount":502,"tipCount":8,"visitsCount":2035,"url":"http://www.taylorspubindy.com","tier":1,"message":"Cheap","currency":"$","rating":7},{"name":"Saddle Up","lat":39.90709786558389,"lng":-86.0581904273877,"neighborhood":"Castleton","city_fetched":"Marion,US","state":"IN","country":"United States","canonicalUrl":"https://foursquare.com/v/saddle-up/5047da42e4b0ddb8f05f9161","categoryId":"4bf58dd8d48988d116941735","category":"Bar","checkinsCount":2469,"usersCount":1246,"tipCount":19,"visitsCount":2984,"tier":2,"message":"Moderate","currency":"$","rating":6.9},{"name":"Memories Bar & Grill","twitter":"memoriesindy","address":"7820 Michigan Rd","lat":39.89616420495045,"lng":-86.21591668829495,"city_fetched":"Marion,US","state":"IN","country":"United States","canonicalUrl":"https://foursquare.com/v/memories-bar--grill/4ccba93197d0224b2bff5ab8","categoryId":"4bf58dd8d48988d11f941735","category":"Nightclub","checkinsCount":441,"usersCount":174,"tipCount":1,"visitsCount":461,"tier":"","message":"","currency":"","rating":6.9},{"name":"The Pub Indianapolis","phone":"3178229730","address":"30 E Georgia St","lat":39.76422213202505,"lng":-86.15673245336457,"neighborhood":"Downtown Indianapolis","city_fetched":"Marion,US","state":"IN","country":"United States","canonicalUrl":"https://foursquare.com/v/the-pub-indianapolis/4b088d32f964a520330e23e3","categoryId":"4bf58dd8d48988d11b941735","category":"Pub","checkinsCount":8647,"usersCount":2172,"tipCount":39,"visitsCount":8834,"url":"http://www.pubindianapolisbar.com","tier":2,"message":"Moderate","currency":"$","rating":6.9},{"name":"Nite Owls Saloon","phone":"3172226117","lat":39.71537439394629,"lng":-86.08224030827381,"city_fetched":"Marion,US","state":"IN","country":"United States","canonicalUrl":"https://foursquare.com/v/nite-owls-saloon/5196efeb498e01d9f428be70","categoryId":"4bf58dd8d48988d116941735","category":"Bar","checkinsCount":324,"usersCount":83,"tipCount":5,"visitsCount":354,"url":"http://www.niteowlsbg.com","tier":"","message":"","currency":"","rating":6.9},{"name":"Bud's Tavern","phone":"3179262837","address":"3015 Lafayette Rd","lat":39.810173493132126,"lng":-86.22105321097793,"neighborhood":"Eagledale","city_fetched":"Marion,US","state":"IN","country":"United States","canonicalUrl":"https://foursquare.com/v/buds-tavern/4bd489e9637ba59347e1f470","categoryId":"4bf58dd8d48988d116941735","category":"Bar","checkinsCount":767,"usersCount":302,"tipCount":7,"visitsCount":921,"tier":"","message":"","currency":"","rating":6.9},{"name":"Sully's Bar & Grill","phone":"3172478124","address":"1229 S Girls School Rd","lat":39.7489236780702,"lng":-86.28844988263191,"neighborhood":"Chapel Hill - Ben Davis","city_fetched":"Marion,US","state":"IN","country":"United States","canonicalUrl":"https://foursquare.com/v/sullys-bar--grill/4fc5176be4b08300189c2468","categoryId":"4bf58dd8d48988d116941735","category":"Bar","checkinsCount":448,"usersCount":250,"tipCount":2,"visitsCount":727,"url":"http://sullysbar-grill.com","tier":"","message":"","currency":"","rating":6.9},{"name":"Bent Rail Brewery & Pub","twitter":"bentrailbrewery","address":"5301 Winthrop Ave","lat":39.84925717741246,"lng":-86.1415404833455,"neighborhood":"Meridian Kessler","city_fetched":"Marion,US","state":"IN","country":"United States","canonicalUrl":"https://foursquare.com/v/bent-rail-brewery--pub/54bd83bc498e68ed343d95ba","categoryId":"50327c8591d4c4b30a586d5d","category":"Brewery","checkinsCount":486,"usersCount":407,"tipCount":6,"visitsCount":762,"tier":"","message":"","currency":"","rating":6.9},{"name":"High Velocity","phone":"3178606500","address":"10 S West St","lat":39.766127332510905,"lng":-86.1674451828003,"neighborhood":"Downtown Indianapolis","city_fetched":"Marion,US","state":"IN","country":"United States","canonicalUrl":"https://foursquare.com/v/high-velocity/4bdfa1006198c9b64a0218ff","categoryId":"4bf58dd8d48988d11d941735","category":"Sports Bar","checkinsCount":8080,"usersCount":3772,"tipCount":48,"visitsCount":8138,"url":"http://www.highvelocityindy.com","tier":2,"message":"Moderate","currency":"$","rating":6.8},{"name":"Twist Lounge","phone":"3174661853","lat":39.851394730379226,"lng":-86.13890118320381,"neighborhood":"Canterbury","city_fetched":"Marion,US","state":"IN","country":"United States","canonicalUrl":"https://foursquare.com/v/twist-lounge/517077a7e4b0e32c21b55d0f","categoryId":"4bf58dd8d48988d121941735","category":"Lounge","checkinsCount":394,"usersCount":200,"tipCount":3,"visitsCount":407,"tier":"","message":"","currency":"","rating":6.8},{"name":"McQ's Pub & Eatery","phone":"3177811666","address":"3149 E Thompson Rd","lat":39.692625237453264,"lng":-86.10980987548828,"neighborhood":"Edgewood","city_fetched":"Marion,US","state":"IN","country":"United States","canonicalUrl":"https://foursquare.com/v/mcqs-pub--eatery/4bd7b4fc885595218d3688a7","categoryId":"4bf58dd8d48988d11b941735","category":"Pub","checkinsCount":1084,"usersCount":339,"tipCount":9,"visitsCount":1192,"tier":"","message":"","currency":"","rating":6.8},{"name":"Whiskey Business","phone":"3178235078","address":"11915 Pendleton Pike","lat":39.87192716413695,"lng":-85.95507860183716,"city_fetched":"Marion,US","state":"IN","country":"United States","canonicalUrl":"https://foursquare.com/v/whiskey-business/4b872043f964a52014b231e3","categoryId":"4bf58dd8d48988d11d941735","category":"Sports Bar","checkinsCount":3112,"usersCount":612,"tipCount":23,"visitsCount":3301,"tier":2,"message":"Moderate","currency":"$","rating":6.8},{"name":"Stacked Pickle","phone":"3174263600","twitter":"stacked_pickle","address":"910 W 10th St","lat":39.781088275249,"lng":-86.17525786837798,"neighborhood":"Downtown Indianapolis","city_fetched":"Marion,US","state":"IN","country":"United States","canonicalUrl":"https://foursquare.com/v/stacked-pickle/5032ce18e4b002cea0ab935e","categoryId":"4bf58dd8d48988d11d941735","category":"Sports Bar","checkinsCount":2084,"usersCount":1134,"tipCount":22,"visitsCount":2733,"url":"http://stackedpickle.com","tier":2,"message":"Moderate","currency":"$","rating":6.8},{"name":"Kip's Pub","address":"9546 Allisonville Rd","lat":39.92589034900296,"lng":-86.06883806547371,"neighborhood":"Castleton","city_fetched":"Marion,US","state":"IN","country":"United States","canonicalUrl":"https://foursquare.com/v/kips-pub/4b42c0acf964a5209dd925e3","categoryId":"4bf58dd8d48988d116941735","category":"Bar","checkinsCount":1451,"usersCount":638,"tipCount":13,"visitsCount":1577,"tier":"","message":"","currency":"","rating":6.8},{"name":"Imbibe","phone":"3176851959","twitter":"fountainsqindy","address":"1105 Shelby St","lat":39.75207551329826,"lng":-86.13998475413781,"neighborhood":"Fountain Square","city_fetched":"Marion,US","state":"IN","country":"United States","canonicalUrl":"https://foursquare.com/v/imbibe/4af4eedaf964a52088f721e3","categoryId":"4bf58dd8d48988d116941735","category":"Bar","checkinsCount":824,"usersCount":387,"tipCount":7,"visitsCount":834,"tier":"","message":"","currency":"","rating":6.7},{"name":"Average Joe's","phone":"3172535844","twitter":"averagejoesindy","address":"814 Broad Ripple Ave","lat":39.86986035881806,"lng":-86.14417970180511,"neighborhood":"Broad Ripple","city_fetched":"Marion,US","state":"IN","country":"United States","canonicalUrl":"https://foursquare.com/v/average-joes/4aecdc5ff964a520d4cb21e3","categoryId":"4bf58dd8d48988d116941735","category":"Bar","checkinsCount":9732,"usersCount":2241,"tipCount":29,"visitsCount":9821,"url":"http://www.averagejoes.ws","tier":2,"message":"Moderate","currency":"$","rating":6.7},{"name":"Usual Suspects","phone":"3172513138","twitter":"usualsuspectsla","address":"6319 Guilford Ave","lat":39.870277,"lng":-86.142771,"neighborhood":"Broad Ripple","city_fetched":"Marion,US","state":"IN","country":"United States","canonicalUrl":"https://foursquare.com/v/usual-suspects/4b315844f964a520280525e3","categoryId":"4bf58dd8d48988d116941735","category":"Bar","checkinsCount":3531,"usersCount":1445,"tipCount":22,"visitsCount":3545,"url":"http://usualsuspectsindy.com","tier":2,"message":"Moderate","currency":"$","rating":6.7},{"name":"Trader's Mill Grill & Bar","phone":"3173341226","address":"5650 W 86th St Ste 100","lat":39.912221534560956,"lng":-86.2620735168457,"neighborhood":"Park 100","city_fetched":"Marion,US","state":"IN","country":"United States","canonicalUrl":"https://foursquare.com/v/traders-mill-grill--bar/4b719b1ff964a520a2502de3","categoryId":"4bf58dd8d48988d116941735","category":"Bar","checkinsCount":2676,"usersCount":1250,"tipCount":23,"visitsCount":2871,"url":"http://tradersmill.com","tier":2,"message":"Moderate","currency":"$","rating":6.7},{"name":"Indianapolis Colts Grille","phone":"3176312007","address":"110 W Washington St","lat":39.76702729868026,"lng":-86.1606328369424,"neighborhood":"Downtown Indianapolis","city_fetched":"Marion,US","state":"IN","country":"United States","canonicalUrl":"https://foursquare.com/v/indianapolis-colts-grille/4e457fc3483b03d090d34d36","categoryId":"4bf58dd8d48988d11d941735","category":"Sports Bar","checkinsCount":7381,"usersCount":4532,"tipCount":67,"visitsCount":7554,"url":"http://coltsgrille.g3restaurants.com","tier":2,"message":"Moderate","currency":"$","rating":6.7},{"name":"Bishop's Stadium Tavern","phone":"3176362359","address":"802 S West St","lat":39.756618769717775,"lng":-86.16763787468939,"neighborhood":"Downtown Indianapolis","city_fetched":"Marion,US","state":"IN","country":"United States","canonicalUrl":"https://foursquare.com/v/bishops-stadium-tavern/4b4fb196f964a5203f1127e3","categoryId":"4bf58dd8d48988d11b941735","category":"Pub","checkinsCount":727,"usersCount":208,"tipCount":3,"visitsCount":761,"tier":"","message":"","currency":"","rating":6.7},{"name":"Granite City Food & Brewery","phone":"3178032025","twitter":"gcfb","address":"49 W Maryland St","lat":39.766658844166784,"lng":-86.15983787842852,"city_fetched":"Marion,US","state":"IN","country":"United States","canonicalUrl":"https://foursquare.com/v/granite-city-food--brewery/51e6a251498e917607918291","categoryId":"50327c8591d4c4b30a586d5d","category":"Brewery","checkinsCount":1830,"usersCount":1441,"tipCount":29,"visitsCount":1920,"url":"http://gcfb.net","tier":2,"message":"Moderate","currency":"$","rating":6.7},{"name":"Hilltop Tavern","phone":"3173538165","address":"6500 E 10th St","lat":39.78175,"lng":-86.05716,"city_fetched":"Marion,US","state":"IN","country":"United States","canonicalUrl":"https://foursquare.com/v/hilltop-tavern/4b97fab5f964a520c52335e3","categoryId":"4bf58dd8d48988d11b941735","category":"Pub","checkinsCount":480,"usersCount":122,"tipCount":1,"visitsCount":597,"tier":"","message":"","currency":"","rating":6.6},{"name":"10th street pub","lat":39.78308934694908,"lng":-85.98905433705585,"neighborhood":"Far Eastside","city_fetched":"Marion,US","state":"IN","country":"United States","canonicalUrl":"https://foursquare.com/v/10th-street-pub/4b86bb48f964a5206e9931e3","categoryId":"4bf58dd8d48988d11b941735","category":"Pub","checkinsCount":854,"usersCount":208,"tipCount":8,"visitsCount":906,"tier":1,"message":"Cheap","currency":"$","rating":6.6},{"name":"A - 1 Liquors","phone":"3172557038","address":"1721 E 52nd St","lat":39.8473190814839,"lng":-86.13085180521011,"city_fetched":"Marion,US","state":"IN","country":"United States","canonicalUrl":"https://foursquare.com/v/a--1-liquors/4b11aad8f964a520d18123e3","categoryId":"4bf58dd8d48988d123941735","category":"Wine Bar","checkinsCount":609,"usersCount":291,"tipCount":4,"visitsCount":870,"tier":"","message":"","currency":"","rating":6.6},{"name":"Upland Oktoberfest","address":"Military Park","lat":39.76988576028299,"lng":-86.16844761505054,"neighborhood":"Downtown Indianapolis","city_fetched":"Marion,US","state":"IN","country":"United States","canonicalUrl":"https://foursquare.com/v/upland-oktoberfest/505e0799e4b0b4345fe252c9","categoryId":"4bf58dd8d48988d117941735","category":"Beer Garden","checkinsCount":223,"usersCount":212,"tipCount":3,"visitsCount":225,"tier":"","message":"","currency":"","rating":6.6},{"name":"BLU","phone":"3179558585","twitter":"blu_indy","address":"240 S Meridian St","lat":39.76329650188468,"lng":-86.15843673397531,"neighborhood":"Downtown Indianapolis","city_fetched":"Marion,US","state":"IN","country":"United States","canonicalUrl":"https://foursquare.com/v/blu/4af30486f964a520d6e921e3","categoryId":"4bf58dd8d48988d121941735","category":"Lounge","checkinsCount":3130,"usersCount":1414,"tipCount":18,"visitsCount":3171,"url":"http://bluindy.com","tier":3,"message":"Expensive","currency":"$","rating":6.5},{"name":"Robby's Pub","phone":"3178651997","address":"1345 W Southport Rd","lat":39.66314629811911,"lng":-86.18346333503723,"neighborhood":"Glenn's Valley","city_fetched":"Marion,US","state":"IN","country":"United States","canonicalUrl":"https://foursquare.com/v/robbys-pub/4c1ebf92b306c928a99367b7","categoryId":"4bf58dd8d48988d11b941735","category":"Pub","checkinsCount":1741,"usersCount":472,"tipCount":19,"visitsCount":1774,"tier":"","message":"","currency":"","rating":6.5},{"name":"J. Clyde's Pub","phone":"3173518860","address":"1008 N Bosart Ave","lat":39.781831,"lng":-86.090683,"neighborhood":"Little Flower","city_fetched":"Marion,US","state":"IN","country":"United States","canonicalUrl":"https://foursquare.com/v/j-clydes-pub/4b0df942f964a520605323e3","categoryId":"4bf58dd8d48988d11b941735","category":"Pub","checkinsCount":906,"usersCount":236,"tipCount":6,"visitsCount":921,"tier":"","message":"","currency":"","rating":6.5},{"name":"Rookies Sports Pub","phone":"3172718122","address":"8336 W 10th St","lat":39.779297774746865,"lng":-86.3090031642712,"neighborhood":"Chapel Hill - Ben Davis","city_fetched":"Marion,US","state":"IN","country":"United States","canonicalUrl":"https://foursquare.com/v/rookies-sports-pub/4c6831955fae20a128d648a6","categoryId":"4bf58dd8d48988d11d941735","category":"Sports Bar","checkinsCount":2019,"usersCount":480,"tipCount":7,"visitsCount":2301,"tier":"","message":"","currency":"","rating":6.5},{"name":"Mucky Duck","phone":"3178873825","address":"4425 Southport Crossings Dr","lat":39.663145064490216,"lng":-86.09290287537789,"city_fetched":"Marion,US","state":"IN","country":"United States","canonicalUrl":"https://foursquare.com/v/mucky-duck/4b6503bef964a52088df2ae3","categoryId":"4bf58dd8d48988d11b941735","category":"Pub","checkinsCount":3657,"usersCount":1778,"tipCount":24,"visitsCount":4207,"url":"http://muckyduckindy.com","tier":2,"message":"Moderate","currency":"$","rating":6.5},{"name":"The Yard Line","phone":"3172887720","twitter":"the_yard_line","address":"6466 E 82nd St","lat":39.90643441082922,"lng":-86.05576092460865,"neighborhood":"Castleton","city_fetched":"Marion,US","state":"IN","country":"United States","canonicalUrl":"https://foursquare.com/v/the-yard-line/528263e4498ea7e355e4b69f","categoryId":"4bf58dd8d48988d11d941735","category":"Sports Bar","checkinsCount":551,"usersCount":186,"tipCount":5,"visitsCount":645,"tier":"","message":"","currency":"","rating":6.5},{"name":"Village Tap Room","phone":"3174661555","twitter":"villagetaproom","address":"838 Broad Ripple Ave","lat":39.86982330397118,"lng":-86.14361643791199,"neighborhood":"Broad Ripple","city_fetched":"Marion,US","state":"IN","country":"United States","canonicalUrl":"https://foursquare.com/v/village-tap-room/5627b865498e35f0623447b3","categoryId":"56aa371ce4b08b9a8d57356c","category":"Beer Bar","checkinsCount":100,"usersCount":83,"tipCount":3,"visitsCount":100,"tier":"","message":"","currency":"","rating":6.4},{"name":"Gallagher's II","phone":"3178843850","address":"2310 W Southport Rd","lat":39.66414481384222,"lng":-86.20041465007876,"neighborhood":"Southern Dunes","city_fetched":"Marion,US","state":"IN","country":"United States","canonicalUrl":"https://foursquare.com/v/gallaghers-ii/4b9499acf964a520697e34e3","categoryId":"4bf58dd8d48988d11d941735","category":"Sports Bar","checkinsCount":2096,"usersCount":652,"tipCount":15,"visitsCount":2377,"url":"http://www.gallagherspizzaexpress.com","tier":"","message":"","currency":"","rating":6.4},{"name":"Heavy's Sports Cafe","phone":"3178565653","address":"8411 Windfall Ln","lat":39.64046465479398,"lng":-86.33338077194767,"city_fetched":"Marion,US","state":"IN","country":"United States","canonicalUrl":"https://foursquare.com/v/heavys-sports-cafe/4cf068041d18a143d6604cec","categoryId":"4bf58dd8d48988d11d941735","category":"Sports Bar","checkinsCount":1031,"usersCount":213,"tipCount":12,"visitsCount":1072,"tier":1,"message":"Cheap","currency":"$","rating":6.4},{"name":"Spykes Bar And Grille","lat":39.819234837857515,"lng":-86.33251423627414,"city_fetched":"Marion,US","state":"IN","country":"United States","canonicalUrl":"https://foursquare.com/v/spykes-bar-and-grille/4fab01c0e4b02a0013d7f1f5","categoryId":"4bf58dd8d48988d116941735","category":"Bar","checkinsCount":399,"usersCount":135,"tipCount":8,"visitsCount":523,"tier":"","message":"","currency":"","rating":6.4},{"name":"Champps","phone":"3179510033","twitter":"champps","address":"49 W. Maryland Street","lat":39.76684372,"lng":-86.15950366,"neighborhood":"Downtown Indianapolis","city_fetched":"Marion,US","state":"IN","country":"United States","canonicalUrl":"https://foursquare.com/v/champps/4b22adb6f964a520a34b24e3","categoryId":"4bf58dd8d48988d11d941735","category":"Sports Bar","checkinsCount":7395,"usersCount":4631,"tipCount":57,"visitsCount":7473,"url":"http://t.co/9OBCSXZCsI","tier":2,"message":"Moderate","currency":"$","rating":6.4},{"name":"Snafu Saloon","phone":"3178951888","address":"5150 N Post Rd","lat":39.84888063663365,"lng":-86.01063005342476,"city_fetched":"Marion,US","state":"IN","country":"United States","canonicalUrl":"https://foursquare.com/v/snafu-saloon/4b639bb6f964a520b0862ae3","categoryId":"4bf58dd8d48988d116941735","category":"Bar","checkinsCount":482,"usersCount":101,"tipCount":5,"visitsCount":498,"tier":"","message":"","currency":"","rating":6.4},{"name":"Shiraz","phone":"3174385847","twitter":"shirazwinecafe","address":"429 Massachusetts Ave","lat":39.773343,"lng":-86.151426,"neighborhood":"Downtown Indianapolis","city_fetched":"Marion,US","state":"IN","country":"United States","canonicalUrl":"https://foursquare.com/v/shiraz/52a28b75498e56c8d37601b5","categoryId":"4bf58dd8d48988d123941735","category":"Wine Bar","checkinsCount":217,"usersCount":163,"tipCount":5,"visitsCount":221,"url":"http://shirazwinecafe.com","tier":"","message":"","currency":"","rating":6.4},{"name":"Mass Ave Wine Shoppe","phone":"3179727966","address":"878 Massachusetts Ave","lat":39.77933612082752,"lng":-86.14259914745564,"neighborhood":"Downtown Indianapolis","city_fetched":"Marion,US","state":"IN","country":"United States","canonicalUrl":"https://foursquare.com/v/mass-ave-wine-shoppe/4b19b6fbf964a52097e223e3","categoryId":"4bf58dd8d48988d123941735","category":"Wine Bar","checkinsCount":920,"usersCount":430,"tipCount":15,"visitsCount":929,"url":"http://www.massavewine.com","tier":"","message":"","currency":"","rating":6.4},{"name":"Winner's Circle","phone":"3176567223","twitter":"hpwinnerscircle","address":"20 N Pennsylvania St","lat":39.767701579549644,"lng":-86.15623556786383,"neighborhood":"Downtown Indianapolis","city_fetched":"Marion,US","state":"IN","country":"United States","canonicalUrl":"https://foursquare.com/v/winners-circle/4edd411a2c5b50aba1fe2218","categoryId":"4bf58dd8d48988d11d941735","category":"Sports Bar","checkinsCount":1825,"usersCount":812,"tipCount":13,"visitsCount":2048,"url":"http://www.hpwinnerscircle.com","tier":2,"message":"Moderate","currency":"$","rating":6.4},{"name":"Legal Beagle","phone":"3172660088","twitter":"paddyslegalbeag","address":"20 N Delaware St","lat":39.76748357100245,"lng":-86.15442189484315,"neighborhood":"Downtown Indianapolis","city_fetched":"Marion,US","state":"IN","country":"United States","canonicalUrl":"https://foursquare.com/v/legal-beagle/4b91458cf964a520dfae33e3","categoryId":"4bf58dd8d48988d118941735","category":"Dive Bar","checkinsCount":652,"usersCount":244,"tipCount":14,"visitsCount":662,"tier":"","message":"","currency":"","rating":6.3},{"name":"Rock Lobster","phone":"3172535844","twitter":"rocklobsterindy","address":"820 Broad Ripple Ave","lat":39.86989741364489,"lng":-86.1440509557724,"neighborhood":"Broad Ripple","city_fetched":"Marion,US","state":"IN","country":"United States","canonicalUrl":"https://foursquare.com/v/rock-lobster/4b5a84e8f964a52062c928e3","categoryId":"4bf58dd8d48988d116941735","category":"Bar","checkinsCount":6708,"usersCount":2654,"tipCount":26,"visitsCount":6759,"url":"http://www.rocklobster.ws","tier":2,"message":"Moderate","currency":"$","rating":6.3},{"name":"Casba","phone":"3172513138","address":"6319 Guilford Ave","lat":39.87025416413376,"lng":-86.14281286572519,"neighborhood":"Broad Ripple","city_fetched":"Marion,US","state":"IN","country":"United States","canonicalUrl":"https://foursquare.com/v/casba/4ad960f8f964a520021a21e3","categoryId":"4bf58dd8d48988d116941735","category":"Bar","checkinsCount":6028,"usersCount":1761,"tipCount":25,"visitsCount":6066,"tier":2,"message":"Moderate","currency":"$","rating":6.3},{"name":"Bartini","phone":"3176360100","twitter":"bartinisindy","address":"39 Jackson Pl","lat":39.76212230538897,"lng":-86.1584715146212,"neighborhood":"Downtown Indianapolis","city_fetched":"Marion,US","state":"IN","country":"United States","canonicalUrl":"https://foursquare.com/v/bartini/4cc0b52456bda093ea82e735","categoryId":"4bf58dd8d48988d11e941735","category":"Cocktail Bar","checkinsCount":4077,"usersCount":2128,"tipCount":28,"visitsCount":4174,"url":"http://www.bartinisindy.com","tier":"","message":"","currency":"","rating":6.2},{"name":"Social","lat":39.76343199545779,"lng":-86.15906775058825,"neighborhood":"Downtown Indianapolis","city_fetched":"Marion,US","state":"IN","country":"United States","canonicalUrl":"https://foursquare.com/v/social/4ee17abc61aff90fe3affccf","categoryId":"4bf58dd8d48988d11e941735","category":"Cocktail Bar","checkinsCount":1011,"usersCount":571,"tipCount":20,"visitsCount":1025,"tier":"","message":"","currency":"","rating":6.2},{"name":"Whistle Stop","phone":"3176391605","address":"375 S Illinois St","lat":39.761691,"lng":-86.15994572639465,"neighborhood":"Downtown Indianapolis","city_fetched":"Marion,US","state":"IN","country":"United States","canonicalUrl":"https://foursquare.com/v/whistle-stop/4b54c4e8f964a52085cb27e3","categoryId":"4bf58dd8d48988d116941735","category":"Bar","checkinsCount":501,"usersCount":391,"tipCount":7,"visitsCount":509,"tier":"","message":"","currency":"","rating":6.2},{"name":"Murat Shrine Oasis","address":"510 N New Jersey St","lat":39.77478979537954,"lng":-86.15110742769595,"neighborhood":"Downtown Indianapolis","city_fetched":"Marion,US","state":"IN","country":"United States","canonicalUrl":"https://foursquare.com/v/murat-shrine-oasis/4ad8b629f964a520e21321e3","categoryId":"4bf58dd8d48988d1d4941735","category":"Speakeasy","checkinsCount":642,"usersCount":159,"tipCount":3,"visitsCount":649,"tier":"","message":"","currency":"","rating":6.2},{"name":"Bartons Pub","phone":"3178887404","address":"7930 S Emerson Ave","lat":39.651846169882944,"lng":-86.0829916861131,"city_fetched":"Marion,US","state":"IN","country":"United States","canonicalUrl":"https://foursquare.com/v/bartons-pub/4b1339e8f964a520af9523e3","categoryId":"4bf58dd8d48988d116941735","category":"Bar","checkinsCount":946,"usersCount":380,"tipCount":8,"visitsCount":1039,"tier":"","message":"","currency":"","rating":6.1},{"name":"Red Garter","phone":"3176370829","twitter":"redgarterindy","address":"437 S Illinois St","lat":39.76048928187224,"lng":-86.15992731187802,"neighborhood":"Downtown Indianapolis","city_fetched":"Marion,US","state":"IN","country":"United States","canonicalUrl":"https://foursquare.com/v/red-garter/4ccbf588c0378cfa619d8248","categoryId":"4bf58dd8d48988d1d6941735","category":"Strip Club","checkinsCount":926,"usersCount":567,"tipCount":4,"visitsCount":957,"url":"http://www.redgarterindy.com","tier":"","message":"","currency":"","rating":6.1},{"name":"Southport Bar & Grill","phone":"3177807969","twitter":"sbgindy","address":"5220 E Southport Rd","lat":39.667193,"lng":-86.0798,"neighborhood":"I65-South Emerson","city_fetched":"Marion,US","state":"IN","country":"United States","canonicalUrl":"https://foursquare.com/v/southport-bar--grill/4dbd0c6afa8cee72735dfd60","categoryId":"4bf58dd8d48988d11d941735","category":"Sports Bar","checkinsCount":727,"usersCount":408,"tipCount":12,"visitsCount":837,"url":"http://www.sbgindy.com","tier":"","message":"","currency":"","rating":6.1},{"name":"Gatsby's Pub & Grill","phone":"3172752292","twitter":"gatsbyspubgrill","address":"6335 Intech Commons Dr","lat":39.879963,"lng":-86.272325,"city_fetched":"Marion,US","state":"IN","country":"United States","canonicalUrl":"https://foursquare.com/v/gatsbys-pub--grill/4b6a5ab8f964a52040d32be3","categoryId":"4bf58dd8d48988d116941735","category":"Bar","checkinsCount":2228,"usersCount":774,"tipCount":19,"visitsCount":2507,"url":"http://www.gatsbysonline.com","tier":2,"message":"Moderate","currency":"$","rating":6.1},{"name":"Weebles Bar &Grill","address":"3725 N Shadeland Ave","lat":39.82415199279785,"lng":-86.0453349351883,"city_fetched":"Marion,US","state":"IN","country":"United States","canonicalUrl":"https://foursquare.com/v/weebles-bar-grill/4be61887910020a16efcd314","categoryId":"4bf58dd8d48988d120941735","category":"Karaoke Bar","checkinsCount":172,"usersCount":68,"tipCount":3,"visitsCount":173,"tier":"","message":"","currency":"","rating":6.1},{"name":"Bubbaz Bar & Grill","phone":"3178563901","address":"Prosperity Cir","lat":39.63788514680803,"lng":-86.33932113647461,"city_fetched":"Marion,US","state":"IN","country":"United States","canonicalUrl":"https://foursquare.com/v/bubbaz-bar--grill/4be739ca2468c92823430243","categoryId":"4bf58dd8d48988d116941735","category":"Bar","checkinsCount":440,"usersCount":166,"tipCount":7,"visitsCount":440,"tier":"","message":"","currency":"","rating":6},{"name":"Landsharks","phone":"3172548157","twitter":"landsharksbar","address":"810 Broad Ripple Ave","lat":39.86986859322574,"lng":-86.14448547363281,"neighborhood":"Broad Ripple","city_fetched":"Marion,US","state":"IN","country":"United States","canonicalUrl":"https://foursquare.com/v/landsharks/4aeeec76f964a520b2d421e3","categoryId":"4bf58dd8d48988d11f941735","category":"Nightclub","checkinsCount":4637,"usersCount":1762,"tipCount":25,"visitsCount":4656,"url":"http://land-sharks.com","tier":"","message":"","currency":"","rating":6},{"name":"Wild Beaver Saloon","phone":"3177220687","address":"723 Broad Ripple Ave","lat":39.86947334054142,"lng":-86.14557981491089,"neighborhood":"Broad Ripple","city_fetched":"Marion,US","state":"IN","country":"United States","canonicalUrl":"https://foursquare.com/v/wild-beaver-saloon/4ad93aecf964a520431921e3","categoryId":"4bf58dd8d48988d120941735","category":"Karaoke Bar","checkinsCount":4149,"usersCount":1651,"tipCount":14,"visitsCount":4158,"tier":"","message":"","currency":"","rating":6},{"name":"Old Pro's Table","phone":"3172255417","twitter":"oldprostable","address":"827 Broad Ripple Ave","lat":39.86964909700917,"lng":-86.1439709050291,"neighborhood":"Broad Ripple","city_fetched":"Marion,US","state":"IN","country":"United States","canonicalUrl":"https://foursquare.com/v/old-pros-table/4aea6146f964a5204fbb21e3","categoryId":"4bf58dd8d48988d11d941735","category":"Sports Bar","checkinsCount":7787,"usersCount":2519,"tipCount":18,"visitsCount":7909,"url":"http://oldprostable.com","tier":1,"message":"Cheap","currency":"$","rating":6},{"name":"The Red Room","phone":"3172571344","twitter":"theredroomindy","address":"6335 Guilford Ave","lat":39.87088965211947,"lng":-86.14274203777313,"neighborhood":"Broad Ripple","city_fetched":"Marion,US","state":"IN","country":"United States","canonicalUrl":"https://foursquare.com/v/the-red-room/4b0aeb93f964a520092a23e3","categoryId":"4bf58dd8d48988d11f941735","category":"Nightclub","checkinsCount":1731,"usersCount":958,"tipCount":13,"visitsCount":1771,"url":"http://www.theredroomindy.com","tier":"","message":"","currency":"","rating":5.9},{"name":"Subterra Lounge","phone":"3174728600","address":"250 S Meridian St","lat":39.76310230062946,"lng":-86.15827276775481,"neighborhood":"Downtown Indianapolis","city_fetched":"Marion,US","state":"IN","country":"United States","canonicalUrl":"https://foursquare.com/v/subterra-lounge/4b0c9fc6f964a5204a4023e3","categoryId":"4bf58dd8d48988d121941735","category":"Lounge","checkinsCount":1078,"usersCount":522,"tipCount":6,"visitsCount":1081,"tier":"","message":"","currency":"","rating":5.9},{"name":"Living Room Lounge","phone":"3176350361","address":"934 N Pennsylvania St","lat":39.78023362060427,"lng":-86.15597718549672,"neighborhood":"Downtown Indianapolis","city_fetched":"Marion,US","state":"IN","country":"United States","canonicalUrl":"https://foursquare.com/v/living-room-lounge/4b55028ff964a520b5d727e3","categoryId":"4bf58dd8d48988d120941735","category":"Karaoke Bar","checkinsCount":1902,"usersCount":934,"tipCount":20,"visitsCount":2045,"tier":"","message":"","currency":"","rating":5.9},{"name":"John Wayne's","address":"2351 E Stop 11 Rd","lat":39.64976561132755,"lng":-86.12063608720861,"city_fetched":"Marion,US","state":"IN","country":"United States","canonicalUrl":"https://foursquare.com/v/john-waynes/4c7054db9c6d6dcb6961d27a","categoryId":"4bf58dd8d48988d116941735","category":"Bar","checkinsCount":369,"usersCount":155,"tipCount":2,"visitsCount":428,"tier":"","message":"","currency":"","rating":5.8},{"name":"Liberty Street","phone":"3176866382","twitter":"libertyonmass","address":"653 Massachusetts Ave","lat":39.776156,"lng":-86.147144,"neighborhood":"Chatham Arch","city_fetched":"Marion,US","state":"IN","country":"United States","canonicalUrl":"https://foursquare.com/v/liberty-street/5317a032498e0c2956c28d4e","categoryId":"4bf58dd8d48988d11e941735","category":"Cocktail Bar","checkinsCount":446,"usersCount":320,"tipCount":5,"visitsCount":463,"url":"http://libertyonmass.com","tier":2,"message":"Moderate","currency":"$","rating":5.8},{"name":"Eat + Drink","phone":"3179252233","twitter":"eatplusdrink","address":"5168 N College Ave","lat":39.84664444453379,"lng":-86.14574518914047,"neighborhood":"Meridian Kessler","city_fetched":"Marion,US","state":"IN","country":"United States","canonicalUrl":"https://foursquare.com/v/eat--drink/50773302e4b0eb9f2a3e3fc9","categoryId":"4bf58dd8d48988d11e941735","category":"Cocktail Bar","checkinsCount":222,"usersCount":108,"tipCount":9,"visitsCount":227,"url":"http://www.eatplusdrink.net","tier":"","message":"","currency":"","rating":5.8},{"name":"Broad Ripple Tavern","phone":"3172576030","twitter":"rippletavern","address":"745 Broad Ripple Ave","lat":39.8695474505932,"lng":-86.1448985338211,"neighborhood":"Broad Ripple","city_fetched":"Marion,US","state":"IN","country":"United States","canonicalUrl":"https://foursquare.com/v/broad-ripple-tavern/4ad93f08f964a520641921e3","categoryId":"4bf58dd8d48988d116941735","category":"Bar","checkinsCount":7690,"usersCount":2904,"tipCount":20,"visitsCount":7788,"url":"http://broadrippletavern.com","tier":1,"message":"Cheap","currency":"$","rating":5.8},{"name":"Taps and Dolls","phone":"3176388277","address":"247 S Meridian St","lat":39.76318843333333,"lng":-86.15798,"neighborhood":"Downtown Indianapolis","city_fetched":"Marion,US","state":"IN","country":"United States","canonicalUrl":"https://foursquare.com/v/taps-and-dolls/4afe14ccf964a520c12d22e3","categoryId":"4bf58dd8d48988d120941735","category":"Karaoke Bar","checkinsCount":5820,"usersCount":2265,"tipCount":31,"visitsCount":5927,"url":"http://www.tapsanddolls.com","tier":2,"message":"Moderate","currency":"$","rating":5.8},{"name":"Ali Baba's Hookah Bar","address":"3711 W 86th St","lat":39.91095009266869,"lng":-86.22518241405487,"city_fetched":"Marion,US","state":"IN","country":"United States","canonicalUrl":"https://foursquare.com/v/ali-babas-hookah-bar/4c37c2afae2da5939688ffc5","categoryId":"4bf58dd8d48988d119941735","category":"Hookah Bar","checkinsCount":173,"usersCount":94,"tipCount":6,"visitsCount":173,"tier":"","message":"","currency":"","rating":5.7},{"name":"Suite 38","twitter":"suite38","address":"5150 W 38th St","lat":39.825711,"lng":-86.248373,"city_fetched":"Marion,US","state":"IN","country":"United States","canonicalUrl":"https://foursquare.com/v/suite-38/50e11734e4b0c73e782d1487","categoryId":"4bf58dd8d48988d11f941735","category":"Nightclub","checkinsCount":87,"usersCount":63,"tipCount":3,"visitsCount":102,"tier":"","message":"","currency":"","rating":5.7},{"name":"Cadillac Ranch","phone":"3176360100","twitter":"caddyranchindy","address":"39 Jackson Pl","lat":39.762545715131225,"lng":-86.1583671726126,"neighborhood":"Downtown Indianapolis","city_fetched":"Marion,US","state":"IN","country":"United States","canonicalUrl":"https://foursquare.com/v/cadillac-ranch/4b22ca39f964a5209a4d24e3","categoryId":"4bf58dd8d48988d116941735","category":"Bar","checkinsCount":3506,"usersCount":2602,"tipCount":33,"visitsCount":3657,"tier":"","message":"","currency":"","rating":5.7},{"name":"Brothers Bar & Grill","phone":"3172525530","address":"902 Broad Ripple Ave.","lat":39.86989329644291,"lng":-86.1426830291748,"neighborhood":"Broad Ripple","city_fetched":"Marion,US","state":"IN","country":"United States","canonicalUrl":"https://foursquare.com/v/brothers-bar--grill/4ad8fbc4f964a520ba1621e3","categoryId":"4bf58dd8d48988d11d941735","category":"Sports Bar","checkinsCount":14078,"usersCount":5263,"tipCount":62,"visitsCount":14271,"url":"http://www.brothersbar.com","tier":2,"message":"Moderate","currency":"$","rating":5.5},{"name":"Granite City Food & Brewery","address":"IND Concourse A","lat":39.715702694058756,"lng":-86.29424806125125,"city_fetched":"Marion,US","state":"IN","country":"United States","canonicalUrl":"https://foursquare.com/v/granite-city-food--brewery/4e4050ce52b1a04aff3cb2de","categoryId":"50327c8591d4c4b30a586d5d","category":"Brewery","checkinsCount":1994,"usersCount":1313,"tipCount":19,"visitsCount":2062,"tier":"","message":"","currency":"","rating":5.4},{"name":"Classy Chassy","phone":"3177873442","address":"4444 S Harding St","lat":39.69916339762768,"lng":-86.1871862411499,"city_fetched":"Marion,US","state":"IN","country":"United States","canonicalUrl":"https://foursquare.com/v/classy-chassy/4c3ab55ed94dc9b67eb5fee7","categoryId":"4bf58dd8d48988d1d6941735","category":"Strip Club","checkinsCount":597,"usersCount":235,"tipCount":7,"visitsCount":604,"url":"http://www.classychassygogo.com","tier":"","message":"","currency":"","rating":5.4},{"name":"Champions","phone":"3174056111","address":"350 W Maryland St","lat":39.7658964204188,"lng":-86.16461277008057,"neighborhood":"Downtown Indianapolis","city_fetched":"Marion,US","state":"IN","country":"United States","canonicalUrl":"https://foursquare.com/v/champions/4b381a2ef964a520a64b25e3","categoryId":"4bf58dd8d48988d11d941735","category":"Sports Bar","checkinsCount":3690,"usersCount":2726,"tipCount":22,"visitsCount":3742,"url":"http://http://www.indymarriott.com/dining/champions.php","tier":2,"message":"Moderate","currency":"$","rating":5.4},{"name":"Hookah Nites","address":"817-859 W County Line Rd","lat":39.635848,"lng":-86.121508,"city_fetched":"Marion,US","state":"IN","country":"United States","canonicalUrl":"https://foursquare.com/v/hookah-nites/4d12d494d1848cfa9552bf71","categoryId":"4bf58dd8d48988d119941735","category":"Hookah Bar","checkinsCount":442,"usersCount":233,"tipCount":11,"visitsCount":447,"tier":"","message":"","currency":"","rating":5.2},{"name":"Whiskey River Bar and Grill","phone":"3173901505","address":"2910 S Lynhurst Dr","lat":39.72193916098585,"lng":-86.25100840997341,"neighborhood":"Mars Hill","city_fetched":"Marion,US","state":"IN","country":"United States","canonicalUrl":"https://foursquare.com/v/whiskey-river-bar-and-grill/4b4d20f0f964a520fbcb26e3","categoryId":"4bf58dd8d48988d116941735","category":"Bar","checkinsCount":348,"usersCount":229,"tipCount":9,"visitsCount":397,"tier":"","message":"","currency":"","rating":5.2},{"name":"Peppers Brewhouse & Eatery","phone":"3175246330","address":"9105 E 56th St","lat":39.854240018153234,"lng":-86.00762025967519,"city_fetched":"Marion,US","state":"IN","country":"United States","canonicalUrl":"https://foursquare.com/v/peppers-brewhouse--eatery/4bd2b32677b29c748b438f82","categoryId":"4bf58dd8d48988d117941735","category":"Beer Garden","checkinsCount":1094,"usersCount":476,"tipCount":20,"visitsCount":1170,"tier":"","message":"","currency":"","rating":5.1},{"name":"36 East Irish Pub","address":"36 E Washington St","lat":39.76700031328447,"lng":-86.1567722039962,"neighborhood":"Downtown Indianapolis","city_fetched":"Marion,US","state":"IN","country":"United States","canonicalUrl":"https://foursquare.com/v/36-east-irish-pub/5244c24211d2ba80c198ed6f","categoryId":"4bf58dd8d48988d11b941735","category":"Pub","checkinsCount":103,"usersCount":103,"tipCount":7,"visitsCount":108,"tier":"","message":"","currency":"","rating":4.6}]