[{"name":"Red Hare Brewing Company","phone":"6784010600","twitter":"redharebrewing","address":"1998 Delk Industrial Blvd SE","lat":33.92444670449898,"lng":-84.49545806312739,"city_fetched":"Marietta,US","state":"GA","country":"United States","canonicalUrl":"https://foursquare.com/v/red-hare-brewing-company/4e5e5989e4cdfc603ed9c109","categoryId":"50327c8591d4c4b30a586d5d","category":"Brewery","checkinsCount":2552,"usersCount":1651,"tipCount":24,"visitsCount":3058,"url":"http://www.redharebrewing.com","tier":1,"message":"Cheap","currency":"$","rating":9.2},{"name":"Marlow's Tavern","phone":"7704322526","twitter":"marlowstavern","address":"2355 Cumberland Pkwy SE Ste 10","lat":33.85946038887134,"lng":-84.48078061624177,"city_fetched":"Marietta,US","state":"GA","country":"United States","canonicalUrl":"https://foursquare.com/v/marlows-tavern/4a858f74f964a52079fe1fe3","categoryId":"4bf58dd8d48988d116941735","category":"Bar","checkinsCount":6649,"usersCount":3626,"tipCount":88,"visitsCount":7585,"url":"http://marlowstavern.com","tier":2,"message":"Moderate","currency":"$","rating":8.9},{"name":"The Craft Beer Factory","phone":"4046323369","twitter":"craftbeerfactor","address":"2145 Roswell Rd Ste 110","lat":33.968406897710956,"lng":-84.49120121489716,"neighborhood":"East Cobb","city_fetched":"Marietta,US","state":"GA","country":"United States","canonicalUrl":"https://foursquare.com/v/the-craft-beer-factory/52f0565b498e63a932b877da","categoryId":"4bf58dd8d48988d117941735","category":"Beer Garden","checkinsCount":259,"usersCount":126,"tipCount":3,"visitsCount":301,"url":"http://thecraftbeerfactory.com","tier":"","message":"","currency":"","rating":8.7},{"name":"Fred Bar","phone":"4049411503","twitter":"tmacrestaurants","address":"5600 Roswell Rd","lat":33.90796406605169,"lng":-84.37963485717773,"city_fetched":"Marietta,US","state":"GA","country":"United States","canonicalUrl":"https://foursquare.com/v/fred-bar/4b07116ef964a5209bf622e3","categoryId":"4bf58dd8d48988d1d4941735","category":"Speakeasy","checkinsCount":7747,"usersCount":1889,"tipCount":37,"visitsCount":7829,"url":"http://www.tacomac.com","tier":3,"message":"Expensive","currency":"$","rating":8.7},{"name":"Meehan's Public House","phone":"7704331920","twitter":"meehanspubhouse","address":"2810 Paces Ferry Rd SE","lat":33.86493,"lng":-84.470129,"city_fetched":"Marietta,US","state":"GA","country":"United States","canonicalUrl":"https://foursquare.com/v/meehans-public-house/4a561d47f964a52079b41fe3","categoryId":"4bf58dd8d48988d11b941735","category":"Pub","checkinsCount":7339,"usersCount":3013,"tipCount":46,"visitsCount":7925,"url":"http://www.meehansdowntown.com","tier":2,"message":"Moderate","currency":"$","rating":8.5},{"name":"Mac McGee Irish Pub","phone":"7705182866","address":"936 Canton St","lat":34.02404695007148,"lng":-84.36164723158858,"city_fetched":"Marietta,US","state":"GA","country":"United States","canonicalUrl":"https://foursquare.com/v/mac-mcgee-irish-pub/513fb59ee4b00daada43d09d","categoryId":"4bf58dd8d48988d11b941735","category":"Pub","checkinsCount":2455,"usersCount":1382,"tipCount":28,"visitsCount":2881,"url":"http://macmcgeeirishpub.com","tier":2,"message":"Moderate","currency":"$","rating":8.4},{"name":"Rocco's Pub","phone":"7709718806","address":"1477 Roswell Rd","lat":33.952620103005515,"lng":-84.50940974238648,"neighborhood":"East Cobb","city_fetched":"Marietta,US","state":"GA","country":"United States","canonicalUrl":"https://foursquare.com/v/roccos-pub/42225f00f964a520b61f1fe3","categoryId":"4bf58dd8d48988d116941735","category":"Bar","checkinsCount":1428,"usersCount":522,"tipCount":15,"visitsCount":1749,"url":"http://www.roccoschili.com","tier":"","message":"","currency":"","rating":8.4},{"name":"Darwin's Burgers And Blues","phone":"4703995060","twitter":"darwinsburgers","address":"1598 Roswell Rd","lat":33.952917850210476,"lng":-84.50541510911067,"neighborhood":"East Cobb","city_fetched":"Marietta,US","state":"GA","country":"United States","canonicalUrl":"https://foursquare.com/v/darwins-burgers-and-blues/4eea9cb0a69d96c4d73045f1","categoryId":"4bf58dd8d48988d116941735","category":"Bar","checkinsCount":926,"usersCount":473,"tipCount":24,"visitsCount":1191,"url":"http://darwinsburgers.com","tier":1,"message":"Cheap","currency":"$","rating":8.4},{"name":"Meehan's Public House","phone":"4048438058","twitter":"meehanspubhouse","address":"227 Sandy Springs Pl","lat":33.92062494615838,"lng":-84.38330411911011,"neighborhood":"Downtown Sandy Springs","city_fetched":"Marietta,US","state":"GA","country":"United States","canonicalUrl":"https://foursquare.com/v/meehans-public-house/4a6e2a94f964a5201ad41fe3","categoryId":"4bf58dd8d48988d11b941735","category":"Pub","checkinsCount":5361,"usersCount":2653,"tipCount":37,"visitsCount":5756,"url":"http://www.meehansdowntown.com","tier":2,"message":"Moderate","currency":"$","rating":8.4},{"name":"Stem Wine Bar","phone":"6782146888","twitter":"dougturbush","address":"1311 Johnson Ferry Rd Ste 516","lat":33.97995304453236,"lng":-84.42809591107238,"neighborhood":"East Cobb","city_fetched":"Marietta,US","state":"GA","country":"United States","canonicalUrl":"https://foursquare.com/dougturbush","categoryId":"4bf58dd8d48988d123941735","category":"Wine Bar","checkinsCount":198,"usersCount":135,"tipCount":9,"visitsCount":203,"url":"http://stemwinebar.com","tier":"","message":"","currency":"","rating":8.3},{"name":"Keegan's Public House","lat":33.84005890841562,"lng":-84.48390596635562,"city_fetched":"Marietta,US","state":"GA","country":"United States","canonicalUrl":"https://foursquare.com/v/keegans-public-house/5435c459498ef139d15b82c2","categoryId":"4bf58dd8d48988d11b941735","category":"Pub","checkinsCount":668,"usersCount":218,"tipCount":4,"visitsCount":776,"tier":"","message":"","currency":"","rating":8.3},{"name":"Rose & Crown Tavern","phone":"7709335595","address":"1931 Powers Ferry Rd SE","lat":33.9047634601593,"lng":-84.4615834672004,"neighborhood":"East Cobb","city_fetched":"Marietta,US","state":"GA","country":"United States","canonicalUrl":"https://foursquare.com/v/rose--crown-tavern/4c3e4936ca012d7fa74d2fbe","categoryId":"4bf58dd8d48988d11b941735","category":"Pub","checkinsCount":9788,"usersCount":3868,"tipCount":83,"visitsCount":12387,"url":"http://roseandcrowntavern.com","tier":2,"message":"Moderate","currency":"$","rating":8.3},{"name":"Bucket Shop Caf√©","phone":"4042619244","twitter":"bucketshopcafe","address":"3475 Lenox Rd NE","lat":33.849051042177244,"lng":-84.36107221319125,"neighborhood":"Lenox","city_fetched":"Marietta,US","state":"GA","country":"United States","canonicalUrl":"https://foursquare.com/v/bucket-shop-caf%C3%A9/450d4d0ef964a52058391fe3","categoryId":"4bf58dd8d48988d11b941735","category":"Pub","checkinsCount":11771,"usersCount":3753,"tipCount":61,"visitsCount":12801,"url":"http://bucketshopcafe.com","tier":1,"message":"Cheap","currency":"$","rating":8.3},{"name":"Salt Factory Pub","phone":"6789036225","address":"8690 Main St","lat":34.099600315937394,"lng":-84.5201990052208,"city_fetched":"Marietta,US","state":"GA","country":"United States","canonicalUrl":"https://foursquare.com/v/salt-factory-pub/55197b68498e885ec1f428a6","categoryId":"4bf58dd8d48988d11b941735","category":"Pub","checkinsCount":273,"usersCount":250,"tipCount":5,"visitsCount":401,"tier":"","message":"","currency":"","rating":8.1},{"name":"The Stout Brothers","phone":"7703198200","address":"1265 W Spring St SE Ste D","lat":33.88390359849158,"lng":-84.51517587127809,"neighborhood":"Smyrna Market Village","city_fetched":"Marietta,US","state":"GA","country":"United States","canonicalUrl":"https://foursquare.com/v/the-stout-brothers/50ba545be4b049f72ecfffc5","categoryId":"4bf58dd8d48988d11b941735","category":"Pub","checkinsCount":1394,"usersCount":494,"tipCount":19,"visitsCount":1507,"url":"http://thestoutbrothers.com","tier":1,"message":"Cheap","currency":"$","rating":8.1},{"name":"Taco Mac","phone":"7707951144","twitter":"tmacrestaurants","address":"2650 Dallas Hwy, Ste 100","lat":33.94720763010237,"lng":-84.62987761070261,"city_fetched":"Marietta,US","state":"GA","country":"United States","canonicalUrl":"https://foursquare.com/v/taco-mac/4a8f581ff964a520001520e3","categoryId":"4bf58dd8d48988d11d941735","category":"Sports Bar","checkinsCount":8800,"usersCount":2962,"tipCount":57,"visitsCount":10434,"url":"http://www.tacomac.com","tier":2,"message":"Moderate","currency":"$","rating":8.1},{"name":"Whiskey Blue","phone":"6785003190","twitter":"whiskeyblueatl","address":"3377 Peachtree Rd NE","lat":33.847867194009964,"lng":-84.36615990460294,"neighborhood":"Lenox","city_fetched":"Marietta,US","state":"GA","country":"United States","canonicalUrl":"https://foursquare.com/v/whiskey-blue/4a6a44f1f964a52000cd1fe3","categoryId":"4bf58dd8d48988d122941735","category":"Whisky Bar","checkinsCount":6873,"usersCount":4448,"tipCount":43,"visitsCount":6992,"url":"http://gerberbars.com/whiskey-blue-atlanta","tier":3,"message":"Expensive","currency":"$","rating":8},{"name":"Mardi Gras Atlanta","phone":"7709551638","twitter":"mardigrasatl","address":"6300 Powers Ferry Rd","lat":33.90597726529553,"lng":-84.42794719095303,"city_fetched":"Marietta,US","state":"GA","country":"United States","canonicalUrl":"https://foursquare.com/mardigrasatl","categoryId":"4bf58dd8d48988d1d6941735","category":"Strip Club","checkinsCount":1400,"usersCount":619,"tipCount":7,"visitsCount":1491,"url":"http://mardigrasatl.com","tier":"","message":"","currency":"","rating":7.9},{"name":"Keegan's Public House","phone":"6782132460","address":"1625 Ridenour Blvd NW","lat":33.99467273910277,"lng":-84.59255397319794,"city_fetched":"Marietta,US","state":"GA","country":"United States","canonicalUrl":"https://foursquare.com/v/keegans-public-house/4b3cd6b2f964a5200d8825e3","categoryId":"4bf58dd8d48988d11b941735","category":"Pub","checkinsCount":3903,"usersCount":1295,"tipCount":40,"visitsCount":4194,"url":"http://keegansirishpub.net","tier":3,"message":"Expensive","currency":"$","rating":7.8},{"name":"Varner's Tavern","phone":"6783881733","address":"725 Concord Rd SE","lat":33.872624744628965,"lng":-84.53355073928833,"city_fetched":"Marietta,US","state":"GA","country":"United States","canonicalUrl":"https://foursquare.com/v/varners-tavern/4b3c37bcf964a5200c8325e3","categoryId":"4bf58dd8d48988d11b941735","category":"Pub","checkinsCount":6105,"usersCount":1662,"tipCount":42,"visitsCount":7362,"url":"http://www.varnerstavern.com","tier":2,"message":"Moderate","currency":"$","rating":7.7},{"name":"Dixie Tavern","phone":"7706900090","address":"2319 Windy Hill Rd SE","lat":33.90121684192338,"lng":-84.47573359144663,"city_fetched":"Marietta,US","state":"GA","country":"United States","canonicalUrl":"https://foursquare.com/v/dixie-tavern/4d4b094d9544a093608238e7","categoryId":"4bf58dd8d48988d116941735","category":"Bar","checkinsCount":183,"usersCount":100,"tipCount":4,"visitsCount":183,"tier":"","message":"","currency":"","rating":7.7},{"name":"Jasmine Cafe And Hookah Bar","phone":"7704271399","address":"585 Franklin Rd SE","lat":33.938626,"lng":-84.50677156448364,"city_fetched":"Marietta,US","state":"GA","country":"United States","canonicalUrl":"https://foursquare.com/v/jasmine-cafe-and-hookah-bar/4e3367141f6efba241171322","categoryId":"4bf58dd8d48988d119941735","category":"Hookah Bar","checkinsCount":203,"usersCount":112,"tipCount":6,"visitsCount":203,"tier":"","message":"","currency":"","rating":7.6},{"name":"Mazzy's Sports Bar & Grill","phone":"6782131688","address":"2217 Roswell Rd","lat":33.97173965089919,"lng":-84.48843486554901,"neighborhood":"East Cobb","city_fetched":"Marietta,US","state":"GA","country":"United States","canonicalUrl":"https://foursquare.com/v/mazzys-sports-bar--grill/4bc3e2ee4cdfc9b665109821","categoryId":"4bf58dd8d48988d116941735","category":"Bar","checkinsCount":4511,"usersCount":1761,"tipCount":37,"visitsCount":5462,"url":"http://mazzys.com","tier":1,"message":"Cheap","currency":"$","rating":7.6},{"name":"Loco Willy's","phone":"7704990077","address":"800 Whitlock Ave NW","lat":33.952368761109575,"lng":-84.57596197759258,"city_fetched":"Marietta,US","state":"GA","country":"United States","canonicalUrl":"https://foursquare.com/v/loco-willys/4d4f53843626a093f5630fbd","categoryId":"4bf58dd8d48988d116941735","category":"Bar","checkinsCount":2953,"usersCount":855,"tipCount":32,"visitsCount":3705,"url":"http://locowillys.com","tier":2,"message":"Moderate","currency":"$","rating":7.6},{"name":"Blue Flame Lounge","phone":"4047941446","twitter":"blueflamelounge","address":"1097 Harwell Rd NW","lat":33.78526190335195,"lng":-84.49120121489716,"city_fetched":"Marietta,US","state":"GA","country":"United States","canonicalUrl":"https://foursquare.com/v/blue-flame-lounge/40e0b100f964a520c3051fe3","categoryId":"4bf58dd8d48988d1d6941735","category":"Strip Club","checkinsCount":1260,"usersCount":1003,"tipCount":9,"visitsCount":1644,"url":"http://theblueflame.com","tier":"","message":"","currency":"","rating":7.5},{"name":"Brewster's Grille","phone":"7705911291","twitter":"brewstersgrille","address":"3595 Canton Rd","lat":34.039353672228046,"lng":-84.52964501032166,"neighborhood":"East Cobb","city_fetched":"Marietta,US","state":"GA","country":"United States","canonicalUrl":"https://foursquare.com/v/brewsters-grille/4bef385e96edc9b6057d4af2","categoryId":"4bf58dd8d48988d11b941735","category":"Pub","checkinsCount":1646,"usersCount":408,"tipCount":9,"visitsCount":1736,"url":"http://www.brewstersgrille.com","tier":"","message":"","currency":"","rating":7.5},{"name":"Suburban Tap","phone":"7709774467","twitter":"suburbantap","address":"1318 Johnson Ferry Rd","lat":33.980911915081315,"lng":-84.42456722259521,"neighborhood":"East Cobb","city_fetched":"Marietta,US","state":"GA","country":"United States","canonicalUrl":"https://foursquare.com/suburbantap","categoryId":"4bf58dd8d48988d116941735","category":"Bar","checkinsCount":4787,"usersCount":1600,"tipCount":41,"visitsCount":5107,"url":"http://www.suburbantap.com","tier":"","message":"","currency":"","rating":7.4},{"name":"Bradley's Bar & Grill","phone":"7703210108","twitter":"bradleys_bar","address":"4961 Lower Roswell Rd","lat":33.96635907768117,"lng":-84.406224880384,"neighborhood":"East Cobb","city_fetched":"Marietta,US","state":"GA","country":"United States","canonicalUrl":"https://foursquare.com/v/bradleys-bar--grill/4b17478df964a5207bc423e3","categoryId":"4bf58dd8d48988d116941735","category":"Bar","checkinsCount":1113,"usersCount":274,"tipCount":11,"visitsCount":1276,"url":"http://bradleysbarandgrill-hub.com","tier":"","message":"","currency":"","rating":7.4},{"name":"J's Lounge","phone":"6783836164","twitter":"jsloungeatlanta","address":"1995 Windy Hill Rd SE","lat":33.898434,"lng":-84.4962315,"city_fetched":"Marietta,US","state":"GA","country":"United States","canonicalUrl":"https://foursquare.com/jsloungeatlanta","categoryId":"4bf58dd8d48988d116941735","category":"Bar","checkinsCount":372,"usersCount":196,"tipCount":7,"visitsCount":426,"url":"http://www.js-lounge.com","tier":2,"message":"Moderate","currency":"$","rating":7.3},{"name":"Keegan's Public House","phone":"7706401100","address":"4401 Shallowford Rd","lat":34.028259852389866,"lng":-84.42266481818932,"neighborhood":"East Cobb","city_fetched":"Marietta,US","state":"GA","country":"United States","canonicalUrl":"https://foursquare.com/v/keegans-public-house/4f8df8b2e4b0cb2287261a6a","categoryId":"4bf58dd8d48988d11b941735","category":"Pub","checkinsCount":1621,"usersCount":699,"tipCount":24,"visitsCount":2062,"url":"http://keegansirishpub.net","tier":"","message":"","currency":"","rating":7.1},{"name":"Jerseys Sports Bar & Grille","phone":"6789093612","address":"2550 Sandy Plains Rd","lat":34.01191855099052,"lng":-84.49224624609829,"neighborhood":"East Cobb","city_fetched":"Marietta,US","state":"GA","country":"United States","canonicalUrl":"https://foursquare.com/v/jerseys-sports-bar--grille/523f1ca9498e959ba1f7133b","categoryId":"4bf58dd8d48988d11d941735","category":"Sports Bar","checkinsCount":908,"usersCount":252,"tipCount":13,"visitsCount":1304,"url":"http://www.jerseysgrille.com","tier":2,"message":"Moderate","currency":"$","rating":7.1},{"name":"Tosca Blu Bar","twitter":"renhotels","address":"2450 Galleria Pkwy SE","lat":33.884893,"lng":-84.464668,"neighborhood":"Cobb Galleria","city_fetched":"Marietta,US","state":"GA","country":"United States","canonicalUrl":"https://foursquare.com/v/tosca-blu-bar/4b7dada9f964a52009ce2fe3","categoryId":"4bf58dd8d48988d1d5941735","category":"Hotel Bar","checkinsCount":544,"usersCount":330,"tipCount":5,"visitsCount":546,"url":"http://www.renhotels.com","tier":3,"message":"Expensive","currency":"$","rating":7},{"name":"Babes","address":"304 Fulton Industrial Cir SW","lat":33.765623242182095,"lng":-84.53283940993938,"city_fetched":"Marietta,US","state":"GA","country":"United States","canonicalUrl":"https://foursquare.com/v/babes/4bfa96018f32ef3b14ea04aa","categoryId":"4bf58dd8d48988d1d6941735","category":"Strip Club","checkinsCount":523,"usersCount":238,"tipCount":6,"visitsCount":711,"tier":"","message":"","currency":"","rating":7},{"name":"Mr. C's","phone":"4046050888","address":"1983 Howell Mill Rd NW","lat":33.808672,"lng":-84.41261,"neighborhood":"Buckhead","city_fetched":"Marietta,US","state":"GA","country":"United States","canonicalUrl":"https://foursquare.com/v/mr-cs/45f9292df964a52044441fe3","categoryId":"4bf58dd8d48988d11b941735","category":"Pub","checkinsCount":7431,"usersCount":880,"tipCount":32,"visitsCount":7863,"tier":1,"message":"Cheap","currency":"$","rating":6.8},{"name":"Ship & Anchor Pub","phone":"4042563550","twitter":"theshipdrg","address":"5975 Roswell Rd #361","lat":33.9188642,"lng":-84.37711803333333,"neighborhood":"Downtown Sandy Springs","city_fetched":"Marietta,US","state":"GA","country":"United States","canonicalUrl":"https://foursquare.com/v/ship--anchor-pub/4a37d55ef964a5207a9e1fe3","categoryId":"4bf58dd8d48988d11b941735","category":"Pub","checkinsCount":3240,"usersCount":1384,"tipCount":26,"visitsCount":3565,"url":"http://www.dunwoodyrestaurantgroup.com/the-ship-anchor-pub","tier":2,"message":"Moderate","currency":"$","rating":6.7},{"name":"Nik's Place","phone":"7707926666","address":"645 Whitlock Ave SW","lat":33.95159699285312,"lng":-84.57130014896393,"city_fetched":"Marietta,US","state":"GA","country":"United States","canonicalUrl":"https://foursquare.com/v/niks-place/4a3ecdc4f964a52073a31fe3","categoryId":"4bf58dd8d48988d116941735","category":"Bar","checkinsCount":2886,"usersCount":828,"tipCount":32,"visitsCount":3057,"url":"http://www.niksplace.com","tier":"","message":"","currency":"","rating":6.6},{"name":"Winston's Food & Spirits","phone":"6785601923","address":"1860 Sandy Plains Rd","lat":33.994364146369335,"lng":-84.50968628379188,"neighborhood":"East Cobb","city_fetched":"Marietta,US","state":"GA","country":"United States","canonicalUrl":"https://foursquare.com/v/winstons-food--spirits/4b37c39af964a520c14525e3","categoryId":"4bf58dd8d48988d11d941735","category":"Sports Bar","checkinsCount":2525,"usersCount":485,"tipCount":21,"visitsCount":2732,"tier":2,"message":"Moderate","currency":"$","rating":6.6},{"name":"Doc's Wines & Spirits","phone":"7709539354","address":"2350 Spring Rd SE","lat":33.88760268688202,"lng":-84.47521269321442,"neighborhood":"Cumberland","city_fetched":"Marietta,US","state":"GA","country":"United States","canonicalUrl":"https://foursquare.com/v/docs-wines--spirits/40e0b100f964a52027061fe3","categoryId":"4bf58dd8d48988d123941735","category":"Wine Bar","checkinsCount":327,"usersCount":140,"tipCount":6,"visitsCount":327,"tier":"","message":"","currency":"","rating":6.6},{"name":"Paddy's Pub & Eatery","phone":"7704211234","address":"2196 Cobb Pkwy NW","lat":34.006643677116074,"lng":-84.60407137870789,"city_fetched":"Marietta,US","state":"GA","country":"United States","canonicalUrl":"https://foursquare.com/v/paddys-pub--eatery/4b46201bf964a520401726e3","categoryId":"4bf58dd8d48988d11b941735","category":"Pub","checkinsCount":2566,"usersCount":1248,"tipCount":32,"visitsCount":3010,"url":"http://www.paddyspubandeatery.com","tier":2,"message":"Moderate","currency":"$","rating":6.5},{"name":"Ralph's Tavern","phone":"7709286136","twitter":"ralphs_tavern","address":"4290 Bells Ferry Rd NW","lat":34.05566830753248,"lng":-84.55549720537208,"neighborhood":"East Cobb","city_fetched":"Marietta,US","state":"GA","country":"United States","canonicalUrl":"https://foursquare.com/ralphs_tavern","categoryId":"4bf58dd8d48988d116941735","category":"Bar","checkinsCount":1093,"usersCount":330,"tipCount":5,"visitsCount":1305,"url":"http://ralphstavernkennesaw.com","tier":1,"message":"Cheap","currency":"$","rating":6.4},{"name":"Fannie's Show Bar","address":"4401 Fulton Industrial Blvd SW","lat":33.76610813779699,"lng":-84.53172343769317,"city_fetched":"Marietta,US","state":"GA","country":"United States","canonicalUrl":"https://foursquare.com/v/fannies-show-bar/40e0b100f964a52049061fe3","categoryId":"4bf58dd8d48988d1d6941735","category":"Strip Club","checkinsCount":511,"usersCount":250,"tipCount":4,"visitsCount":528,"tier":"","message":"","currency":"","rating":6.3},{"name":"The 120 Tavern & Music Hall","phone":"7705093320","twitter":"the120tavern","address":"1440 Roswell Rd","lat":33.95026101479601,"lng":-84.51012669887753,"neighborhood":"East Cobb","city_fetched":"Marietta,US","state":"GA","country":"United States","canonicalUrl":"https://foursquare.com/v/the-120-tavern--music-hall/4f8db314754abf3657b200eb","categoryId":"4bf58dd8d48988d116941735","category":"Bar","checkinsCount":2916,"usersCount":1328,"tipCount":22,"visitsCount":3177,"url":"http://120tavern.com","tier":2,"message":"Moderate","currency":"$","rating":6.3},{"name":"Tilted Kilt Pub & Eatery","phone":"6787415292","twitter":"tiltedkiltpub","address":"2960 Cobb Pkwy SE","lat":33.88048117178114,"lng":-84.46300864219666,"neighborhood":"Cumberland","city_fetched":"Marietta,US","state":"GA","country":"United States","canonicalUrl":"https://foursquare.com/v/tilted-kilt-pub--eatery/4ae747fef964a52000aa21e3","categoryId":"4bf58dd8d48988d11b941735","category":"Pub","checkinsCount":6104,"usersCount":3151,"tipCount":57,"visitsCount":6370,"url":"http://www.tiltedkilt.com","tier":2,"message":"Moderate","currency":"$","rating":6.3},{"name":"Brewmasters Warehouse","phone":"7709730072","address":"2145 Roswell Rd Ste 320","lat":33.96971287536789,"lng":-84.49032521844985,"neighborhood":"East Cobb","city_fetched":"Marietta,US","state":"GA","country":"United States","canonicalUrl":"https://foursquare.com/v/brewmasters-warehouse/4bd8773ff645c9b69b00a8e0","categoryId":"4bf58dd8d48988d117941735","category":"Beer Garden","checkinsCount":695,"usersCount":243,"tipCount":4,"visitsCount":699,"tier":"","message":"","currency":"","rating":6.2},{"name":"Faces Lounge","phone":"7705793801","address":"138 Powers Ferry","lat":33.94834703250808,"lng":-84.5068491115163,"neighborhood":"East Cobb","city_fetched":"Marietta,US","state":"GA","country":"United States","canonicalUrl":"https://foursquare.com/v/faces-lounge/4b45549ff964a520b80a26e3","categoryId":"4bf58dd8d48988d120941735","category":"Karaoke Bar","checkinsCount":1084,"usersCount":322,"tipCount":4,"visitsCount":1230,"url":"http://faceslounge.com","tier":"","message":"","currency":"","rating":6.1},{"name":"Jimmy Mac's","phone":"7707949700","address":"3205 Canton Rd","lat":34.02998176764109,"lng":-84.52818085190151,"neighborhood":"East Cobb","city_fetched":"Marietta,US","state":"GA","country":"United States","canonicalUrl":"https://foursquare.com/v/jimmy-macs/4b6e1bc5f964a52011ab2ce3","categoryId":"4bf58dd8d48988d116941735","category":"Bar","checkinsCount":2715,"usersCount":574,"tipCount":23,"visitsCount":3144,"url":"http://jimmymacsfoodandspirits.com","tier":1,"message":"Cheap","currency":"$","rating":6.1},{"name":"Jocks & Jills Sports Grill","phone":"7709528401","twitter":"jocksandjills","address":"1 Galleria Pkwy SE","lat":33.884640687846606,"lng":-84.46663498878479,"neighborhood":"Cobb Galleria","city_fetched":"Marietta,US","state":"GA","country":"United States","canonicalUrl":"https://foursquare.com/v/jocks--jills-sports-grill/40e0b100f964a520a2061fe3","categoryId":"4bf58dd8d48988d11d941735","category":"Sports Bar","checkinsCount":2984,"usersCount":1735,"tipCount":34,"visitsCount":3197,"url":"http://www.jocksandjills.com","tier":2,"message":"Moderate","currency":"$","rating":6},{"name":"Coronet Club","phone":"4042500242","twitter":"coronetclubatl","address":"5275-B Roswell Road NE","lat":33.89891624563029,"lng":-84.38048111862145,"city_fetched":"Marietta,US","state":"GA","country":"United States","canonicalUrl":"https://foursquare.com/v/coronet-club/40e0b100f964a5200e061fe3","categoryId":"4bf58dd8d48988d1d6941735","category":"Strip Club","checkinsCount":348,"usersCount":290,"tipCount":2,"visitsCount":381,"url":"http://www.coronetclubatl.com","tier":"","message":"","currency":"","rating":5.9},{"name":"Hemingway's Bar & Grill","phone":"7704275445","address":"29 W Park Sq NE","lat":33.95274945066167,"lng":-84.55027753401633,"neighborhood":"Downtown Marietta","city_fetched":"Marietta,US","state":"GA","country":"United States","canonicalUrl":"https://foursquare.com/v/hemingways-bar--grill/40e0b100f964a52080061fe3","categoryId":"4bf58dd8d48988d116941735","category":"Bar","checkinsCount":2566,"usersCount":1725,"tipCount":26,"visitsCount":2580,"url":"http://www.hemingwaysmarietta.com","tier":"","message":"","currency":"","rating":5.9},{"name":"Delkwood Grill","phone":"7709561313","address":"2769 Delk Rd SE","lat":33.923984,"lng":-84.47192499940604,"neighborhood":"East Cobb","city_fetched":"Marietta,US","state":"GA","country":"United States","canonicalUrl":"https://foursquare.com/v/delkwood-grill/4b55e282f964a5208ff427e3","categoryId":"4bf58dd8d48988d11d941735","category":"Sports Bar","checkinsCount":907,"usersCount":458,"tipCount":15,"visitsCount":1037,"url":"http://www.delkwoodgrill.net","tier":"","message":"","currency":"","rating":5.7},{"name":"The Place Bar & Grill","phone":"7704279060","address":"700 Sandy Plains Rd","lat":33.99595359767211,"lng":-84.52796583252871,"neighborhood":"East Cobb","city_fetched":"Marietta,US","state":"GA","country":"United States","canonicalUrl":"https://foursquare.com/v/the-place-bar--grill/4bb4f46b0ef1c9b664aaf412","categoryId":"4bf58dd8d48988d116941735","category":"Bar","checkinsCount":1084,"usersCount":460,"tipCount":14,"visitsCount":1267,"url":"http://www. theplacebarandgrill.com","tier":"","message":"","currency":"","rating":5.5},{"name":"Sportsline","address":"2359 Windy Hill Rd SE","lat":33.904467855533404,"lng":-84.48524315525243,"city_fetched":"Marietta,US","state":"GA","country":"United States","canonicalUrl":"https://foursquare.com/v/sportsline/4c8eb7b0a8de224bbeda2901","categoryId":"4bf58dd8d48988d11d941735","category":"Sports Bar","checkinsCount":708,"usersCount":421,"tipCount":7,"visitsCount":709,"tier":"","message":"","currency":"","rating":5.4},{"name":"Flashers","address":"6420 Roswell Rd","lat":33.93044320670747,"lng":-84.3799370787408,"neighborhood":"Downtown Sandy Springs","city_fetched":"Marietta,US","state":"GA","country":"United States","canonicalUrl":"https://foursquare.com/v/flashers/40e0b100f964a52054061fe3","categoryId":"4bf58dd8d48988d1d6941735","category":"Strip Club","checkinsCount":280,"usersCount":133,"tipCount":6,"visitsCount":283,"tier":"","message":"","currency":"","rating":5.3}]