[{"name":"Ore Dock Brewing Company","phone":"9062288888","twitter":"oredockbrewing","address":"114 W Spring St","lat":46.54181619203139,"lng":-87.39392817020416,"city_fetched":"Marquette,US","state":"MI","country":"United States","canonicalUrl":"https://foursquare.com/v/ore-dock-brewing-company/4fbc1660e4b08c2bc7d820ba","categoryId":"50327c8591d4c4b30a586d5d","category":"Brewery","checkinsCount":2549,"usersCount":1143,"tipCount":26,"visitsCount":3141,"url":"http://www.ore-dock.com","tier":2,"message":"Moderate","currency":"$","rating":9.2},{"name":"The Vierling Restaurant & Marquette Harbor Brewery","phone":"9062283533","address":"119 S Front St","lat":46.542572591824154,"lng":-87.3927640914917,"city_fetched":"Marquette,US","state":"MI","country":"United States","canonicalUrl":"https://foursquare.com/v/the-vierling-restaurant--marquette-harbor-brewery/4bb0e759f964a5208e683ce3","categoryId":"50327c8591d4c4b30a586d5d","category":"Brewery","checkinsCount":1427,"usersCount":1147,"tipCount":26,"visitsCount":1790,"url":"http://www.thevierling.com","tier":2,"message":"Moderate","currency":"$","rating":9},{"name":"The Wooden Nickel","address":"1751 Presque Isle Ave","lat":46.56203663653311,"lng":-87.39639856117718,"city_fetched":"Marquette,US","state":"MI","country":"United States","canonicalUrl":"https://foursquare.com/v/the-wooden-nickel/4bc8c8656501c9b685e74029","categoryId":"4bf58dd8d48988d116941735","category":"Bar","checkinsCount":1362,"usersCount":351,"tipCount":13,"visitsCount":1497,"tier":"","message":"","currency":"","rating":8.9},{"name":"Blackrocks Brewery","phone":"9062731333","address":"424 N 3rd St","lat":46.54700193125,"lng":-87.39446729421616,"city_fetched":"Marquette,US","state":"MI","country":"United States","canonicalUrl":"https://foursquare.com/v/blackrocks-brewery/4d12d35612916dcb9461d98a","categoryId":"50327c8591d4c4b30a586d5d","category":"Brewery","checkinsCount":2382,"usersCount":800,"tipCount":19,"visitsCount":2840,"url":"http://www.blackrocksbrewery.com","tier":1,"message":"Cheap","currency":"$","rating":8.8},{"name":"Breakers Roadhouse","address":"149 W Baraga Ave","lat":46.540842936779526,"lng":-87.39559895433226,"city_fetched":"Marquette,US","state":"MI","country":"United States","canonicalUrl":"https://foursquare.com/v/breakers-roadhouse/51bb9486498ec98a949ed64b","categoryId":"4bf58dd8d48988d116941735","category":"Bar","checkinsCount":254,"usersCount":100,"tipCount":2,"visitsCount":281,"tier":1,"message":"Cheap","currency":"$","rating":7.9},{"name":"Northland Pub","phone":"9062282580","address":"230 N Front St","lat":46.544749488515244,"lng":-87.39212572574615,"city_fetched":"Marquette,US","state":"MI","country":"United States","canonicalUrl":"https://foursquare.com/v/northland-pub/4b68655cf964a520f2752be3","categoryId":"4bf58dd8d48988d116941735","category":"Bar","checkinsCount":574,"usersCount":259,"tipCount":7,"visitsCount":598,"tier":"","message":"","currency":"","rating":7.8},{"name":"The Doghouse Pub","phone":"9062266399","address":"154 W Washington St","lat":46.54363891314401,"lng":-87.39496886730194,"city_fetched":"Marquette,US","state":"MI","country":"United States","canonicalUrl":"https://foursquare.com/v/the-doghouse-pub/4b7f4f85f964a520ae2630e3","categoryId":"4bf58dd8d48988d11d941735","category":"Sports Bar","checkinsCount":1769,"usersCount":516,"tipCount":8,"visitsCount":1801,"url":"http://doghousepub.webs.com","tier":2,"message":"Moderate","currency":"$","rating":7.4},{"name":"The Blue Lounge","address":"145 W Washington St","lat":46.543266,"lng":-87.39471659889271,"city_fetched":"Marquette,US","state":"MI","country":"United States","canonicalUrl":"https://foursquare.com/v/the-blue-lounge/4d608e911ee8721ea181ac21","categoryId":"4bf58dd8d48988d116941735","category":"Bar","checkinsCount":541,"usersCount":199,"tipCount":6,"visitsCount":544,"tier":"","message":"","currency":"","rating":6.8},{"name":"Flannigan's","phone":"9062288865","address":"429 W Washington St","lat":46.54428828887695,"lng":-87.40107357501984,"city_fetched":"Marquette,US","state":"MI","country":"United States","canonicalUrl":"https://foursquare.com/v/flannigans/4ba198a7f964a520e8c237e3","categoryId":"4bf58dd8d48988d116941735","category":"Bar","checkinsCount":585,"usersCount":255,"tipCount":4,"visitsCount":585,"tier":1,"message":"Cheap","currency":"$","rating":6.8},{"name":"Verabar","phone":"9062730706","address":"145 W Washington St","lat":46.54333522101241,"lng":-87.39468334926724,"city_fetched":"Marquette,US","state":"MI","country":"United States","canonicalUrl":"https://foursquare.com/v/verabar/4df7c08faeb7f7c3b543768a","categoryId":"4bf58dd8d48988d11f941735","category":"Nightclub","checkinsCount":814,"usersCount":223,"tipCount":3,"visitsCount":821,"url":"http://marquettenightlife.com","tier":"","message":"","currency":"","rating":6.6},{"name":"Pat's Bar","lat":46.546039,"lng":-87.413928,"city_fetched":"Marquette,US","state":"MI","country":"United States","canonicalUrl":"https://foursquare.com/v/pats-bar/4c36425693db0f47a7c31d92","categoryId":"4bf58dd8d48988d118941735","category":"Dive Bar","checkinsCount":165,"usersCount":58,"tipCount":4,"visitsCount":183,"tier":"","message":"","currency":"","rating":6.2},{"name":"Remies Bar","phone":"9062269133","address":"111 S 3rd St","lat":46.54306147876622,"lng":-87.39530146121979,"city_fetched":"Marquette,US","state":"MI","country":"United States","canonicalUrl":"https://foursquare.com/v/remies-bar/4ba178e4f964a520f0b937e3","categoryId":"4bf58dd8d48988d118941735","category":"Dive Bar","checkinsCount":1191,"usersCount":379,"tipCount":5,"visitsCount":1213,"tier":"","message":"","currency":"","rating":6.1}]