[{"name":"Brau Brothers Brewing Company","phone":"5077472337","twitter":"braubeer","address":"910 East Main St","lat":44.43671796305429,"lng":-95.77583827750065,"city_fetched":"Marshall","state":"MN","country":"United States","canonicalUrl":"https://foursquare.com/v/brau-brothers-brewing-company/51ddc752498e80edd14fe676","category":"Brewery","checkinsCount":335,"usersCount":258,"tipCount":9,"visitsCount":424,"url":"http://braubeer.com","tier":"","message":"","currency":"","rating":8.2},{"name":"Wooden Nickel","phone":"5075323875","address":"448 W Main St","lat":44.44937754296451,"lng":-95.7917931675911,"city_fetched":"Marshall","state":"MN","country":"United States","canonicalUrl":"https://foursquare.com/v/wooden-nickel/4bb13021f964a520e3813ce3","category":"Bar","checkinsCount":398,"usersCount":182,"tipCount":4,"visitsCount":506,"tier":"","message":"","currency":"","rating":7.3},{"name":"The Gambler","phone":"5075323957","address":"Main Street","lat":44.44745982653716,"lng":-95.7902281668566,"city_fetched":"Marshall","state":"MN","country":"United States","canonicalUrl":"https://foursquare.com/v/the-gambler/4df191ee18386ecb4e287d52","category":"Bar","checkinsCount":526,"usersCount":125,"tipCount":4,"visitsCount":570,"tier":"","message":"","currency":"","rating":7.2},{"name":"Varsity Pub","phone":"5075324714","address":"128 W Main St","lat":44.447036049504,"lng":-95.78816416783647,"city_fetched":"Marshall","state":"MN","country":"United States","canonicalUrl":"https://foursquare.com/v/varsity-pub/4b67ad84f964a5208a5a2be3","category":"Rock Club","checkinsCount":2631,"usersCount":347,"tipCount":7,"visitsCount":2800,"tier":"","message":"","currency":"","rating":5.9}]