[{"name":"Fiddle & Whistle Irish Pub","phone":"6413281041","address":"20 W Main St","lat":42.04903157316101,"lng":-92.91398942454116,"city_fetched":"Marshalltown","state":"IA","country":"United States","canonicalUrl":"https://foursquare.com/v/fiddle--whistle-irish-pub/4e98afa402d57894ddc37f03","category":"Pub","checkinsCount":1246,"usersCount":186,"tipCount":13,"visitsCount":1366,"tier":"","message":"","currency":"","rating":7.7},{"name":"Old Timer Tavern","phone":"6417539854","address":"401 S Center St","lat":42.04410265717894,"lng":-92.91317999014403,"city_fetched":"Marshalltown","state":"IA","country":"United States","canonicalUrl":"https://foursquare.com/v/old-timer-tavern/4ba3ddebf964a520356838e3","category":"Bar","checkinsCount":1665,"usersCount":222,"tipCount":5,"visitsCount":1783,"tier":1,"message":"Cheap","currency":"$","rating":7.5},{"name":"Iowa River Brewing Company","address":"107 N 1st St","lat":42.050981578722514,"lng":-92.91419909954969,"city_fetched":"Marshalltown","state":"IA","country":"United States","canonicalUrl":"https://foursquare.com/v/iowa-river-brewing-company/514cc5b8e4b00b3e07a31c39","category":"Brewery","checkinsCount":114,"usersCount":75,"tipCount":3,"visitsCount":145,"tier":"","message":"","currency":"","rating":7.4},{"name":"Calvin Rockett's Bar & Grill","phone":"6417536669","address":"2013 S Center St","lat":42.021419056994496,"lng":-92.91290205499945,"city_fetched":"Marshalltown","state":"IA","country":"United States","canonicalUrl":"https://foursquare.com/v/calvin-rocketts-bar--grill/4dc07ad26e8124d25dce3f02","category":"American Restaurant","checkinsCount":823,"usersCount":297,"tipCount":4,"visitsCount":1052,"tier":"","message":"","currency":"","rating":6.6},{"name":"Center Street Station","phone":"6417539900","address":"19 N Center St","lat":42.049785693363965,"lng":-92.91271676580408,"city_fetched":"Marshalltown","state":"IA","country":"United States","canonicalUrl":"https://foursquare.com/v/center-street-station/4bc94295cc8cd13aaf77bbcf","category":"Bar","checkinsCount":1153,"usersCount":177,"tipCount":3,"visitsCount":1212,"tier":"","message":"","currency":"","rating":6.5},{"name":"Rumors Sports Bar & Grill","address":"309 S 12th Avenue Pl","lat":42.04508241,"lng":-92.89306206666667,"city_fetched":"Marshalltown","state":"IA","country":"United States","canonicalUrl":"https://foursquare.com/v/rumors-sports-bar--grill/4c9576df6b35a1439eba25dc","category":"Bar","checkinsCount":352,"usersCount":150,"tipCount":1,"visitsCount":523,"tier":"","message":"","currency":"","rating":6.4},{"name":"Vaughn's Pub","phone":"6417520038","address":"22 N 1st Ave","lat":42.04973878351052,"lng":-92.91159152984619,"city_fetched":"Marshalltown","state":"IA","country":"United States","canonicalUrl":"https://foursquare.com/v/vaughns-pub/4ba3e117f964a520836938e3","category":"Bar","checkinsCount":417,"usersCount":133,"tipCount":4,"visitsCount":514,"tier":"","message":"","currency":"","rating":6.4}]