[{"name":"Smoky Mountain Brewery","phone":"8652381900","twitter":"smokymtnbrewery","address":"743 Watkins Rd","lat":35.75072463875337,"lng":-83.99353977464301,"city_fetched":"Maryville","state":"TN","country":"United States","canonicalUrl":"https://foursquare.com/v/smoky-mountain-brewery/51047da3e4b022bffe6d19cb","category":"Brewery","checkinsCount":1132,"usersCount":749,"tipCount":11,"visitsCount":1546,"url":"http://smoky-mtn-brewery.com","tier":2,"message":"Moderate","currency":"$","rating":9},{"name":"Bluetick Brewery","address":"1509 E Broadway Ave","lat":35.77027593837887,"lng":-83.95919354649497,"city_fetched":"Maryville","state":"TN","country":"United States","canonicalUrl":"https://foursquare.com/v/bluetick-brewery/517ef8c5e4b0f91f537dbf0d","category":"Pub","checkinsCount":342,"usersCount":115,"tipCount":4,"visitsCount":503,"tier":"","message":"","currency":"","rating":8},{"name":"The Bullpen Bar& Grill","phone":"8659845537","address":"328 Gill St","lat":35.7609571164507,"lng":-83.97428409042543,"city_fetched":"Maryville","state":"TN","country":"United States","canonicalUrl":"https://foursquare.com/v/the-bullpen-bar-grill/4c88265e97828cfae3dd99aa","category":"Bar","checkinsCount":378,"usersCount":102,"tipCount":9,"visitsCount":449,"tier":"","message":"","currency":"","rating":7.5},{"name":"Two Doors Down","phone":"8659807771","address":"118 E Broadway Ave","lat":35.75642473443628,"lng":-83.97072367909472,"city_fetched":"Maryville","state":"TN","country":"United States","canonicalUrl":"https://foursquare.com/v/two-doors-down/4b9d6a40f964a52025ab36e3","category":"Bar","checkinsCount":1165,"usersCount":312,"tipCount":10,"visitsCount":1263,"url":"http://twodoorsdownmaryville.com","tier":"","message":"","currency":"","rating":7.4},{"name":"Flaherty's Irish Pub","address":"1720 W Broadway Ave","lat":35.73511430379415,"lng":-83.99267709334072,"city_fetched":"Maryville","state":"TN","country":"United States","canonicalUrl":"https://foursquare.com/v/flahertys-irish-pub/5145e088e4b08f778942b4f5","category":"Gastropub","checkinsCount":216,"usersCount":127,"tipCount":14,"visitsCount":236,"tier":"","message":"","currency":"","rating":7.3},{"name":"Waterfront Bar & Grill","phone":"8656811212","address":"404 Greenbelt Dr","lat":35.759523993470815,"lng":-83.97115259308147,"city_fetched":"Maryville","state":"TN","country":"United States","canonicalUrl":"https://foursquare.com/v/waterfront-bar--grill/4b8d6ad6f964a5206bfa32e3","category":"Bar","checkinsCount":273,"usersCount":135,"tipCount":11,"visitsCount":287,"url":"http://www.waterfrontmaryville.com","tier":"","message":"","currency":"","rating":7.2},{"name":"Brackins Blues Club","address":"112 E Broadway Ave","lat":35.75621300110765,"lng":-83.97080119389422,"city_fetched":"Maryville","state":"TN","country":"United States","canonicalUrl":"https://foursquare.com/v/brackins-blues-club/4b4fd41ef964a520e61627e3","category":"Dive Bar","checkinsCount":499,"usersCount":234,"tipCount":7,"visitsCount":613,"tier":"","message":"","currency":"","rating":7.1},{"name":"Naterz Sports Grill","phone":"8659800505","address":"510 Foothills Plz","lat":35.74235289482844,"lng":-83.99307485809653,"city_fetched":"Maryville","state":"TN","country":"United States","canonicalUrl":"https://foursquare.com/v/naterz-sports-grill/4b9fd86af964a5200b4437e3","category":"Sports Bar","checkinsCount":1144,"usersCount":249,"tipCount":7,"visitsCount":1144,"url":"http://www.naterzsportsgrill.com","tier":"","message":"","currency":"","rating":7}]