[{"name":"Lake Time Brewery","twitter":"laketimebrewery","address":"801 Main Ave","lat":43.137146622585625,"lng":-93.37855833223175,"city_fetched":"Mason City,US","state":"IA","country":"United States","canonicalUrl":"https://foursquare.com/laketimebrewery","categoryId":"50327c8591d4c4b30a586d5d","category":"Brewery","checkinsCount":584,"usersCount":205,"tipCount":8,"visitsCount":897,"url":"http://www.laketimebrewery.com","tier":2,"message":"Moderate","currency":"$","rating":8.6},{"name":"1910 Lounge","phone":"6414220015","address":"7 West State Street","lat":43.1516754111597,"lng":-93.20176343336428,"city_fetched":"Mason City,US","state":"IA","country":"United States","canonicalUrl":"https://foursquare.com/v/1910-lounge/4f710491e4b04f471107f46c","categoryId":"4bf58dd8d48988d121941735","category":"Lounge","checkinsCount":203,"usersCount":96,"tipCount":1,"visitsCount":212,"tier":"","message":"","currency":"","rating":8.3},{"name":"Sips","address":"444 N Shore Dr","lat":43.13946518899608,"lng":-93.38924753137736,"city_fetched":"Mason City,US","state":"IA","country":"United States","canonicalUrl":"https://foursquare.com/v/sips/4bcf7ebc046076b0576f6e71","categoryId":"4bf58dd8d48988d116941735","category":"Bar","checkinsCount":313,"usersCount":166,"tipCount":11,"visitsCount":333,"tier":"","message":"","currency":"","rating":8},{"name":"Mason City Brewing","address":"28 E State St","lat":43.15185325605143,"lng":-93.19977189148271,"city_fetched":"Mason City,US","state":"IA","country":"United States","canonicalUrl":"https://foursquare.com/v/mason-city-brewing/51280831e4b0fd96575d6738","categoryId":"50327c8591d4c4b30a586d5d","category":"Brewery","checkinsCount":393,"usersCount":169,"tipCount":4,"visitsCount":484,"tier":"","message":"","currency":"","rating":7.6},{"name":"Rookies","phone":"6413574629","address":"307 Main Ave","lat":43.13606797783166,"lng":-93.38164521016627,"city_fetched":"Mason City,US","state":"IA","country":"United States","canonicalUrl":"https://foursquare.com/v/rookies/4b635ff5f964a5206a752ae3","categoryId":"4bf58dd8d48988d116941735","category":"Bar","checkinsCount":788,"usersCount":304,"tipCount":3,"visitsCount":828,"tier":"","message":"","currency":"","rating":7.6},{"name":"Lorados Bar","phone":"6414248060","address":"18 S Federal Ave","lat":43.151297203487424,"lng":-93.20117479181621,"city_fetched":"Mason City,US","state":"IA","country":"United States","canonicalUrl":"https://foursquare.com/v/lorados-bar/4b91b2a0f964a520b5d033e3","categoryId":"4bf58dd8d48988d116941735","category":"Bar","checkinsCount":258,"usersCount":130,"tipCount":1,"visitsCount":264,"tier":"","message":"","currency":"","rating":6.7},{"name":"Elly's","phone":"6413579589","address":"12 S Shore Dr","lat":43.13516260498217,"lng":-93.3826249773238,"city_fetched":"Mason City,US","state":"IA","country":"United States","canonicalUrl":"https://foursquare.com/v/ellys/4cd5d9d367adf04dbccf2f91","categoryId":"4bf58dd8d48988d116941735","category":"Bar","checkinsCount":261,"usersCount":111,"tipCount":6,"visitsCount":269,"tier":"","message":"","currency":"","rating":6.5},{"name":"Papa's American Cafe","phone":"6414241593","address":"2960 4th St SW","lat":43.14885979675562,"lng":-93.24492531557205,"city_fetched":"Mason City,US","state":"IA","country":"United States","canonicalUrl":"https://foursquare.com/v/papas-american-cafe/4bbf645330c99c74331b5511","categoryId":"4bf58dd8d48988d116941735","category":"Bar","checkinsCount":550,"usersCount":319,"tipCount":6,"visitsCount":685,"url":"http://www.papasamericancafe.com","tier":"","message":"","currency":"","rating":6.4}]