[{"name":"Cork-N-Bottle","phone":"4407200300","address":"6724 Mayfield Rd","lat":41.51960853639295,"lng":-81.43674194812775,"city_fetched":"Mayfield","state":"OH","country":"United States","canonicalUrl":"https://foursquare.com/v/corknbottle/4b872932f964a520f8b331e3","category":"Bar","checkinsCount":2985,"usersCount":605,"tipCount":20,"visitsCount":3302,"url":"http://www.cork-n-bottle.com","tier":"","message":"","currency":"","rating":8.1},{"name":"Panini's Bar and Grill","phone":"4406050404","address":"6289 Mayfield Rd","lat":41.52056859653477,"lng":-81.45217542332666,"city_fetched":"Mayfield","state":"OH","country":"United States","canonicalUrl":"https://foursquare.com/v/paninis-bar-and-grill/4ad4dcf0f964a52051fc20e3","category":"Sports Bar","checkinsCount":3684,"usersCount":1545,"tipCount":16,"visitsCount":4229,"url":"http://www.paninisgrill.com/locations/mayfield","tier":2,"message":"Moderate","currency":"$","rating":7},{"name":"Scalpers Bar & Grille","phone":"4404423577","address":"5718 Mayfield Rd","lat":41.51999358584679,"lng":-81.47351435997139,"city_fetched":"Mayfield","state":"OH","country":"United States","canonicalUrl":"https://foursquare.com/v/scalpers-bar--grille/4b3302a0f964a520011725e3","category":"Dive Bar","checkinsCount":1745,"usersCount":429,"tipCount":12,"visitsCount":1824,"url":"http://www.scalpersbarandgrille.com","tier":2,"message":"Moderate","currency":"$","rating":6.9},{"name":"Spirits of '56","phone":"4402366334","twitter":"neustar","address":"5881 Mayfield Rd","lat":41.52063531666667,"lng":-81.467728,"city_fetched":"Mayfield","state":"OH","country":"United States","canonicalUrl":"https://foursquare.com/v/spirits-of-56/4aeb8796f964a52014c321e3","category":"Bar","checkinsCount":596,"usersCount":166,"tipCount":5,"visitsCount":636,"tier":"","message":"","currency":"","rating":6.9},{"name":"Fox & Hound","phone":"4406469078","twitter":"the_foxandhound","address":"1479 S.O.M. Center Road","lat":41.52078815,"lng":-81.43731592,"city_fetched":"Mayfield","state":"OH","country":"United States","canonicalUrl":"https://foursquare.com/v/fox--hound/4bd78c810b779c74258305a0","category":"Sports Bar","checkinsCount":5512,"usersCount":2236,"tipCount":35,"visitsCount":6180,"url":"http://t.co/6Wlr3nrgdg","tier":2,"message":"Moderate","currency":"$","rating":6.8},{"name":"Otani Japanese Restaurant","phone":"4404427098","address":"1625 Golden Gate Plz","lat":41.5163283782262,"lng":-81.45020693986098,"city_fetched":"Mayfield","state":"OH","country":"United States","canonicalUrl":"https://foursquare.com/v/otani-japanese-restaurant/4b397085f964a5209e5c25e3","category":"Japanese Restaurant","checkinsCount":899,"usersCount":538,"tipCount":20,"visitsCount":987,"url":"http://www.otanicleveland.com","tier":3,"message":"Expensive","currency":"$","rating":6.3},{"name":"Fridays","phone":"4404618443","twitter":"tgifridays","address":"1641 Golden Gate Plz","lat":41.5161592,"lng":-81.45114023,"city_fetched":"Mayfield","state":"OH","country":"United States","canonicalUrl":"https://foursquare.com/v/fridays/4b1e8a92f964a5205e1b24e3","category":"American Restaurant","checkinsCount":2139,"usersCount":1311,"tipCount":18,"visitsCount":2436,"url":"http://tgifridays.com","tier":2,"message":"Moderate","currency":"$","rating":6},{"name":"Two Bucks Mayfield","phone":"4406831126","address":"1637 Golden Gate Plz","lat":41.51623580678485,"lng":-81.45079159015518,"city_fetched":"Mayfield","state":"OH","country":"United States","canonicalUrl":"https://foursquare.com/v/two-bucks-mayfield/505e259ae4b07c5bd2dbd6b1","category":"Bar","checkinsCount":500,"usersCount":230,"tipCount":9,"visitsCount":553,"url":"http://www.twobucks.us","tier":1,"message":"Cheap","currency":"$","rating":5.8}]