[{"name":"Dress Code Nightclub","phone":"9562170267","address":"3300 N McColl Rd","lat":26.231274050340904,"lng":-98.2066537890795,"city_fetched":"McAllen","state":"TX","country":"United States","canonicalUrl":"https://foursquare.com/v/dress-code-nightclub/5056808470432d70ce8b40c5","category":"Nightclub","checkinsCount":58,"usersCount":39,"tipCount":3,"visitsCount":58,"tier":"","message":"","currency":"","rating":9.2},{"name":"The Patio On Guerra's","phone":"9566619100","address":"116 S 17th St","lat":26.203331351280212,"lng":-98.23809385299683,"neighborhood":"McAllen Historic Business Redevelopment","city_fetched":"McAllen","state":"TX","country":"United States","canonicalUrl":"https://foursquare.com/v/the-patio-on-guerras/4bc16a694cdfc9b665bb9421","category":"Lounge","checkinsCount":880,"usersCount":555,"tipCount":22,"visitsCount":988,"url":"http://www.patioonguerra.com","tier":2,"message":"Moderate","currency":"$","rating":9.1},{"name":"Roosevelt's at 7","phone":"9569281994","twitter":"rooseveltsat7","address":"821 N Main St","lat":26.212030657489464,"lng":-98.23341608047485,"city_fetched":"McAllen","state":"TX","country":"United States","canonicalUrl":"https://foursquare.com/rooseveltsat7","category":"Restaurant","checkinsCount":8114,"usersCount":1718,"tipCount":71,"visitsCount":9243,"url":"http://rooseveltsatseven.com","tier":2,"message":"Moderate","currency":"$","rating":9},{"name":"The Flying Walrus","phone":"9566270211","twitter":"flyingwalrusbar","address":"204 S 17th St","lat":26.202539485012846,"lng":-98.23822259902954,"neighborhood":"McAllen Historic Business Redevelopment","city_fetched":"McAllen","state":"TX","country":"United States","canonicalUrl":"https://foursquare.com/v/the-flying-walrus/5007877345b091a52ab097a3","category":"Bar","checkinsCount":1304,"usersCount":424,"tipCount":18,"visitsCount":1503,"url":"http://www.theflyingwalruslive.com","tier":2,"message":"Moderate","currency":"$","rating":8.8},{"name":"BJ's Restaurant & Brewhouse","phone":"9566872005","address":"3200 E Expressway 83","lat":26.195129,"lng":-98.25944,"city_fetched":"McAllen","state":"TX","country":"United States","canonicalUrl":"https://foursquare.com/v/bjs-restaurant--brewhouse/4bc5355b41cb76b04b293e6f","category":"Brewery","checkinsCount":3334,"usersCount":2128,"tipCount":43,"visitsCount":4371,"url":"http://www.bjsrestaurants.com","tier":2,"message":"Moderate","currency":"$","rating":8.7},{"name":"house. wine.","phone":"9569948331","address":"1117 W. Bus. 83","lat":26.20358898,"lng":-98.2318,"city_fetched":"McAllen","state":"TX","country":"United States","canonicalUrl":"https://foursquare.com/v/house-wine/4be4926bcf200f474327123c","category":"Wine Bar","checkinsCount":1815,"usersCount":961,"tipCount":35,"visitsCount":2242,"url":"http://www.housewineandbistro.com","tier":2,"message":"Moderate","currency":"$","rating":8.6},{"name":"Gamehaus Gastropub","phone":"9563911202","twitter":"gamehausmcallen","address":"2109 W Nolana Ave","lat":26.240297726768006,"lng":-98.2367140638027,"city_fetched":"McAllen","state":"TX","country":"United States","canonicalUrl":"https://foursquare.com/v/gamehaus-gastropub/514b14e6e4b06bd414498bc9","category":"Gastropub","checkinsCount":1535,"usersCount":675,"tipCount":7,"visitsCount":2215,"url":"http://gamehausgastropub.com","tier":1,"message":"Cheap","currency":"$","rating":8.5},{"name":"Hillbilly's","phone":"9566871106","address":"6000 N 10th St","lat":26.25780957990434,"lng":-98.2204674929876,"city_fetched":"McAllen","state":"TX","country":"United States","canonicalUrl":"https://foursquare.com/v/hillbillys/4c0743d4b4aa0f477e706562","category":"Bar","checkinsCount":870,"usersCount":375,"tipCount":5,"visitsCount":932,"tier":2,"message":"Moderate","currency":"$","rating":8.3},{"name":"Tilted Kilt McAllen","phone":"9566875458","twitter":"tiltedkiltpub","address":"4037 US HWY 83","lat":26.19470447546278,"lng":-98.26829884932465,"city_fetched":"McAllen","state":"TX","country":"United States","canonicalUrl":"https://foursquare.com/v/tilted-kilt-mcallen/511938f1e4b0731599948fc8","category":"Pub","checkinsCount":762,"usersCount":642,"tipCount":9,"visitsCount":1111,"url":"http://www.tiltedkilt.com","tier":"","message":"","currency":"","rating":8.2},{"name":"Infusions Eats & Drinks","phone":"9566272905","twitter":"infusionseats","address":"701 N Main St","lat":26.210525002073013,"lng":-98.23376036056207,"city_fetched":"McAllen","state":"TX","country":"United States","canonicalUrl":"https://foursquare.com/v/infusions-eats--drinks/523e9cdf498ef93341ea6231","category":"New American Restaurant","checkinsCount":655,"usersCount":353,"tipCount":11,"visitsCount":991,"url":"http://infusionseatsdrinks.com","tier":2,"message":"Moderate","currency":"$","rating":8.2},{"name":"Skean Dhu","phone":"9565812198","address":"2406 E Griffin Pkwy","lat":26.223689012533068,"lng":-98.28282237052917,"city_fetched":"McAllen","state":"TX","country":"United States","canonicalUrl":"https://foursquare.com/v/skean-dhu/4b4bfd13f964a520b0ac26e3","category":"Pub","checkinsCount":1429,"usersCount":223,"tipCount":2,"visitsCount":1467,"tier":2,"message":"Moderate","currency":"$","rating":8.1},{"name":"Havana Club Bar & Grill","phone":"9566873100","address":"500 E Nolana Ave","lat":26.237343081945998,"lng":-98.20895433425903,"city_fetched":"McAllen","state":"TX","country":"United States","canonicalUrl":"https://foursquare.com/v/havana-club-bar--grill/4c3a1c04ae2da59371af03c6","category":"Nightclub","checkinsCount":272,"usersCount":205,"tipCount":10,"visitsCount":309,"tier":"","message":"","currency":"","rating":8.1},{"name":"Buffalo Wings & Rings","phone":"9565832523","address":"907 S Shary Rd","lat":26.19217628179702,"lng":-98.28852474689484,"city_fetched":"McAllen","state":"TX","country":"United States","canonicalUrl":"https://foursquare.com/v/buffalo-wings--rings/4b64cfdef964a520fcd12ae3","category":"Wings Joint","checkinsCount":1181,"usersCount":1014,"tipCount":21,"visitsCount":1890,"url":"http://buffalowildwings.com","tier":2,"message":"Moderate","currency":"$","rating":8.1},{"name":"Peacock's Shot Bar","phone":"9566314031","address":"209 S 17th St","lat":26.202452658656664,"lng":-98.23795860716352,"neighborhood":"McAllen Historic Business Redevelopment","city_fetched":"McAllen","state":"TX","country":"United States","canonicalUrl":"https://foursquare.com/v/peacocks-shot-bar/4cc8e0ded147a093a214e4ae","category":"Bar","checkinsCount":955,"usersCount":403,"tipCount":2,"visitsCount":1038,"tier":"","message":"","currency":"","rating":8.1},{"name":"The Office Bar & Grill","phone":"9566867778","twitter":"theofficebarrgv","address":"1116 Pecan Blvd","lat":26.218213414868707,"lng":-98.2286010114287,"city_fetched":"McAllen","state":"TX","country":"United States","canonicalUrl":"https://foursquare.com/theofficebarrgv","category":"BBQ Joint","checkinsCount":639,"usersCount":259,"tipCount":12,"visitsCount":736,"url":"http://theofficebaronline.com","tier":1,"message":"Cheap","currency":"$","rating":8},{"name":"Opera Teatro Bar","phone":"9566275285","twitter":"viveopera","address":"1704 Chicago Ave","lat":26.20211636096559,"lng":-98.23859958190829,"neighborhood":"McAllen Historic Business Redevelopment","city_fetched":"McAllen","state":"TX","country":"United States","canonicalUrl":"https://foursquare.com/viveopera","category":"Nightclub","checkinsCount":307,"usersCount":142,"tipCount":2,"visitsCount":320,"tier":"","message":"","currency":"","rating":7.9},{"name":"Casa Petrides Tobaccos","phone":"9566689686","twitter":"casapetrides","address":"735 W Dove Ave","lat":26.25282678828376,"lng":-98.21878536080861,"city_fetched":"McAllen","state":"TX","country":"United States","canonicalUrl":"https://foursquare.com/v/casa-petrides-tobaccos/4c9a590a78fc236ad9c23497","category":"Lounge","checkinsCount":285,"usersCount":130,"tipCount":3,"visitsCount":348,"tier":"","message":"","currency":"","rating":7.9},{"name":"Cine El Rey","phone":"9566825101","address":"311 S 17th St","lat":26.201307308509605,"lng":-98.23811531066895,"neighborhood":"McAllen Historic Business Redevelopment","city_fetched":"McAllen","state":"TX","country":"United States","canonicalUrl":"https://foursquare.com/v/cine-el-rey/4ba6a6bbf964a520396639e3","category":"Indie Movie Theater","checkinsCount":1515,"usersCount":443,"tipCount":23,"visitsCount":1650,"url":"http://www.cineelrey.com/index.php","tier":"","message":"","currency":"","rating":7.9},{"name":"PBD's Lounge","phone":"9566828019","address":"2908 N Ware Rd","lat":26.234590743058973,"lng":-98.25643479824066,"city_fetched":"McAllen","state":"TX","country":"United States","canonicalUrl":"https://foursquare.com/v/pbds-lounge/4b4e31ebf964a520d2e426e3","category":"Gay Bar","checkinsCount":3595,"usersCount":221,"tipCount":8,"visitsCount":3798,"url":"http://pbds-mcallentx.com","tier":"","message":"","currency":"","rating":7.9},{"name":"Sofies SS Saloon","address":"South HW 336","lat":26.144886024499897,"lng":-98.23947024820662,"city_fetched":"McAllen","state":"TX","country":"United States","canonicalUrl":"https://foursquare.com/v/sofies-ss-saloon/4b9b27c8f964a520a4f635e3","category":"Bar","checkinsCount":1450,"usersCount":182,"tipCount":10,"visitsCount":1554,"tier":1,"message":"Cheap","currency":"$","rating":7.9},{"name":"The New 17th St.","twitter":"thenew17thst","address":"S. 17th St.","lat":26.20278976927166,"lng":-98.23802947998045,"neighborhood":"McAllen Historic Business Redevelopment","city_fetched":"McAllen","state":"TX","country":"United States","canonicalUrl":"https://foursquare.com/thenew17thst","category":"General Entertainment","checkinsCount":17,"usersCount":11,"tipCount":0,"visitsCount":17,"url":"http://www.thenew17thst.com","tier":"","message":"","currency":"","rating":7.8},{"name":"DoubleTree Suites by Hilton™ - Lounge","address":"1800 S 2nd Street","lat":26.185027074444367,"lng":-98.22484121677718,"city_fetched":"McAllen","state":"TX","country":"United States","canonicalUrl":"https://foursquare.com/v/doubletree-suites-by-hilton--lounge/4e34daac2271b2cf067244c9","category":"Lounge","checkinsCount":320,"usersCount":141,"tipCount":3,"visitsCount":323,"tier":"","message":"","currency":"","rating":7.8},{"name":"Tri Bar","phone":"9562120374","address":"100 A 17th Street","lat":26.203625521657283,"lng":-98.23814555755438,"neighborhood":"McAllen Historic Business Redevelopment","city_fetched":"McAllen","state":"TX","country":"United States","canonicalUrl":"https://foursquare.com/v/tri-bar/51774ba8e4b025cbe7f10d71","category":"Nightclub","checkinsCount":367,"usersCount":188,"tipCount":1,"visitsCount":404,"tier":"","message":"","currency":"","rating":7.8},{"name":"Deloreans 80s Bar","phone":"9568251095","twitter":"deloreans80s","address":"2200 W Nolana Ave","lat":26.241198570121043,"lng":-98.23784643715685,"city_fetched":"McAllen","state":"TX","country":"United States","canonicalUrl":"https://foursquare.com/v/deloreans-80s-bar/4ecd6f5b8231b9ef852b5c73","category":"Bar","checkinsCount":1846,"usersCount":644,"tipCount":20,"visitsCount":1966,"tier":"","message":"","currency":"","rating":7.7},{"name":"Suerte Bar & Grill","address":"301 N 17th St","lat":26.201814,"lng":-98.23805,"neighborhood":"McAllen Historic Business Redevelopment","city_fetched":"McAllen","state":"TX","country":"United States","canonicalUrl":"https://foursquare.com/v/suerte-bar--grill/5291997911d25ada8a1094a2","category":"Bar","checkinsCount":506,"usersCount":199,"tipCount":5,"visitsCount":583,"tier":"","message":"","currency":"","rating":7.7},{"name":"Al Basha Restaurant","phone":"9566864664","address":"319 N 10th St","lat":26.206715,"lng":-98.229787,"city_fetched":"McAllen","state":"TX","country":"United States","canonicalUrl":"https://foursquare.com/v/al-basha-restaurant/4d3a6911cc48224b5a2d3d4f","category":"Hookah Bar","checkinsCount":246,"usersCount":149,"tipCount":8,"visitsCount":246,"tier":"","message":"","currency":"","rating":7.4},{"name":"London Grill & Tavern","phone":"9562138387","address":"129 E Nolana Ave","lat":26.238401656474664,"lng":-98.21125030517578,"city_fetched":"McAllen","state":"TX","country":"United States","canonicalUrl":"https://foursquare.com/v/london-grill--tavern/4bc12b682a89ef3babfcf188","category":"Pub","checkinsCount":1793,"usersCount":752,"tipCount":24,"visitsCount":2061,"url":"http://londongrill.com","tier":1,"message":"Cheap","currency":"$","rating":7.2},{"name":"Flamingo Bowl","phone":"9566861286","twitter":"flamingobowltx","address":"3301 N 23rd St","lat":26.235091173157794,"lng":-98.24079751968384,"city_fetched":"McAllen","state":"TX","country":"United States","canonicalUrl":"https://foursquare.com/v/flamingo-bowl/4b54f2f0f964a520b5d427e3","category":"Bowling Alley","checkinsCount":1766,"usersCount":971,"tipCount":17,"visitsCount":2318,"url":"http://www.flamingobowlonline.com","tier":"","message":"","currency":"","rating":7.2},{"name":"McAllen's Cigar Bar","phone":"9566611166","address":"2200 W Nolana Ave Ste 2212","lat":26.24137523698538,"lng":-98.23775589466095,"city_fetched":"McAllen","state":"TX","country":"United States","canonicalUrl":"https://foursquare.com/v/mcallens-cigar-bar/4b87241ff964a520d8b231e3","category":"Bar","checkinsCount":2768,"usersCount":690,"tipCount":26,"visitsCount":2920,"tier":"","message":"","currency":"","rating":7.2},{"name":"Bourbon St. Grill & Cantina","address":"4800 N 10th St","lat":26.24700073300556,"lng":-98.22217636508886,"city_fetched":"McAllen","state":"TX","country":"United States","canonicalUrl":"https://foursquare.com/v/bourbon-st-grill--cantina/50838575e4b05e9135356416","category":"Bar","checkinsCount":292,"usersCount":174,"tipCount":4,"visitsCount":328,"tier":"","message":"","currency":"","rating":7.1},{"name":"El Divino Dining & Cocktails","phone":"9566273990","twitter":"eldivinorgv","address":"5001 North 10th Street","lat":26.248662185565873,"lng":-98.22315020503233,"city_fetched":"McAllen","state":"TX","country":"United States","canonicalUrl":"https://foursquare.com/v/el-divino-dining--cocktails/508b420d90e73358bb6adbbd","category":"Cocktail Bar","checkinsCount":950,"usersCount":400,"tipCount":18,"visitsCount":1241,"url":"http://www.eldivinorgv.com","tier":3,"message":"Expensive","currency":"$","rating":7.1},{"name":"Tokyo Sushi Bar","phone":"9566303386","address":"500 N 10th St","lat":26.20791256427765,"lng":-98.228948,"city_fetched":"McAllen","state":"TX","country":"United States","canonicalUrl":"https://foursquare.com/v/tokyo-sushi-bar/4b5c89ddf964a520383529e3","category":"Sushi Restaurant","checkinsCount":155,"usersCount":86,"tipCount":3,"visitsCount":157,"tier":"","message":"","currency":"","rating":7.1},{"name":"The New Ice House","phone":"9567896935","address":"1100 Austin Ave","lat":26.203036009213406,"lng":-98.23127143683371,"city_fetched":"McAllen","state":"TX","country":"United States","canonicalUrl":"https://foursquare.com/v/the-new-ice-house/527f2459498ebc86775d48ee","category":"Nightclub","checkinsCount":304,"usersCount":133,"tipCount":5,"visitsCount":418,"tier":2,"message":"Moderate","currency":"$","rating":7},{"name":"Bar 201","phone":"9562120374","address":"201 S 17th St","lat":26.20271,"lng":-98.23783,"neighborhood":"McAllen Historic Business Redevelopment","city_fetched":"McAllen","state":"TX","country":"United States","canonicalUrl":"https://foursquare.com/v/bar-201/4be638162468c92825390143","category":"Bar","checkinsCount":1391,"usersCount":336,"tipCount":3,"visitsCount":1417,"url":"http://www.bar201.com","tier":"","message":"","currency":"","rating":7},{"name":"Cursilerías Bar & Grill","lat":26.2566273476392,"lng":-98.22049953397409,"city_fetched":"McAllen","state":"TX","country":"United States","canonicalUrl":"https://foursquare.com/v/cursiler%C3%ADas-bar--grill/504c119de4b043e9edd9c9ae","category":"Lounge","checkinsCount":431,"usersCount":214,"tipCount":3,"visitsCount":579,"tier":"","message":"","currency":"","rating":6.9},{"name":"Schneider's German Gasthaus & Beergarden","phone":"9562427145","address":"5613 N Ware Rd","lat":26.257174015045166,"lng":-98.25427,"city_fetched":"McAllen","state":"TX","country":"United States","canonicalUrl":"https://foursquare.com/v/schneiders-german-gasthaus--beergarden/4cd765e3122ba14399b038a1","category":"German Restaurant","checkinsCount":354,"usersCount":202,"tipCount":16,"visitsCount":415,"tier":"","message":"","currency":"","rating":6.8}]