[{"name":"Mac Taps","phone":"5038839214","twitter":"mactapsgrowlers","address":"1306 NE Highway 99W","lat":45.22552621270582,"lng":-123.18537767982872,"city_fetched":"McMinnville","state":"OR","country":"United States","canonicalUrl":"https://foursquare.com/v/mac-taps/526b105511d2594d8891ac3d","category":"Beer Garden","checkinsCount":1164,"usersCount":106,"tipCount":6,"visitsCount":1490,"url":"http://www.mactaps.com","tier":"","message":"","currency":"","rating":8.7},{"name":"Thistle","phone":"5034729623","address":"228 Evans St","lat":45.20977967903201,"lng":-123.19451449038928,"city_fetched":"McMinnville","state":"OR","country":"United States","canonicalUrl":"https://foursquare.com/v/thistle/4ae3b1adf964a520389821e3","category":"American Restaurant","checkinsCount":371,"usersCount":277,"tipCount":22,"visitsCount":378,"url":"http://www.thistlerestaurant.com","tier":"","message":"","currency":"","rating":8.6},{"name":"Rooftop Bar","address":"310 NE Evans St","lat":45.21020477,"lng":-123.19428044572055,"city_fetched":"McMinnville","state":"OR","country":"United States","canonicalUrl":"https://foursquare.com/v/rooftop-bar/4d291f79068e8cfa0602cd4c","category":"Speakeasy","checkinsCount":606,"usersCount":408,"tipCount":1,"visitsCount":610,"tier":"","message":"","currency":"","rating":8.4},{"name":"Golden Valley Brewery","phone":"5034722739","address":"980 NE 4th St","lat":45.210298,"lng":-123.18895191666667,"city_fetched":"McMinnville","state":"OR","country":"United States","canonicalUrl":"https://foursquare.com/v/golden-valley-brewery/4b42b615f964a5200cd925e3","category":"Brewery","checkinsCount":1452,"usersCount":998,"tipCount":21,"visitsCount":1805,"url":"http://www.goldenvalleybrewery.com","tier":2,"message":"Moderate","currency":"$","rating":8.3},{"name":"The Bitter Monk","address":"250 NE 3rd St","lat":45.2100280959542,"lng":-123.19678897287297,"city_fetched":"McMinnville","state":"OR","country":"United States","canonicalUrl":"https://foursquare.com/v/the-bitter-monk/53530541498e49cc19961091","category":"Pub","checkinsCount":190,"usersCount":96,"tipCount":7,"visitsCount":206,"tier":"","message":"","currency":"","rating":7.8},{"name":"Willamette Valley Vineyards Wine Center","phone":"5038839012","address":"300 NE 3rd St","lat":45.209975,"lng":-123.196512,"city_fetched":"McMinnville","state":"OR","country":"United States","canonicalUrl":"https://foursquare.com/v/willamette-valley-vineyards-wine-center/4bbe931582a2ef3b8faa2bd2","category":"Wine Shop","checkinsCount":179,"usersCount":134,"tipCount":5,"visitsCount":180,"url":"http://www.willamettevalleyvineyards.com","tier":"","message":"","currency":"","rating":7.7},{"name":"Old oak","phone":"5038570577","lat":45.21023851693132,"lng":-123.1955429256668,"city_fetched":"McMinnville","state":"OR","country":"United States","canonicalUrl":"https://foursquare.com/v/old-oak/4fef2ae1e4b0c859d580426c","category":"Bar","checkinsCount":391,"usersCount":132,"tipCount":3,"visitsCount":447,"tier":"","message":"","currency":"","rating":7.4},{"name":"Grain Station Brew Works","phone":"5036872739","address":"755 NE Alpine Ave Ste 200","lat":45.212574510737674,"lng":-123.18954565185547,"city_fetched":"McMinnville","state":"OR","country":"United States","canonicalUrl":"https://foursquare.com/v/grain-station-brew-works/524486dd11d2c2469fcfce5a","category":"Brewery","checkinsCount":340,"usersCount":219,"tipCount":4,"visitsCount":404,"tier":"","message":"","currency":"","rating":7.3},{"name":"The Back Room at Nick's","address":"521 NE 3rd St","lat":45.21038612,"lng":-123.194163,"city_fetched":"McMinnville","state":"OR","country":"United States","canonicalUrl":"https://foursquare.com/v/the-back-room-at-nicks/4c11cb536e5dc9b69ecbb02d","category":"Cocktail Bar","checkinsCount":152,"usersCount":60,"tipCount":7,"visitsCount":153,"tier":"","message":"","currency":"","rating":7},{"name":"McMenamin's Roof Top Bar","lat":45.21019987430646,"lng":-123.19429889286572,"city_fetched":"McMinnville","state":"OR","country":"United States","canonicalUrl":"https://foursquare.com/v/mcmenamins-roof-top-bar/50429d6de4b09c6ce4ff55df","category":"Restaurant","checkinsCount":164,"usersCount":117,"tipCount":3,"visitsCount":165,"tier":"","message":"","currency":"","rating":6.7},{"name":"Blue Moon Tavern","phone":"5034723045","address":"310 NE 3rd St","lat":45.21003473415363,"lng":-123.19643211093168,"city_fetched":"McMinnville","state":"OR","country":"United States","canonicalUrl":"https://foursquare.com/v/blue-moon-tavern/4c4297166c1a9521ffdbb96a","category":"Bar","checkinsCount":260,"usersCount":94,"tipCount":3,"visitsCount":272,"tier":"","message":"","currency":"","rating":6.4}]