[{"name":"Roff School Tavern","phone":"8143338641","twitter":"roffschoolbar","address":"13388 Leslie Rd","lat":41.65371620863334,"lng":-80.11463877652582,"city_fetched":"Meadville,US","state":"PA","country":"United States","canonicalUrl":"https://foursquare.com/v/roff-school-tavern/4bb503d5b1edef3b65732cdd","categoryId":"4bf58dd8d48988d117941735","category":"Beer Garden","checkinsCount":983,"usersCount":256,"tipCount":10,"visitsCount":1134,"url":"http://www.roffschooltavern.com","tier":"","message":"","currency":"","rating":8.7},{"name":"Voodoo Brewery","phone":"8143373676","address":"217 Arch St","lat":41.63733228704992,"lng":-80.15496286283886,"city_fetched":"Meadville,US","state":"PA","country":"United States","canonicalUrl":"https://foursquare.com/v/voodoo-brewery/4ce94de7e1eeb60c7643a8ae","categoryId":"50327c8591d4c4b30a586d5d","category":"Brewery","checkinsCount":1278,"usersCount":705,"tipCount":22,"visitsCount":1651,"tier":"","message":"","currency":"","rating":8.7},{"name":"Timbercreek Tap & Table","twitter":"timbercreektap","address":"11191 Highline Dr","lat":41.62048447250249,"lng":-80.20320032049054,"city_fetched":"Meadville,US","state":"PA","country":"United States","canonicalUrl":"https://foursquare.com/v/timbercreek-tap--table/4fbd4acfe4b0971f9cddf7ad","categoryId":"50327c8591d4c4b30a586d5d","category":"Brewery","checkinsCount":870,"usersCount":557,"tipCount":17,"visitsCount":1026,"url":"http://www.timbercreektapandtable.com","tier":"","message":"","currency":"","rating":8.2},{"name":"Chipper's Pub","phone":"8143332122","address":"253 Chestnut St","lat":41.638178,"lng":-80.15284678333335,"city_fetched":"Meadville,US","state":"PA","country":"United States","canonicalUrl":"https://foursquare.com/v/chippers-pub/4b4cc6bff964a52061be26e3","categoryId":"4bf58dd8d48988d11b941735","category":"Pub","checkinsCount":822,"usersCount":224,"tipCount":3,"visitsCount":833,"url":"http://chipper.tv","tier":"","message":"","currency":"","rating":7.7},{"name":"chestnut street pub and grill","address":"Chestnut St, Meadville, PA 16335","lat":41.63820936184107,"lng":-80.15302233248755,"city_fetched":"Meadville,US","state":"PA","country":"United States","canonicalUrl":"https://foursquare.com/v/chestnut-street-pub-and-grill/4f7b8c02e4b00b8c4b6d0646","categoryId":"4bf58dd8d48988d116941735","category":"Bar","checkinsCount":831,"usersCount":131,"tipCount":3,"visitsCount":861,"tier":"","message":"","currency":"","rating":7.4},{"name":"Hunting  & Fishing Club Of Crawford County Inc","phone":"8143332582","address":"905 Market St","lat":41.63866565447365,"lng":-80.15326762667308,"city_fetched":"Meadville,US","state":"PA","country":"United States","canonicalUrl":"https://foursquare.com/v/hunting---fishing-club-of-crawford-county-inc/4dfbc40a45ddee0f84fbb948","categoryId":"4bf58dd8d48988d116941735","category":"Bar","checkinsCount":4229,"usersCount":73,"tipCount":0,"visitsCount":4322,"tier":"","message":"","currency":"","rating":6.8},{"name":"Ranz","phone":"8147242185","address":"10950 Liberty St","lat":41.61787396020576,"lng":-80.15046578016465,"city_fetched":"Meadville,US","state":"PA","country":"United States","canonicalUrl":"https://foursquare.com/v/ranz/4ddeea4dc65bcc78863fa204","categoryId":"4bf58dd8d48988d116941735","category":"Bar","checkinsCount":359,"usersCount":78,"tipCount":5,"visitsCount":413,"tier":"","message":"","currency":"","rating":6.7},{"name":"Penny Bar (Other Place)","phone":"8147242155","address":"212 W Steers St","lat":41.640931,"lng":-80.153731,"city_fetched":"Meadville,US","state":"PA","country":"United States","canonicalUrl":"https://foursquare.com/v/penny-bar-other-place/4b707d1ff964a5209c1d2de3","categoryId":"4bf58dd8d48988d116941735","category":"Bar","checkinsCount":532,"usersCount":215,"tipCount":8,"visitsCount":609,"tier":"","message":"","currency":"","rating":5.4}]