[{"name":"Jefferson Spirits","phone":"5416228190","twitter":"jeffersonspiri1","address":"404 E Main St","lat":42.327527,"lng":-122.870212,"city_fetched":"Medford,US","state":"OR","country":"United States","canonicalUrl":"https://foursquare.com/v/jefferson-spirits/52a0c01f11d240dbcf6ff6a1","categoryId":"4bf58dd8d48988d11e941735","category":"Cocktail Bar","checkinsCount":568,"usersCount":118,"tipCount":4,"visitsCount":644,"url":"http://jeffersonspirits.com","tier":2,"message":"Moderate","currency":"$","rating":8.7},{"name":"Dancin Vineyards","twitter":"dancinvineyards","address":"4554 S Stage Rd","lat":42.30101561742511,"lng":-122.94870240733057,"city_fetched":"Medford,US","state":"OR","country":"United States","canonicalUrl":"https://foursquare.com/v/dancin-vineyards/4fc29796e4b0e12f8e76a548","categoryId":"4bf58dd8d48988d123941735","category":"Wine Bar","checkinsCount":168,"usersCount":187,"tipCount":4,"visitsCount":289,"url":"http://www.dancinvineyards.com","tier":"","message":"","currency":"","rating":8.4},{"name":"Southern Oregon Brewing Company","phone":"5417769898","address":"1922 United Way","lat":42.35654318857984,"lng":-122.85930909849509,"city_fetched":"Medford,US","state":"OR","country":"United States","canonicalUrl":"https://foursquare.com/v/southern-oregon-brewing-company/4bad7142f964a52037513be3","categoryId":"50327c8591d4c4b30a586d5d","category":"Brewery","checkinsCount":2048,"usersCount":241,"tipCount":20,"visitsCount":2436,"url":"http://www.sobrewing.com","tier":"","message":"","currency":"","rating":8.1},{"name":"Standing Stone Brewing Company","phone":"5414822448","twitter":"ssbc","address":"101 Oak St","lat":42.19757434847241,"lng":-122.71446615457535,"city_fetched":"Medford,US","state":"OR","country":"United States","canonicalUrl":"https://foursquare.com/v/standing-stone-brewing-company/4b68f1d7f964a52044942be3","categoryId":"50327c8591d4c4b30a586d5d","category":"Brewery","checkinsCount":2152,"usersCount":1486,"tipCount":42,"visitsCount":2286,"url":"http://www.standingstonebrewing.com","tier":2,"message":"Moderate","currency":"$","rating":7.9},{"name":"Beerworks","phone":"5417709100","twitter":"beerworksbeer","address":"323 E Main St","lat":42.32733364637628,"lng":-122.87098385373125,"city_fetched":"Medford,US","state":"OR","country":"United States","canonicalUrl":"https://foursquare.com/v/beerworks/4e16548cd4c0c7a8fbb19547","categoryId":"4bf58dd8d48988d117941735","category":"Beer Garden","checkinsCount":860,"usersCount":227,"tipCount":7,"visitsCount":957,"tier":"","message":"","currency":"","rating":7.8},{"name":"Caldera Tap House","phone":"5414824677","address":"31 Water St","lat":42.19844865280202,"lng":-122.71539688110352,"city_fetched":"Medford,US","state":"OR","country":"United States","canonicalUrl":"https://foursquare.com/v/caldera-tap-house/4b84b1cbf964a520504131e3","categoryId":"50327c8591d4c4b30a586d5d","category":"Brewery","checkinsCount":695,"usersCount":467,"tipCount":19,"visitsCount":710,"url":"http://www.calderabrewing.com","tier":"","message":"","currency":"","rating":7.7},{"name":"Chadwick's Pub & Sports Bar","phone":"5412822122","twitter":"chadwickschamps","address":"2300 Biddle Rd","lat":42.353432522251914,"lng":-122.87371802482599,"city_fetched":"Medford,US","state":"OR","country":"United States","canonicalUrl":"https://foursquare.com/chadwickschamps","categoryId":"4bf58dd8d48988d11d941735","category":"Sports Bar","checkinsCount":667,"usersCount":289,"tipCount":13,"visitsCount":789,"url":"http://chadwickspub.com","tier":"","message":"","currency":"","rating":7.5},{"name":"Howiee's on Front","phone":"5417735767","twitter":"howieesonfront","address":"16 N Front St","lat":42.32650664033898,"lng":-122.87329316139221,"city_fetched":"Medford,US","state":"OR","country":"United States","canonicalUrl":"https://foursquare.com/v/howiees-on-front/4b89735ff964a520713732e3","categoryId":"4bf58dd8d48988d116941735","category":"Bar","checkinsCount":1235,"usersCount":348,"tipCount":9,"visitsCount":1339,"url":"http://www.howiees.com","tier":"","message":"","currency":"","rating":7.1},{"name":"Portal Brewing Company","lat":42.327013,"lng":-122.873832,"city_fetched":"Medford,US","state":"OR","country":"United States","canonicalUrl":"https://foursquare.com/v/portal-brewing-company/514b9db6e4b08f3977d8dd8e","categoryId":"4bf58dd8d48988d11b941735","category":"Pub","checkinsCount":208,"usersCount":76,"tipCount":9,"visitsCount":218,"tier":"","message":"","currency":"","rating":7},{"name":"J'Ville Tavern","phone":"5418991170","twitter":"jvilletavern","address":"125 W California St","lat":42.31421871139711,"lng":-122.9680824279785,"city_fetched":"Medford,US","state":"OR","country":"United States","canonicalUrl":"https://foursquare.com/v/jville-tavern/4c5a0859ec2520a1ffa55012","categoryId":"4bf58dd8d48988d116941735","category":"Bar","checkinsCount":158,"usersCount":93,"tipCount":3,"visitsCount":159,"url":"http://jacksonvilleoregon.com/directory/jville-tavern/","tier":"","message":"","currency":"","rating":6.9},{"name":"Swing Tree Brewing Co","phone":"5415918567","twitter":"swingtreebeer","address":"300 E Hersey St #7","lat":42.20080267501389,"lng":-122.7064159137431,"city_fetched":"Medford,US","state":"OR","country":"United States","canonicalUrl":"https://foursquare.com/v/swing-tree-brewing-co/50b94351e4b0136726c40efe","categoryId":"50327c8591d4c4b30a586d5d","category":"Brewery","checkinsCount":293,"usersCount":74,"tipCount":5,"visitsCount":379,"tier":"","message":"","currency":"","rating":6.9},{"name":"Walkabout Brewing Company","phone":"5417344677","address":"921 Mason Way","lat":42.34791157191492,"lng":-122.90260434150694,"city_fetched":"Medford,US","state":"OR","country":"United States","canonicalUrl":"https://foursquare.com/v/walkabout-brewing-company/4f67c19ee4b0bf5ad1317507","categoryId":"50327c8591d4c4b30a586d5d","category":"Brewery","checkinsCount":73,"usersCount":79,"tipCount":3,"visitsCount":132,"tier":"","message":"","currency":"","rating":6.8},{"name":"Bricktowne Brewing","phone":"5419732377","twitter":"bricktowne","address":"111 E 8th St","lat":42.32574330036404,"lng":-122.87155078869763,"city_fetched":"Medford,US","state":"OR","country":"United States","canonicalUrl":"https://foursquare.com/bricktowne","categoryId":"50327c8591d4c4b30a586d5d","category":"Brewery","checkinsCount":570,"usersCount":298,"tipCount":18,"visitsCount":677,"url":"http://www.bricktownebeer.com","tier":2,"message":"Moderate","currency":"$","rating":6.7},{"name":"Joe's Sports Bar & Grill","phone":"5417739522","address":"2061 Roberts Rd","lat":42.35152724695742,"lng":-122.8541851043701,"city_fetched":"Medford,US","state":"OR","country":"United States","canonicalUrl":"https://foursquare.com/v/joes-sports-bar--grill/4bbee41885fbb713f1687167","categoryId":"4bf58dd8d48988d11d941735","category":"Sports Bar","checkinsCount":380,"usersCount":102,"tipCount":5,"visitsCount":384,"tier":"","message":"","currency":"","rating":6.6},{"name":"The Rocky-Tonk Saloon & Grill","phone":"5419732887","twitter":"therockytonk","address":"333 E Main St","lat":42.32746640978996,"lng":-122.87101864814757,"city_fetched":"Medford,US","state":"OR","country":"United States","canonicalUrl":"https://foursquare.com/v/the-rockytonk-saloon--grill/5025d411e4b030d4ec64f8e6","categoryId":"4bf58dd8d48988d116941735","category":"Bar","checkinsCount":178,"usersCount":100,"tipCount":5,"visitsCount":178,"tier":"","message":"","currency":"","rating":6.4},{"name":"Granite Taphouse","phone":"5417085055","twitter":"granitetaphouse","address":"23 N Main St","lat":42.197099582636234,"lng":-122.7156669677924,"city_fetched":"Medford,US","state":"OR","country":"United States","canonicalUrl":"https://foursquare.com/v/granite-taphouse/5331a8e5498eddfba51372a4","categoryId":"4bf58dd8d48988d11b941735","category":"Pub","checkinsCount":140,"usersCount":93,"tipCount":4,"visitsCount":144,"tier":2,"message":"Moderate","currency":"$","rating":6.4},{"name":"The Gypsy","phone":"5417701212","address":"205 W 8th St","lat":42.323960404150846,"lng":-122.8744626045227,"city_fetched":"Medford,US","state":"OR","country":"United States","canonicalUrl":"https://foursquare.com/v/the-gypsy/4c75a9963adda143901008af","categoryId":"4bf58dd8d48988d11b941735","category":"Pub","checkinsCount":337,"usersCount":116,"tipCount":4,"visitsCount":376,"tier":"","message":"","currency":"","rating":6.1},{"name":"The Office Gentlemens Club","phone":"5417724079","address":"1 S Riverside Ave","lat":42.32732958404829,"lng":-122.87038832902908,"city_fetched":"Medford,US","state":"OR","country":"United States","canonicalUrl":"https://foursquare.com/v/the-office-gentlemens-club/4d071dbd79fd6a31b0ea8083","categoryId":"4bf58dd8d48988d1d6941735","category":"Strip Club","checkinsCount":234,"usersCount":53,"tipCount":3,"visitsCount":234,"tier":"","message":"","currency":"","rating":5.9},{"name":"Sky House Bar & Grill","phone":"5414996975","address":"1000 Terminal Loop Pkwy","lat":42.368421,"lng":-122.874068,"city_fetched":"Medford,US","state":"OR","country":"United States","canonicalUrl":"https://foursquare.com/v/sky-house-bar--grill/4c38d01d2c8020a1b98b8b00","categoryId":"4bf58dd8d48988d116941735","category":"Bar","checkinsCount":293,"usersCount":208,"tipCount":3,"visitsCount":293,"tier":"","message":"","currency":"","rating":5.6}]