[{"name":"The Peabody Hotel","phone":"9015294000","twitter":"peabodymemphis","address":"149 Union Ave","lat":35.142353590678795,"lng":-90.0520133972168,"neighborhood":"Downtown Memphis","city_fetched":"Memphis","state":"TN","country":"United States","canonicalUrl":"https://foursquare.com/v/the-peabody-hotel/4b05865ff964a520e35e22e3","category":"Hotel","checkinsCount":17674,"usersCount":10606,"tipCount":107,"visitsCount":18811,"url":"http://www.peabodymemphis.com","tier":"","message":"","currency":"","rating":9.2},{"name":"PYRO'S Fire Fresh Pizza","phone":"9012071198","twitter":"pyrospizza","address":"2286 N Germantown Pkwy","lat":35.18766375622814,"lng":-89.79209410171872,"city_fetched":"Memphis","state":"TN","country":"United States","canonicalUrl":"https://foursquare.com/v/pyros-fire-fresh-pizza/54879c4e498e3b392ae1e1b0","category":"Pizza Place","checkinsCount":313,"usersCount":318,"tipCount":14,"visitsCount":584,"url":"http://www.pyrospizza.com","tier":"","message":"","currency":"","rating":9.2},{"name":"Bardog Tavern","phone":"9012758752","twitter":"bardogtavern","address":"73 Monroe Ave","lat":35.14446294,"lng":-90.053768,"neighborhood":"Downtown Memphis","city_fetched":"Memphis","state":"TN","country":"United States","canonicalUrl":"https://foursquare.com/v/bardog-tavern/4b075448f964a5201afc22e3","category":"Bar","checkinsCount":13633,"usersCount":3077,"tipCount":100,"visitsCount":14891,"url":"http://www.bardogtavern.com","tier":2,"message":"Moderate","currency":"$","rating":9.1},{"name":"The Slider Inn","phone":"9017251155","twitter":"thesliderinn","address":"2117 Peabody Ave","lat":35.1315539560066,"lng":-89.9910035817427,"neighborhood":"Midtown","city_fetched":"Memphis","state":"TN","country":"United States","canonicalUrl":"https://foursquare.com/v/the-slider-inn/4e3b3e7252b1a04afefb55f6","category":"Burger Joint","checkinsCount":7675,"usersCount":1858,"tipCount":74,"visitsCount":8579,"url":"http://thesliderinn.com","tier":2,"message":"Moderate","currency":"$","rating":9.1},{"name":"Memphis Made Brewing Co.","twitter":"memphismadebrew","address":"768 S Cooper St","lat":35.125086079047485,"lng":-89.9905116891579,"neighborhood":"Cooper Young","city_fetched":"Memphis","state":"TN","country":"United States","canonicalUrl":"https://foursquare.com/v/memphis-made-brewing-co/5193abd2498e8ef86ee9ad38","category":"Brewery","checkinsCount":526,"usersCount":335,"tipCount":10,"visitsCount":681,"url":"http://memphismadebrewing.com","tier":"","message":"","currency":"","rating":9.1},{"name":"Huey's Restaurant","phone":"9017264372","twitter":"hueysrestaurant","address":"1927 Madison Ave","lat":35.137239542604384,"lng":-89.99713311759285,"neighborhood":"Idlewild-East End Historic","city_fetched":"Memphis","state":"TN","country":"United States","canonicalUrl":"https://foursquare.com/v/hueys-restaurant/4b058660f964a520065f22e3","category":"Burger Joint","checkinsCount":6023,"usersCount":2881,"tipCount":70,"visitsCount":7394,"url":"http://www.hueyburger.com","tier":1,"message":"Cheap","currency":"$","rating":9.1},{"name":"Havana Mix","phone":"9017297053","address":"250 Peabody Pl","lat":35.14020754335021,"lng":-90.05122199882739,"neighborhood":"Midtown","city_fetched":"Memphis","state":"TN","country":"United States","canonicalUrl":"https://foursquare.com/v/havana-mix/4b244a83f964a520606524e3","category":"Smoke Shop","checkinsCount":1368,"usersCount":485,"tipCount":27,"visitsCount":1437,"url":"http://www.havanamix.com","tier":"","message":"","currency":"","rating":9.1},{"name":"Huey's Restaurant","phone":"9017543885","twitter":"hueysrestaurant","address":"1771 N Germantown Pkwy","lat":35.174632678764965,"lng":-89.79404926300049,"city_fetched":"Memphis","state":"TN","country":"United States","canonicalUrl":"https://foursquare.com/v/hueys-restaurant/4b395a72f964a520245b25e3","category":"Burger Joint","checkinsCount":4989,"usersCount":2225,"tipCount":42,"visitsCount":5958,"url":"http://www.hueyburger.com","tier":2,"message":"Moderate","currency":"$","rating":9},{"name":"Earnestine and Hazel's","phone":"9015239754","twitter":"earnestinehazel","address":"531 S Main St","lat":35.13297410540561,"lng":-90.0591473291707,"neighborhood":"South Main Historic District","city_fetched":"Memphis","state":"TN","country":"United States","canonicalUrl":"https://foursquare.com/v/earnestine-and-hazels/4b058660f964a5200f5f22e3","category":"Dive Bar","checkinsCount":4683,"usersCount":1898,"tipCount":51,"visitsCount":4943,"url":"http://earnestineandhazelsjukejoint.com","tier":1,"message":"Cheap","currency":"$","rating":9},{"name":"Pumping Station","phone":"9012727600","twitter":"pumpmemphis","address":"1382 Poplar Ave","lat":35.1440156,"lng":-90.01434445381165,"neighborhood":"Evergreen Historic District","city_fetched":"Memphis","state":"TN","country":"United States","canonicalUrl":"https://foursquare.com/v/pumping-station/4b920efaf964a5205ae533e3","category":"Gay Bar","checkinsCount":1180,"usersCount":513,"tipCount":10,"visitsCount":1635,"url":"http://www.pumpingstationmemphis.com","tier":"","message":"","currency":"","rating":8.9},{"name":"Blues City Cafe","phone":"9015263637","twitter":"bluescitycafe","address":"138 Beale St","lat":35.14009933907912,"lng":-90.0533741705262,"neighborhood":"Downtown Memphis","city_fetched":"Memphis","state":"TN","country":"United States","canonicalUrl":"https://foursquare.com/v/blues-city-cafe/4b05865ff964a520035f22e3","category":"Bar","checkinsCount":7896,"usersCount":5673,"tipCount":128,"visitsCount":8021,"url":"http://www.bluescitycafe.com","tier":2,"message":"Moderate","currency":"$","rating":8.9},{"name":"Side Street Grill","phone":"9012748955","address":"31 Florence St","lat":35.13564717102386,"lng":-89.99224239427974,"neighborhood":"Midtown","city_fetched":"Memphis","state":"TN","country":"United States","canonicalUrl":"https://foursquare.com/v/side-street-grill/4c898865542e9c74649f7f97","category":"American Restaurant","checkinsCount":3713,"usersCount":1296,"tipCount":43,"visitsCount":3944,"tier":2,"message":"Moderate","currency":"$","rating":8.9},{"name":"Sekisui","phone":"9017250005","twitter":"sekisuiusa","address":"25 S Belvedere Blvd","lat":35.13711371784337,"lng":-90.00528465519349,"neighborhood":"Midtown","city_fetched":"Memphis","state":"TN","country":"United States","canonicalUrl":"https://foursquare.com/v/sekisui/4b17ffb0f964a5202dcb23e3","category":"Japanese Restaurant","checkinsCount":2729,"usersCount":1071,"tipCount":29,"visitsCount":2974,"url":"http://www.sekisuiusa.com","tier":3,"message":"Expensive","currency":"$","rating":8.9},{"name":"Wiseacre Brewing Co.","twitter":"wiseacrebrew","address":"2783 Broad Ave","lat":35.14668104880693,"lng":-89.96872543446577,"neighborhood":"Binghampton-Lester","city_fetched":"Memphis","state":"TN","country":"United States","canonicalUrl":"https://foursquare.com/v/wiseacre-brewing-co/51fe9119498ec7e9ee20a39e","category":"Brewery","checkinsCount":2003,"usersCount":1107,"tipCount":23,"visitsCount":2787,"url":"http://wiseacrebrew.com","tier":1,"message":"Cheap","currency":"$","rating":8.9},{"name":"Alex's Tavern","phone":"9012789086","address":"1445 Jackson Ave","lat":35.15820264816284,"lng":-90.01010656356812,"neighborhood":"Midtown","city_fetched":"Memphis","state":"TN","country":"United States","canonicalUrl":"https://foursquare.com/v/alexs-tavern/4b058660f964a520255f22e3","category":"Burger Joint","checkinsCount":3124,"usersCount":854,"tipCount":35,"visitsCount":3524,"tier":1,"message":"Cheap","currency":"$","rating":8.9},{"name":"Memphis Pizza Cafe","phone":"9017265343","address":"2087 Madison Ave","lat":35.13658059964172,"lng":-89.99186754226685,"neighborhood":"Midtown","city_fetched":"Memphis","state":"TN","country":"United States","canonicalUrl":"https://foursquare.com/v/memphis-pizza-cafe/4b0dedfdf964a520cd5223e3","category":"Pizza Place","checkinsCount":4091,"usersCount":1636,"tipCount":42,"visitsCount":4157,"url":"http://memphispizzacafe.com","tier":1,"message":"Cheap","currency":"$","rating":8.8},{"name":"Alchemy Memphis","phone":"9017264444","address":"940 S Cooper St","lat":35.119917346646425,"lng":-89.99089121818542,"neighborhood":"Cooper Young","city_fetched":"Memphis","state":"TN","country":"United States","canonicalUrl":"https://foursquare.com/v/alchemy-memphis/4ead77e2b634339687bf5118","category":"Cocktail Bar","checkinsCount":3701,"usersCount":1623,"tipCount":43,"visitsCount":3793,"url":"http://www.alchemymemphis.com","tier":2,"message":"Moderate","currency":"$","rating":8.8},{"name":"Half Shell","phone":"9016823966","address":"688 S Mendenhall Rd","lat":35.11228761741436,"lng":-89.89588262918096,"city_fetched":"Memphis","state":"TN","country":"United States","canonicalUrl":"https://foursquare.com/v/half-shell/4b058660f964a520215f22e3","category":"Bar","checkinsCount":3966,"usersCount":1900,"tipCount":45,"visitsCount":4823,"url":"http://halfshell-memphis.com","tier":2,"message":"Moderate","currency":"$","rating":8.8},{"name":"Flying Saucer","phone":"9017555530","address":"1400 N Germantown Pkwy Ste 114","lat":35.16358867924403,"lng":-89.79388868188632,"city_fetched":"Memphis","state":"TN","country":"United States","canonicalUrl":"https://foursquare.com/v/flying-saucer/4b086f0cf964a520cc0b23e3","category":"Bar","checkinsCount":8709,"usersCount":2667,"tipCount":52,"visitsCount":10181,"url":"http://www.beerknurd.com","tier":2,"message":"Moderate","currency":"$","rating":8.8},{"name":"Silly Goose","phone":"9014356915","twitter":"sillygoosetn","address":"100 Peabody Pl","lat":35.14084032945702,"lng":-90.05385797694126,"neighborhood":"Downtown Memphis","city_fetched":"Memphis","state":"TN","country":"United States","canonicalUrl":"https://foursquare.com/v/silly-goose/4b089654f964a520f70e23e3","category":"Lounge","checkinsCount":14769,"usersCount":1944,"tipCount":36,"visitsCount":15523,"url":"http://www.sillygoosememphis.com","tier":2,"message":"Moderate","currency":"$","rating":8.8},{"name":"Twilight Sky Terrace","phone":"9013331200","twitter":"twilightmemphis","address":"79 Madison Ave","lat":35.14517852220056,"lng":-90.05332231521606,"neighborhood":"Downtown Memphis","city_fetched":"Memphis","state":"TN","country":"United States","canonicalUrl":"https://foursquare.com/twilightmemphis","category":"Lounge","checkinsCount":513,"usersCount":366,"tipCount":9,"visitsCount":516,"url":"http://www.twilightskyterrace.com","tier":"","message":"","currency":"","rating":8.8},{"name":"Blue Monkey","phone":"9015276665","twitter":"bluemonkeymphs","address":"513 S Front St","lat":35.13339218371054,"lng":-90.06095332969194,"neighborhood":"Downtown Memphis","city_fetched":"Memphis","state":"TN","country":"United States","canonicalUrl":"https://foursquare.com/v/blue-monkey/4b0b3bdcf964a520262f23e3","category":"Bar","checkinsCount":13138,"usersCount":2257,"tipCount":49,"visitsCount":14016,"url":"http://bluemonkeymemphis.com","tier":2,"message":"Moderate","currency":"$","rating":8.8},{"name":"Mr. Handy's Blues Hall","address":"182 Beale St","lat":35.13965935599501,"lng":-90.05225703242868,"neighborhood":"Downtown Memphis","city_fetched":"Memphis","state":"TN","country":"United States","canonicalUrl":"https://foursquare.com/v/mr-handys-blues-hall/4b626a70f964a520b2462ae3","category":"Music Venue","checkinsCount":2231,"usersCount":1135,"tipCount":16,"visitsCount":2234,"tier":"","message":"","currency":"","rating":8.7},{"name":"Mollie Fontaine's Lounge","phone":"9015241886","address":"679 Adams Ave","lat":35.1444384,"lng":-90.03807,"neighborhood":"Midtown","city_fetched":"Memphis","state":"TN","country":"United States","canonicalUrl":"https://foursquare.com/v/mollie-fontaines-lounge/4b05b8bdf964a5209ce122e3","category":"Bar","checkinsCount":4021,"usersCount":1657,"tipCount":50,"visitsCount":4461,"url":"http://www.molliefontainelounge.com","tier":2,"message":"Moderate","currency":"$","rating":8.7},{"name":"The Brass Door","phone":"9015721813","twitter":"thebrassdoor1","address":"152 Madison Ave","lat":35.144672,"lng":-90.05094587802887,"neighborhood":"Downtown Memphis","city_fetched":"Memphis","state":"TN","country":"United States","canonicalUrl":"https://foursquare.com/thebrassdoor1","category":"Pub","checkinsCount":3076,"usersCount":1185,"tipCount":27,"visitsCount":3235,"url":"http://thebrassdoor.com","tier":2,"message":"Moderate","currency":"$","rating":8.7},{"name":"East End Grill","phone":"9014324256","address":"7956 Winchester Rd","lat":35.049673021804814,"lng":-89.7966627929818,"city_fetched":"Memphis","state":"TN","country":"United States","canonicalUrl":"https://foursquare.com/v/east-end-grill/4bd4e1527b1876b0ce058a86","category":"American Restaurant","checkinsCount":1673,"usersCount":769,"tipCount":19,"visitsCount":1982,"url":"http://eastendgrill.com","tier":1,"message":"Cheap","currency":"$","rating":8.7},{"name":"Blind Bear","phone":"9014178435","twitter":"blindbear901","address":"119 S Main St","lat":35.141957289893654,"lng":-90.05429982388769,"neighborhood":"Downtown Memphis","city_fetched":"Memphis","state":"TN","country":"United States","canonicalUrl":"https://foursquare.com/v/blind-bear/4eeabcc60aaf9592fecb9836","category":"Speakeasy","checkinsCount":9711,"usersCount":1623,"tipCount":48,"visitsCount":10175,"url":"http://www.blindbearmemphis.com","tier":2,"message":"Moderate","currency":"$","rating":8.6},{"name":"Kooky Canuck","phone":"9015789800","twitter":"kookycanuck","address":"97 S 2nd St","lat":35.14229105946722,"lng":-90.05255341283402,"neighborhood":"Downtown Memphis","city_fetched":"Memphis","state":"TN","country":"United States","canonicalUrl":"https://foursquare.com/kookycanuck","category":"American Restaurant","checkinsCount":10269,"usersCount":3572,"tipCount":105,"visitsCount":10358,"url":"http://www.kookycanuck.net","tier":1,"message":"Cheap","currency":"$","rating":8.6},{"name":"Charles Vergos' Rendezvous","phone":"9015232746","twitter":"rendezvous_ribs","address":"52 S 2nd St","lat":35.14344661398287,"lng":-90.05142316635101,"neighborhood":"Downtown Memphis","city_fetched":"Memphis","state":"TN","country":"United States","canonicalUrl":"https://foursquare.com/v/charles-vergos-rendezvous/4b058661f964a5208d5f22e3","category":"BBQ Joint","checkinsCount":10912,"usersCount":9776,"tipCount":216,"visitsCount":11682,"url":"http://www.hogsfly.com","tier":2,"message":"Moderate","currency":"$","rating":8.6},{"name":"Flying Saucer","phone":"9015238536","twitter":"flyingsaucermem","address":"130 Peabody Pl","lat":35.14089722121988,"lng":-90.05326867103577,"neighborhood":"Downtown Memphis","city_fetched":"Memphis","state":"TN","country":"United States","canonicalUrl":"https://foursquare.com/v/flying-saucer/4b058660f964a520095f22e3","category":"Beer Garden","checkinsCount":22038,"usersCount":6041,"tipCount":83,"visitsCount":23010,"url":"http://www.beerknurd.com","tier":2,"message":"Moderate","currency":"$","rating":8.6},{"name":"High Cotton Brewing","address":"598 Monroe Ave","lat":35.14105472062073,"lng":-90.04114670007031,"neighborhood":"Midtown","city_fetched":"Memphis","state":"TN","country":"United States","canonicalUrl":"https://foursquare.com/v/high-cotton-brewing/51671dfce4b0aa04862c5d64","category":"Brewery","checkinsCount":647,"usersCount":488,"tipCount":10,"visitsCount":890,"tier":"","message":"","currency":"","rating":8.6},{"name":"McEwen's","phone":"9015277085","address":"122 Monroe Ave","lat":35.14400978283838,"lng":-90.0525351739737,"neighborhood":"Downtown Memphis","city_fetched":"Memphis","state":"TN","country":"United States","canonicalUrl":"https://foursquare.com/v/mcewens/4b058660f964a5200a5f22e3","category":"American Restaurant","checkinsCount":1644,"usersCount":1033,"tipCount":35,"visitsCount":1738,"url":"http://www.mcewensonmonroe.com","tier":2,"message":"Moderate","currency":"$","rating":8.6},{"name":"Onix","address":"412 S Main St","lat":35.13534348805533,"lng":-90.05828084394561,"neighborhood":"South Main Historic District","city_fetched":"Memphis","state":"TN","country":"United States","canonicalUrl":"https://foursquare.com/v/onix/4bf883804a67c928ed9725cf","category":"Lounge","checkinsCount":600,"usersCount":341,"tipCount":15,"visitsCount":631,"url":"http://mrnelson12345.wix.com/onix-restaurant/","tier":"","message":"","currency":"","rating":8.5},{"name":"Pyro's Fire Fresh Pizza","phone":"9012136756","twitter":"pyrospizza","address":"1199 Ridgeway Rd","lat":35.098560678321746,"lng":-89.86034858652086,"city_fetched":"Memphis","state":"TN","country":"United States","canonicalUrl":"https://foursquare.com/v/pyros-fire-fresh-pizza/52559187498e08302e764287","category":"Pizza Place","checkinsCount":969,"usersCount":723,"tipCount":31,"visitsCount":1513,"url":"http://www.pyrospizza.com","tier":2,"message":"Moderate","currency":"$","rating":8.5},{"name":"Rum Boogie Caf√©","phone":"9015280150","address":"182 Beale St","lat":35.139675,"lng":-90.05204128,"neighborhood":"Downtown Memphis","city_fetched":"Memphis","state":"TN","country":"United States","canonicalUrl":"https://foursquare.com/v/rum-boogie-caf%C3%A9/4b058660f964a5200d5f22e3","category":"Bar","checkinsCount":5097,"usersCount":3219,"tipCount":45,"visitsCount":5139,"url":"http://www.rumboogie.com/home.htm","tier":2,"message":"Moderate","currency":"$","rating":8.4},{"name":"Celtic Crossing","phone":"9012745151","twitter":"celtic_crossing","address":"903 S Cooper St","lat":35.120969,"lng":-89.991188,"neighborhood":"Cooper Young","city_fetched":"Memphis","state":"TN","country":"United States","canonicalUrl":"https://foursquare.com/v/celtic-crossing/4b1091c6f964a520047323e3","category":"Bar","checkinsCount":9791,"usersCount":2653,"tipCount":72,"visitsCount":10675,"url":"http://celticcrossingmemphis.com","tier":2,"message":"Moderate","currency":"$","rating":8.4},{"name":"Boscos","phone":"9014322222","twitter":"boscossquared","address":"2120 Madison Ave","lat":35.136884450912476,"lng":-89.990556,"neighborhood":"Midtown","city_fetched":"Memphis","state":"TN","country":"United States","canonicalUrl":"https://foursquare.com/v/boscos/4b058660f964a520205f22e3","category":"Brewery","checkinsCount":9642,"usersCount":3087,"tipCount":80,"visitsCount":9756,"url":"http://www.boscosbeer.com","tier":2,"message":"Moderate","currency":"$","rating":8.4},{"name":"Wet Willie's","phone":"9015785650","twitter":"wetwillies","address":"209 Beale St","lat":35.139439422078375,"lng":-90.0512356775034,"neighborhood":"Midtown","city_fetched":"Memphis","state":"TN","country":"United States","canonicalUrl":"https://foursquare.com/v/wet-willies/4c8b166d1eafb1f75ae08035","category":"Cocktail Bar","checkinsCount":4207,"usersCount":3004,"tipCount":30,"visitsCount":4234,"url":"http://www.wetwillies.com","tier":2,"message":"Moderate","currency":"$","rating":8.4},{"name":"South of Beale","phone":"9015260388","twitter":"southofbeale","address":"361 S Main St","lat":35.136663,"lng":-90.05758702754974,"neighborhood":"South Main Historic District","city_fetched":"Memphis","state":"TN","country":"United States","canonicalUrl":"https://foursquare.com/v/south-of-beale/4b0b5433f964a520733023e3","category":"Bar","checkinsCount":9125,"usersCount":2342,"tipCount":85,"visitsCount":9858,"url":"http://www.southofbeale.com","tier":2,"message":"Moderate","currency":"$","rating":8.4},{"name":"Max's Sports Bar","phone":"9015288600","twitter":"maxssportsbar","address":"115 E Ge Patterson Ave","lat":35.13271664567782,"lng":-90.05838117281202,"neighborhood":"South Main Historic District","city_fetched":"Memphis","state":"TN","country":"United States","canonicalUrl":"https://foursquare.com/v/maxs-sports-bar/4b08ceeef964a5207b1223e3","category":"Sports Bar","checkinsCount":9502,"usersCount":769,"tipCount":22,"visitsCount":9821,"url":"http://maxssportsbar.com","tier":1,"message":"Cheap","currency":"$","rating":8.4},{"name":"loVe","address":"7144 Winchester Rd","lat":35.04944851891715,"lng":-89.82518433683329,"city_fetched":"Memphis","state":"TN","country":"United States","canonicalUrl":"https://foursquare.com/v/love/54a20401498e74b7b1ea996d","category":"Lounge","checkinsCount":105,"usersCount":174,"tipCount":0,"visitsCount":274,"url":"http://inlovememphis.com","tier":"","message":"","currency":"","rating":8.3},{"name":"The Green Beetle","phone":"9015277337","twitter":"greenbeetle39","address":"325 S Main St","lat":35.137319,"lng":-90.056898,"neighborhood":"South Main Historic District","city_fetched":"Memphis","state":"TN","country":"United States","canonicalUrl":"https://foursquare.com/greenbeetle39","category":"Bar","checkinsCount":4763,"usersCount":1046,"tipCount":44,"visitsCount":5076,"url":"http://www.thegreenbeetlememphis.com","tier":1,"message":"Cheap","currency":"$","rating":8.3},{"name":"Young Avenue Deli","phone":"9012780034","twitter":"youngavedeli","address":"2119 Young Ave","lat":35.119522,"lng":-89.991557,"neighborhood":"Cooper Young","city_fetched":"Memphis","state":"TN","country":"United States","canonicalUrl":"https://foursquare.com/v/young-avenue-deli/4b058660f964a520315f22e3","category":"Bar","checkinsCount":10283,"usersCount":3170,"tipCount":116,"visitsCount":10511,"url":"http://www.youngavenuedeli.com","tier":2,"message":"Moderate","currency":"$","rating":8.2},{"name":"Sweet Grass Next Door","phone":"9012780278","twitter":"sweetgrassmem","address":"937 S Cooper St","lat":35.12004155712042,"lng":-89.99123586215183,"neighborhood":"Cooper Young","city_fetched":"Memphis","state":"TN","country":"United States","canonicalUrl":"https://foursquare.com/v/sweet-grass-next-door/4d954b73daec224b1114fc3d","category":"Bar","checkinsCount":3687,"usersCount":1241,"tipCount":47,"visitsCount":3798,"url":"http://sweetgrassmemphis.com","tier":2,"message":"Moderate","currency":"$","rating":8.2},{"name":"R. P. Tracks","phone":"9013271471","address":"3547 Walker Ave","lat":35.116235,"lng":-89.944162,"neighborhood":"University of Memphis","city_fetched":"Memphis","state":"TN","country":"United States","canonicalUrl":"https://foursquare.com/v/r-p-tracks/4b058660f964a520045f22e3","category":"Bar","checkinsCount":4376,"usersCount":1448,"tipCount":66,"visitsCount":4767,"url":"http://rptracks.com","tier":2,"message":"Moderate","currency":"$","rating":8.2},{"name":"Double J Smokehouse & Saloon","phone":"9013472648","twitter":"doublejmemphis","address":"124 E Ge Patterson Ave","lat":35.13296395066806,"lng":-90.05808018699986,"neighborhood":"Downtown Memphis","city_fetched":"Memphis","state":"TN","country":"United States","canonicalUrl":"https://foursquare.com/v/double-j-smokehouse--saloon/4f401ba9e4b0daed42618d79","category":"BBQ Joint","checkinsCount":4379,"usersCount":946,"tipCount":45,"visitsCount":4594,"url":"http://doublejsmokehouse.com","tier":2,"message":"Moderate","currency":"$","rating":8.2},{"name":"Ecco on Overton Park","phone":"9014108200","address":"1585 Overton Park Ave","lat":35.1487076,"lng":-90.0069087,"neighborhood":"Evergreen Historic District","city_fetched":"Memphis","state":"TN","country":"United States","canonicalUrl":"https://foursquare.com/v/ecco-on-overton-park/5376b047498e104ddc6fbf10","category":"American Restaurant","checkinsCount":69,"usersCount":74,"tipCount":4,"visitsCount":114,"url":"http://www.eccoonovertonpark.com","tier":"","message":"","currency":"","rating":8.2},{"name":"Pyramid Wine and Spirits","phone":"9015228221","address":"120 Aw Willis Ave","lat":35.1570301142326,"lng":-90.04694537207918,"neighborhood":"Downtown Memphis","city_fetched":"Memphis","state":"TN","country":"United States","canonicalUrl":"https://foursquare.com/v/pyramid-wine-and-spirits/4b43f9eaf964a5207def25e3","category":"Liquor Store","checkinsCount":402,"usersCount":205,"tipCount":6,"visitsCount":461,"tier":"","message":"","currency":"","rating":8.1},{"name":"Cafe Pontotoc","phone":"9012497955","address":"314 S Main St","lat":35.1376485315275,"lng":-90.05663913613229,"neighborhood":"South Main Historic District","city_fetched":"Memphis","state":"TN","country":"United States","canonicalUrl":"https://foursquare.com/v/cafe-pontotoc/53aa19d8498e98d78b9d86f8","category":"Tapas Restaurant","checkinsCount":406,"usersCount":196,"tipCount":6,"visitsCount":502,"tier":2,"message":"Moderate","currency":"$","rating":8.1},{"name":"Seasons 52","phone":"9016829952","twitter":"seasons52","address":"6085 Poplar Ave","lat":35.10186384,"lng":-89.85953808,"city_fetched":"Memphis","state":"TN","country":"United States","canonicalUrl":"https://foursquare.com/v/seasons-52/52d4610e11d26094a0294b69","category":"New American Restaurant","checkinsCount":34,"usersCount":22,"tipCount":0,"visitsCount":34,"url":"http://seasons52.com","tier":"","message":"","currency":"","rating":8.1},{"name":"Dru's Place","address":"1474 Madison Ave","lat":35.138638615608215,"lng":-90.012066,"neighborhood":"Midtown","city_fetched":"Memphis","state":"TN","country":"United States","canonicalUrl":"https://foursquare.com/v/drus-place/4b525f78f964a520fc7927e3","category":"Karaoke Bar","checkinsCount":843,"usersCount":468,"tipCount":10,"visitsCount":1353,"url":"http://drusplace.com","tier":"","message":"","currency":"","rating":8.1},{"name":"Fleming's Prime Steakhouse & Wine Bar","phone":"9017616200","address":"6245 Poplar Ave","lat":35.101032497363406,"lng":-89.8555817303571,"city_fetched":"Memphis","state":"TN","country":"United States","canonicalUrl":"https://foursquare.com/v/flemings-prime-steakhouse--wine-bar/4b340c83f964a520602425e3","category":"Steakhouse","checkinsCount":1332,"usersCount":917,"tipCount":13,"visitsCount":1709,"url":"http://www.flemingssteakhouse.com/locations/tn/memphis","tier":4,"message":"Very Expensive","currency":"$","rating":8.1},{"name":"Local Gastropub","phone":"9014739573","twitter":"localgastropub","address":"95 S Main St & 2126 Madison Ave","lat":35.14262897452956,"lng":-90.0538301546118,"neighborhood":"Downtown Memphis","city_fetched":"Memphis","state":"TN","country":"United States","canonicalUrl":"https://foursquare.com/v/local-gastropub/4b6a0e7df964a5209fc42be3","category":"Gastropub","checkinsCount":10445,"usersCount":2965,"tipCount":75,"visitsCount":10603,"url":"http://www.localgastropub.com","tier":2,"message":"Moderate","currency":"$","rating":8.1},{"name":"Hammer & Ale","phone":"9016969690","address":"921 S Cooper St","lat":35.12048209770442,"lng":-89.9911812080649,"neighborhood":"Cooper Young","city_fetched":"Memphis","state":"TN","country":"United States","canonicalUrl":"https://foursquare.com/v/hammer--ale/52a3a50a11d20a5df7b80fb6","category":"Beer Bar","checkinsCount":729,"usersCount":272,"tipCount":8,"visitsCount":776,"url":"http://www.hammerandale.com","tier":1,"message":"Cheap","currency":"$","rating":8.1},{"name":"Amerigo Restaurant","phone":"9017614000","twitter":"amerigomemphis","address":"1239 Ridgeway Rd","lat":35.09741545557279,"lng":-89.8599738406221,"city_fetched":"Memphis","state":"TN","country":"United States","canonicalUrl":"https://foursquare.com/v/amerigo-restaurant/4b8c5012f964a520fbc932e3","category":"Italian Restaurant","checkinsCount":2653,"usersCount":1296,"tipCount":45,"visitsCount":3121,"url":"http://www.amerigo.net","tier":2,"message":"Moderate","currency":"$","rating":8},{"name":"Wild Bills","address":"1580 Vollintine Ave","lat":35.16429023,"lng":-90.00474496,"neighborhood":"Midtown","city_fetched":"Memphis","state":"TN","country":"United States","canonicalUrl":"https://foursquare.com/v/wild-bills/4b67b8e2f964a520fb5b2be3","category":"Dive Bar","checkinsCount":244,"usersCount":251,"tipCount":2,"visitsCount":385,"tier":"","message":"","currency":"","rating":8},{"name":"Royal Hookah Cafe","phone":"9013847008","twitter":"royalhookahcafe","address":"5798 Raleigh Lagrange Rd","lat":35.182780226584015,"lng":-89.87051103903909,"city_fetched":"Memphis","state":"TN","country":"United States","canonicalUrl":"https://foursquare.com/v/royal-hookah-cafe/5225350511d2f2bbd432acd7","category":"Hookah Bar","checkinsCount":119,"usersCount":48,"tipCount":3,"visitsCount":154,"url":"http://royalhookahcafe.com","tier":"","message":"","currency":"","rating":8},{"name":"East Tapas","phone":"9016859264","twitter":"easttapas","address":"6069 Park Ave","lat":35.099447780397085,"lng":-89.86051310796138,"city_fetched":"Memphis","state":"TN","country":"United States","canonicalUrl":"https://foursquare.com/v/east-tapas/4e0521df6284d9ee92c6ab7f","category":"Lounge","checkinsCount":473,"usersCount":241,"tipCount":10,"visitsCount":481,"url":"http://east-tapas.com","tier":"","message":"","currency":"","rating":7.9},{"name":"The Cove","phone":"9017300719","address":"2559 Broad Ave","lat":35.14772593975067,"lng":-89.974086,"neighborhood":"Binghampton-Lester","city_fetched":"Memphis","state":"TN","country":"United States","canonicalUrl":"https://foursquare.com/v/the-cove/4b0895d2f964a520ed0e23e3","category":"Bar","checkinsCount":2639,"usersCount":955,"tipCount":22,"visitsCount":2864,"url":"http://thecovememphis.com","tier":2,"message":"Moderate","currency":"$","rating":7.9},{"name":"The Westin Memphis Beale Street","phone":"9013345900","twitter":"spg","address":"170 Lt George W Lee Ave","lat":35.139041514022146,"lng":-90.05247589773758,"neighborhood":"Downtown Memphis","city_fetched":"Memphis","state":"TN","country":"United States","canonicalUrl":"https://foursquare.com/v/the-westin-memphis-beale-street/4b05865ff964a520fc5e22e3","category":"Hotel","checkinsCount":5058,"usersCount":2259,"tipCount":25,"visitsCount":5160,"url":"http://www.spg.com/foursquare/","tier":"","message":"","currency":"","rating":7.9},{"name":"Grawemeyer's","phone":"9018001553","twitter":"new_grawemeyers","address":"520 S Main St","lat":35.133296593049934,"lng":-90.05884177688404,"neighborhood":"South Main Historic District","city_fetched":"Memphis","state":"TN","country":"United States","canonicalUrl":"https://foursquare.com/v/grawemeyers/4eab4e70e3000d1f05d68da9","category":"German Restaurant","checkinsCount":575,"usersCount":302,"tipCount":15,"visitsCount":587,"url":"http://grawemeyers.com","tier":2,"message":"Moderate","currency":"$","rating":7.9},{"name":"Interim Restaurant","phone":"9018180821","address":"5040 Sanderlin Ave","lat":35.11749795066896,"lng":-89.89452198503524,"city_fetched":"Memphis","state":"TN","country":"United States","canonicalUrl":"https://foursquare.com/v/interim-restaurant/4b4cc8caf964a520c1be26e3","category":"American Restaurant","checkinsCount":1684,"usersCount":771,"tipCount":26,"visitsCount":1921,"url":"http://www.interimrestaurant.com","tier":2,"message":"Moderate","currency":"$","rating":7.9},{"name":"eighty3 food & drink","phone":"9013331224","twitter":"eighty3memphis","address":"83 Madison Ave","lat":35.14512656854238,"lng":-90.05314162073003,"neighborhood":"Downtown Memphis","city_fetched":"Memphis","state":"TN","country":"United States","canonicalUrl":"https://foursquare.com/eighty3memphis","category":"New American Restaurant","checkinsCount":769,"usersCount":493,"tipCount":9,"visitsCount":776,"url":"http://www.eighty3memphis.com","tier":"","message":"","currency":"","rating":7.9},{"name":"RockHouse Live","address":"5709 Ral-Lagrange Rd.","lat":35.18263250390277,"lng":-89.87299184282324,"city_fetched":"Memphis","state":"TN","country":"United States","canonicalUrl":"https://foursquare.com/v/rockhouse-live/5206db2311d2d5245b8f91d5","category":"Bar","checkinsCount":190,"usersCount":75,"tipCount":3,"visitsCount":229,"url":"https://rockhouselive.com","tier":"","message":"","currency":"","rating":7.9},{"name":"East End Grill","phone":"9019371392","address":"7547 US-64","lat":35.20422238187149,"lng":-89.8116697647945,"city_fetched":"Memphis","state":"TN","country":"United States","canonicalUrl":"https://foursquare.com/v/east-end-grill/4b6dd682f964a52076942ce3","category":"American Restaurant","checkinsCount":1351,"usersCount":604,"tipCount":24,"visitsCount":1579,"url":"http://eastendgrill.com","tier":2,"message":"Moderate","currency":"$","rating":7.9},{"name":"Silky O'Sullivan's","phone":"9015229596","twitter":"silkyosullivans","address":"183 Beale St","lat":35.139508891585166,"lng":-90.05228439052398,"neighborhood":"Downtown Memphis","city_fetched":"Memphis","state":"TN","country":"United States","canonicalUrl":"https://foursquare.com/v/silky-osullivans/4b058660f964a5202b5f22e3","category":"Bar","checkinsCount":12646,"usersCount":7657,"tipCount":77,"visitsCount":12967,"url":"http://www.silkyosullivans.com","tier":2,"message":"Moderate","currency":"$","rating":7.9},{"name":"Peabody Corner Bar","phone":"9015294000","twitter":"peabodymemphis","address":"149 Union Ave","lat":35.14275312423706,"lng":-90.0521,"neighborhood":"Downtown Memphis","city_fetched":"Memphis","state":"TN","country":"United States","canonicalUrl":"https://foursquare.com/v/peabody-corner-bar/4b9b1ceaf964a520a1f335e3","category":"Bar","checkinsCount":739,"usersCount":458,"tipCount":10,"visitsCount":744,"tier":"","message":"","currency":"","rating":7.8},{"name":"Fox & Hound","phone":"9016249060","twitter":"the_foxandhound","address":"819 Exocet Drive","lat":35.14828614,"lng":-89.79700528,"city_fetched":"Memphis","state":"TN","country":"United States","canonicalUrl":"https://foursquare.com/v/fox--hound/4b2a634af964a52021a824e3","category":"Sports Bar","checkinsCount":2869,"usersCount":1458,"tipCount":24,"visitsCount":3332,"url":"http://t.co/6Wlr3nrgdg","tier":2,"message":"Moderate","currency":"$","rating":7.8},{"name":"Fox & Hound","phone":"9017632013","twitter":"the_foxandhound","address":"5101 Sanderlin Road","lat":35.11676056,"lng":-89.89204525,"city_fetched":"Memphis","state":"TN","country":"United States","canonicalUrl":"https://foursquare.com/v/fox--hound/4b09f8dff964a5209c2023e3","category":"Sports Bar","checkinsCount":4346,"usersCount":2366,"tipCount":34,"visitsCount":5114,"url":"http://t.co/6Wlr3nrgdg","tier":2,"message":"Moderate","currency":"$","rating":7.8},{"name":"Swanky's Taco Shop","phone":"9017372088","twitter":"swankystacoshop","address":"6641 Poplar Ave","lat":35.098001603898524,"lng":-89.8410415649414,"city_fetched":"Memphis","state":"TN","country":"United States","canonicalUrl":"https://foursquare.com/v/swankys-taco-shop/4b05deeff964a520dfe422e3","category":"Mexican Restaurant","checkinsCount":4126,"usersCount":1739,"tipCount":26,"visitsCount":4485,"url":"http://www.swankystacoshop.com","tier":2,"message":"Moderate","currency":"$","rating":7.8},{"name":"Hard Rock Cafe Memphis","phone":"9015290007","twitter":"hardrock","address":"126 Beale St","lat":35.14000791298506,"lng":-90.05361128157412,"neighborhood":"Downtown Memphis","city_fetched":"Memphis","state":"TN","country":"United States","canonicalUrl":"https://foursquare.com/v/hard-rock-cafe-memphis/4b058660f964a520105f22e3","category":"Theme Restaurant","checkinsCount":4498,"usersCount":3177,"tipCount":44,"visitsCount":4559,"url":"http://www.facebook.com/hardrock","tier":3,"message":"Expensive","currency":"$","rating":7.8},{"name":"Westy's","phone":"9015433278","address":"346 N Main St","lat":35.1541939227814,"lng":-90.04904259211249,"neighborhood":"Downtown Memphis","city_fetched":"Memphis","state":"TN","country":"United States","canonicalUrl":"https://foursquare.com/v/westys/4b058660f964a520155f22e3","category":"American Restaurant","checkinsCount":2186,"usersCount":1047,"tipCount":42,"visitsCount":2509,"url":"http://westysmemphis.com","tier":1,"message":"Cheap","currency":"$","rating":7.8},{"name":"Oasis Liquid (Hookah Lounge)","phone":"9017301342","twitter":"aegconcepts","address":"1557 Madison Ave","lat":35.138048060268154,"lng":-90.00961128497738,"neighborhood":"Midtown","city_fetched":"Memphis","state":"TN","country":"United States","canonicalUrl":"https://foursquare.com/aegconcepts","category":"Hookah Bar","checkinsCount":1022,"usersCount":441,"tipCount":16,"visitsCount":1032,"url":"http://www.oasishookahmemphis.com","tier":2,"message":"Moderate","currency":"$","rating":7.8},{"name":"Local Gastropub","phone":"9017251845","twitter":"localgastropub","address":"2126 Madison Ave","lat":35.136780420816535,"lng":-89.9903295051127,"neighborhood":"Midtown","city_fetched":"Memphis","state":"TN","country":"United States","canonicalUrl":"https://foursquare.com/v/local-gastropub/5074d7b5e4b0e2c61dd7be47","category":"Gastropub","checkinsCount":6542,"usersCount":2087,"tipCount":69,"visitsCount":6815,"url":"http://www.localgastropub.com","tier":2,"message":"Moderate","currency":"$","rating":7.8},{"name":"Old Zinnie's","phone":"9012747101","address":"1688 Madison Ave","lat":35.138225592251466,"lng":-90.00490666764742,"neighborhood":"Midtown","city_fetched":"Memphis","state":"TN","country":"United States","canonicalUrl":"https://foursquare.com/v/old-zinnies/4d179d6d4dd12c0f3bf9a8e6","category":"American Restaurant","checkinsCount":1832,"usersCount":432,"tipCount":16,"visitsCount":2016,"tier":1,"message":"Cheap","currency":"$","rating":7.7},{"name":"Buccaneer Lounge","phone":"9012780909","address":"1368 Monroe Ave","lat":35.13785541057587,"lng":-90.015756,"neighborhood":"Midtown","city_fetched":"Memphis","state":"TN","country":"United States","canonicalUrl":"https://foursquare.com/v/buccaneer-lounge/4b058660f964a5203a5f22e3","category":"Rock Club","checkinsCount":1982,"usersCount":633,"tipCount":15,"visitsCount":2150,"tier":"","message":"","currency":"","rating":7.7},{"name":"Jerry Lee Lewis Cafe & Honky Tonk","phone":"9016545171","twitter":"jllonbeale","address":"310 Beale St","lat":35.139482541945775,"lng":-90.05090739062612,"neighborhood":"Midtown","city_fetched":"Memphis","state":"TN","country":"United States","canonicalUrl":"https://foursquare.com/v/jerry-lee-lewis-cafe--honky-tonk/517af9b3e4b060f51588d972","category":"Southern / Soul Food Restaurant","checkinsCount":2474,"usersCount":1171,"tipCount":28,"visitsCount":2638,"url":"http://www.jerryleelewismemphis.com","tier":2,"message":"Moderate","currency":"$","rating":7.7},{"name":"Neil's Music Room","phone":"9016822300","address":"5727 Quince Rd","lat":35.08900266931591,"lng":-89.87279996314147,"city_fetched":"Memphis","state":"TN","country":"United States","canonicalUrl":"https://foursquare.com/v/neils-music-room/4f62432de4b0ed015829d7dd","category":"Bar","checkinsCount":1072,"usersCount":410,"tipCount":17,"visitsCount":1252,"url":"http://www.neilsmusicroom.com","tier":"","message":"","currency":"","rating":7.7},{"name":"Rumba Room","phone":"9015230020","twitter":"rumbaroommphstn","address":"303 S Main St","lat":35.13783254,"lng":-90.0567480760033,"neighborhood":"South Main Historic District","city_fetched":"Memphis","state":"TN","country":"United States","canonicalUrl":"https://foursquare.com/v/rumba-room/4b36c6c3f964a520313c25e3","category":"Bar","checkinsCount":1576,"usersCount":557,"tipCount":19,"visitsCount":1614,"url":"http://www.memphisrumbaroom.com","tier":"","message":"","currency":"","rating":7.7},{"name":"Brookhaven Pub & Grill","phone":"9016808118","twitter":"brookhavenpub","address":"695 W Brookhaven Cir","lat":35.11176199653378,"lng":-89.89088727699371,"city_fetched":"Memphis","state":"TN","country":"United States","canonicalUrl":"https://foursquare.com/v/brookhaven-pub--grill/4b076002f964a520d5fc22e3","category":"Bar","checkinsCount":7885,"usersCount":1727,"tipCount":33,"visitsCount":8702,"url":"http://wwe.brookhavenpubandgrill.com","tier":2,"message":"Moderate","currency":"$","rating":7.7},{"name":"Schweinehaus","phone":"9013473060","twitter":"schweinehaus","address":"2110 Madison Ave","lat":35.136814,"lng":-89.990982,"neighborhood":"Midtown","city_fetched":"Memphis","state":"TN","country":"United States","canonicalUrl":"https://foursquare.com/v/schweinehaus/53cc679b498ed67cda7a2e37","category":"German Restaurant","checkinsCount":646,"usersCount":411,"tipCount":9,"visitsCount":713,"url":"http://schweinehaus.squarespace.com","tier":"","message":"","currency":"","rating":7.7},{"name":"Peabody Lobby Bar","phone":"9015294000","twitter":"peabodymemphis","address":"149 Union Ave","lat":35.142665,"lng":-90.05181,"neighborhood":"Downtown Memphis","city_fetched":"Memphis","state":"TN","country":"United States","canonicalUrl":"https://foursquare.com/v/peabody-lobby-bar/4b058660f964a520125f22e3","category":"Cocktail Bar","checkinsCount":2137,"usersCount":1480,"tipCount":13,"visitsCount":2139,"tier":"","message":"","currency":"","rating":7.7},{"name":"Alcenia's","phone":"9015230200","address":"317 N Main St","lat":35.153626799583435,"lng":-90.04961013793945,"neighborhood":"Downtown Memphis","city_fetched":"Memphis","state":"TN","country":"United States","canonicalUrl":"https://foursquare.com/v/alcenias/4b058660f964a5201d5f22e3","category":"Southern / Soul Food Restaurant","checkinsCount":295,"usersCount":247,"tipCount":14,"visitsCount":297,"url":"http://alcenias.com","tier":1,"message":"Cheap","currency":"$","rating":7.6},{"name":"Prohibition","address":"94 S Front St","lat":35.142988,"lng":-90.055016,"neighborhood":"Downtown Memphis","city_fetched":"Memphis","state":"TN","country":"United States","canonicalUrl":"https://foursquare.com/v/prohibition/51ce5151498e44d6a219c76a","category":"Lounge","checkinsCount":122,"usersCount":78,"tipCount":3,"visitsCount":127,"tier":"","message":"","currency":"","rating":7.6},{"name":"Old Whitten Tavern","phone":"9013791965","address":"2800 Whitten Rd","lat":35.202131,"lng":-89.83645513999998,"city_fetched":"Memphis","state":"TN","country":"United States","canonicalUrl":"https://foursquare.com/v/old-whitten-tavern/4c64d12cc74c1b8d4dafb283","category":"Sports Bar","checkinsCount":215,"usersCount":75,"tipCount":6,"visitsCount":220,"tier":"","message":"","currency":"","rating":7.6},{"name":"P And H Cafe","phone":"9017260906","address":"1532 Madison Ave","lat":35.138391818311,"lng":-90.01005763886643,"neighborhood":"Midtown","city_fetched":"Memphis","state":"TN","country":"United States","canonicalUrl":"https://foursquare.com/v/p-and-h-cafe/4b058660f964a520275f22e3","category":"Bar","checkinsCount":2186,"usersCount":699,"tipCount":22,"visitsCount":2294,"url":"http://pandhcafe.com/home.asp","tier":1,"message":"Cheap","currency":"$","rating":7.6},{"name":"Spindini","phone":"9015782767","address":"383 S Main St","lat":35.136133107426005,"lng":-90.05807106625453,"neighborhood":"South Main Historic District","city_fetched":"Memphis","state":"TN","country":"United States","canonicalUrl":"https://foursquare.com/v/spindini/4b1d51b5f964a520b90e24e3","category":"Italian Restaurant","checkinsCount":1658,"usersCount":912,"tipCount":24,"visitsCount":1767,"url":"http://www.spindinimemphis.com","tier":2,"message":"Moderate","currency":"$","rating":7.5},{"name":"Hi-Tone","phone":"9012788663","twitter":"hitonecafe","address":"412 N. Cleveland St.","lat":35.142109008471785,"lng":-89.99679195311822,"neighborhood":"Idlewild-East End Historic","city_fetched":"Memphis","state":"TN","country":"United States","canonicalUrl":"https://foursquare.com/v/hitone/4b058660f964a520385f22e3","category":"Dive Bar","checkinsCount":2755,"usersCount":920,"tipCount":18,"visitsCount":2757,"url":"http://hitonememphis.com","tier":"","message":"","currency":"","rating":7.5},{"name":"T J Mulligans","phone":"9013779997","address":"2821 N Houston Levee Rd","lat":35.20209766636975,"lng":-89.7319277237563,"city_fetched":"Memphis","state":"TN","country":"United States","canonicalUrl":"https://foursquare.com/v/t-j-mulligans/4b0f6666f964a520026223e3","category":"Bar","checkinsCount":2564,"usersCount":671,"tipCount":11,"visitsCount":3008,"url":"http://www.tjmulligans.com","tier":1,"message":"Cheap","currency":"$","rating":7.5},{"name":"The Beer Garden","phone":"9014549988","address":"84 S Reese St","lat":35.12956717340272,"lng":-89.95009569075098,"city_fetched":"Memphis","state":"TN","country":"United States","canonicalUrl":"https://foursquare.com/v/the-beer-garden/4b47ff6df964a520134626e3","category":"Deli / Bodega","checkinsCount":1150,"usersCount":354,"tipCount":12,"visitsCount":1321,"url":"http://bgmemphis.com","tier":2,"message":"Moderate","currency":"$","rating":7.5},{"name":"The Lobby Bar","phone":"9016846664","twitter":"hiltonhotels","address":"939 Ridge Lake Blvd","lat":35.10535116487971,"lng":-89.86876113119706,"city_fetched":"Memphis","state":"TN","country":"United States","canonicalUrl":"https://foursquare.com/v/the-lobby-bar/50ca02bf245f2d4aa8c2aec6","category":"Hotel Bar","checkinsCount":884,"usersCount":143,"tipCount":1,"visitsCount":887,"url":"http://www.hilton.com","tier":"","message":"","currency":"","rating":7.5},{"name":"The Blue Monkey","address":"2012 Madison Ave","lat":35.13727482779254,"lng":-89.99410053779926,"neighborhood":"Midtown","city_fetched":"Memphis","state":"TN","country":"United States","canonicalUrl":"https://foursquare.com/v/the-blue-monkey/5251fbd711d250f3e14e0a22","category":"Bar","checkinsCount":1217,"usersCount":426,"tipCount":11,"visitsCount":1376,"url":"http://bluemonkeymemphis.com","tier":2,"message":"Moderate","currency":"$","rating":7.4},{"name":"Absinthe Room","address":"162 Beale St","lat":35.139831173629766,"lng":-90.05262636836201,"neighborhood":"Downtown Memphis","city_fetched":"Memphis","state":"TN","country":"United States","canonicalUrl":"https://foursquare.com/v/absinthe-room/4bf222f9324cc9b673dacc92","category":"Lounge","checkinsCount":2763,"usersCount":989,"tipCount":17,"visitsCount":2774,"tier":1,"message":"Cheap","currency":"$","rating":7.4},{"name":"Terrace at the River Inn","twitter":"terracememphis","lat":35.161118650230925,"lng":-90.05512973899832,"neighborhood":"Harbor Town","city_fetched":"Memphis","state":"TN","country":"United States","canonicalUrl":"https://foursquare.com/v/terrace-at-the-river-inn/525336e8498e0d192102e5b1","category":"Bar","checkinsCount":232,"usersCount":162,"tipCount":2,"visitsCount":245,"tier":"","message":"","currency":"","rating":7.4},{"name":"Patrick's Steaks And Spirits","phone":"9016822852","twitter":"patricksmemphis","address":"4972 Park Ave","lat":35.10685052891802,"lng":-89.89656293322149,"city_fetched":"Memphis","state":"TN","country":"United States","canonicalUrl":"https://foursquare.com/v/patricks-steaks-and-spirits/4b24564cf964a5201a6624e3","category":"Bar","checkinsCount":2188,"usersCount":940,"tipCount":26,"visitsCount":2608,"url":"http://patricksmemphis.com","tier":"","message":"","currency":"","rating":7.4},{"name":"Billy Hardwick's All Star Lanes","phone":"9016832695","twitter":"billyhardwicks","address":"1576 S White Station Rd","lat":35.08832169597171,"lng":-89.89085074552337,"city_fetched":"Memphis","state":"TN","country":"United States","canonicalUrl":"https://foursquare.com/v/billy-hardwicks-all-star-lanes/4b130bd4f964a5203a9323e3","category":"Bowling Alley","checkinsCount":2624,"usersCount":1367,"tipCount":17,"visitsCount":3109,"url":"http://www.billyhardwicks.com","tier":"","message":"","currency":"","rating":7.4},{"name":"Paula & Raifords Disco","address":"14 S 2nd St","lat":35.144375514763944,"lng":-90.05145909656879,"neighborhood":"Downtown Memphis","city_fetched":"Memphis","state":"TN","country":"United States","canonicalUrl":"https://foursquare.com/v/paula--raifords-disco/4b2339d5f964a5207e5424e3","category":"Nightclub","checkinsCount":1859,"usersCount":1118,"tipCount":32,"visitsCount":1989,"tier":2,"message":"Moderate","currency":"$","rating":7.4},{"name":"Printer's Alley","phone":"9017259809","address":"322 S Cleveland St","lat":35.13326346874237,"lng":-90.01667261123657,"neighborhood":"Central Gardens","city_fetched":"Memphis","state":"TN","country":"United States","canonicalUrl":"https://foursquare.com/v/printers-alley/4b2c9358f964a520e5c724e3","category":"Bar","checkinsCount":439,"usersCount":181,"tipCount":9,"visitsCount":503,"tier":"","message":"","currency":"","rating":7.3},{"name":"High Point Pub","phone":"9014529203","address":"477 High Point Ter","lat":35.14480011826974,"lng":-89.93755528762065,"city_fetched":"Memphis","state":"TN","country":"United States","canonicalUrl":"https://foursquare.com/v/high-point-pub/4b3d7974f964a520ad9425e3","category":"Pub","checkinsCount":1048,"usersCount":166,"tipCount":6,"visitsCount":1062,"url":"http://www.thehighpointpub.com","tier":"","message":"","currency":"","rating":7.3},{"name":"R.P. Billiards","phone":"9014526203","address":"525 S Highland St","lat":35.11733651161194,"lng":-89.94594676666667,"city_fetched":"Memphis","state":"TN","country":"United States","canonicalUrl":"https://foursquare.com/v/rp-billiards/4b2a61b8f964a52006a824e3","category":"Bar","checkinsCount":894,"usersCount":352,"tipCount":14,"visitsCount":896,"tier":"","message":"","currency":"","rating":7.3},{"name":"Hadley's Pub","phone":"9012665006","address":"2779 Whitten Rd","lat":35.201763796554474,"lng":-89.83691083190456,"city_fetched":"Memphis","state":"TN","country":"United States","canonicalUrl":"https://foursquare.com/v/hadleys-pub/4baadec5f964a520538b3ae3","category":"Bar","checkinsCount":543,"usersCount":173,"tipCount":8,"visitsCount":612,"url":"http://hadleyspub.com","tier":"","message":"","currency":"","rating":7.3},{"name":"Spectrum Memphis","address":"616 Marshall Ave","lat":35.14125911281237,"lng":-90.04009373348849,"neighborhood":"Midtown","city_fetched":"Memphis","state":"TN","country":"United States","canonicalUrl":"https://foursquare.com/v/spectrum-memphis/4d1ed784d7b0b1f7ca5c089f","category":"Bar","checkinsCount":1356,"usersCount":583,"tipCount":6,"visitsCount":1535,"url":"http://www.thespectrummemphis.com","tier":2,"message":"Moderate","currency":"$","rating":7.3},{"name":"Automatic Slim's Tonga Club","phone":"9015257948","twitter":"automaticslims","address":"83 S 2nd St","lat":35.14269135939098,"lng":-90.05259811878204,"neighborhood":"Downtown Memphis","city_fetched":"Memphis","state":"TN","country":"United States","canonicalUrl":"https://foursquare.com/v/automatic-slims-tonga-club/4b058661f964a520875f22e3","category":"American Restaurant","checkinsCount":2577,"usersCount":1343,"tipCount":39,"visitsCount":2617,"url":"http://automaticslimsmemphis.com","tier":2,"message":"Moderate","currency":"$","rating":7.3},{"name":"Beale Street Tap Room","phone":"9015762220","address":"162 Beale St","lat":35.139814971591704,"lng":-90.05240750219437,"neighborhood":"Downtown Memphis","city_fetched":"Memphis","state":"TN","country":"United States","canonicalUrl":"https://foursquare.com/v/beale-street-tap-room/4b0c7de9f964a5203d3e23e3","category":"Bar","checkinsCount":2313,"usersCount":1471,"tipCount":19,"visitsCount":2324,"tier":"","message":"","currency":"","rating":7.3},{"name":"Ubee's","phone":"9013230900","address":"521 S Highland St","lat":35.11744,"lng":-89.946223,"city_fetched":"Memphis","state":"TN","country":"United States","canonicalUrl":"https://foursquare.com/v/ubees/4b1ee280f964a5200d2124e3","category":"Bar","checkinsCount":5997,"usersCount":898,"tipCount":50,"visitsCount":6209,"url":"http://www.ubeesmemphis.com","tier":2,"message":"Moderate","currency":"$","rating":7.3},{"name":"1884 Lounge","address":"1555 Madison Ave","lat":35.13796208795574,"lng":-90.00977980573123,"neighborhood":"Midtown","city_fetched":"Memphis","state":"TN","country":"United States","canonicalUrl":"https://foursquare.com/v/1884-lounge/4c53939efd2ea5934f19a828","category":"Music Venue","checkinsCount":365,"usersCount":175,"tipCount":2,"visitsCount":365,"tier":"","message":"","currency":"","rating":7.3},{"name":"Blue Note Bar and Grill","address":"341 Beale St","lat":35.13922596988832,"lng":-90.04985871526448,"neighborhood":"Midtown","city_fetched":"Memphis","state":"TN","country":"United States","canonicalUrl":"https://foursquare.com/v/blue-note-bar-and-grill/53520571498e914bee788422","category":"Bar","checkinsCount":86,"usersCount":62,"tipCount":0,"visitsCount":86,"tier":"","message":"","currency":"","rating":7.3},{"name":"Club Shadows","address":"152 Beale St","lat":35.14000772,"lng":-90.052984,"neighborhood":"Downtown Memphis","city_fetched":"Memphis","state":"TN","country":"United States","canonicalUrl":"https://foursquare.com/v/club-shadows/4b70c8e8f964a5208f2e2de3","category":"Nightclub","checkinsCount":3253,"usersCount":400,"tipCount":8,"visitsCount":3266,"tier":"","message":"","currency":"","rating":7.2},{"name":"York Ave. Tavern","address":"1845","lat":35.124871578748134,"lng":-90.00056690990797,"neighborhood":"Cooper Young","city_fetched":"Memphis","state":"TN","country":"United States","canonicalUrl":"https://foursquare.com/v/york-ave-tavern/4c1814a16a21c9b67f89c897","category":"Speakeasy","checkinsCount":2052,"usersCount":67,"tipCount":12,"visitsCount":2081,"tier":"","message":"","currency":"","rating":7.2},{"name":"Alfred's on Beale","phone":"9015253711","twitter":"alfredsonbeale","address":"197 Beale St","lat":35.13943933499271,"lng":-90.05178282854457,"neighborhood":"Midtown","city_fetched":"Memphis","state":"TN","country":"United States","canonicalUrl":"https://foursquare.com/v/alfreds-on-beale/4b058660f964a5200b5f22e3","category":"Bar","checkinsCount":5558,"usersCount":3075,"tipCount":45,"visitsCount":5606,"url":"http://www.alfredsonbeale.com","tier":2,"message":"Moderate","currency":"$","rating":7.2},{"name":"Bar DKDC","phone":"9012720830","address":"964 S Cooper St","lat":35.11945594281682,"lng":-89.99096714547203,"neighborhood":"Cooper Young","city_fetched":"Memphis","state":"TN","country":"United States","canonicalUrl":"https://foursquare.com/v/bar-dkdc/50f0b6e0e4b07f0405859c22","category":"Bar","checkinsCount":828,"usersCount":395,"tipCount":9,"visitsCount":864,"url":"http://bardkdc.com","tier":"","message":"","currency":"","rating":7.2},{"name":"Newby's","phone":"9017300520","twitter":"newbysmemphis","address":"539 S Highland St","lat":35.11694053095427,"lng":-89.94576857490836,"city_fetched":"Memphis","state":"TN","country":"United States","canonicalUrl":"https://foursquare.com/v/newbys/4b058660f964a520135f22e3","category":"Bar","checkinsCount":3388,"usersCount":887,"tipCount":21,"visitsCount":3459,"url":"http://newbysbar.com","tier":"","message":"","currency":"","rating":7.2},{"name":"Johnny G's Creole Kitchen","phone":"9015281055","address":"156 Beale St","lat":35.13987950179429,"lng":-90.05278587341309,"neighborhood":"Downtown Memphis","city_fetched":"Memphis","state":"TN","country":"United States","canonicalUrl":"https://foursquare.com/v/johnny-gs-creole-kitchen/4db7808304376df997610acb","category":"Cajun / Creole Restaurant","checkinsCount":1063,"usersCount":708,"tipCount":33,"visitsCount":1065,"tier":"","message":"","currency":"","rating":7.2},{"name":"Mesquite Chop House","phone":"9015275337","address":"88 Union Ave","lat":35.14339134558223,"lng":-90.05417214623375,"neighborhood":"Downtown Memphis","city_fetched":"Memphis","state":"TN","country":"United States","canonicalUrl":"https://foursquare.com/v/mesquite-chop-house/4b058661f964a5209c5f22e3","category":"Steakhouse","checkinsCount":522,"usersCount":292,"tipCount":5,"visitsCount":528,"url":"http://www.mesquitechophouse.com","tier":"","message":"","currency":"","rating":7.2},{"name":"Crescent Center","address":"6075 Poplar Ave","lat":35.10144751163943,"lng":-89.86061821851463,"city_fetched":"Memphis","state":"TN","country":"United States","canonicalUrl":"https://foursquare.com/v/crescent-center/4b229242f964a520424924e3","category":"Office","checkinsCount":1136,"usersCount":315,"tipCount":7,"visitsCount":1150,"tier":"","message":"","currency":"","rating":7.2},{"name":"Sheraton Memphis Downtown","phone":"9015277300","address":"250 N Main St","lat":35.15163514034506,"lng":-90.0499963760376,"neighborhood":"Downtown Memphis","city_fetched":"Memphis","state":"TN","country":"United States","canonicalUrl":"https://foursquare.com/v/sheraton-memphis-downtown/4b05865ff964a520e95e22e3","category":"Hotel","checkinsCount":6179,"usersCount":3482,"tipCount":54,"visitsCount":7571,"url":"http://www.sheratonmemphisdowntown.com","tier":"","message":"","currency":"","rating":7.2},{"name":"Applebee's West Memphis","phone":"8707354029","twitter":"applebees","address":"208 W. Service Rd.","lat":35.1685185,"lng":-90.18814181,"city_fetched":"Memphis","state":"AR","country":"United States","canonicalUrl":"https://foursquare.com/v/applebees-west-memphis/4b9bf06ff964a520463836e3","category":"American Restaurant","checkinsCount":767,"usersCount":520,"tipCount":10,"visitsCount":963,"url":"http://restaurants.applebees.com/ar/west-memphis/208-w-service-rd.html","tier":2,"message":"Moderate","currency":"$","rating":7.1},{"name":"Hooters of Wolfchase","phone":"9012664404","twitter":"hooters","address":"2838 New Brunswick Rd","lat":35.20247186921287,"lng":-89.7779680788517,"city_fetched":"Memphis","state":"TN","country":"United States","canonicalUrl":"https://foursquare.com/v/hooters-of-wolfchase/4b21f0fef964a5207e4224e3","category":"Wings Joint","checkinsCount":3324,"usersCount":1370,"tipCount":25,"visitsCount":3705,"url":"https://hooters.com","tier":2,"message":"Moderate","currency":"$","rating":7.1},{"name":"Peabody Rooftop Party","lat":35.142437,"lng":-90.052108,"neighborhood":"Downtown Memphis","city_fetched":"Memphis","state":"TN","country":"United States","canonicalUrl":"https://foursquare.com/v/peabody-rooftop-party/4f90ae93e4b04cd6aa2f034b","category":"Nightclub","checkinsCount":219,"usersCount":131,"tipCount":5,"visitsCount":220,"tier":"","message":"","currency":"","rating":7.1},{"name":"TGI Fridays","phone":"9017521369","twitter":"tgifridays","address":"7733 Winchester Rd","lat":35.049010494369455,"lng":-89.80609603258388,"city_fetched":"Memphis","state":"TN","country":"United States","canonicalUrl":"https://foursquare.com/v/tgi-fridays/509d636c5d2463e871547f49","category":"American Restaurant","checkinsCount":1578,"usersCount":1137,"tipCount":13,"visitsCount":2159,"url":"http://tgifridays.com","tier":1,"message":"Cheap","currency":"$","rating":7.1},{"name":"ICE Bar And Grill","phone":"9017571423","twitter":"icebarmemphis","address":"4050 Hacks Cross Rd.","lat":35.034176638618455,"lng":-89.79445176008545,"city_fetched":"Memphis","state":"TN","country":"United States","canonicalUrl":"https://foursquare.com/v/ice-bar-and-grill/4e75496dd1643f93b1de98ec","category":"Cocktail Bar","checkinsCount":703,"usersCount":409,"tipCount":8,"visitsCount":883,"url":"http://www.icebarmemphis.com","tier":"","message":"","currency":"","rating":7.1},{"name":"A-Game Restaurant & Bar","address":"6642 Winchester Rd","lat":35.04998730761453,"lng":-89.84204577100007,"city_fetched":"Memphis","state":"TN","country":"United States","canonicalUrl":"https://foursquare.com/v/agame-restaurant--bar/4f596ad5e4b0e4b75e37d334","category":"Sports Bar","checkinsCount":139,"usersCount":75,"tipCount":1,"visitsCount":144,"tier":"","message":"","currency":"","rating":7},{"name":"Murphy's Public House","phone":"9017264193","address":"1589 Madison Ave","lat":35.13795684613753,"lng":-90.00829958126468,"neighborhood":"Midtown","city_fetched":"Memphis","state":"TN","country":"United States","canonicalUrl":"https://foursquare.com/v/murphys-public-house/4b058660f964a5202d5f22e3","category":"Rock Club","checkinsCount":1441,"usersCount":554,"tipCount":8,"visitsCount":1548,"url":"http://www.murphysmemphis.com","tier":"","message":"","currency":"","rating":7},{"name":"T J Mulligans","phone":"9017564480","address":"8071 Trinity Rd","lat":35.14197278286907,"lng":-89.79398023987345,"neighborhood":"Alliance of Cordova Neighborhoods","city_fetched":"Memphis","state":"TN","country":"United States","canonicalUrl":"https://foursquare.com/v/t-j-mulligans/4b0f66fcf964a5200c6223e3","category":"Pub","checkinsCount":2201,"usersCount":873,"tipCount":9,"visitsCount":2551,"url":"http://tjmulligans.com","tier":"","message":"","currency":"","rating":7},{"name":"Club 152","phone":"9015447011","twitter":"club152","address":"152 Beale St","lat":35.1399383687064,"lng":-90.05295466995558,"neighborhood":"Downtown Memphis","city_fetched":"Memphis","state":"TN","country":"United States","canonicalUrl":"https://foursquare.com/v/club-152/4b481beef964a5206b4826e3","category":"Nightclub","checkinsCount":8797,"usersCount":2770,"tipCount":40,"visitsCount":8834,"url":"http://club152memphis.com","tier":1,"message":"Cheap","currency":"$","rating":7},{"name":"Sal's Bar & Grill","phone":"9017264551","twitter":"scachola","address":"2093 Young Ave","lat":35.11937007367979,"lng":-89.992401797389,"neighborhood":"Cooper Young","city_fetched":"Memphis","state":"TN","country":"United States","canonicalUrl":"https://foursquare.com/v/sals-bar--grill/4d214b2f2eb1f04d2a34f7c1","category":"Gastropub","checkinsCount":229,"usersCount":27,"tipCount":11,"visitsCount":230,"tier":"","message":"","currency":"","rating":7},{"name":"Loft at the Double J","phone":"9013472648","twitter":"doublejmemphis","address":"GE Patterson","lat":35.13308199149874,"lng":-90.05810298887265,"neighborhood":"Downtown Memphis","city_fetched":"Memphis","state":"TN","country":"United States","canonicalUrl":"https://foursquare.com/v/loft-at-the-double-j/4fa86b2de4b016ac7d44cca5","category":"Lounge","checkinsCount":1584,"usersCount":159,"tipCount":4,"visitsCount":1600,"tier":"","message":"","currency":"","rating":7},{"name":"The Eo'j Restaurant & Lounge","phone":"9013837457","address":"6102 Macon Rd","lat":35.164158702344196,"lng":-89.85929289059284,"city_fetched":"Memphis","state":"TN","country":"United States","canonicalUrl":"https://foursquare.com/v/the-eoj-restaurant--lounge/4d438a0a1b62b1f7014fe9e2","category":"Lounge","checkinsCount":121,"usersCount":87,"tipCount":4,"visitsCount":126,"url":"http://theeoj.com","tier":"","message":"","currency":"","rating":6.9},{"name":"The Skybox","lat":35.05285387040476,"lng":-89.73428444769624,"city_fetched":"Memphis","state":"TN","country":"United States","canonicalUrl":"https://foursquare.com/v/the-skybox/54e66367498ef739034d0312","category":"Bar","checkinsCount":166,"usersCount":157,"tipCount":2,"visitsCount":324,"tier":"","message":"","currency":"","rating":6.9}]