[{"name":"Lucette Brewing Company","phone":"7152332055","address":"910 Hudson Rd","lat":44.87530757008572,"lng":-91.93994759330162,"city_fetched":"Menomonie,US","state":"WI","country":"United States","canonicalUrl":"https://foursquare.com/v/lucette-brewing-company/4cb8f5549552b60ce084d08b","categoryId":"50327c8591d4c4b30a586d5d","category":"Brewery","checkinsCount":155,"usersCount":173,"tipCount":6,"visitsCount":279,"url":"http://lucettebrewing.com","tier":"","message":"","currency":"","rating":8.4},{"name":"Waterfront Bar & Grill","phone":"7152356541","address":"512 Crescent Avenue","lat":44.878076854101735,"lng":-91.92828212476296,"city_fetched":"Menomonie,US","state":"WI","country":"United States","canonicalUrl":"https://foursquare.com/v/waterfront-bar--grill/4b2037b3f964a520da2e24e3","categoryId":"4bf58dd8d48988d116941735","category":"Bar","checkinsCount":1927,"usersCount":665,"tipCount":20,"visitsCount":2224,"tier":1,"message":"Cheap","currency":"$","rating":8.2},{"name":"Log Jam","phone":"7152350703","address":"709 Broadway St S","lat":44.87614473832129,"lng":-91.92975207156691,"city_fetched":"Menomonie,US","state":"WI","country":"United States","canonicalUrl":"https://foursquare.com/v/log-jam/4b0613ccf964a52056e822e3","categoryId":"4bf58dd8d48988d116941735","category":"Bar","checkinsCount":4201,"usersCount":1032,"tipCount":24,"visitsCount":4571,"url":"http://www.menomonielogjam.com","tier":"","message":"","currency":"","rating":8.1},{"name":"The Abbey Pub & Grub","phone":"7152325100","address":"414 Main St E","lat":44.876356569597036,"lng":-91.92548554280711,"city_fetched":"Menomonie,US","state":"WI","country":"United States","canonicalUrl":"https://foursquare.com/v/the-abbey-pub--grub/505189cee4b050646b4c116a","categoryId":"4bf58dd8d48988d11b941735","category":"Pub","checkinsCount":466,"usersCount":199,"tipCount":2,"visitsCount":537,"tier":"","message":"","currency":"","rating":7.7},{"name":"Kahootz","address":"336 Main St E","lat":44.876476,"lng":-91.92638565,"city_fetched":"Menomonie,US","state":"WI","country":"United States","canonicalUrl":"https://foursquare.com/v/kahootz/4e13bdbf1f6e33e718051354","categoryId":"4bf58dd8d48988d116941735","category":"Bar","checkinsCount":980,"usersCount":225,"tipCount":5,"visitsCount":1025,"tier":"","message":"","currency":"","rating":7.4},{"name":"Das Bierhaus","phone":"7152313230","address":"120 6th Ave W","lat":44.87720258,"lng":-91.93037,"city_fetched":"Menomonie,US","state":"WI","country":"United States","canonicalUrl":"https://foursquare.com/v/das-bierhaus/4b91e5c8f964a52049de33e3","categoryId":"50327c8591d4c4b30a586d5d","category":"Brewery","checkinsCount":563,"usersCount":248,"tipCount":6,"visitsCount":568,"url":"http://dasbierhaus-wi.com","tier":"","message":"","currency":"","rating":6.5},{"name":"Pioneer Grill and Saloon","phone":"7152359927","address":"E5699 County Road D","lat":44.96942751437446,"lng":-91.87541092185438,"city_fetched":"Menomonie,US","state":"WI","country":"United States","canonicalUrl":"https://foursquare.com/v/pioneer-grill-and-saloon/4e4e6a1bbd4101d0d7a9a5cc","categoryId":"4bf58dd8d48988d116941735","category":"Bar","checkinsCount":346,"usersCount":128,"tipCount":4,"visitsCount":363,"tier":"","message":"","currency":"","rating":6.3},{"name":"Fuzzy's Bar & Grill","phone":"7152313899","address":"N5729 410th St","lat":44.886512396219736,"lng":-91.95582310883681,"city_fetched":"Menomonie,US","state":"WI","country":"United States","canonicalUrl":"https://foursquare.com/v/fuzzys-bar--grill/4c8284378ce59c74ea0a7ab0","categoryId":"4bf58dd8d48988d116941735","category":"Bar","checkinsCount":261,"usersCount":128,"tipCount":4,"visitsCount":262,"tier":"","message":"","currency":"","rating":6.2},{"name":"Meet Market","phone":"7152359995","address":"545 Broadway St S","lat":44.877504344163974,"lng":-91.92978070737979,"city_fetched":"Menomonie,US","state":"WI","country":"United States","canonicalUrl":"https://foursquare.com/v/meet-market/4b203838f964a520e32e24e3","categoryId":"4bf58dd8d48988d116941735","category":"Bar","checkinsCount":1528,"usersCount":400,"tipCount":11,"visitsCount":1605,"tier":"","message":"","currency":"","rating":6.2},{"name":"Lakeside Lounge","phone":"7152354307","address":"614 Main St E","lat":44.8764123,"lng":-91.92300106666667,"city_fetched":"Menomonie,US","state":"WI","country":"United States","canonicalUrl":"https://foursquare.com/v/lakeside-lounge/4b514d47f964a5204d4a27e3","categoryId":"4bf58dd8d48988d121941735","category":"Lounge","checkinsCount":223,"usersCount":123,"tipCount":2,"visitsCount":247,"tier":"","message":"","currency":"","rating":5.9},{"name":"Rehab","lat":44.87684686479347,"lng":-91.92989525081683,"city_fetched":"Menomonie,US","state":"WI","country":"United States","canonicalUrl":"https://foursquare.com/v/rehab/52502d4c498efba360856320","categoryId":"4bf58dd8d48988d11f941735","category":"Nightclub","checkinsCount":284,"usersCount":64,"tipCount":1,"visitsCount":312,"tier":"","message":"","currency":"","rating":5.7},{"name":"The Great Escape (VFW)","phone":"7152353472","address":"2909 Bongey Dr","lat":44.85652930813651,"lng":-91.94010512682648,"city_fetched":"Menomonie,US","state":"WI","country":"United States","canonicalUrl":"https://foursquare.com/v/the-great-escape-vfw/4bfc9f4f4cf820a1e065ebf4","categoryId":"4bf58dd8d48988d116941735","category":"Bar","checkinsCount":255,"usersCount":136,"tipCount":4,"visitsCount":382,"tier":"","message":"","currency":"","rating":5.7}]