[{"name":"Pinocchio's","lat":37.301314666205755,"lng":-120.48330969565485,"city_fetched":"Merced,US","state":"CA","country":"United States","canonicalUrl":"https://foursquare.com/v/pinocchios/4f6ba045e4b0b54b07c7b79b","categoryId":"4bf58dd8d48988d116941735","category":"Bar","checkinsCount":479,"usersCount":193,"tipCount":6,"visitsCount":519,"tier":"","message":"","currency":"","rating":7.5},{"name":"Kewl Cats","address":"1111 Motel Dr","lat":37.29220199584961,"lng":-120.4622802734375,"city_fetched":"Merced,US","state":"CA","country":"United States","canonicalUrl":"https://foursquare.com/v/kewl-cats/51b7a92a498e9736af934a47","categoryId":"4bf58dd8d48988d120941735","category":"Karaoke Bar","checkinsCount":163,"usersCount":47,"tipCount":5,"visitsCount":196,"tier":"","message":"","currency":"","rating":7.4},{"name":"O'Ryleigh's Tavern","lat":37.301973613890056,"lng":-120.48283164515418,"city_fetched":"Merced,US","state":"CA","country":"United States","canonicalUrl":"https://foursquare.com/v/oryleighs-tavern/4bd29b049854d13ad91bfc4d","categoryId":"4bf58dd8d48988d116941735","category":"Bar","checkinsCount":395,"usersCount":130,"tipCount":3,"visitsCount":410,"tier":"","message":"","currency":"","rating":6.8},{"name":"17th Street Public House","address":"315 W Main St","lat":37.30059695327949,"lng":-120.48068320794987,"city_fetched":"Merced,US","state":"CA","country":"United States","canonicalUrl":"https://foursquare.com/v/17th-street-public-house/51d8e69d498e3efc84332690","categoryId":"4bf58dd8d48988d11b941735","category":"Pub","checkinsCount":239,"usersCount":75,"tipCount":4,"visitsCount":249,"tier":"","message":"","currency":"","rating":6.5},{"name":"The Partisan","phone":"2097230599","address":"432 W Main St","lat":37.30108061,"lng":-120.48261,"city_fetched":"Merced,US","state":"CA","country":"United States","canonicalUrl":"https://foursquare.com/v/the-partisan/4b59f8a0f964a520c9a428e3","categoryId":"4bf58dd8d48988d116941735","category":"Bar","checkinsCount":1183,"usersCount":263,"tipCount":11,"visitsCount":1187,"url":"http://partisanmerced.com","tier":"","message":"","currency":"","rating":6}]