[{"name":"Gino's Italian Ristorante","phone":"2088877710","address":"3015 W McMillan Rd","lat":43.647555112838745,"lng":-116.43117964267731,"city_fetched":"Meridian","state":"ID","country":"United States","canonicalUrl":"https://foursquare.com/v/ginos-italian-ristorante/4b64dc01f964a52092d52ae3","category":"Italian Restaurant","checkinsCount":400,"usersCount":335,"tipCount":16,"visitsCount":587,"tier":"","message":"","currency":"","rating":8.2},{"name":"Slanted Rock Brewing Co","twitter":"slantedrock","address":"2374 E Cinema Dr","lat":43.59172892461268,"lng":-116.36607920531989,"neighborhood":"Southeast Meridian","city_fetched":"Meridian","state":"ID","country":"United States","canonicalUrl":"https://foursquare.com/v/slanted-rock-brewing-co/4fa15c10bb3d40519d4aa5c4","category":"Brewery","checkinsCount":373,"usersCount":185,"tipCount":5,"visitsCount":502,"url":"http://slantedrock.com","tier":"","message":"","currency":"","rating":7.8},{"name":"Rudy's Pub & Grill","phone":"2088844453","address":"2310 E Overland Rd","lat":43.590627908706665,"lng":-116.36479,"neighborhood":"Southeast Meridian","city_fetched":"Meridian","state":"ID","country":"United States","canonicalUrl":"https://foursquare.com/v/rudys-pub--grill/4b636693f964a52024772ae3","category":"Pub","checkinsCount":801,"usersCount":409,"tipCount":11,"visitsCount":860,"url":"http://www.rudyspubngrill.com","tier":2,"message":"Moderate","currency":"$","rating":7.7},{"name":"Firehouse Pub & Grill","phone":"2088469535","address":"1767 W Franklin Rd","lat":43.60406511666667,"lng":-116.41606,"neighborhood":"Southwest Meridian","city_fetched":"Meridian","state":"ID","country":"United States","canonicalUrl":"https://foursquare.com/v/firehouse-pub--grill/4ba80314f964a52030c639e3","category":"Bar","checkinsCount":239,"usersCount":135,"tipCount":3,"visitsCount":262,"tier":"","message":"","currency":"","rating":7.7},{"name":"Beef O'Brady's","phone":"2088886228","twitter":"mbeefs","address":"1505 S Eagle Rd","lat":43.591558230650385,"lng":-116.35615758558878,"neighborhood":"Southeast Meridian","city_fetched":"Meridian","state":"ID","country":"United States","canonicalUrl":"https://foursquare.com/v/beef-obradys/4ea2348be3008f7d91feee9c","category":"Sports Bar","checkinsCount":1063,"usersCount":414,"tipCount":15,"visitsCount":1255,"url":"http://www.beefobradys.com","tier":"","message":"","currency":"","rating":7.6},{"name":"Harrys Meridian Grill","address":"3135 E Overland Rd","lat":43.59073952,"lng":-116.36824,"neighborhood":"Southeast Meridian","city_fetched":"Meridian","state":"ID","country":"United States","canonicalUrl":"https://foursquare.com/v/harrys-meridian-grill/4b6e2e5cf964a52016b02ce3","category":"Bar","checkinsCount":385,"usersCount":202,"tipCount":4,"visitsCount":470,"tier":"","message":"","currency":"","rating":7.5},{"name":"The Curb Bar & Grill","phone":"2088550202","address":"1760 S Meridian Rd","lat":43.58899111153297,"lng":-116.39311084,"neighborhood":"Southeast Meridian","city_fetched":"Meridian","state":"ID","country":"United States","canonicalUrl":"https://foursquare.com/v/the-curb-bar--grill/4c89a302770fb60c79f2cbc3","category":"Bar","checkinsCount":1530,"usersCount":543,"tipCount":24,"visitsCount":1820,"url":"http://www.curbbarandgrill.com","tier":1,"message":"Cheap","currency":"$","rating":7.4},{"name":"Kahootz Steak & Ale House","phone":"2088959861","address":"1603 N Main St","lat":43.61815810203552,"lng":-116.391936,"neighborhood":"Northeast Meridian","city_fetched":"Meridian","state":"ID","country":"United States","canonicalUrl":"https://foursquare.com/v/kahootz-steak--ale-house/4bad17e4f964a520e12c3be3","category":"Pub","checkinsCount":560,"usersCount":301,"tipCount":14,"visitsCount":612,"url":"http://kahootzsteak.com","tier":"","message":"","currency":"","rating":7.3},{"name":"Barrel 55 Dining & Taphouse","address":"3004 N Eagle Rd","lat":43.632792,"lng":-116.353833,"city_fetched":"Meridian","state":"ID","country":"United States","canonicalUrl":"https://foursquare.com/v/barrel-55-dining--taphouse/577efb1d498ea8b933c2d8f1","category":"Gastropub","checkinsCount":13,"usersCount":12,"tipCount":1,"visitsCount":14,"tier":"","message":"","currency":"","rating":7.2},{"name":"RAM Restaurant & Brewery","phone":"2088880314","twitter":"theram","address":"3272 E Pine Ave","lat":43.613397483983206,"lng":-116.35409832000732,"city_fetched":"Meridian","state":"ID","country":"United States","canonicalUrl":"https://foursquare.com/v/ram-restaurant--brewery/4b5120d1f964a520de4327e3","category":"Brewery","checkinsCount":1680,"usersCount":869,"tipCount":17,"visitsCount":1895,"url":"http://theram.com","tier":2,"message":"Moderate","currency":"$","rating":7},{"name":"Busted Shovel","phone":"2082882217","address":"704 N Main St","lat":43.610296,"lng":-116.39129,"city_fetched":"Meridian","state":"ID","country":"United States","canonicalUrl":"https://foursquare.com/v/busted-shovel/4b99b42cf964a520158d35e3","category":"Dive Bar","checkinsCount":318,"usersCount":119,"tipCount":4,"visitsCount":366,"url":"http://www.bustedshovel.com","tier":"","message":"","currency":"","rating":6.7},{"name":"Varsity Pub","lat":43.61765815,"lng":-116.35560696666667,"neighborhood":"Northeast Meridian","city_fetched":"Meridian","state":"Idaho","country":"United States","canonicalUrl":"https://foursquare.com/v/varsity-pub/4eaf60f8b634097eca3722b6","category":"Nightclub","checkinsCount":331,"usersCount":144,"tipCount":4,"visitsCount":332,"tier":"","message":"","currency":"","rating":6.4},{"name":"Country Inn & Suites By Carlson, Boise West at Meridian, ID","phone":"2086393300","address":"3355 E Pine Ave","lat":43.611436,"lng":-116.353316,"city_fetched":"Meridian","state":"ID","country":"United States","canonicalUrl":"https://foursquare.com/v/country-inn--suites-by-carlson-boise-west-at-meridian-id/4bc3cd9ddce4eee12dc2719d","category":"Hotel Bar","checkinsCount":145,"usersCount":95,"tipCount":0,"visitsCount":153,"url":"http://www.countryinns.com","tier":"","message":"","currency":"","rating":6.4},{"name":"Bridgette's Construction Zone Bar & Grill","phone":"2088884075","address":"229 W Franklin Rd","lat":43.60445545755337,"lng":-116.39708092446665,"neighborhood":"Southwest Meridian","city_fetched":"Meridian","state":"ID","country":"United States","canonicalUrl":"https://foursquare.com/v/bridgettes-construction-zone-bar--grill/4fff385ce4b00c7849d6a1fc","category":"Bar","checkinsCount":131,"usersCount":58,"tipCount":4,"visitsCount":194,"tier":"","message":"","currency":"","rating":6.1},{"name":"Pinnacle Sports Grill","phone":"2088844400","address":"2092 N Eagle Rd","lat":43.63085559203799,"lng":-116.35406457482524,"city_fetched":"Meridian","state":"ID","country":"United States","canonicalUrl":"https://foursquare.com/v/pinnacle-sports-grill/4c0ff80b7c49b71367b83606","category":"Sports Bar","checkinsCount":1142,"usersCount":540,"tipCount":8,"visitsCount":1329,"url":"http://www.pinnaclesportsgrill.com","tier":"","message":"","currency":"","rating":6},{"name":"Cheerleaders Sports Bar & Grill","phone":"2089399209","address":"3541 N Eagle Rd","lat":43.63722860813141,"lng":-116.35484013333334,"neighborhood":"Northeast Meridian","city_fetched":"Meridian","state":"ID","country":"United States","canonicalUrl":"https://foursquare.com/v/cheerleaders-sports-bar--grill/4b4fdc95f964a520e11727e3","category":"Sports Bar","checkinsCount":1007,"usersCount":488,"tipCount":12,"visitsCount":1053,"tier":2,"message":"Moderate","currency":"$","rating":6},{"name":"Meridian Lanes/Strikers Bar","phone":"2088882048","address":"324 S Meridian Rd","lat":43.601619601249695,"lng":-116.39311339,"neighborhood":"Southeast Meridian","city_fetched":"Meridian","state":"ID","country":"United States","canonicalUrl":"https://foursquare.com/v/meridian-lanesstrikers-bar/4b6cf414f964a520f05f2ce3","category":"Bowling Alley","checkinsCount":525,"usersCount":248,"tipCount":5,"visitsCount":567,"url":"http://www.meridianbowlinglanes.com","tier":"","message":"","currency":"","rating":5.4},{"name":"Yard House","phone":"2082880990","twitter":"yardhouse","address":"3693 E Longwing Ln","lat":43.621570020424336,"lng":-116.34852563173834,"city_fetched":"Meridian","state":"ID","country":"United States","canonicalUrl":"https://foursquare.com/v/yard-house/526a86b6498ea4b692d3f2eb","category":"American Restaurant","checkinsCount":1127,"usersCount":601,"tipCount":21,"visitsCount":1216,"url":"http://www.yardhouse.com","tier":2,"message":"Moderate","currency":"$","rating":5.2}]