[{"name":"Maxim's","phone":"2197959520","lat":41.48649466510825,"lng":-87.33561974343064,"city_fetched":"Merrill","state":"IN","country":"United States","canonicalUrl":"https://foursquare.com/v/maxims/4bb286912397b713342637b3","category":"Diner","checkinsCount":640,"usersCount":279,"tipCount":9,"visitsCount":903,"tier":2,"message":"Moderate","currency":"$","rating":8.4},{"name":"The Devil's Trumpet Brewing Company","address":"8250 Utah St","lat":41.46849164127092,"lng":-87.2914406418412,"city_fetched":"Merrill","state":"IN","country":"United States","canonicalUrl":"https://foursquare.com/v/the-devils-trumpet-brewing-company/53b9ee83498e33ae0a301b90","category":"Brewery","checkinsCount":191,"usersCount":175,"tipCount":4,"visitsCount":285,"url":"http://thedevilstrumpet.com","tier":"","message":"","currency":"","rating":8.2},{"name":"Karma Cigar Bar","phone":"2197560698","twitter":"karmacigars","address":"850 W 81st Ave","lat":41.47208210556404,"lng":-87.34106160092689,"city_fetched":"Merrill","state":"IN","country":"United States","canonicalUrl":"https://foursquare.com/karmacigars","category":"Smoke Shop","checkinsCount":219,"usersCount":76,"tipCount":6,"visitsCount":219,"url":"http://www.karmacigar.com","tier":"","message":"","currency":"","rating":7.5},{"name":"Bar Louie","phone":"2197939340","twitter":"barlouie","address":"8329 Georgia Street","lat":41.469297184221205,"lng":-87.32615561051182,"city_fetched":"Merrill","state":"IN","country":"United States","canonicalUrl":"https://foursquare.com/v/bar-louie/50983902e4b0147d2f8c3b7c","category":"Restaurant","checkinsCount":963,"usersCount":763,"tipCount":21,"visitsCount":1371,"url":"http://t.co/6m5uO0JOqN","tier":2,"message":"Moderate","currency":"$","rating":7.1},{"name":"Five Eight liquors","phone":"2198846106","address":"5847 Broadway","lat":41.511895466666665,"lng":-87.33564523333334,"city_fetched":"Merrill","state":"IN","country":"United States","canonicalUrl":"https://foursquare.com/v/five-eight-liquors/4df2dee745dd4e26933ee58e","category":"Bar","checkinsCount":172,"usersCount":57,"tipCount":2,"visitsCount":187,"tier":"","message":"","currency":"","rating":6.8},{"name":"TGI Fridays","phone":"2199421845","twitter":"tgifridays","address":"2487 E 80th Ave","lat":41.47160669,"lng":-87.30622179,"city_fetched":"Merrill","state":"IN","country":"United States","canonicalUrl":"https://foursquare.com/v/tgi-fridays/4bd86942f645c9b6b0d8a7e0","category":"American Restaurant","checkinsCount":1792,"usersCount":1147,"tipCount":14,"visitsCount":2004,"url":"http://tgifridays.com","tier":2,"message":"Moderate","currency":"$","rating":6.8},{"name":"T J Maloney's Irish Pub","phone":"219769631152","twitter":"whitelodging","address":"800 E 81st Ave","lat":41.4720709994309,"lng":-87.32811068579238,"city_fetched":"Merrill","state":"IN","country":"United States","canonicalUrl":"https://foursquare.com/v/t-j-maloneys-irish-pub/4b4d42eff964a52095cf26e3","category":"Pub","checkinsCount":1529,"usersCount":761,"tipCount":17,"visitsCount":1551,"url":"http://www.whitelodging.com","tier":2,"message":"Moderate","currency":"$","rating":6.5},{"name":"Sherwin-Williams","phone":"2197369107","twitter":"sherwinwilliams","address":"263 W 81st Ave","lat":41.46980450470733,"lng":-87.33923316871142,"city_fetched":"Merrill","state":"IN","country":"United States","canonicalUrl":"https://foursquare.com/v/sherwinwilliams/4c0fc77781e976b066100eeb","category":"Miscellaneous Shop","checkinsCount":532,"usersCount":27,"tipCount":0,"visitsCount":532,"url":"http://www.sherwin-williams.com","tier":"","message":"","currency":"","rating":6.5},{"name":"Sheffield's Restaurant","phone":"2197951005","address":"1515 E 82nd Ave","lat":41.469656863583765,"lng":-87.31761635861812,"city_fetched":"Merrill","state":"IN","country":"United States","canonicalUrl":"https://foursquare.com/v/sheffields-restaurant/4babc3fff964a520b1c73ae3","category":"American Restaurant","checkinsCount":1366,"usersCount":568,"tipCount":11,"visitsCount":1616,"url":"http://sheffieldscatering.com","tier":"","message":"","currency":"","rating":6.1},{"name":"Hydad's Modern American Pub","address":"31 W 80th Pl","lat":41.473261,"lng":-87.336984,"city_fetched":"Merrill","state":"IN","country":"United States","canonicalUrl":"https://foursquare.com/v/hydads-modern-american-pub/4b382a9ef964a5206a4c25e3","category":"Pub","checkinsCount":873,"usersCount":171,"tipCount":8,"visitsCount":920,"tier":"","message":"","currency":"","rating":5.5}]