[{"name":"South Beach Night Life","address":"Ocean's Drive","lat":25.780812673710145,"lng":-80.1308339327206,"neighborhood":"Flamingo-Lummus","city_fetched":"Miami,US","state":"FL","country":"United States","canonicalUrl":"https://foursquare.com/v/south-beach-night-life/52351a7411d2d4fca5eee5d8","categoryId":"4bf58dd8d48988d11a941735","category":"Other Nightlife","checkinsCount":585,"usersCount":543,"tipCount":4,"visitsCount":587,"tier":2,"message":"Moderate","currency":"$","rating":9.6},{"name":"The Broken Shaker","phone":"3055312727","twitter":"the_freehand","address":"2727 Indian Creek Dr","lat":25.804411969847386,"lng":-80.12640646939154,"neighborhood":"Ocean Front","city_fetched":"Miami,US","state":"FL","country":"United States","canonicalUrl":"https://foursquare.com/v/the-broken-shaker/4f21ea32e4b05183c96b76f8","categoryId":"4bf58dd8d48988d11e941735","category":"Cocktail Bar","checkinsCount":8209,"usersCount":5501,"tipCount":162,"visitsCount":9061,"url":"http://www.thefreehand.com","tier":2,"message":"Moderate","currency":"$","rating":9.4},{"name":"Wood Tavern","phone":"3057482828","twitter":"woodtavern","address":"2531 NW 2nd Ave","lat":25.801305254984253,"lng":-80.19885832179511,"neighborhood":"Wynwood Arts District","city_fetched":"Miami,US","state":"FL","country":"United States","canonicalUrl":"https://foursquare.com/v/wood-tavern/4ecddfca77c8ea62f93a578e","categoryId":"4bf58dd8d48988d116941735","category":"Bar","checkinsCount":15853,"usersCount":6934,"tipCount":110,"visitsCount":17884,"url":"http://woodtavern.com","tier":1,"message":"Cheap","currency":"$","rating":9.4},{"name":"Lagniappe House","address":"3425 NE 2nd Ave","lat":25.809149703389966,"lng":-80.1910508846805,"neighborhood":"Wynwood-Edgewater","city_fetched":"Miami,US","state":"FL","country":"United States","canonicalUrl":"https://foursquare.com/v/lagniappe-house/509f17bde4b05e06b54fdf79","categoryId":"4bf58dd8d48988d123941735","category":"Wine Bar","checkinsCount":4184,"usersCount":4098,"tipCount":82,"visitsCount":6698,"url":"http://lagniappehouse.com","tier":2,"message":"Moderate","currency":"$","rating":9.4},{"name":"KUSH Wynwood","phone":"3055764500","twitter":"kushwynwood","address":"2003 N Miami Ave","lat":25.795755801545226,"lng":-80.19475582879117,"neighborhood":"Wynwood Arts District","city_fetched":"Miami,US","state":"FL","country":"United States","canonicalUrl":"https://foursquare.com/v/kush-wynwood/530b86e3498ee55f4741fac8","categoryId":"4bf58dd8d48988d117941735","category":"Beer Garden","checkinsCount":3069,"usersCount":3104,"tipCount":97,"visitsCount":5098,"url":"http://kushwynwood.com","tier":2,"message":"Moderate","currency":"$","rating":9.3},{"name":"Boxelder Craft Beer Market","phone":"3059427769","twitter":"boxeldermiami","address":"2825 NW 2nd Ave","lat":25.803439736831674,"lng":-80.19896728306215,"neighborhood":"Wynwood Arts District","city_fetched":"Miami,US","state":"FL","country":"United States","canonicalUrl":"https://foursquare.com/v/boxelder-craft-beer-market/54ca838e498eb6d46613b0c0","categoryId":"56aa371ce4b08b9a8d57356c","category":"Beer Bar","checkinsCount":863,"usersCount":614,"tipCount":17,"visitsCount":1263,"url":"http://www.bxldr.com","tier":"","message":"","currency":"","rating":9.2},{"name":"Berries in the Grove","phone":"3054482111","twitter":"berries_grove","address":"2884 SW 27th Ave","lat":25.738139,"lng":-80.23799819,"neighborhood":"Northeast Coconut Grove","city_fetched":"Miami,US","state":"FL","country":"United States","canonicalUrl":"https://foursquare.com/v/berries-in-the-grove/4a7b53e6f964a520b2ea1fe3","categoryId":"4bf58dd8d48988d116941735","category":"Bar","checkinsCount":7267,"usersCount":3791,"tipCount":132,"visitsCount":8977,"url":"http://berriesinthegrove.com","tier":2,"message":"Moderate","currency":"$","rating":9.2},{"name":"Abbey Brewing Co.","phone":"3055388110","twitter":"abbeybrewingmia","address":"1115 16th St","lat":25.7890547648024,"lng":-80.14034239229167,"neighborhood":"Flamingo-Lummus","city_fetched":"Miami,US","state":"FL","country":"United States","canonicalUrl":"https://foursquare.com/v/abbey-brewing-co/49e111a9f964a5208e611fe3","categoryId":"50327c8591d4c4b30a586d5d","category":"Brewery","checkinsCount":4881,"usersCount":2591,"tipCount":71,"visitsCount":4958,"url":"http://abbeybrewinginc.com","tier":2,"message":"Moderate","currency":"$","rating":9.1},{"name":"J Wakefield Brewing","phone":"7862547779","twitter":"jwbrewing","address":"120 NW 24th St","lat":25.799686142868588,"lng":-80.19758891277418,"neighborhood":"Wynwood Arts District","city_fetched":"Miami,US","state":"FL","country":"United States","canonicalUrl":"https://foursquare.com/v/j-wakefield-brewing/53c6bd5e498ec4265540a455","categoryId":"50327c8591d4c4b30a586d5d","category":"Brewery","checkinsCount":1647,"usersCount":1445,"tipCount":25,"visitsCount":2634,"url":"http://www.jwakefieldbrewing.com","tier":2,"message":"Moderate","currency":"$","rating":9.1},{"name":"Wynwood Brewing Co.","phone":"3059828732","twitter":"wynwoodbrewing","address":"565 NW 24th St","lat":25.800106429329187,"lng":-80.20444785512126,"neighborhood":"Wynwood-Edgewater","city_fetched":"Miami,US","state":"FL","country":"United States","canonicalUrl":"https://foursquare.com/v/wynwood-brewing-co/51bd2893498ea7d17211c300","categoryId":"50327c8591d4c4b30a586d5d","category":"Brewery","checkinsCount":3578,"usersCount":2761,"tipCount":58,"visitsCount":5342,"url":"http://wynwoodbrewing.com","tier":1,"message":"Cheap","currency":"$","rating":9.1},{"name":"Le Chat Noir","phone":"3053778899","address":"2 S Miami Ave","lat":25.773933567608612,"lng":-80.19356263641413,"neighborhood":"Miami Central Business District","city_fetched":"Miami,US","state":"FL","country":"United States","canonicalUrl":"https://foursquare.com/v/le-chat-noir/527ac973498e765bb78dc03f","categoryId":"4bf58dd8d48988d123941735","category":"Wine Bar","checkinsCount":159,"usersCount":117,"tipCount":9,"visitsCount":163,"url":"http://lechatnoirdesalis.com","tier":"","message":"","currency":"","rating":9},{"name":"Segafredo Brickell","phone":"3055779809","twitter":"segafredobrkl","address":"1421 S Miami Ave","lat":25.760421212013217,"lng":-80.19336640834808,"neighborhood":"Miami Financial District","city_fetched":"Miami,US","state":"FL","country":"United States","canonicalUrl":"https://foursquare.com/segafredobrkl","categoryId":"4bf58dd8d48988d11e941735","category":"Cocktail Bar","checkinsCount":8559,"usersCount":6307,"tipCount":87,"visitsCount":10787,"url":"http://www.sze-brickell.com","tier":2,"message":"Moderate","currency":"$","rating":9},{"name":"World of Beer","phone":"3055955506","twitter":"wob_kendall","address":"8525 Mills Dr","lat":25.68896392,"lng":-80.38704018,"city_fetched":"Miami,US","state":"FL","country":"United States","canonicalUrl":"https://foursquare.com/v/world-of-beer/50a2f18f498eb13a3d4a5c8b","categoryId":"4bf58dd8d48988d116941735","category":"Bar","checkinsCount":5469,"usersCount":1747,"tipCount":31,"visitsCount":5756,"url":"http://worldofbeer.com/Locations/Kendall","tier":2,"message":"Moderate","currency":"$","rating":8.9},{"name":"Nikki Beach Miami","phone":"3055381111","twitter":"nikkibeachlife","address":"1 Ocean Dr","lat":25.769021319749726,"lng":-80.13199528616005,"neighborhood":"South Point","city_fetched":"Miami,US","state":"FL","country":"United States","canonicalUrl":"https://foursquare.com/v/nikki-beach-miami/4b948b28f964a520f57c34e3","categoryId":"52e81612bcbc57f1066b7a0d","category":"Beach Bar","checkinsCount":23999,"usersCount":19330,"tipCount":272,"visitsCount":27156,"url":"http://www.dayclubmiamibeach.com","tier":3,"message":"Expensive","currency":"$","rating":8.9},{"name":"Gramps","phone":"3056992669","twitter":"grampsbar","address":"176 NW 24th St","lat":25.799702915068696,"lng":-80.19832440957389,"neighborhood":"Wynwood Arts District","city_fetched":"Miami,US","state":"FL","country":"United States","canonicalUrl":"https://foursquare.com/grampsbar","categoryId":"4bf58dd8d48988d116941735","category":"Bar","checkinsCount":6321,"usersCount":3252,"tipCount":63,"visitsCount":7474,"url":"http://www.grampsbar.com","tier":2,"message":"Moderate","currency":"$","rating":8.9},{"name":"MO Bar + Lounge at Mandarin Oriental, Miami","twitter":"mo_hotels","address":"500 Brickell Key Dr","lat":25.765155,"lng":-80.185418,"neighborhood":"Brickell Key","city_fetched":"Miami,US","state":"FL","country":"United States","canonicalUrl":"https://foursquare.com/v/mo-bar--lounge-at-mandarin-oriental-miami/53152b64498ec71fc3f0be3a","categoryId":"4bf58dd8d48988d121941735","category":"Lounge","checkinsCount":228,"usersCount":172,"tipCount":5,"visitsCount":236,"url":"http://www.mandarinoriental.com","tier":"","message":"","currency":"","rating":8.9},{"name":"Flanigan's Seafood Bar & Grill","phone":"3053800521","address":"12790 SW 88th St","lat":25.6855103264113,"lng":-80.40183327215654,"city_fetched":"Miami,US","state":"FL","country":"United States","canonicalUrl":"https://foursquare.com/v/flanigans-seafood-bar--grill/4aff1b21f964a520513422e3","categoryId":"4bf58dd8d48988d11d941735","category":"Sports Bar","checkinsCount":7416,"usersCount":3963,"tipCount":68,"visitsCount":9629,"url":"http://flanigans.net","tier":2,"message":"Moderate","currency":"$","rating":8.8},{"name":"Blackbird Ordinary","phone":"3056713307","address":"729 SW 1st Ave","lat":25.766741847849183,"lng":-80.195159004178,"neighborhood":"Miami Financial District","city_fetched":"Miami,US","state":"FL","country":"United States","canonicalUrl":"https://foursquare.com/v/blackbird-ordinary/4ef56e530aafbcb31ac6d6d2","categoryId":"4bf58dd8d48988d116941735","category":"Bar","checkinsCount":11619,"usersCount":7061,"tipCount":97,"visitsCount":14640,"url":"http://blackbirdordinary.com","tier":2,"message":"Moderate","currency":"$","rating":8.8},{"name":"the bar next door","lat":25.801060113002837,"lng":-80.19903810781106,"neighborhood":"Wynwood Arts District","city_fetched":"Miami,US","state":"FL","country":"United States","canonicalUrl":"https://foursquare.com/v/the-bar-next-door/566def1c498e59e73b20dc23","categoryId":"4bf58dd8d48988d116941735","category":"Bar","checkinsCount":317,"usersCount":223,"tipCount":4,"visitsCount":320,"tier":"","message":"","currency":"","rating":8.8},{"name":"Ball & Chain","phone":"3056437820","twitter":"ballandchainbar","address":"1513 SW 8th St","lat":25.76585015479224,"lng":-80.21976543715277,"neighborhood":"Little Havana","city_fetched":"Miami,US","state":"FL","country":"United States","canonicalUrl":"https://foursquare.com/v/ball--chain/513a2d7fe4b06ad16be472dc","categoryId":"4bf58dd8d48988d11e941735","category":"Cocktail Bar","checkinsCount":1724,"usersCount":1574,"tipCount":39,"visitsCount":2096,"tier":"","message":"","currency":"","rating":8.8},{"name":"World of Beer","phone":"7866233522","twitter":"wob_dadeland","address":"9010 S.W. 72nd Pl","lat":25.68680941,"lng":-80.31283412,"city_fetched":"Miami,US","state":"FL","country":"United States","canonicalUrl":"https://foursquare.com/v/world-of-beer/4f54222ce4b0bf6b5f0d471f","categoryId":"4bf58dd8d48988d116941735","category":"Bar","checkinsCount":7725,"usersCount":2847,"tipCount":45,"visitsCount":8392,"url":"http://worldofbeer.com/Locations/Dadeland","tier":2,"message":"Moderate","currency":"$","rating":8.7},{"name":"Mickey Byrne's Irish Pub","phone":"9549212317","twitter":"mickeybyrnespub","address":"1921 Hollywood Blvd","lat":26.011578817694634,"lng":-80.14591394701837,"neighborhood":"East Hollywood","city_fetched":"Miami,US","state":"FL","country":"United States","canonicalUrl":"https://foursquare.com/mickeybyrnespub","categoryId":"4bf58dd8d48988d11b941735","category":"Pub","checkinsCount":5165,"usersCount":1703,"tipCount":47,"visitsCount":5332,"url":"http://mickeybyrnes.com","tier":2,"message":"Moderate","currency":"$","rating":8.7},{"name":"Playmates Club","phone":"3054468346","twitter":"playmatesclub","address":"3875 Shipping Ave","lat":25.73331520305981,"lng":-80.2573177880633,"neighborhood":"Coral Way","city_fetched":"Miami,US","state":"FL","country":"United States","canonicalUrl":"https://foursquare.com/playmatesclub","categoryId":"4bf58dd8d48988d1d6941735","category":"Strip Club","checkinsCount":1385,"usersCount":903,"tipCount":10,"visitsCount":1847,"url":"http://www.playmatesclub.com","tier":"","message":"","currency":"","rating":8.7},{"name":"Taurus","phone":"3056481525","address":"3540 Main Hwy","lat":25.72522028389835,"lng":-80.24501817252016,"city_fetched":"Miami,US","state":"FL","country":"United States","canonicalUrl":"https://foursquare.com/v/taurus/4c202e3a920076b0bff3c5e9","categoryId":"4bf58dd8d48988d116941735","category":"Bar","checkinsCount":2355,"usersCount":1222,"tipCount":33,"visitsCount":3105,"url":"http://taurusbeerandwhiskey.com","tier":2,"message":"Moderate","currency":"$","rating":8.7},{"name":"Sugar","phone":"7868054655","address":"788 Brickell Plz","lat":25.766689227123692,"lng":-80.19263095405104,"neighborhood":"Miami Financial District","city_fetched":"Miami,US","state":"FL","country":"United States","canonicalUrl":"https://foursquare.com/v/sugar/57463a59498ecd4f97d2bf52","categoryId":"4bf58dd8d48988d116941735","category":"Bar","checkinsCount":224,"usersCount":177,"tipCount":5,"visitsCount":236,"url":"http://www.east-miami.com/en/restaurants-and-bars/sugar","tier":"","message":"","currency":"","rating":8.7},{"name":"Hole in the Wall","phone":"7862276058","twitter":"theholehopper","address":"14421 S Dixie Hwy","lat":25.635561,"lng":-80.33633241844555,"city_fetched":"Miami,US","state":"FL","country":"United States","canonicalUrl":"https://foursquare.com/v/hole-in-the-wall/4b7445d5f964a520a2d12de3","categoryId":"4bf58dd8d48988d11b941735","category":"Pub","checkinsCount":1596,"usersCount":488,"tipCount":31,"visitsCount":1636,"url":"http://www.holeinthewallflorida.com","tier":"","message":"","currency":"","rating":8.7},{"name":"Happy Wine - The Grove","phone":"3054609939","address":"2833 Bird Ave","lat":25.735674,"lng":-80.239241,"neighborhood":"Northeast Coconut Grove","city_fetched":"Miami,US","state":"FL","country":"United States","canonicalUrl":"https://foursquare.com/v/happy-wine--the-grove/4f6bcbdbe4b0e6e0001854af","categoryId":"4bf58dd8d48988d123941735","category":"Wine Bar","checkinsCount":994,"usersCount":701,"tipCount":22,"visitsCount":1354,"url":"http://happywinemiami.com","tier":"","message":"","currency":"","rating":8.7},{"name":"The Floppy Rooster","phone":"7867660778","twitter":"floppyrooster","address":"7020 NW 72nd Ave","lat":25.83775151778611,"lng":-80.31459444596236,"city_fetched":"Miami,US","state":"FL","country":"United States","canonicalUrl":"https://foursquare.com/v/the-floppy-rooster/52d0cf94498e71e986dd1956","categoryId":"4bf58dd8d48988d1d8941735","category":"Gay Bar","checkinsCount":429,"usersCount":381,"tipCount":5,"visitsCount":780,"url":"http://floppyroosterfl.com","tier":"","message":"","currency":"","rating":8.7},{"name":"Bardot","phone":"3055765570","twitter":"bardotmiami","address":"3456 N Miami Ave","lat":25.809229016304016,"lng":-80.195516,"neighborhood":"Wynwood-Edgewater","city_fetched":"Miami,US","state":"FL","country":"United States","canonicalUrl":"https://foursquare.com/v/bardot/4aea386ef964a5204dba21e3","categoryId":"4bf58dd8d48988d121941735","category":"Lounge","checkinsCount":7153,"usersCount":4273,"tipCount":58,"visitsCount":8232,"url":"http://bardotmiami.com","tier":2,"message":"Moderate","currency":"$","rating":8.7},{"name":"Clandestino Pub","phone":"3053978946","address":"758 Washington Ave","lat":25.77802682113383,"lng":-80.13350011513073,"neighborhood":"Flamingo-Lummus","city_fetched":"Miami,US","state":"FL","country":"United States","canonicalUrl":"https://foursquare.com/v/clandestino-pub/4fb05e15e4b08885fff6973d","categoryId":"4bf58dd8d48988d11b941735","category":"Pub","checkinsCount":1163,"usersCount":796,"tipCount":36,"visitsCount":1408,"tier":2,"message":"Moderate","currency":"$","rating":8.7},{"name":"The Butcher Shop","phone":"3058469120","twitter":"butchermiami","address":"165 NW 23rd St","lat":25.799377728407293,"lng":-80.19813917394049,"neighborhood":"Wynwood Arts District","city_fetched":"Miami,US","state":"FL","country":"United States","canonicalUrl":"https://foursquare.com/v/the-butcher-shop/50843017e4b05249663259ea","categoryId":"4bf58dd8d48988d117941735","category":"Beer Garden","checkinsCount":4537,"usersCount":3124,"tipCount":84,"visitsCount":5367,"url":"http://www.thebutchershopmiami.com","tier":2,"message":"Moderate","currency":"$","rating":8.7},{"name":"Brickhouse","address":"187 NW 28th St","lat":25.803226470947266,"lng":-80.1989517211914,"neighborhood":"Wynwood Arts District","city_fetched":"Miami,US","state":"FL","country":"United States","canonicalUrl":"https://foursquare.com/v/brickhouse/536da3d011d2034c975cc27d","categoryId":"4bf58dd8d48988d117941735","category":"Beer Garden","checkinsCount":1473,"usersCount":1713,"tipCount":26,"visitsCount":2442,"tier":1,"message":"Cheap","currency":"$","rating":8.6},{"name":"World of Beer","phone":"7864310347","twitter":"wobmidtownmiami","address":"3252 NE 1st Ave Ste 112","lat":25.807524689922648,"lng":-80.19382415945913,"neighborhood":"Midtown Miami","city_fetched":"Miami,US","state":"FL","country":"United States","canonicalUrl":"https://foursquare.com/v/world-of-beer/516eaeb3498ebc58f434c906","categoryId":"4bf58dd8d48988d116941735","category":"Bar","checkinsCount":2427,"usersCount":1327,"tipCount":20,"visitsCount":2535,"url":"http://worldofbeer.com/Locations/MidtownMiami","tier":2,"message":"Moderate","currency":"$","rating":8.6},{"name":"Vinos In The Grove","lat":25.727794001884668,"lng":-80.24255150113444,"neighborhood":"Northeast Coconut Grove","city_fetched":"Miami,US","state":"FL","country":"United States","canonicalUrl":"https://foursquare.com/v/vinos-in-the-grove/4f90bb99e4b07256edd992ea","categoryId":"4bf58dd8d48988d123941735","category":"Wine Bar","checkinsCount":471,"usersCount":314,"tipCount":14,"visitsCount":473,"tier":"","message":"","currency":"","rating":8.6},{"name":"Clevelander","phone":"3055324006","twitter":"clevelander1020","address":"1020 Ocean Dr","lat":25.780602243288325,"lng":-80.13077035546303,"neighborhood":"Flamingo-Lummus","city_fetched":"Miami,US","state":"FL","country":"United States","canonicalUrl":"https://foursquare.com/v/clevelander/4043ce80f964a520fef11ee3","categoryId":"4bf58dd8d48988d11f941735","category":"Nightclub","checkinsCount":41500,"usersCount":33297,"tipCount":320,"visitsCount":48664,"url":"http://www.clevelander.com","tier":2,"message":"Moderate","currency":"$","rating":8.6},{"name":"Foxhole Bar","phone":"3055343511","twitter":"foxholebar","address":"1218 14th Ct","lat":25.786353718105474,"lng":-80.14142184115198,"neighborhood":"Flamingo-Lummus","city_fetched":"Miami,US","state":"FL","country":"United States","canonicalUrl":"https://foursquare.com/foxholebar","categoryId":"4bf58dd8d48988d116941735","category":"Bar","checkinsCount":5282,"usersCount":3279,"tipCount":36,"visitsCount":6126,"url":"http://www.foxholebar.com","tier":2,"message":"Moderate","currency":"$","rating":8.6},{"name":"Scully's Tavern","phone":"3052717404","address":"9809 SW 72nd St","lat":25.70193694893451,"lng":-80.3519687530583,"city_fetched":"Miami,US","state":"FL","country":"United States","canonicalUrl":"https://foursquare.com/v/scullys-tavern/49e111f4f964a5208f611fe3","categoryId":"4bf58dd8d48988d116941735","category":"Bar","checkinsCount":1806,"usersCount":996,"tipCount":39,"visitsCount":2321,"url":"http://www.scullystavern.net","tier":2,"message":"Moderate","currency":"$","rating":8.5},{"name":"Concrete Beach Brewery","twitter":"concretebeachfl","address":"324 NW 24th Street","lat":25.800179106194953,"lng":-80.20075967591936,"neighborhood":"Wynwood-Edgewater","city_fetched":"Miami,US","state":"FL","country":"United States","canonicalUrl":"https://foursquare.com/v/concrete-beach-brewery/54ff29b3498e770cc522ae31","categoryId":"50327c8591d4c4b30a586d5d","category":"Brewery","checkinsCount":1098,"usersCount":1222,"tipCount":12,"visitsCount":1850,"url":"http://concretebeachbrewery.com","tier":2,"message":"Moderate","currency":"$","rating":8.5},{"name":"The Clevelander","phone":"8776275467","twitter":"clevelander1020","address":"501 Marlins Way","lat":25.778214567947703,"lng":-80.21861616940951,"neighborhood":"Little Havana","city_fetched":"Miami,US","state":"FL","country":"United States","canonicalUrl":"https://foursquare.com/v/the-clevelander/4f788062e4b0e5e2bbb08f50","categoryId":"4bf58dd8d48988d121941735","category":"Lounge","checkinsCount":2386,"usersCount":1752,"tipCount":15,"visitsCount":2407,"url":"http://miami.marlins.mlb.com/mia/ballpark/clevelander.jsp","tier":"","message":"","currency":"","rating":8.5},{"name":"Grand Central","phone":"3053772277","twitter":"grandcentralmia","address":"697 N Miami Ave","lat":25.780794,"lng":-80.193683,"neighborhood":"Downtown Miami","city_fetched":"Miami,US","state":"FL","country":"United States","canonicalUrl":"https://foursquare.com/v/grand-central/4ba792b8f964a5209b9e39e3","categoryId":"4bf58dd8d48988d11f941735","category":"Nightclub","checkinsCount":10466,"usersCount":5107,"tipCount":64,"visitsCount":11221,"url":"http://www.grandcentralmiami.com","tier":2,"message":"Moderate","currency":"$","rating":8.5},{"name":"E11even Miami","phone":"3058292911","twitter":"11miami","address":"29 NE 11th St","lat":25.784942346947958,"lng":-80.1935863494873,"neighborhood":"Downtown Miami","city_fetched":"Miami,US","state":"FL","country":"United States","canonicalUrl":"https://foursquare.com/v/e11even-miami/52c6105f498e18a92fe484d3","categoryId":"4bf58dd8d48988d11f941735","category":"Nightclub","checkinsCount":3031,"usersCount":4030,"tipCount":39,"visitsCount":6242,"url":"http://www.11miami.com","tier":2,"message":"Moderate","currency":"$","rating":8.5},{"name":"Wonderland","phone":"3056312564","twitter":"wonderlandmiami","address":"7770 Biscayne Blvd","lat":25.846787852356684,"lng":-80.18489599227905,"neighborhood":"Upper Eastside","city_fetched":"Miami,US","state":"FL","country":"United States","canonicalUrl":"https://foursquare.com/wonderlandmiami","categoryId":"4bf58dd8d48988d1d6941735","category":"Strip Club","checkinsCount":1244,"usersCount":1038,"tipCount":14,"visitsCount":1918,"url":"http://www.wonderlandmiami.com","tier":"","message":"","currency":"","rating":8.5},{"name":"Mike's at Venetia","phone":"3053745731","twitter":"mikesatvenetia","address":"555 NE 15th St","lat":25.789806358968743,"lng":-80.18581867218018,"neighborhood":"Downtown Miami","city_fetched":"Miami,US","state":"FL","country":"United States","canonicalUrl":"https://foursquare.com/v/mikes-at-venetia/4af1a641f964a520d4e121e3","categoryId":"4bf58dd8d48988d116941735","category":"Bar","checkinsCount":3005,"usersCount":1151,"tipCount":44,"visitsCount":3329,"url":"http://www.mikesvenetia.com","tier":1,"message":"Cheap","currency":"$","rating":8.5},{"name":"WetLab","lat":25.73173039,"lng":-80.16315863,"neighborhood":"Virginia Key","city_fetched":"Miami,US","state":"FL","country":"United States","canonicalUrl":"https://foursquare.com/v/wetlab/4b870a8ff964a52012ad31e3","categoryId":"4bf58dd8d48988d118941735","category":"Dive Bar","checkinsCount":333,"usersCount":170,"tipCount":3,"visitsCount":396,"tier":"","message":"","currency":"","rating":8.5},{"name":"Better Days","address":"75 SE 6th St Ste 103","lat":25.76786602663361,"lng":-80.19127972412541,"neighborhood":"Miami Financial District","city_fetched":"Miami,US","state":"FL","country":"United States","canonicalUrl":"https://foursquare.com/v/better-days/53dd8a10498efb3904a8b6b7","categoryId":"4bf58dd8d48988d116941735","category":"Bar","checkinsCount":724,"usersCount":616,"tipCount":19,"visitsCount":1125,"url":"http://betterdaysmiami.com","tier":"","message":"","currency":"","rating":8.5},{"name":"Lincoln's beard brewing co","address":"7360 SW 41st St","lat":25.73230174705693,"lng":-80.31431153247102,"city_fetched":"Miami,US","state":"FL","country":"United States","canonicalUrl":"https://foursquare.com/v/lincolns-beard-brewing-co/572e23c8498e33a3b1a9e695","categoryId":"56aa371ce4b08b9a8d57356c","category":"Beer Bar","checkinsCount":130,"usersCount":102,"tipCount":3,"visitsCount":190,"tier":"","message":"","currency":"","rating":8.4},{"name":"Keg South","phone":"3052532043","address":"12805 SW 136th Ave","lat":25.648092617185796,"lng":-80.41409369673114,"city_fetched":"Miami,US","state":"FL","country":"United States","canonicalUrl":"https://foursquare.com/v/keg-south/4bd1db869854d13a9360fa4d","categoryId":"4bf58dd8d48988d11d941735","category":"Sports Bar","checkinsCount":1714,"usersCount":783,"tipCount":38,"visitsCount":1960,"url":"http://kegsouthofkendall.com","tier":2,"message":"Moderate","currency":"$","rating":8.4},{"name":"Blue Martini Brickell","phone":"3059812583","twitter":"bluemartinimain","address":"900 S Miami Ave #250","lat":25.765183315872278,"lng":-80.19337194202176,"neighborhood":"Miami Financial District","city_fetched":"Miami,US","state":"FL","country":"United States","canonicalUrl":"https://foursquare.com/v/blue-martini-brickell/4a863606f964a520c60020e3","categoryId":"4bf58dd8d48988d121941735","category":"Lounge","checkinsCount":12870,"usersCount":7655,"tipCount":143,"visitsCount":13087,"url":"http://bluemartinilounge.com","tier":2,"message":"Moderate","currency":"$","rating":8.4},{"name":"Fat Tuesday","phone":"3053589555","twitter":"fat_tues_day","address":"401 Biscayne Blvd","lat":25.77863574028015,"lng":-80.186645,"neighborhood":"Miami Central Business District","city_fetched":"Miami,US","state":"FL","country":"United States","canonicalUrl":"https://foursquare.com/v/fat-tuesday/40e0b100f964a5209a041fe3","categoryId":"4bf58dd8d48988d11e941735","category":"Cocktail Bar","checkinsCount":1150,"usersCount":739,"tipCount":8,"visitsCount":1154,"url":"http://t.co/s0aDVvUW9U","tier":"","message":"","currency":"","rating":8.4},{"name":"SHOTS Miami","phone":"3055710438","twitter":"shots_miami","address":"356 NW 24th St","lat":25.799753546244407,"lng":-80.20144611426815,"neighborhood":"Wynwood Arts District","city_fetched":"Miami,US","state":"FL","country":"United States","canonicalUrl":"https://foursquare.com/v/shots-miami/4fcce929e4b01f051911f6fc","categoryId":"4bf58dd8d48988d116941735","category":"Bar","checkinsCount":2760,"usersCount":2028,"tipCount":28,"visitsCount":3697,"url":"http://shotspropsfun.com","tier":2,"message":"Moderate","currency":"$","rating":8.4},{"name":"1306","phone":"3053772277","address":"1306 N Miami Ave","lat":25.787157293229992,"lng":-80.19423278761188,"neighborhood":"Downtown Miami","city_fetched":"Miami,US","state":"FL","country":"United States","canonicalUrl":"https://foursquare.com/v/1306/56983556498edf5abb9a9494","categoryId":"4bf58dd8d48988d116941735","category":"Bar","checkinsCount":115,"usersCount":164,"tipCount":2,"visitsCount":218,"url":"http://www.1306miami.com/the-bar-at-1306/","tier":"","message":"","currency":"","rating":8.3},{"name":"Keg South","address":"10417 S Dixie Hwy","lat":25.673510578342682,"lng":-80.32010562898121,"city_fetched":"Miami,US","state":"FL","country":"United States","canonicalUrl":"https://foursquare.com/v/keg-south/40e0b100f964a520d6041fe3","categoryId":"4bf58dd8d48988d116941735","category":"Bar","checkinsCount":556,"usersCount":347,"tipCount":10,"visitsCount":620,"tier":"","message":"","currency":"","rating":8.3},{"name":"Pawnbroker","lat":25.77374195979358,"lng":-80.19149221734618,"neighborhood":"Miami Central Business District","city_fetched":"Miami,US","state":"FL","country":"United States","canonicalUrl":"https://foursquare.com/v/pawnbroker/57047385498e0bf50c062a15","categoryId":"4bf58dd8d48988d11e941735","category":"Cocktail Bar","checkinsCount":168,"usersCount":149,"tipCount":2,"visitsCount":187,"tier":"","message":"","currency":"","rating":8.3},{"name":"Club Tipico Dominicano","phone":"3056347819","address":"1344 NW 36th St","lat":25.809549334166427,"lng":-80.21857259497168,"neighborhood":"Allapattah","city_fetched":"Miami,US","state":"FL","country":"United States","canonicalUrl":"https://foursquare.com/v/club-tipico-dominicano/4c71fa919e706dcb03dd4962","categoryId":"4bf58dd8d48988d11f941735","category":"Nightclub","checkinsCount":535,"usersCount":501,"tipCount":12,"visitsCount":881,"url":"http://clubtipicodominicano.com","tier":"","message":"","currency":"","rating":8.3},{"name":"RedBar Brickell","phone":"7863160303","twitter":"redbarbrickell","address":"52 SW 10th St","lat":25.76440938144749,"lng":-80.19417107105255,"neighborhood":"Miami Financial District","city_fetched":"Miami,US","state":"FL","country":"United States","canonicalUrl":"https://foursquare.com/v/redbar-brickell/537e51e2498e8b0d9d8fccc3","categoryId":"4bf58dd8d48988d116941735","category":"Bar","checkinsCount":2261,"usersCount":1248,"tipCount":31,"visitsCount":2295,"url":"http://www.redbarbrickell.com","tier":"","message":"","currency":"","rating":8.3},{"name":"American Social","phone":"7868012466","address":"690 SW 1st Ct","lat":25.768441532195716,"lng":-80.19622686491307,"neighborhood":"Miami Financial District","city_fetched":"Miami,US","state":"FL","country":"United States","canonicalUrl":"https://foursquare.com/v/american-social/547d14de498e1ac6ecf27941","categoryId":"4bf58dd8d48988d116941735","category":"Bar","checkinsCount":1667,"usersCount":2154,"tipCount":17,"visitsCount":3620,"url":"http://americansocialbar.com","tier":"","message":"","currency":"","rating":8.3},{"name":"Titanic Restaurant & Brewery","phone":"3056681742","twitter":"titanicbrewery","address":"5813 Ponce de Leon Blvd","lat":25.710540763357653,"lng":-80.28300564899104,"city_fetched":"Miami,US","state":"FL","country":"United States","canonicalUrl":"https://foursquare.com/v/titanic-restaurant--brewery/40e0b100f964a5206c051fe3","categoryId":"50327c8591d4c4b30a586d5d","category":"Brewery","checkinsCount":5021,"usersCount":2552,"tipCount":54,"visitsCount":5591,"url":"http://titanicbrewery.com/titanic/","tier":2,"message":"Moderate","currency":"$","rating":8.3},{"name":"Euforia Nightclub","phone":"7864253545","address":"90 N.E","lat":25.784506783920484,"lng":-80.19250563927272,"neighborhood":"Downtown Miami","city_fetched":"Miami,US","state":"FL","country":"United States","canonicalUrl":"https://foursquare.com/v/euforia-nightclub/4f42f063e4b080493753db2e","categoryId":"4bf58dd8d48988d11f941735","category":"Nightclub","checkinsCount":345,"usersCount":228,"tipCount":6,"visitsCount":345,"tier":"","message":"","currency":"","rating":8.2},{"name":"Kings Creek Village Tavern","phone":"3052736123","twitter":"kcvillagetavern","address":"8100 SW 81st Dr","lat":25.693693982031828,"lng":-80.32377773741163,"neighborhood":"Kings Creek","city_fetched":"Miami,US","state":"FL","country":"United States","canonicalUrl":"https://foursquare.com/v/kings-creek-village-tavern/4ad143cdf964a520c6dd20e3","categoryId":"4bf58dd8d48988d11b941735","category":"Pub","checkinsCount":1298,"usersCount":540,"tipCount":20,"visitsCount":1393,"url":"http://villagetavern.net","tier":3,"message":"Expensive","currency":"$","rating":8.2},{"name":"Spazio Nightclub","phone":"3055779809","twitter":"spazionightclub","address":"1421 S Miami Ave","lat":25.760389,"lng":-80.1931893825531,"neighborhood":"Miami Financial District","city_fetched":"Miami,US","state":"FL","country":"United States","canonicalUrl":"https://foursquare.com/spazionightclub","categoryId":"4bf58dd8d48988d11f941735","category":"Nightclub","checkinsCount":1472,"usersCount":833,"tipCount":10,"visitsCount":1514,"url":"http://spazionightclub.com","tier":3,"message":"Expensive","currency":"$","rating":8.2},{"name":"Oceanfront Surfside Tiki Bar","address":"3925 Collins Ave","lat":25.811827394947827,"lng":-80.12228414315595,"neighborhood":"Ocean Front","city_fetched":"Miami,US","state":"FL","country":"United States","canonicalUrl":"https://foursquare.com/v/oceanfront-surfside-tiki-bar/4f10bf55e4b09e58a041214b","categoryId":"4bf58dd8d48988d116941735","category":"Bar","checkinsCount":856,"usersCount":540,"tipCount":7,"visitsCount":894,"tier":"","message":"","currency":"","rating":8.2},{"name":"Little Hoolie's Sports Bar","phone":"3052529155","address":"13135 SW 89th Pl","lat":25.648253277619435,"lng":-80.338746,"city_fetched":"Miami,US","state":"FL","country":"United States","canonicalUrl":"https://foursquare.com/v/little-hoolies-sports-bar/40e0b100f964a520e9041fe3","categoryId":"4bf58dd8d48988d11d941735","category":"Sports Bar","checkinsCount":2875,"usersCount":1022,"tipCount":43,"visitsCount":3322,"url":"http://www.littlehoolies.com","tier":2,"message":"Moderate","currency":"$","rating":8.2},{"name":"Vita Restaurant","phone":"3056748822","twitter":"baoli_miami","address":"1906 Collins Ave","lat":25.795411512635862,"lng":-80.12955806153357,"neighborhood":"City Center","city_fetched":"Miami,US","state":"FL","country":"United States","canonicalUrl":"https://foursquare.com/v/vita-restaurant/4bad91b9f964a520375c3be3","categoryId":"4bf58dd8d48988d11a941735","category":"Other Nightlife","checkinsCount":1421,"usersCount":1011,"tipCount":18,"visitsCount":1422,"url":"http://www.baolimiami.com/restaurant/","tier":"","message":"","currency":"","rating":8.1},{"name":"El Tuc√°n","phone":"3055350065","address":"1111 SW 1st Ave","lat":25.76341244214603,"lng":-80.19501734817815,"neighborhood":"Miami Financial District","city_fetched":"Miami,US","state":"FL","country":"United States","canonicalUrl":"https://foursquare.com/v/el-tuc%C3%A1n/560f1acc498ec36940f54f12","categoryId":"4bf58dd8d48988d11a941735","category":"Other Nightlife","checkinsCount":194,"usersCount":224,"tipCount":5,"visitsCount":255,"url":"http://eltucanmiami.com","tier":"","message":"","currency":"","rating":8.1},{"name":"The Temple House","address":"1415 Euclid Ave","lat":25.786028593268405,"lng":-80.1348849706499,"neighborhood":"Flamingo-Lummus","city_fetched":"Miami,US","state":"FL","country":"United States","canonicalUrl":"https://foursquare.com/v/the-temple-house/4aa7f78bf964a5204b4e20e3","categoryId":"4bf58dd8d48988d11a941735","category":"Other Nightlife","checkinsCount":377,"usersCount":336,"tipCount":5,"visitsCount":443,"tier":"","message":"","currency":"","rating":8.1},{"name":"Miami Yacht Club","phone":"3053779877","address":"1001 McArthur Causeway Watson Island","lat":25.786531504892952,"lng":-80.17344832420349,"neighborhood":"Downtown Miami","city_fetched":"Miami,US","state":"FL","country":"United States","canonicalUrl":"https://foursquare.com/v/miami-yacht-club/4b6dcd48f964a52024912ce3","categoryId":"4bf58dd8d48988d116941735","category":"Bar","checkinsCount":827,"usersCount":637,"tipCount":3,"visitsCount":1066,"url":"http://www.miamiyachtclub.com","tier":"","message":"","currency":"","rating":8.1},{"name":"Barracuda Taphouse & Grill","phone":"3059189013","twitter":"barracudagrove","address":"3035 Fuller St","lat":25.727728301425778,"lng":-80.24325938325786,"neighborhood":"Northeast Coconut Grove","city_fetched":"Miami,US","state":"FL","country":"United States","canonicalUrl":"https://foursquare.com/barracudagrove","categoryId":"4bf58dd8d48988d116941735","category":"Bar","checkinsCount":4264,"usersCount":1787,"tipCount":29,"visitsCount":4658,"url":"http://barracudabargrill.com","tier":1,"message":"Cheap","currency":"$","rating":8.1},{"name":"El Patio Wynwood","phone":"7864092241","address":"167 NW 23rd St","lat":25.799368,"lng":-80.19825,"neighborhood":"Wynwood Arts District","city_fetched":"Miami,US","state":"FL","country":"United States","canonicalUrl":"https://foursquare.com/v/el-patio-wynwood/565b23cc498e97775374683a","categoryId":"4bf58dd8d48988d117941735","category":"Beer Garden","checkinsCount":589,"usersCount":489,"tipCount":19,"visitsCount":691,"tier":"","message":"","currency":"","rating":8.1},{"name":"House Nightclub","phone":"8556946893","twitter":"house_mia","address":"1915 NW Miami Ct","lat":25.7946301,"lng":-80.1955185,"neighborhood":"Overtown","city_fetched":"Miami,US","state":"FL","country":"United States","canonicalUrl":"https://foursquare.com/v/house-nightclub/53756e50498ecaac7a2a887f","categoryId":"4bf58dd8d48988d11f941735","category":"Nightclub","checkinsCount":916,"usersCount":1212,"tipCount":17,"visitsCount":2013,"url":"http://www.housenightclub.com","tier":3,"message":"Expensive","currency":"$","rating":8},{"name":"Sandbar Lounge","phone":"3058651752","twitter":"sandbar_lounge","address":"6752 Collins Ave","lat":25.851626,"lng":-80.12051799999999,"neighborhood":"North Shore","city_fetched":"Miami,US","state":"FL","country":"United States","canonicalUrl":"https://foursquare.com/v/sandbar-lounge/4b118c64f964a520117f23e3","categoryId":"4bf58dd8d48988d11e941735","category":"Cocktail Bar","checkinsCount":2236,"usersCount":1074,"tipCount":27,"visitsCount":2429,"tier":2,"message":"Moderate","currency":"$","rating":8},{"name":"Mojito Bar","phone":"7863466149","address":"401 Biscayne Blvd","lat":25.7782447,"lng":-80.186545,"neighborhood":"Miami Central Business District","city_fetched":"Miami,US","state":"FL","country":"United States","canonicalUrl":"https://foursquare.com/v/mojito-bar/4d88bea6b799a35d6ad78763","categoryId":"4bf58dd8d48988d11e941735","category":"Cocktail Bar","checkinsCount":2474,"usersCount":2009,"tipCount":53,"visitsCount":2479,"url":"http://mojitobarmiami.com","tier":"","message":"","currency":"","rating":8},{"name":"Le Bar @ Sofitel Miami","phone":"3052644888","address":"5800 Blue Lagoon Dr","lat":25.781853404628993,"lng":-80.2919257157119,"neighborhood":"Blue Lagoon West","city_fetched":"Miami,US","state":"FL","country":"United States","canonicalUrl":"https://foursquare.com/v/le-bar--sofitel-miami/4c3248a83896e21edc48e890","categoryId":"4bf58dd8d48988d116941735","category":"Bar","checkinsCount":404,"usersCount":279,"tipCount":5,"visitsCount":405,"url":"http://colettebarandbistro.com","tier":"","message":"","currency":"","rating":8},{"name":"Fat Tuesday","phone":"3054412992","twitter":"fat_tues_day","address":"3015 Grand Ave","lat":25.728431529969576,"lng":-80.24199063649212,"neighborhood":"Northeast Coconut Grove","city_fetched":"Miami,US","state":"FL","country":"United States","canonicalUrl":"https://foursquare.com/v/fat-tuesday/4b52c9f9f964a520168827e3","categoryId":"4bf58dd8d48988d116941735","category":"Bar","checkinsCount":5134,"usersCount":2949,"tipCount":41,"visitsCount":5166,"url":"http://t.co/s0aDVvUW9U","tier":1,"message":"Cheap","currency":"$","rating":8},{"name":"Cafeina Lounge","phone":"3054380792","twitter":"cafeinawynwood","address":"297 NW 23rd St","lat":25.7995573292496,"lng":-80.20083636045456,"neighborhood":"Wynwood Arts District","city_fetched":"Miami,US","state":"FL","country":"United States","canonicalUrl":"https://foursquare.com/v/cafeina-lounge/4b6e0d57f964a520b6a62ce3","categoryId":"4bf58dd8d48988d121941735","category":"Lounge","checkinsCount":3628,"usersCount":2733,"tipCount":42,"visitsCount":4054,"url":"http://www.cafeinamiami.com","tier":2,"message":"Moderate","currency":"$","rating":8},{"name":"Sidebar","address":"337 SW 8th At","lat":25.766640908275342,"lng":-80.19988800020919,"neighborhood":"Downtown Miami","city_fetched":"Miami,US","state":"FL","country":"United States","canonicalUrl":"https://foursquare.com/v/sidebar/545f046a498eea5b60c90285","categoryId":"4bf58dd8d48988d116941735","category":"Bar","checkinsCount":727,"usersCount":1009,"tipCount":5,"visitsCount":1449,"tier":"","message":"","currency":"","rating":8},{"name":"Space Terrace","lat":25.78465195170983,"lng":-80.19318124720311,"neighborhood":"Downtown Miami","city_fetched":"Miami,US","state":"FL","country":"United States","canonicalUrl":"https://foursquare.com/v/space-terrace/4e3e1e89b61cb577be81860a","categoryId":"4bf58dd8d48988d11f941735","category":"Nightclub","checkinsCount":714,"usersCount":379,"tipCount":6,"visitsCount":721,"tier":"","message":"","currency":"","rating":8},{"name":"Corbett's Sports Bar & Grill","phone":"3052380823","twitter":"corbettsbar","address":"12721 S Dixie Hwy","lat":25.652262088687827,"lng":-80.32974064350128,"city_fetched":"Miami,US","state":"FL","country":"United States","canonicalUrl":"https://foursquare.com/v/corbetts-sports-bar--grill/40e0b100f964a5207a041fe3","categoryId":"4bf58dd8d48988d11d941735","category":"Sports Bar","checkinsCount":2701,"usersCount":534,"tipCount":23,"visitsCount":2952,"url":"http://corbettsbar-hub.com","tier":2,"message":"Moderate","currency":"$","rating":8},{"name":"Lilt Lounge","phone":"3053517403","twitter":"liltlounge","address":"270 Biscayne Boulevard Way","lat":25.77010517598175,"lng":-80.18893681507376,"neighborhood":"Miami Financial District","city_fetched":"Miami,US","state":"FL","country":"United States","canonicalUrl":"https://foursquare.com/v/lilt-lounge/53f938f5498e07b7679f37f0","categoryId":"4bf58dd8d48988d121941735","category":"Lounge","checkinsCount":181,"usersCount":156,"tipCount":7,"visitsCount":182,"url":"http://www.liltlounge.com","tier":"","message":"","currency":"","rating":8},{"name":"Marlins Park Diamond Club","lat":25.779080491392847,"lng":-80.22001598635353,"neighborhood":"Little Havana","city_fetched":"Miami,US","state":"FL","country":"United States","canonicalUrl":"https://foursquare.com/v/marlins-park-diamond-club/4fef5d53e4b094d300df30cd","categoryId":"4bf58dd8d48988d121941735","category":"Lounge","checkinsCount":413,"usersCount":303,"tipCount":5,"visitsCount":413,"tier":"","message":"","currency":"","rating":8},{"name":"Miller's Kendall Ale House","phone":"3055957448","twitter":"millersalehouse","address":"11625 N Kendall Dr","lat":25.687683672204578,"lng":-80.38129194549084,"city_fetched":"Miami,US","state":"FL","country":"United States","canonicalUrl":"https://foursquare.com/v/millers-kendall-ale-house/413e4b80f964a520571c1fe3","categoryId":"4bf58dd8d48988d116941735","category":"Bar","checkinsCount":6691,"usersCount":3451,"tipCount":52,"visitsCount":7995,"url":"http://www.millersalehouse.com","tier":2,"message":"Moderate","currency":"$","rating":7.9},{"name":"Electric Pickle","phone":"3054565613","address":"2826 N Miami Ave","lat":25.803554655081758,"lng":-80.19530065994257,"neighborhood":"Wynwood Arts District","city_fetched":"Miami,US","state":"FL","country":"United States","canonicalUrl":"https://foursquare.com/v/electric-pickle/4a9a1296f964a520823120e3","categoryId":"4bf58dd8d48988d116941735","category":"Bar","checkinsCount":5047,"usersCount":2587,"tipCount":43,"visitsCount":5347,"url":"http://electricpicklemiami.com","tier":"","message":"","currency":"","rating":7.9},{"name":"The Social Lubricant Lounge","phone":"7864092241","twitter":"sociallubemiami","address":"167 NW 23rd St","lat":25.799354667110926,"lng":-80.1982644804424,"neighborhood":"Wynwood Arts District","city_fetched":"Miami,US","state":"FL","country":"United States","canonicalUrl":"https://foursquare.com/v/the-social-lubricant-lounge/50afc2e9e4b0823456e67f1a","categoryId":"4bf58dd8d48988d121941735","category":"Lounge","checkinsCount":1241,"usersCount":832,"tipCount":18,"visitsCount":1274,"url":"http://www.tsllounge.com","tier":2,"message":"Moderate","currency":"$","rating":7.9},{"name":"Beaudevin","phone":"3058691961","twitter":"hmshost","address":"Miami International Airport","lat":25.79720584364886,"lng":-80.27658462524414,"neighborhood":"Miami International Airport","city_fetched":"Miami,US","state":"FL","country":"United States","canonicalUrl":"https://foursquare.com/v/beaudevin/4d08175e143cb60c6e9e79a6","categoryId":"4bf58dd8d48988d123941735","category":"Wine Bar","checkinsCount":627,"usersCount":488,"tipCount":18,"visitsCount":627,"url":"http://www.shopmiamiairport.com/store_profile.aspx?unitid=442","tier":"","message":"","currency":"","rating":7.9},{"name":"Epic Hotel- Pool Bar","lat":25.77008359501167,"lng":-80.18918745492839,"neighborhood":"Miami Central Business District","city_fetched":"Miami,US","state":"Florida","country":"United States","canonicalUrl":"https://foursquare.com/v/epic-hotel-pool-bar/4d55bbf048ea6ea8575cd8a3","categoryId":"4bf58dd8d48988d11e941735","category":"Cocktail Bar","checkinsCount":270,"usersCount":215,"tipCount":3,"visitsCount":270,"tier":"","message":"","currency":"","rating":7.9},{"name":"FIFTY Ultra Lounge","phone":"3055034417","twitter":"fiftymiami","address":"485 Brickell Ave Fl 50","lat":25.76866722563738,"lng":-80.18970507838537,"neighborhood":"Miami Financial District","city_fetched":"Miami,US","state":"FL","country":"United States","canonicalUrl":"https://foursquare.com/v/fifty-ultra-lounge/4ac5678df964a520e3b120e3","categoryId":"4bf58dd8d48988d11f941735","category":"Nightclub","checkinsCount":4770,"usersCount":3301,"tipCount":57,"visitsCount":4970,"url":"http://www.viceroyhotelsandresorts.com/en/miami/dining_and_nightlife/fifty-miami","tier":4,"message":"Very Expensive","currency":"$","rating":7.9},{"name":"Balans Restaurant & Bar, Brickell","phone":"3053724145","twitter":"balansusa","address":"901 S Miami Ave","lat":25.764979122646814,"lng":-80.1931213144578,"neighborhood":"Miami Financial District","city_fetched":"Miami,US","state":"FL","country":"United States","canonicalUrl":"https://foursquare.com/v/balans-restaurant--bar-brickell/4a34847ef964a5205b9c1fe3","categoryId":"4bf58dd8d48988d116941735","category":"Bar","checkinsCount":9307,"usersCount":5029,"tipCount":98,"visitsCount":9367,"url":"http://www.balansrestaurants.com","tier":2,"message":"Moderate","currency":"$","rating":7.8},{"name":"Sports Grill Hammocks","phone":"3053836110","address":"14619 SW 104th St","lat":25.670433719978178,"lng":-80.43061742198859,"city_fetched":"Miami,US","state":"FL","country":"United States","canonicalUrl":"https://foursquare.com/v/sports-grill-hammocks/4bd22e72caff95218249d2f0","categoryId":"4bf58dd8d48988d11d941735","category":"Sports Bar","checkinsCount":1770,"usersCount":838,"tipCount":19,"visitsCount":2241,"url":"http://sportsgrillsunset.com","tier":1,"message":"Cheap","currency":"$","rating":7.8},{"name":"Annex Pop Up Beer Garden","address":"29th And 2nd","lat":25.803765821765648,"lng":-80.19400940446424,"neighborhood":"Wynwood Arts District","city_fetched":"Miami,US","state":"FL","country":"United States","canonicalUrl":"https://foursquare.com/v/annex-pop-up-beer-garden/5299485d11d2d664abc68032","categoryId":"4bf58dd8d48988d117941735","category":"Beer Garden","checkinsCount":131,"usersCount":119,"tipCount":1,"visitsCount":134,"tier":"","message":"","currency":"","rating":7.8},{"name":"The News Lounge","phone":"3057589932","twitter":"thenewslounge","address":"5582 NE 4th Ct","lat":25.827512724765835,"lng":-80.18728584285762,"neighborhood":"Upper Eastside","city_fetched":"Miami,US","state":"FL","country":"United States","canonicalUrl":"https://foursquare.com/v/the-news-lounge/4add1a70f964a520116421e3","categoryId":"4bf58dd8d48988d116941735","category":"Bar","checkinsCount":4682,"usersCount":2517,"tipCount":62,"visitsCount":4874,"url":"http://thenewslounge.com","tier":2,"message":"Moderate","currency":"$","rating":7.8},{"name":"Gavanna","phone":"3055731321","twitter":"gavannamia","address":"10 NE 40th St","lat":25.813222546620747,"lng":-80.19496286503865,"neighborhood":"Design District","city_fetched":"Miami,US","state":"FL","country":"United States","canonicalUrl":"https://foursquare.com/v/gavanna/4f1254f8e4b0d3f8a66e8720","categoryId":"4bf58dd8d48988d116941735","category":"Bar","checkinsCount":1010,"usersCount":647,"tipCount":6,"visitsCount":1257,"url":"http://www.gavannamiami.com","tier":"","message":"","currency":"","rating":7.8},{"name":"Jada Coles","phone":"7863913698","twitter":"jadacoles","address":"2845 Coral Way","lat":25.750412648164094,"lng":-80.24035158363463,"neighborhood":"Coral Way","city_fetched":"Miami,US","state":"FL","country":"United States","canonicalUrl":"https://foursquare.com/v/jada-coles/51843ba6498ee8dffcba79f9","categoryId":"4bf58dd8d48988d116941735","category":"Bar","checkinsCount":660,"usersCount":299,"tipCount":5,"visitsCount":878,"url":"http://www.jadacoles.com","tier":"","message":"","currency":"","rating":7.8},{"name":"Duffy's Sports Grill","phone":"3056482200","twitter":"duffysmvp","address":"3015 Grand Ave","lat":25.72835940151026,"lng":-80.24189262093161,"neighborhood":"Northeast Coconut Grove","city_fetched":"Miami,US","state":"FL","country":"United States","canonicalUrl":"https://foursquare.com/v/duffys-sports-grill/523d1ced11d28d5c391b82d6","categoryId":"4bf58dd8d48988d11d941735","category":"Sports Bar","checkinsCount":2412,"usersCount":1199,"tipCount":44,"visitsCount":2572,"url":"http://cocowalk.net","tier":2,"message":"Moderate","currency":"$","rating":7.8},{"name":"Murphy's Law","phone":"9547914782","address":"1 Seminole Way","lat":26.053223899537752,"lng":-80.21003157450333,"city_fetched":"Miami,US","state":"FL","country":"United States","canonicalUrl":"https://foursquare.com/v/murphys-law/4ab6ec21f964a5207b7920e3","categoryId":"4bf58dd8d48988d116941735","category":"Bar","checkinsCount":6199,"usersCount":3628,"tipCount":29,"visitsCount":6225,"url":"http://themurphyslaw.com","tier":2,"message":"Moderate","currency":"$","rating":7.7},{"name":"Ye Olde Falcon Pub","phone":"9544240300","address":"2867 S University Dr","lat":26.08484444121753,"lng":-80.25173172954106,"city_fetched":"Miami,US","state":"FL","country":"United States","canonicalUrl":"https://foursquare.com/v/ye-olde-falcon-pub/43d11912f964a520fe2d1fe3","categoryId":"4bf58dd8d48988d11b941735","category":"Pub","checkinsCount":3614,"usersCount":1534,"tipCount":43,"visitsCount":4388,"url":"http://www.yeoldefalconpub.com","tier":2,"message":"Moderate","currency":"$","rating":7.7},{"name":"Rubi Lounge","lat":25.767363479149893,"lng":-80.19593810797191,"neighborhood":"Downtown Miami","city_fetched":"Miami,US","state":"FL","country":"United States","canonicalUrl":"https://foursquare.com/v/rubi-lounge/551dea75498e09b590df33af","categoryId":"4bf58dd8d48988d121941735","category":"Lounge","checkinsCount":112,"usersCount":125,"tipCount":0,"visitsCount":158,"tier":"","message":"","currency":"","rating":7.6},{"name":"Let's Make a Daquiri","phone":"3053725117","address":"401 Biscayne Blvd","lat":25.77803527,"lng":-80.18643021583557,"neighborhood":"Miami Central Business District","city_fetched":"Miami,US","state":"FL","country":"United States","canonicalUrl":"https://foursquare.com/v/lets-make-a-daquiri/4bf742935efe2d7f89c96834","categoryId":"4bf58dd8d48988d11e941735","category":"Cocktail Bar","checkinsCount":1455,"usersCount":1208,"tipCount":16,"visitsCount":1461,"tier":2,"message":"Moderate","currency":"$","rating":7.6},{"name":"G5ive","twitter":"g5ivemiami","address":"337 NW 170th St","lat":25.930792081388876,"lng":-80.20725337938319,"city_fetched":"Miami,US","state":"FL","country":"United States","canonicalUrl":"https://foursquare.com/v/g5ive/4e0fb166d22d8582bdcbae09","categoryId":"4bf58dd8d48988d1d6941735","category":"Strip Club","checkinsCount":413,"usersCount":421,"tipCount":3,"visitsCount":684,"url":"http://g5ive.com","tier":"","message":"","currency":"","rating":7.6},{"name":"Jadacole's","phone":"3054569242","address":"2274 Coral Way","lat":25.75047724,"lng":-80.2307296,"neighborhood":"Coral Way","city_fetched":"Miami,US","state":"FL","country":"United States","canonicalUrl":"https://foursquare.com/v/jadacoles/4b402739f964a5204db625e3","categoryId":"4bf58dd8d48988d116941735","category":"Bar","checkinsCount":1285,"usersCount":466,"tipCount":16,"visitsCount":1285,"tier":"","message":"","currency":"","rating":7.6},{"name":"Bryson's Irish Pub","phone":"3058719534","twitter":"brysonsirishpub","address":"3790 Curtiss Pkwy","lat":25.8088526248751,"lng":-80.28957469735532,"city_fetched":"Miami,US","state":"FL","country":"United States","canonicalUrl":"https://foursquare.com/v/brysons-irish-pub/4b91dd2ef964a5204fdc33e3","categoryId":"4bf58dd8d48988d11b941735","category":"Pub","checkinsCount":1263,"usersCount":636,"tipCount":22,"visitsCount":1660,"url":"http://brysonsirishpub-hub.com","tier":"","message":"","currency":"","rating":7.6},{"name":"Dewar's Clubhouse","address":"601 Biscayne Blvd","lat":25.781229608067644,"lng":-80.18797238963793,"neighborhood":"Downtown Miami","city_fetched":"Miami,US","state":"FL","country":"United States","canonicalUrl":"https://foursquare.com/v/dewars-clubhouse/4cc18a111da0a1cd78969ac6","categoryId":"4bf58dd8d48988d116941735","category":"Bar","checkinsCount":309,"usersCount":196,"tipCount":3,"visitsCount":309,"tier":"","message":"","currency":"","rating":7.6},{"name":"Miller's Miami Lakes Ale House","phone":"3052318585","address":"15251 NW 67th Ave","lat":25.91258901490861,"lng":-80.30899040576114,"neighborhood":"Miami Lakes Town Center","city_fetched":"Miami,US","state":"FL","country":"United States","canonicalUrl":"https://foursquare.com/v/millers-miami-lakes-ale-house/4d7ebac0534fba7a9baae0b1","categoryId":"4bf58dd8d48988d11b941735","category":"Pub","checkinsCount":7223,"usersCount":3328,"tipCount":44,"visitsCount":9036,"url":"http://www.millersalehouse.com","tier":1,"message":"Cheap","currency":"$","rating":7.5},{"name":"Wine Vault","phone":"7866912000","twitter":"winevaultmiami","address":"3201 N Miami Ave Ste 105","lat":25.807734416448756,"lng":-80.19404754309183,"neighborhood":"Midtown Miami","city_fetched":"Miami,US","state":"FL","country":"United States","canonicalUrl":"https://foursquare.com/v/wine-vault/4ed6b48c5c5ce1cd626890fd","categoryId":"4bf58dd8d48988d123941735","category":"Wine Bar","checkinsCount":672,"usersCount":461,"tipCount":20,"visitsCount":676,"url":"http://www.winevaultmiami.com","tier":"","message":"","currency":"","rating":7.5},{"name":"The Office Miami Gentlemens Club","phone":"3056273456","twitter":"theofficemiami","address":"250 NE 183rd St","lat":25.94267153382512,"lng":-80.19552948798841,"city_fetched":"Miami,US","state":"FL","country":"United States","canonicalUrl":"https://foursquare.com/v/the-office-miami-gentlemens-club/4d70b7b2566b60fcbe23b57e","categoryId":"4bf58dd8d48988d1d6941735","category":"Strip Club","checkinsCount":634,"usersCount":597,"tipCount":9,"visitsCount":1200,"url":"http://instagram.com/theofficemiami","tier":"","message":"","currency":"","rating":7.5},{"name":"Bailo","address":"7020 NW 72nd Ave","lat":25.837884177187302,"lng":-80.31477398672405,"city_fetched":"Miami,US","state":"FL","country":"United States","canonicalUrl":"https://foursquare.com/v/bailo/5359f608498e3e8ccf3d7ea2","categoryId":"4bf58dd8d48988d11f941735","category":"Nightclub","checkinsCount":158,"usersCount":94,"tipCount":1,"visitsCount":189,"url":"http://bailo.club","tier":"","message":"","currency":"","rating":7.5},{"name":"Bella Beach Bar","lat":25.943317413330078,"lng":-80.1196517944336,"city_fetched":"Miami,US","state":"FL","country":"United States","canonicalUrl":"https://foursquare.com/v/bella-beach-bar/4f764213e4b08f9be47941ff","categoryId":"4bf58dd8d48988d11e941735","category":"Cocktail Bar","checkinsCount":141,"usersCount":93,"tipCount":2,"visitsCount":141,"tier":"","message":"","currency":"","rating":7.5},{"name":"Booby Trap Doral","phone":"3054772176","address":"5325 NW 77th Ave","lat":25.822280490979463,"lng":-80.32101959092894,"city_fetched":"Miami,US","state":"FL","country":"United States","canonicalUrl":"https://foursquare.com/v/booby-trap-doral/4bd1118777b29c7426278c82","categoryId":"4bf58dd8d48988d1d6941735","category":"Strip Club","checkinsCount":962,"usersCount":892,"tipCount":8,"visitsCount":1558,"url":"http://stripclubslocator.com/Florida/Miami-Dade/Miami/33166/Booby-Trap-Doral-l14088.html","tier":"","message":"","currency":"","rating":7.5},{"name":"Coconuts","address":"16701 Collins Ave","lat":25.930503006785436,"lng":-80.12094300683869,"city_fetched":"Miami,US","state":"FL","country":"United States","canonicalUrl":"https://foursquare.com/v/coconuts/4eda62f646907c1b42a1fa77","categoryId":"4bf58dd8d48988d1d5941735","category":"Hotel Bar","checkinsCount":138,"usersCount":83,"tipCount":3,"visitsCount":138,"tier":"","message":"","currency":"","rating":7.5},{"name":"Bar√∫ Urbano","address":"901 S Miami Ave","lat":25.765180256875258,"lng":-80.19272902635785,"neighborhood":"Miami Financial District","city_fetched":"Miami,US","state":"FL","country":"United States","canonicalUrl":"https://foursquare.com/v/bar%C3%BA-urbano/564fb6fa498eb6596ebf9841","categoryId":"4bf58dd8d48988d116941735","category":"Bar","checkinsCount":333,"usersCount":304,"tipCount":1,"visitsCount":401,"tier":"","message":"","currency":"","rating":7.5},{"name":"The DRB (Democratic Republic Of Beer)","phone":"3058097564","twitter":"drbmiami","address":"501 NE 1st Ave","lat":25.77916033731455,"lng":-80.19195556640625,"neighborhood":"Miami Central Business District","city_fetched":"Miami,US","state":"FL","country":"United States","canonicalUrl":"https://foursquare.com/v/the-drb-democratic-republic-of-beer/4ae274cff964a520668e21e3","categoryId":"4bf58dd8d48988d116941735","category":"Bar","checkinsCount":3931,"usersCount":2084,"tipCount":63,"visitsCount":3977,"url":"http://www.drbmiami.com","tier":2,"message":"Moderate","currency":"$","rating":7.5},{"name":"La Victoria Social Club","lat":25.81314938318365,"lng":-80.19475582879117,"neighborhood":"Design District","city_fetched":"Miami,US","state":"FL","country":"United States","canonicalUrl":"https://foursquare.com/v/la-victoria-social-club/5520c1fa498e1d3a8663ccf6","categoryId":"4bf58dd8d48988d11f941735","category":"Nightclub","checkinsCount":217,"usersCount":309,"tipCount":2,"visitsCount":426,"tier":"","message":"","currency":"","rating":7.5},{"name":"Pure Verde","address":"400 SE 2nd Ave","lat":25.77061079037794,"lng":-80.19086563325179,"neighborhood":"Miami Central Business District","city_fetched":"Miami,US","state":"FL","country":"United States","canonicalUrl":"https://foursquare.com/v/pure-verde/4b7c7e1bf964a520b1962fe3","categoryId":"4bf58dd8d48988d1d5941735","category":"Hotel Bar","checkinsCount":677,"usersCount":424,"tipCount":12,"visitsCount":680,"tier":"","message":"","currency":"","rating":7.5},{"name":"Seven","phone":"3054563041","twitter":"seven_mia","address":"28 NE 40th St","lat":25.813227,"lng":-80.194897,"neighborhood":"Design District","city_fetched":"Miami,US","state":"FL","country":"United States","canonicalUrl":"https://foursquare.com/v/seven/518db94f498e7d1ef2aa831b","categoryId":"4bf58dd8d48988d121941735","category":"Lounge","checkinsCount":330,"usersCount":285,"tipCount":5,"visitsCount":340,"url":"http://www.sevenmia.com","tier":"","message":"","currency":"","rating":7.5},{"name":"Hole in the Wall pub and grill","address":"12250 SW 117 Ave","lat":25.655166625976562,"lng":-80.38257598876953,"city_fetched":"Miami,US","state":"FL","country":"United States","canonicalUrl":"https://foursquare.com/v/hole-in-the-wall-pub-and-grill/518436bc498e9fd15effa93c","categoryId":"4bf58dd8d48988d11b941735","category":"Pub","checkinsCount":540,"usersCount":309,"tipCount":22,"visitsCount":651,"tier":1,"message":"Cheap","currency":"$","rating":7.4},{"name":"Sandbar Sports Grill","phone":"3054445270","twitter":"sandbargrove","address":"3064 Grand Ave","lat":25.72804944773474,"lng":-80.24300345732522,"neighborhood":"Northeast Coconut Grove","city_fetched":"Miami,US","state":"FL","country":"United States","canonicalUrl":"https://foursquare.com/sandbargrove","categoryId":"4bf58dd8d48988d11d941735","category":"Sports Bar","checkinsCount":10723,"usersCount":4354,"tipCount":67,"visitsCount":11022,"url":"http://www.sandbargrove.com","tier":2,"message":"Moderate","currency":"$","rating":7.4},{"name":"El Bar","lat":25.75053807873403,"lng":-80.24460434303091,"neighborhood":"Coral Way","city_fetched":"Miami,US","state":"FL","country":"United States","canonicalUrl":"https://foursquare.com/v/el-bar/4c9ab715b8e9224b4096503d","categoryId":"4bf58dd8d48988d123941735","category":"Wine Bar","checkinsCount":85,"usersCount":64,"tipCount":4,"visitsCount":87,"tier":"","message":"","currency":"","rating":7.4},{"name":"Oasis Lounge and Hookah Bar","phone":"3054466565","address":"2977 McFarlane Rd","lat":25.72755318559058,"lng":-80.24150055755807,"neighborhood":"Northeast Coconut Grove","city_fetched":"Miami,US","state":"FL","country":"United States","canonicalUrl":"https://foursquare.com/v/oasis-lounge-and-hookah-bar/4ba5ade6f964a5207a1b39e3","categoryId":"4bf58dd8d48988d119941735","category":"Hookah Bar","checkinsCount":784,"usersCount":569,"tipCount":12,"visitsCount":819,"url":"http://www.oasisloungeandhookahbar.com","tier":"","message":"","currency":"","rating":7.4},{"name":"Billy's Pub Too","phone":"3058999986","twitter":"billyspubtooo","address":"732 NE 125th St","lat":25.890196903332466,"lng":-80.18408060073853,"city_fetched":"Miami,US","state":"FL","country":"United States","canonicalUrl":"https://foursquare.com/billyspubtooo","categoryId":"4bf58dd8d48988d11b941735","category":"Pub","checkinsCount":3065,"usersCount":675,"tipCount":26,"visitsCount":3375,"url":"http://www.billyspubtoo.com","tier":1,"message":"Cheap","currency":"$","rating":7.4},{"name":"Round Table","address":"11205 NW 7th Ave","lat":25.877562,"lng":-80.2100121974945,"city_fetched":"Miami,US","state":"FL","country":"United States","canonicalUrl":"https://foursquare.com/v/round-table/4b677c2df964a520c2512be3","categoryId":"4bf58dd8d48988d11d941735","category":"Sports Bar","checkinsCount":899,"usersCount":255,"tipCount":6,"visitsCount":1090,"tier":"","message":"","currency":"","rating":7.4},{"name":"Libertine","lat":25.78454441165354,"lng":-80.19301779416217,"neighborhood":"Downtown Miami","city_fetched":"Miami,US","state":"FL","country":"United States","canonicalUrl":"https://foursquare.com/v/libertine/557be0ff498ed9cb196ceecd","categoryId":"4bf58dd8d48988d121941735","category":"Lounge","checkinsCount":218,"usersCount":142,"tipCount":2,"visitsCount":223,"tier":"","message":"","currency":"","rating":7.3},{"name":"TuCandela Bar","phone":"3053001681","address":"1200 Brickell Bay Dr Ste 104","lat":25.761678362686315,"lng":-80.19127427557433,"neighborhood":"Miami Financial District","city_fetched":"Miami,US","state":"FL","country":"United States","canonicalUrl":"https://foursquare.com/v/tucandela-bar/4f62aedfe4b0b3b495af5781","categoryId":"4bf58dd8d48988d116941735","category":"Bar","checkinsCount":607,"usersCount":543,"tipCount":8,"visitsCount":830,"url":"http://tucandelabarbrickell.com","tier":"","message":"","currency":"","rating":7.3},{"name":"Churchill's Pub","phone":"3057571807","twitter":"churchillspub","address":"5501 NE 2nd Ave","lat":25.82623421588393,"lng":-80.19172489643097,"neighborhood":"Creole District","city_fetched":"Miami,US","state":"FL","country":"United States","canonicalUrl":"https://foursquare.com/v/churchills-pub/4b74d2e2f964a5200af42de3","categoryId":"4bf58dd8d48988d11b941735","category":"Pub","checkinsCount":4438,"usersCount":2137,"tipCount":65,"visitsCount":5075,"url":"http://www.churchillspub.com","tier":2,"message":"Moderate","currency":"$","rating":7.3},{"name":"Azucar NightClub","phone":"3054437657","twitter":"azucarnightclub","address":"2301 SW 32nd Ave","lat":25.7480109,"lng":-80.2461424,"neighborhood":"Coral Way","city_fetched":"Miami,US","state":"FL","country":"United States","canonicalUrl":"https://foursquare.com/v/azucar-nightclub/4eb3773529c212fb6b8c463f","categoryId":"4bf58dd8d48988d1d8941735","category":"Gay Bar","checkinsCount":322,"usersCount":155,"tipCount":1,"visitsCount":341,"url":"http://www.azucarmiami.com","tier":"","message":"","currency":"","rating":7.3},{"name":"Off The Hookah","phone":"3053735724","twitter":"offthehookahmia","address":"401 Biscayne Blvd","lat":25.77747343888239,"lng":-80.18474121258703,"neighborhood":"Miami Central Business District","city_fetched":"Miami,US","state":"FL","country":"United States","canonicalUrl":"https://foursquare.com/v/off-the-hookah/4eab731b722efacf27cc6010","categoryId":"4bf58dd8d48988d119941735","category":"Hookah Bar","checkinsCount":2161,"usersCount":1555,"tipCount":27,"visitsCount":2170,"url":"http://www.offthehookah.com","tier":"","message":"","currency":"","rating":7.3},{"name":"Club Lexx","lat":25.883300162228725,"lng":-80.24291088818086,"city_fetched":"Miami,US","state":"FL","country":"United States","canonicalUrl":"https://foursquare.com/v/club-lexx/4c77bf56923ba143b8ec67e6","categoryId":"4bf58dd8d48988d1d6941735","category":"Strip Club","checkinsCount":909,"usersCount":324,"tipCount":2,"visitsCount":1026,"tier":"","message":"","currency":"","rating":7.3},{"name":"CariFlex Sports bar and Grill Kendall","phone":"3053827076","address":"14291 SW 120th St","lat":25.65650432809552,"lng":-80.42613498544904,"city_fetched":"Miami,US","state":"FL","country":"United States","canonicalUrl":"https://foursquare.com/v/cariflex-sports-bar-and-grill-kendall/4ebc342d7bebc23efa046bb3","categoryId":"4bf58dd8d48988d120941735","category":"Karaoke Bar","checkinsCount":121,"usersCount":93,"tipCount":5,"visitsCount":345,"tier":"","message":"","currency":"","rating":7.3},{"name":"Automatic Slims","phone":"3056722220","twitter":"slimsmiamibeach","address":"1216 Washington Ave","lat":25.78329,"lng":-80.132355,"neighborhood":"Flamingo-Lummus","city_fetched":"Miami,US","state":"FL","country":"United States","canonicalUrl":"https://foursquare.com/v/automatic-slims/40e0b100f964a52037041fe3","categoryId":"4bf58dd8d48988d118941735","category":"Dive Bar","checkinsCount":2081,"usersCount":1366,"tipCount":22,"visitsCount":2088,"tier":1,"message":"Cheap","currency":"$","rating":7.3},{"name":"Heart Nightclub","lat":25.78471565246582,"lng":-80.19281768798828,"neighborhood":"Downtown Miami","city_fetched":"Miami,US","state":"FL","country":"United States","canonicalUrl":"https://foursquare.com/v/heart-nightclub/563447e7498e90f01e2ce206","categoryId":"4bf58dd8d48988d11f941735","category":"Nightclub","checkinsCount":346,"usersCount":236,"tipCount":2,"visitsCount":373,"tier":"","message":"","currency":"","rating":7.3},{"name":"Tiki Bar at Riptide Hotel","address":"N Surf Ave","lat":26.026017,"lng":-80.114944,"neighborhood":"Hollywood Beach","city_fetched":"Miami,US","state":"FL","country":"United States","canonicalUrl":"https://foursquare.com/v/tiki-bar-at-riptide-hotel/4a898619f964a5203f0820e3","categoryId":"4bf58dd8d48988d1d5941735","category":"Hotel Bar","checkinsCount":290,"usersCount":192,"tipCount":8,"visitsCount":294,"tier":"","message":"","currency":"","rating":7.2},{"name":"Kukaramakara Brickell","phone":"3055777779","twitter":"kukara_miami","address":"1250 S Miami Ave","lat":25.762484631580808,"lng":-80.19306683010734,"neighborhood":"Miami Financial District","city_fetched":"Miami,US","state":"FL","country":"United States","canonicalUrl":"https://foursquare.com/kukara_miami","categoryId":"4bf58dd8d48988d121941735","category":"Lounge","checkinsCount":3190,"usersCount":1833,"tipCount":43,"visitsCount":3315,"url":"http://www.kukaramakara.com","tier":2,"message":"Moderate","currency":"$","rating":7.2},{"name":"Studio 60","phone":"3052600025","address":"2300 NW 36th St","lat":25.809018147601982,"lng":-80.23442676995299,"neighborhood":"Allapattah","city_fetched":"Miami,US","state":"FL","country":"United States","canonicalUrl":"https://foursquare.com/v/studio-60/4ca6a023b7106dcbe44460a5","categoryId":"4bf58dd8d48988d11f941735","category":"Nightclub","checkinsCount":162,"usersCount":85,"tipCount":4,"visitsCount":168,"url":"http://www.louiestudiosouthbeach.com","tier":"","message":"","currency":"","rating":7.2},{"name":"it espresso lounge","address":"NE 32 St","lat":25.80722017253371,"lng":-80.19399850771038,"neighborhood":"Midtown Miami","city_fetched":"Miami,US","state":"FL","country":"United States","canonicalUrl":"https://foursquare.com/v/it-espresso-lounge/546c0a3f498ee87b20841eac","categoryId":"4bf58dd8d48988d121941735","category":"Lounge","checkinsCount":181,"usersCount":116,"tipCount":5,"visitsCount":186,"tier":"","message":"","currency":"","rating":7.2},{"name":"The Laughing Loggerhead","phone":"3054461114","address":"2723 Bird Ave","lat":25.73573648929596,"lng":-80.23832023143768,"neighborhood":"Northeast Coconut Grove","city_fetched":"Miami,US","state":"FL","country":"United States","canonicalUrl":"https://foursquare.com/v/the-laughing-loggerhead/4cf5c940d3a8a1cde2d7cd43","categoryId":"4bf58dd8d48988d116941735","category":"Bar","checkinsCount":1043,"usersCount":57,"tipCount":7,"visitsCount":1076,"tier":"","message":"","currency":"","rating":7.2},{"name":"John Martin's Irish Pub & Restaurant","phone":"3054453777","twitter":"johnmartinspub","address":"253 Miracle Mile","lat":25.7497075022064,"lng":-80.2598166951002,"neighborhood":"Coral Gables Section","city_fetched":"Miami,US","state":"FL","country":"United States","canonicalUrl":"https://foursquare.com/v/john-martins-irish-pub--restaurant/40e0b100f964a520d1041fe3","categoryId":"4bf58dd8d48988d11b941735","category":"Pub","checkinsCount":1811,"usersCount":1301,"tipCount":25,"visitsCount":2097,"url":"http://www.johnmartins.com","tier":2,"message":"Moderate","currency":"$","rating":7.2},{"name":"Harrison's Sports Grill","phone":"3052625517","address":"1674 S Red Rd","lat":25.75551,"lng":-80.287696,"city_fetched":"Miami,US","state":"FL","country":"United States","canonicalUrl":"https://foursquare.com/v/harrisons-sports-grill/4c9bea2f9975a14395a92dcf","categoryId":"4bf58dd8d48988d11d941735","category":"Sports Bar","checkinsCount":312,"usersCount":119,"tipCount":6,"visitsCount":312,"tier":"","message":"","currency":"","rating":7.2},{"name":"level 25","phone":"3055036529","address":"1395 Brickell Ave","lat":25.760622254245558,"lng":-80.19120344437863,"neighborhood":"Miami Financial District","city_fetched":"Miami,US","state":"FL","country":"United States","canonicalUrl":"https://foursquare.com/v/level-25/4b242cccf964a520f16224e3","categoryId":"4bf58dd8d48988d116941735","category":"Bar","checkinsCount":188,"usersCount":124,"tipCount":2,"visitsCount":188,"url":"http://www.conradmiami.com/level25","tier":"","message":"","currency":"","rating":7.2},{"name":"Coco's Lounge","phone":"3056885005","address":"1430 NW 119th St","lat":25.883006667895568,"lng":-80.22333297035972,"city_fetched":"Miami,US","state":"FL","country":"United States","canonicalUrl":"https://foursquare.com/v/cocos-lounge/4c6af534a48420a16aef080b","categoryId":"4bf58dd8d48988d1d6941735","category":"Strip Club","checkinsCount":657,"usersCount":349,"tipCount":4,"visitsCount":803,"tier":"","message":"","currency":"","rating":7.2},{"name":"Solare Coliseum","lat":25.807785,"lng":-80.323038,"city_fetched":"Miami,US","state":"FL","country":"United States","canonicalUrl":"https://foursquare.com/v/solare-coliseum/4fc1a681e4b08acecb8a9702","categoryId":"4bf58dd8d48988d11f941735","category":"Nightclub","checkinsCount":278,"usersCount":192,"tipCount":2,"visitsCount":310,"tier":"","message":"","currency":"","rating":7.1},{"name":"HYDE Lounge AAA","twitter":"hydeaaarena","address":"601 Biscayne Blvd","lat":25.78116704693449,"lng":-80.18781437539198,"neighborhood":"Downtown Miami","city_fetched":"Miami,US","state":"FL","country":"United States","canonicalUrl":"https://foursquare.com/v/hyde-lounge-aaa/508f0fb9e4b07b9c2cb66cef","categoryId":"4bf58dd8d48988d121941735","category":"Lounge","checkinsCount":802,"usersCount":432,"tipCount":13,"visitsCount":802,"tier":"","message":"","currency":"","rating":7.1},{"name":"Ocean Alley","phone":"9549216171","address":"900 N Broadwalk","lat":26.0173240453033,"lng":-80.11544042676722,"neighborhood":"Hollywood Beach","city_fetched":"Miami,US","state":"FL","country":"United States","canonicalUrl":"https://foursquare.com/v/ocean-alley/4bb52d321344b713d8f79b04","categoryId":"4bf58dd8d48988d116941735","category":"Bar","checkinsCount":1305,"usersCount":1351,"tipCount":48,"visitsCount":1747,"url":"http://oceanalley.net","tier":"","message":"","currency":"","rating":7.1},{"name":"Odb The Other Daiquiri Bar","address":"Biscayne bay","lat":25.777711,"lng":-80.18569,"neighborhood":"Miami Central Business District","city_fetched":"Miami,US","state":"FL","country":"United States","canonicalUrl":"https://foursquare.com/v/odb-the-other-daiquiri-bar/4d8ce45ccb9b224bb2c85f41","categoryId":"4bf58dd8d48988d11e941735","category":"Cocktail Bar","checkinsCount":333,"usersCount":300,"tipCount":1,"visitsCount":333,"tier":"","message":"","currency":"","rating":7.1},{"name":"Secrets","address":"11430 Biscayne Blvd","lat":25.88098358506949,"lng":-80.16706293055923,"city_fetched":"Miami,US","state":"FL","country":"United States","canonicalUrl":"https://foursquare.com/v/secrets/4cf3222d8333224b4243148e","categoryId":"4bf58dd8d48988d1d6941735","category":"Strip Club","checkinsCount":398,"usersCount":127,"tipCount":5,"visitsCount":423,"tier":"","message":"","currency":"","rating":7.1},{"name":"Prime 112","phone":"3059384600","twitter":"hiltonhotels","address":"101 Ocean Dr","lat":25.779315247094058,"lng":-80.18839194328532,"neighborhood":"Miami Central Business District","city_fetched":"Miami,US","state":"FL","country":"United States","canonicalUrl":"https://foursquare.com/v/prime-112/50ca02c7245f2d4aa8c2cccb","categoryId":"4bf58dd8d48988d1d5941735","category":"Hotel Bar","checkinsCount":85,"usersCount":80,"tipCount":3,"visitsCount":85,"url":"http://www.hilton.com","tier":"","message":"","currency":"","rating":7.1},{"name":"Pub One","phone":"3055799229","twitter":"pubonemiami","address":"207 NE 1st St","lat":25.775266233284952,"lng":-80.19035346544422,"neighborhood":"Miami Central Business District","city_fetched":"Miami,US","state":"FL","country":"United States","canonicalUrl":"https://foursquare.com/v/pub-one/4c8c333b8018a1cdb5b8ead2","categoryId":"4bf58dd8d48988d11b941735","category":"Pub","checkinsCount":1602,"usersCount":428,"tipCount":15,"visitsCount":1632,"url":"http://www.pubonemiami.com","tier":"","message":"","currency":"","rating":7.1},{"name":"The DRB","address":"501 NE 1st Ave","lat":25.779017522289198,"lng":-80.19196079027064,"neighborhood":"Miami Central Business District","city_fetched":"Miami,US","state":"FL","country":"United States","canonicalUrl":"https://foursquare.com/v/the-drb/509c60c9e4b07eb4d7cbd60a","categoryId":"4bf58dd8d48988d116941735","category":"Bar","checkinsCount":471,"usersCount":314,"tipCount":11,"visitsCount":480,"url":"http://drbmiami.com","tier":"","message":"","currency":"","rating":7.1},{"name":"Amuse Restaurant & Lounge","phone":"7863690300","address":"1110 Biscayne Blvd.","lat":25.78513244745581,"lng":-80.18959065662833,"neighborhood":"Downtown Miami","city_fetched":"Miami,US","state":"FL","country":"United States","canonicalUrl":"https://foursquare.com/v/amuse-restaurant--lounge/4c9ea7877c096dcbc895d7d1","categoryId":"4bf58dd8d48988d121941735","category":"Lounge","checkinsCount":259,"usersCount":209,"tipCount":8,"visitsCount":259,"url":"http://www.tempomiami.rockresorts.com","tier":"","message":"","currency":"","rating":7.1},{"name":"Q Lounge","phone":"3059319957","address":"3575 NE 207th St","lat":25.968685587786638,"lng":-80.13043590656491,"neighborhood":"The Waterways","city_fetched":"Miami,US","state":"FL","country":"United States","canonicalUrl":"https://foursquare.com/v/q-lounge/40e0b100f964a52026051fe3","categoryId":"4bf58dd8d48988d120941735","category":"Karaoke Bar","checkinsCount":492,"usersCount":225,"tipCount":9,"visitsCount":496,"tier":"","message":"","currency":"","rating":7},{"name":"University Patio","lat":25.787568453650636,"lng":-80.2124719534943,"neighborhood":"Allapattah","city_fetched":"Miami,US","state":"FL","country":"United States","canonicalUrl":"https://foursquare.com/v/university-patio/4c60a5a713791b8d223050af","categoryId":"4bf58dd8d48988d117941735","category":"Beer Garden","checkinsCount":526,"usersCount":183,"tipCount":10,"visitsCount":526,"tier":"","message":"","currency":"","rating":7},{"name":"Landshark Bar and grill","address":"1111 N Ocean Dr","lat":26.019089281911857,"lng":-80.11556585436001,"neighborhood":"Hollywood Beach","city_fetched":"Miami,US","state":"FL","country":"United States","canonicalUrl":"https://foursquare.com/v/landshark-bar-and-grill/56045aac498e563acde1b210","categoryId":"52e81612bcbc57f1066b7a0d","category":"Beach Bar","checkinsCount":285,"usersCount":220,"tipCount":6,"visitsCount":287,"url":"http://www.margaritavillehollywoodbeachresort.com/the-resort/drinks-dining/landshark-bar-grill/","tier":"","message":"","currency":"","rating":7},{"name":"Flamingo Theater Bar","phone":"7868038194","twitter":"flamingotheater","address":"905 Brickell Bay Dr","lat":25.764547967898704,"lng":-80.18938905601647,"neighborhood":"Miami Financial District","city_fetched":"Miami,US","state":"FL","country":"United States","canonicalUrl":"https://foursquare.com/v/flamingo-theater-bar/53278222498e7ab2539fd2eb","categoryId":"4bf58dd8d48988d11a941735","category":"Other Nightlife","checkinsCount":275,"usersCount":245,"tipCount":2,"visitsCount":326,"tier":"","message":"","currency":"","rating":7},{"name":"Let's Make A Daiquiri","phone":"3054630602","address":"11401 NW 12th St","lat":25.786700483336485,"lng":-80.38085703888896,"city_fetched":"Miami,US","state":"FL","country":"United States","canonicalUrl":"https://foursquare.com/v/lets-make-a-daiquiri/4b86cf1cf964a520d79e31e3","categoryId":"4bf58dd8d48988d11e941735","category":"Cocktail Bar","checkinsCount":1154,"usersCount":679,"tipCount":23,"visitsCount":1157,"tier":2,"message":"Moderate","currency":"$","rating":7},{"name":"The Playwright Irish Pub & Restaurant","phone":"3055340667","twitter":"playwrightmiami","address":"1265 Washington Ave","lat":25.784137032788735,"lng":-80.13192440588395,"neighborhood":"Flamingo-Lummus","city_fetched":"Miami,US","state":"FL","country":"United States","canonicalUrl":"https://foursquare.com/v/the-playwright-irish-pub--restaurant/40e5f700f964a520090a1fe3","categoryId":"4bf58dd8d48988d11b941735","category":"Pub","checkinsCount":5566,"usersCount":3284,"tipCount":41,"visitsCount":5667,"url":"http://playwrightirishpub.com","tier":2,"message":"Moderate","currency":"$","rating":7},{"name":"Sharkeys Beer & Wine","phone":"3055773333","address":"401 Biscayne Blvd","lat":25.777562926849505,"lng":-80.18528610767737,"neighborhood":"Miami Central Business District","city_fetched":"Miami,US","state":"FL","country":"United States","canonicalUrl":"https://foursquare.com/v/sharkeys-beer--wine/40e0b100f964a52042051fe3","categoryId":"4bf58dd8d48988d123941735","category":"Wine Bar","checkinsCount":1464,"usersCount":1083,"tipCount":26,"visitsCount":1470,"tier":2,"message":"Moderate","currency":"$","rating":7},{"name":"Bacardi Rum Bar and Grill","address":"Miami International Airport","lat":25.797716127814613,"lng":-80.28480171125574,"neighborhood":"Miami International Airport","city_fetched":"Miami,US","state":"FL","country":"United States","canonicalUrl":"https://foursquare.com/v/bacardi-rum-bar-and-grill/4d1b992efd7bb60c171297e1","categoryId":"4bf58dd8d48988d116941735","category":"Bar","checkinsCount":2415,"usersCount":2005,"tipCount":38,"visitsCount":2415,"tier":"","message":"","currency":"","rating":6.9},{"name":"Tradewinds Waterfront Bar & Grill","phone":"3054166944","address":"401 Biscayne Blvd #1E","lat":25.778501883137277,"lng":-80.18628870555749,"neighborhood":"Miami Central Business District","city_fetched":"Miami,US","state":"FL","country":"United States","canonicalUrl":"https://foursquare.com/v/tradewinds-waterfront-bar--grill/4cddd21f41ed224bd2e8d43c","categoryId":"4bf58dd8d48988d11a941735","category":"Other Nightlife","checkinsCount":2213,"usersCount":1815,"tipCount":48,"visitsCount":2240,"url":"http://tradewindsbarandgrill.com","tier":"","message":"","currency":"","rating":6.9},{"name":"La Divina Gastro Club","phone":"3055777779","address":"1250 S Miami Ave","lat":25.76263222329945,"lng":-80.19308317541613,"neighborhood":"Miami Financial District","city_fetched":"Miami,US","state":"FL","country":"United States","canonicalUrl":"https://foursquare.com/v/la-divina-gastro-club/5581ed3d498eaf1537efe379","categoryId":"4bf58dd8d48988d11f941735","category":"Nightclub","checkinsCount":88,"usersCount":70,"tipCount":1,"visitsCount":97,"tier":"","message":"","currency":"","rating":6.9},{"name":"Hookah Inn","phone":"3054433383","twitter":"hookahinn","address":"10832 SW 104th St","lat":25.671800582187338,"lng":-80.37125046371237,"city_fetched":"Miami,US","state":"FL","country":"United States","canonicalUrl":"https://foursquare.com/v/hookah-inn/4c64bf1bf07e2d7fc84e9050","categoryId":"4bf58dd8d48988d119941735","category":"Hookah Bar","checkinsCount":630,"usersCount":212,"tipCount":2,"visitsCount":658,"url":"http://hookahinnmiami.com","tier":"","message":"","currency":"","rating":6.8},{"name":"Stir Crazy Showgirls","phone":"3052334432","twitter":"stircrazymiami","address":"12425 S Dixie Hwy","lat":25.6546422,"lng":-80.32889481,"city_fetched":"Miami,US","state":"FL","country":"United States","canonicalUrl":"https://foursquare.com/v/stir-crazy-showgirls/40e0b100f964a52052051fe3","categoryId":"4bf58dd8d48988d1d6941735","category":"Strip Club","checkinsCount":578,"usersCount":265,"tipCount":39,"visitsCount":632,"url":"http://www.stircrazyshowgirls.com","tier":"","message":"","currency":"","rating":6.8},{"name":"The Dugout Sports Bar","phone":"3054381117","address":"3215 NE 2nd Ave","lat":25.80719088988161,"lng":-80.19096370758767,"neighborhood":"Wynwood-Edgewater","city_fetched":"Miami,US","state":"FL","country":"United States","canonicalUrl":"https://foursquare.com/v/the-dugout-sports-bar/502f002ae4b0265f8b4c02d2","categoryId":"4bf58dd8d48988d1d8941735","category":"Gay Bar","checkinsCount":96,"usersCount":64,"tipCount":4,"visitsCount":108,"url":"http://dugoutmiami.com","tier":"","message":"","currency":"","rating":6.8},{"name":"Irish Times","phone":"3056674114","address":"5850 Sunset Dr","lat":25.704233633992427,"lng":-80.28838283667783,"city_fetched":"Miami,US","state":"FL","country":"United States","canonicalUrl":"https://foursquare.com/v/irish-times/4abc1541f964a5204e8620e3","categoryId":"4bf58dd8d48988d11b941735","category":"Pub","checkinsCount":4764,"usersCount":1899,"tipCount":41,"visitsCount":5110,"url":"http://irishtimesmia.com","tier":2,"message":"Moderate","currency":"$","rating":6.8},{"name":"The Club at The Renissance","address":"2340 SW 32nd Ave","lat":25.748079743145116,"lng":-80.24665169027651,"neighborhood":"Coral Way","city_fetched":"Miami,US","state":"FL","country":"United States","canonicalUrl":"https://foursquare.com/v/the-club-at-the-renissance/4bdb855dc79cc928c44f83e9","categoryId":"4bf58dd8d48988d11f941735","category":"Nightclub","checkinsCount":242,"usersCount":109,"tipCount":6,"visitsCount":243,"tier":"","message":"","currency":"","rating":6.8},{"name":"Renaissance At The Gables","phone":"3054451313","twitter":"renaissance_mia","address":"2340 SW 32nd Ave","lat":25.7477357,"lng":-80.24659,"neighborhood":"Coral Way","city_fetched":"Miami,US","state":"FL","country":"United States","canonicalUrl":"https://foursquare.com/v/renaissance-at-the-gables/4c5c829a857ca593e24bcacb","categoryId":"4bf58dd8d48988d11f941735","category":"Nightclub","checkinsCount":366,"usersCount":306,"tipCount":4,"visitsCount":428,"tier":"","message":"","currency":"","rating":6.7},{"name":"The Fleet Headquarters","lat":25.735885020542565,"lng":-80.23841299523404,"neighborhood":"Northeast Coconut Grove","city_fetched":"Miami,US","state":"FL","country":"United States","canonicalUrl":"https://foursquare.com/v/the-fleet-headquarters/4efe251b9911b33a0f544eab","categoryId":"4bf58dd8d48988d1d4941735","category":"Speakeasy","checkinsCount":1291,"usersCount":58,"tipCount":2,"visitsCount":1313,"tier":"","message":"","currency":"","rating":6.7},{"name":"Tavern In The Grove","phone":"3054473884","twitter":"tavernnthegrove","address":"3416 Main Hwy","lat":25.7278618221472,"lng":-80.24275297587813,"neighborhood":"Northeast Coconut Grove","city_fetched":"Miami,US","state":"FL","country":"United States","canonicalUrl":"https://foursquare.com/v/tavern-in-the-grove/40e0b100f964a52059051fe3","categoryId":"4bf58dd8d48988d116941735","category":"Bar","checkinsCount":1820,"usersCount":729,"tipCount":16,"visitsCount":1827,"url":"http://www.taverninthegrove.com","tier":"","message":"","currency":"","rating":6.6},{"name":"Miami Velvet","phone":"3054061604","twitter":"miamivelvet","address":"3901 NW 77th Ave","lat":25.809975147185767,"lng":-80.31887769699097,"city_fetched":"Miami,US","state":"FL","country":"United States","canonicalUrl":"https://foursquare.com/v/miami-velvet/40e0b100f964a520fc041fe3","categoryId":"4bf58dd8d48988d11f941735","category":"Nightclub","checkinsCount":638,"usersCount":288,"tipCount":1,"visitsCount":759,"url":"http://miamivelvet.com","tier":"","message":"","currency":"","rating":6.5},{"name":"Peachfuzz","lat":25.780799,"lng":-80.193534,"neighborhood":"Downtown Miami","city_fetched":"Miami,US","state":"FL","country":"United States","canonicalUrl":"https://foursquare.com/v/peachfuzz/4f238ae2e4b067a325ed8747","categoryId":"4bf58dd8d48988d11f941735","category":"Nightclub","checkinsCount":348,"usersCount":214,"tipCount":4,"visitsCount":357,"tier":"","message":"","currency":"","rating":6.5},{"name":"Apeiro Kitchen & Bar","phone":"7868005389","twitter":"apeiromiami","address":"3252 NE 1st Ave #101","lat":25.807975448623388,"lng":-80.19291427374094,"neighborhood":"Midtown Miami","city_fetched":"Miami,US","state":"FL","country":"United States","canonicalUrl":"https://foursquare.com/v/apeiro-kitchen--bar/5621865e498ebb1cce32acc3","categoryId":"4bf58dd8d48988d123941735","category":"Wine Bar","checkinsCount":253,"usersCount":198,"tipCount":3,"visitsCount":269,"url":"http://delray.apeirorestaurants.com","tier":"","message":"","currency":"","rating":6.4},{"name":"The Joint Sports Bar & Grill","phone":"3056039929","address":"9559 S Dixie Hwy","lat":25.68238345558776,"lng":-80.31418639735473,"neighborhood":"Dadeland Plaza","city_fetched":"Miami,US","state":"FL","country":"United States","canonicalUrl":"https://foursquare.com/v/the-joint-sports-bar--grill/4c9e3bd946978cfae3909f7f","categoryId":"4bf58dd8d48988d116941735","category":"Bar","checkinsCount":1265,"usersCount":566,"tipCount":24,"visitsCount":1265,"tier":"","message":"","currency":"","rating":6.4},{"name":"W xyz Lounge @ Aloft Hotel","lat":25.764299846495756,"lng":-80.19718030069996,"neighborhood":"Downtown Miami","city_fetched":"Miami,US","state":"FL","country":"United States","canonicalUrl":"https://foursquare.com/v/w-xyz-lounge--aloft-hotel/51df109c498e4bc8b5862ece","categoryId":"4bf58dd8d48988d121941735","category":"Lounge","checkinsCount":144,"usersCount":101,"tipCount":5,"visitsCount":144,"tier":"","message":"","currency":"","rating":6.4},{"name":"Gallery lounge at Hilton Miami","address":"1601 Biscayne Blvd","lat":25.79090225972932,"lng":-80.18844098188872,"neighborhood":"Downtown Miami","city_fetched":"Miami,US","state":"FL","country":"United States","canonicalUrl":"https://foursquare.com/v/gallery-lounge-at-hilton-miami/4c1ac7b1eac020a1ece443c2","categoryId":"4bf58dd8d48988d121941735","category":"Lounge","checkinsCount":208,"usersCount":161,"tipCount":5,"visitsCount":208,"tier":"","message":"","currency":"","rating":6.4},{"name":"Batting Cage Sports Bar","phone":"7863346868","twitter":"battingcagebar","address":"1704 NW 7th St","lat":25.77978286004992,"lng":-80.22311511002546,"neighborhood":"Little Havana","city_fetched":"Miami,US","state":"FL","country":"United States","canonicalUrl":"https://foursquare.com/battingcagebar","categoryId":"4bf58dd8d48988d11d941735","category":"Sports Bar","checkinsCount":585,"usersCount":437,"tipCount":15,"visitsCount":739,"url":"http://www.battingcagesportsbar.com","tier":2,"message":"Moderate","currency":"$","rating":6.4},{"name":"Seven Seas Bar","phone":"3052666071","address":"2200 SW 57th St","lat":25.750148,"lng":-80.2874904870987,"city_fetched":"Miami,US","state":"FL","country":"United States","canonicalUrl":"https://foursquare.com/v/seven-seas-bar/4a7e3294f964a52066f11fe3","categoryId":"4bf58dd8d48988d118941735","category":"Dive Bar","checkinsCount":1222,"usersCount":490,"tipCount":17,"visitsCount":1332,"tier":"","message":"","currency":"","rating":6.3},{"name":"Havana Nines","phone":"3053737720","address":"401 Biscayne Blvd","lat":25.77829436367777,"lng":-80.18646306920431,"neighborhood":"Miami Central Business District","city_fetched":"Miami,US","state":"FL","country":"United States","canonicalUrl":"https://foursquare.com/v/havana-nines/4da4a8c28a3188bf8d6107d0","categoryId":"4bf58dd8d48988d11e941735","category":"Cocktail Bar","checkinsCount":350,"usersCount":311,"tipCount":7,"visitsCount":350,"url":"http://h9mojitobar.tumblr.com","tier":"","message":"","currency":"","rating":6.2},{"name":"The Rickenbacker","phone":"3058713800","twitter":"sheratonmiami","address":"3900 NW 21st St","lat":25.794540654840322,"lng":-80.25979491845074,"neighborhood":"Miami International Airport","city_fetched":"Miami,US","state":"FL","country":"United States","canonicalUrl":"https://foursquare.com/v/the-rickenbacker/4dbde966815439392fb70408","categoryId":"4bf58dd8d48988d116941735","category":"Bar","checkinsCount":615,"usersCount":330,"tipCount":2,"visitsCount":615,"url":"http://www.sheratonmiamiairport.com","tier":"","message":"","currency":"","rating":6.2},{"name":"Champions Sports Bar","phone":"3056428200","twitter":"championsmiami","address":"1201 NW 42nd Ave","lat":25.784777390163676,"lng":-80.26232097246603,"city_fetched":"Miami,US","state":"FL","country":"United States","canonicalUrl":"https://foursquare.com/v/champions-sports-bar/4b9170d7f964a520b7bc33e3","categoryId":"4bf58dd8d48988d11d941735","category":"Sports Bar","checkinsCount":1178,"usersCount":801,"tipCount":17,"visitsCount":1185,"url":"http://www.championsmiami.com","tier":"","message":"","currency":"","rating":6.2},{"name":"Sugar Factory (Miami)","phone":"7866202800","twitter":"sugarfactorymia","address":"1144 Ocean Dr","lat":25.782505360729026,"lng":-80.1302886909439,"neighborhood":"Flamingo-Lummus","city_fetched":"Miami,US","state":"FL","country":"United States","canonicalUrl":"https://foursquare.com/v/sugar-factory-miami/535821a7498e96aa68bf23be","categoryId":"52e81612bcbc57f1066b7a0d","category":"Beach Bar","checkinsCount":1140,"usersCount":1152,"tipCount":28,"visitsCount":1271,"url":"http://www.sugarfactory.com/miami","tier":"","message":"","currency":"","rating":6.1},{"name":"Mova Lounge Brickell","phone":"3055348181","address":"401 SW 3rd Ave","lat":25.76971868074275,"lng":-80.19908219575882,"neighborhood":"Downtown Miami","city_fetched":"Miami,US","state":"FL","country":"United States","canonicalUrl":"https://foursquare.com/v/mova-lounge-brickell/51bdd2b72fc63bddc89add0f","categoryId":"4bf58dd8d48988d121941735","category":"Lounge","checkinsCount":250,"usersCount":165,"tipCount":8,"visitsCount":251,"tier":"","message":"","currency":"","rating":6.1},{"name":"Beaches Bar & Grill","phone":"3056721910","address":"4299 Collins Ave","lat":25.81424092632111,"lng":-80.12265494250174,"neighborhood":"Ocean Front","city_fetched":"Miami,US","state":"FL","country":"United States","canonicalUrl":"https://foursquare.com/v/beaches-bar--grill/4b492b90f964a520b36826e3","categoryId":"4bf58dd8d48988d116941735","category":"Bar","checkinsCount":852,"usersCount":425,"tipCount":9,"visitsCount":862,"tier":"","message":"","currency":"","rating":6},{"name":"Hookah Inn","phone":"3054333383","address":"1421 SW 107th Ave","lat":25.756091114670138,"lng":-80.36689533777344,"neighborhood":"University Center North","city_fetched":"Miami,US","state":"FL","country":"United States","canonicalUrl":"https://foursquare.com/v/hookah-inn/4c6dc10510faa14335e7ee68","categoryId":"4bf58dd8d48988d119941735","category":"Hookah Bar","checkinsCount":761,"usersCount":308,"tipCount":11,"visitsCount":882,"url":"http://hookahinnmiami.com","tier":"","message":"","currency":"","rating":6},{"name":"The Bank Miami","phone":"3053731515","twitter":"bankmiami","address":"139 NE 1st St","lat":25.775356611796756,"lng":-80.19114351024403,"neighborhood":"Miami Central Business District","city_fetched":"Miami,US","state":"FL","country":"United States","canonicalUrl":"https://foursquare.com/v/the-bank-miami/4da221e17ccc816e5604627b","categoryId":"4bf58dd8d48988d121941735","category":"Lounge","checkinsCount":403,"usersCount":326,"tipCount":10,"visitsCount":421,"url":"http://www.thebankmiami.com‚Äé","tier":"","message":"","currency":"","rating":6},{"name":"Wet Bar Lounge and Art Gallery","address":"1728 SW 8th St","lat":25.7654728718894,"lng":-80.223175021673,"neighborhood":"Little Havana","city_fetched":"Miami,US","state":"FL","country":"United States","canonicalUrl":"https://foursquare.com/v/wet-bar-lounge-and-art-gallery/4d8e80675091a1cd6fee9101","categoryId":"4bf58dd8d48988d121941735","category":"Lounge","checkinsCount":253,"usersCount":189,"tipCount":2,"visitsCount":287,"tier":"","message":"","currency":"","rating":6},{"name":"Club Sugar","address":"2307 SW 32nd Ave.","lat":25.748160045336324,"lng":-80.24623786875169,"neighborhood":"Coral Way","city_fetched":"Miami,US","state":"FL","country":"United States","canonicalUrl":"https://foursquare.com/v/club-sugar/4bc170cf920eb713ead91a2c","categoryId":"4bf58dd8d48988d1d8941735","category":"Gay Bar","checkinsCount":1119,"usersCount":392,"tipCount":12,"visitsCount":1162,"tier":"","message":"","currency":"","rating":5.9},{"name":"La Bottega","twitter":"labottegagrove","address":"3540 Main Hwy","lat":25.725147,"lng":-80.245086,"city_fetched":"Miami,US","state":"FL","country":"United States","canonicalUrl":"https://foursquare.com/v/la-bottega/4c2b3a38355cef3bba34cd56","categoryId":"4bf58dd8d48988d123941735","category":"Wine Bar","checkinsCount":206,"usersCount":126,"tipCount":3,"visitsCount":206,"tier":"","message":"","currency":"","rating":5.9},{"name":"STEAM Nightclub","phone":"7865163393","twitter":"steammiami","address":"30 NE 14th St","lat":25.788197288329208,"lng":-80.19333925151169,"neighborhood":"Downtown Miami","city_fetched":"Miami,US","state":"FL","country":"United States","canonicalUrl":"https://foursquare.com/v/steam-nightclub/53d017d2498e918e658021ac","categoryId":"4bf58dd8d48988d11f941735","category":"Nightclub","checkinsCount":344,"usersCount":264,"tipCount":2,"visitsCount":424,"tier":"","message":"","currency":"","rating":5.9},{"name":"Take One Cocktail Lounge","phone":"3057519313","address":"333 NE 79th St","lat":25.847879648208618,"lng":-80.190126,"neighborhood":"Little River","city_fetched":"Miami,US","state":"FL","country":"United States","canonicalUrl":"https://foursquare.com/v/take-one-cocktail-lounge/4bf1caf2d39ad13a38aaaa0e","categoryId":"4bf58dd8d48988d1d6941735","category":"Strip Club","checkinsCount":506,"usersCount":335,"tipCount":5,"visitsCount":705,"tier":"","message":"","currency":"","rating":5.9},{"name":"Wherehouse 2016","lat":25.91828,"lng":-80.15869,"city_fetched":"Miami,US","state":"FL","country":"United States","canonicalUrl":"https://foursquare.com/v/wherehouse-2016/4c4b9a029c8d2d7fb71b286b","categoryId":"4bf58dd8d48988d11f941735","category":"Nightclub","checkinsCount":141,"usersCount":83,"tipCount":3,"visitsCount":164,"tier":"","message":"","currency":"","rating":5.8},{"name":"Eve Nightclub","address":"1306 N Miami Ave","lat":25.787236244714375,"lng":-80.19430906465027,"neighborhood":"Downtown Miami","city_fetched":"Miami,US","state":"FL","country":"United States","canonicalUrl":"https://foursquare.com/v/eve-nightclub/4cdf7d31f8cdb1f7bb449212","categoryId":"4bf58dd8d48988d11f941735","category":"Nightclub","checkinsCount":1612,"usersCount":810,"tipCount":13,"visitsCount":1612,"tier":"","message":"","currency":"","rating":5.8},{"name":"DP's Beach Bar","lat":26.01339393817853,"lng":-80.11565856159358,"neighborhood":"Hollywood Beach","city_fetched":"Miami,US","state":"FL","country":"United States","canonicalUrl":"https://foursquare.com/v/dps-beach-bar/4ce9d4dbe1eeb60c444fabae","categoryId":"4bf58dd8d48988d116941735","category":"Bar","checkinsCount":597,"usersCount":283,"tipCount":12,"visitsCount":601,"tier":"","message":"","currency":"","rating":5.8},{"name":"Hilton Miami Bar","lat":25.79092550861562,"lng":-80.18838649454987,"neighborhood":"Downtown Miami","city_fetched":"Miami,US","state":"FL","country":"United States","canonicalUrl":"https://foursquare.com/v/hilton-miami-bar/51561fede4b03dbb4cc5d8da","categoryId":"4bf58dd8d48988d116941735","category":"Bar","checkinsCount":105,"usersCount":82,"tipCount":3,"visitsCount":105,"tier":"","message":"","currency":"","rating":5.7},{"name":"Congas Nightclub & Restaurant","phone":"9547499669","twitter":"congasnightclub","address":"2079 N University Dr","lat":25.77713107497563,"lng":-80.18473031464976,"neighborhood":"Miami Central Business District","city_fetched":"Miami,US","state":"FL","country":"United States","canonicalUrl":"https://foursquare.com/v/congas-nightclub--restaurant/4db646b681543d71da69f5f7","categoryId":"4bf58dd8d48988d11f941735","category":"Nightclub","checkinsCount":226,"usersCount":212,"tipCount":3,"visitsCount":226,"tier":"","message":"","currency":"","rating":5.7},{"name":"L' Boulevard Cafe","phone":"3056370599","address":"3632 NW 25th Ave","lat":25.809760716630407,"lng":-80.23857636113244,"neighborhood":"Allapattah","city_fetched":"Miami,US","state":"FL","country":"United States","canonicalUrl":"https://foursquare.com/v/l-boulevard-cafe/4c8d32acb118b71300402001","categoryId":"4bf58dd8d48988d11f941735","category":"Nightclub","checkinsCount":548,"usersCount":356,"tipCount":10,"visitsCount":659,"tier":"","message":"","currency":"","rating":5.6},{"name":"Therapy","address":"60 NE 11th St","lat":25.78455824784653,"lng":-80.19275082018851,"neighborhood":"Downtown Miami","city_fetched":"Miami,US","state":"FL","country":"United States","canonicalUrl":"https://foursquare.com/v/therapy/5143fe4de4b076f49ed357f0","categoryId":"4bf58dd8d48988d11f941735","category":"Nightclub","checkinsCount":264,"usersCount":216,"tipCount":3,"visitsCount":265,"tier":"","message":"","currency":"","rating":5.5},{"name":"Sam Adams","phone":"3058694064","twitter":"samueladamsbeer","address":"Concourse E","lat":25.795138,"lng":-80.28105529999999,"neighborhood":"Miami International Airport","city_fetched":"Miami,US","state":"FL","country":"United States","canonicalUrl":"https://foursquare.com/v/sam-adams/4b7048f4f964a52006102de3","categoryId":"50327c8591d4c4b30a586d5d","category":"Brewery","checkinsCount":522,"usersCount":487,"tipCount":6,"visitsCount":522,"url":"http://www.samueladams.com","tier":"","message":"","currency":"","rating":5.5},{"name":"Budweiser Brewhouse","twitter":"hmshost","address":"Terminal G","lat":25.791423420723014,"lng":-80.27907050651471,"neighborhood":"Miami International Airport","city_fetched":"Miami,US","state":"FL","country":"United States","canonicalUrl":"https://foursquare.com/v/budweiser-brewhouse/4dfceb66183853f2cb525fa9","categoryId":"4bf58dd8d48988d116941735","category":"Bar","checkinsCount":621,"usersCount":571,"tipCount":14,"visitsCount":621,"tier":"","message":"","currency":"","rating":5.1},{"name":"Jose Cuervo Tequileria","twitter":"hmshost","address":"Miami International Airport, 4250 NW 20th Street","lat":25.798184822539707,"lng":-80.27334435677854,"neighborhood":"Miami International Airport","city_fetched":"Miami,US","state":"FL","country":"United States","canonicalUrl":"https://foursquare.com/v/jose-cuervo-tequileria/4f9ab1dad4f2465542bc66bb","categoryId":"4bf58dd8d48988d11b941735","category":"Pub","checkinsCount":834,"usersCount":800,"tipCount":28,"visitsCount":834,"tier":"","message":"","currency":"","rating":4.8}]