[{"name":"3rd Base Bar and Grill","phone":"2193240300","address":"1127-1199 Pine Lake Ave","lat":41.631346,"lng":-86.738143,"city_fetched":"Michigan City,US","state":"IN","country":"United States","canonicalUrl":"https://foursquare.com/v/3rd-base-bar-and-grill/4bdb024b2a3a0f47cbeaacb6","categoryId":"4bf58dd8d48988d116941735","category":"Bar","checkinsCount":564,"usersCount":216,"tipCount":9,"visitsCount":636,"url":"http://3bbarandgrill.com","tier":"","message":"","currency":"","rating":8.6},{"name":"Burn'em Brewing","phone":"2192103784","twitter":"burnem_brewing","address":"718 Freyer Rd","lat":41.738348682016195,"lng":-86.82798838470205,"city_fetched":"Michigan City,US","state":"IN","country":"United States","canonicalUrl":"https://foursquare.com/v/burnem-brewing/54cbcc03498ea68d8055f2ab","categoryId":"50327c8591d4c4b30a586d5d","category":"Brewery","checkinsCount":268,"usersCount":308,"tipCount":2,"visitsCount":519,"url":"http://www.burnembrewing.com","tier":"","message":"","currency":"","rating":8.5},{"name":"Shoreline Brewery","phone":"2198794677","address":"208 Wabash St","lat":41.71951998886669,"lng":-86.90596997737885,"city_fetched":"Michigan City,US","state":"IN","country":"United States","canonicalUrl":"https://foursquare.com/v/shoreline-brewery/4b493eb3f964a5203e6b26e3","categoryId":"50327c8591d4c4b30a586d5d","category":"Brewery","checkinsCount":3642,"usersCount":2765,"tipCount":54,"visitsCount":4386,"url":"http://shorelinebrewery.com","tier":2,"message":"Moderate","currency":"$","rating":8.2},{"name":"Knuckleheads","phone":"2192216763","address":"204 W Barker Ave","lat":41.704881,"lng":-86.897667,"city_fetched":"Michigan City,US","state":"IN","country":"United States","canonicalUrl":"https://foursquare.com/v/knuckleheads/4e62ca901495676d55e8d977","categoryId":"4bf58dd8d48988d116941735","category":"Bar","checkinsCount":701,"usersCount":186,"tipCount":7,"visitsCount":885,"url":"http://bit.ly/unBzG1","tier":"","message":"","currency":"","rating":8.1},{"name":"Stray Dog Bar & Grill","phone":"2694692727","twitter":"straydognb","address":"245 N Whittaker St","lat":41.797313936475845,"lng":-86.74588282712676,"city_fetched":"Michigan City,US","state":"MI","country":"United States","canonicalUrl":"https://foursquare.com/v/stray-dog-bar--grill/4c40f001a5c5ef3b4e1eb06f","categoryId":"4bf58dd8d48988d116941735","category":"Bar","checkinsCount":5011,"usersCount":4190,"tipCount":58,"visitsCount":6606,"url":"http://www.thestraydog.com","tier":2,"message":"Moderate","currency":"$","rating":8.1},{"name":"Hunter's Brewing","phone":"2197286729","twitter":"huntersbrewing","address":"1535 S Calumet Rd","lat":41.597157,"lng":-87.047192,"city_fetched":"Michigan City,US","state":"IN","country":"United States","canonicalUrl":"https://foursquare.com/v/hunters-brewing/504397d3e4b01c180a43d962","categoryId":"50327c8591d4c4b30a586d5d","category":"Brewery","checkinsCount":397,"usersCount":194,"tipCount":8,"visitsCount":550,"url":"http://www.huntersbrewing.com","tier":"","message":"","currency":"","rating":7.9},{"name":"Matey's Restaurant","phone":"2198729471","twitter":"mateysmc","address":"110 Franklin St","lat":41.721521989343294,"lng":-86.90361499786377,"city_fetched":"Michigan City,US","state":"IN","country":"United States","canonicalUrl":"https://foursquare.com/v/mateys-restaurant/4bf5d9115efe2d7fde336634","categoryId":"4bf58dd8d48988d116941735","category":"Bar","checkinsCount":1756,"usersCount":945,"tipCount":17,"visitsCount":2139,"url":"http://mateysrestaurant.com","tier":"","message":"","currency":"","rating":7.5},{"name":"Uncle Joe's Bar & Grill","phone":"2199261814","address":"361 N Calumet Rd","lat":41.6156675,"lng":-87.0514555,"city_fetched":"Michigan City,US","state":"IN","country":"United States","canonicalUrl":"https://foursquare.com/v/uncle-joes-bar--grill/4d4b54f33c39236ac5617230","categoryId":"4bf58dd8d48988d116941735","category":"Bar","checkinsCount":179,"usersCount":73,"tipCount":4,"visitsCount":181,"tier":"","message":"","currency":"","rating":7.3},{"name":"Danny O's Bar & Grill","phone":"2199267530","address":"1050 S Calumet Rd","lat":41.60119593143463,"lng":-87.04995095729828,"city_fetched":"Michigan City,US","state":"IN","country":"United States","canonicalUrl":"https://foursquare.com/v/danny-os-bar--grill/4b639d16f964a52014872ae3","categoryId":"4bf58dd8d48988d11d941735","category":"Sports Bar","checkinsCount":161,"usersCount":79,"tipCount":3,"visitsCount":164,"tier":"","message":"","currency":"","rating":7.3},{"name":"Decoy's Bar & Grill","phone":"2198789556","address":"1729 E US Highway 20","lat":41.68811572458091,"lng":-86.86145517402436,"city_fetched":"Michigan City,US","state":"IN","country":"United States","canonicalUrl":"https://foursquare.com/v/decoys-bar--grill/4cc8c7d5d063a14336c409b4","categoryId":"4bf58dd8d48988d116941735","category":"Bar","checkinsCount":574,"usersCount":207,"tipCount":5,"visitsCount":630,"tier":"","message":"","currency":"","rating":7.1},{"name":"Rocks Lounge","lat":41.719296381497536,"lng":-86.89234818595352,"city_fetched":"Michigan City,US","state":"IN","country":"United States","canonicalUrl":"https://foursquare.com/v/rocks-lounge/4f409bcce4b0def993c7847f","categoryId":"4bf58dd8d48988d11f941735","category":"Nightclub","checkinsCount":319,"usersCount":132,"tipCount":5,"visitsCount":322,"tier":"","message":"","currency":"","rating":7.1},{"name":"McGinnis Pub","phone":"2198728200","address":"227 W 7th St","lat":41.71445402281109,"lng":-86.90345563982797,"city_fetched":"Michigan City,US","state":"IN","country":"United States","canonicalUrl":"https://foursquare.com/v/mcginnis-pub/4b4ab4dbf964a520418d26e3","categoryId":"4bf58dd8d48988d11b941735","category":"Pub","checkinsCount":748,"usersCount":472,"tipCount":7,"visitsCount":839,"tier":"","message":"","currency":"","rating":7.1},{"name":"Hooligan's","phone":"2199295570","address":"711 Plaza Dr","lat":41.61852584679025,"lng":-87.04405233544342,"city_fetched":"Michigan City,US","state":"IN","country":"United States","canonicalUrl":"https://foursquare.com/v/hooligans/4d68ae3c1a88b1f7bd79215d","categoryId":"4bf58dd8d48988d11b941735","category":"Pub","checkinsCount":1112,"usersCount":458,"tipCount":13,"visitsCount":1170,"tier":"","message":"","currency":"","rating":6.6},{"name":"Ryan's Irish Pub","phone":"2198720361","address":"401 Franklin St","lat":41.71817060535987,"lng":-86.90248310565948,"city_fetched":"Michigan City,US","state":"IN","country":"United States","canonicalUrl":"https://foursquare.com/v/ryans-irish-pub/4ba18484f964a52086bd37e3","categoryId":"4bf58dd8d48988d11b941735","category":"Pub","checkinsCount":444,"usersCount":239,"tipCount":2,"visitsCount":515,"tier":"","message":"","currency":"","rating":6.5},{"name":"Clubhouse Bar & Grill","phone":"2198612582","address":"415 E US Highway 20","lat":41.680015325546265,"lng":-86.8864,"city_fetched":"Michigan City,US","state":"IN","country":"United States","canonicalUrl":"https://foursquare.com/v/clubhouse-bar--grill/4c55a35dfd2ea5937f78162c","categoryId":"4bf58dd8d48988d116941735","category":"Bar","checkinsCount":579,"usersCount":136,"tipCount":3,"visitsCount":619,"tier":"","message":"","currency":"","rating":6.2},{"name":"Waterford Inn","phone":"2198799083","address":"6466 W Johnson Rd","lat":41.65934,"lng":-86.8250415,"city_fetched":"Michigan City,US","state":"IN","country":"United States","canonicalUrl":"https://foursquare.com/v/waterford-inn/4d1414266c8b54819528d4cc","categoryId":"4bf58dd8d48988d116941735","category":"Bar","checkinsCount":224,"usersCount":65,"tipCount":6,"visitsCount":231,"tier":"","message":"","currency":"","rating":5.6}]