[{"name":"Wall Street Bar & Grill","phone":"4326848686","address":"115 E Wall St","lat":31.997593,"lng":-102.073829,"city_fetched":"Midland,US","state":"TX","country":"United States","canonicalUrl":"https://foursquare.com/v/wall-street-bar--grill/4b1069b6f964a520e26f23e3","categoryId":"4bf58dd8d48988d116941735","category":"Bar","checkinsCount":1116,"usersCount":753,"tipCount":19,"visitsCount":1537,"tier":"","message":"","currency":"","rating":8.3},{"name":"The Hemingway","phone":"4325705333","twitter":"thehemingway1","address":"2200 W Wadley Ave #2","lat":32.02470123767853,"lng":-102.108112,"city_fetched":"Midland,US","state":"TX","country":"United States","canonicalUrl":"https://foursquare.com/v/the-hemingway/4be34340fe2995212f8e966c","categoryId":"4bf58dd8d48988d116941735","category":"Bar","checkinsCount":352,"usersCount":170,"tipCount":3,"visitsCount":389,"url":"http://thehemingwayofmidland.com","tier":"","message":"","currency":"","rating":7.9},{"name":"The Bar","phone":"4326851757","address":"606 W Missouri Ave","lat":31.996689396131703,"lng":-102.08130642771721,"city_fetched":"Midland,US","state":"TX","country":"United States","canonicalUrl":"https://foursquare.com/v/the-bar/4c2ff6213ffc95210cb48ff5","categoryId":"4bf58dd8d48988d116941735","category":"Bar","checkinsCount":1197,"usersCount":594,"tipCount":9,"visitsCount":1552,"url":"http://thebarmidland.com","tier":2,"message":"Moderate","currency":"$","rating":7.9},{"name":"The Blue Door","address":"4610 N Garfield St Ste D1","lat":32.03888528268421,"lng":-102.11238618185209,"city_fetched":"Midland,US","state":"TX","country":"United States","canonicalUrl":"https://foursquare.com/v/the-blue-door/500f49afe4b0861e519e8667","categoryId":"4bf58dd8d48988d11e941735","category":"Cocktail Bar","checkinsCount":748,"usersCount":282,"tipCount":9,"visitsCount":978,"tier":"","message":"","currency":"","rating":7.9},{"name":"Beer Garden","lat":31.947600716789356,"lng":-102.16967923791924,"city_fetched":"Midland,US","state":"Texas","country":"United States","canonicalUrl":"https://foursquare.com/v/beer-garden/54b9f5c5498e61f57b01e79e","categoryId":"4bf58dd8d48988d117941735","category":"Beer Garden","checkinsCount":113,"usersCount":182,"tipCount":2,"visitsCount":528,"tier":"","message":"","currency":"","rating":7.5},{"name":"Twin Peaks Restaurant","phone":"4323660921","address":"5001 E 42nd St","lat":31.89406303205636,"lng":-102.33384100350168,"city_fetched":"Midland,US","state":"TX","country":"United States","canonicalUrl":"https://foursquare.com/v/twin-peaks-restaurant/4ec1c1f302d5a63a3ffc3f2c","categoryId":"4bf58dd8d48988d11d941735","category":"Sports Bar","checkinsCount":1657,"usersCount":859,"tipCount":14,"visitsCount":2190,"url":"http://www.twinpeaksrestaurant.com","tier":"","message":"","currency":"","rating":7.5},{"name":"Cigar Frog's","phone":"4326871671","address":"216 N Main St","lat":31.999422175873534,"lng":-102.07430235592594,"city_fetched":"Midland,US","state":"TX","country":"United States","canonicalUrl":"https://foursquare.com/v/cigar-frogs/4bdf7dfd6316d13a82d9a011","categoryId":"4bf58dd8d48988d116941735","category":"Bar","checkinsCount":289,"usersCount":125,"tipCount":4,"visitsCount":302,"url":"http://cigarfrogs.com","tier":"","message":"","currency":"","rating":7.5},{"name":"Zucchis Sports Bar","phone":"4325504755","address":"1541 John Ben Shepperd Pkwy","lat":31.877342,"lng":-102.32977828333334,"city_fetched":"Midland,US","state":"TX","country":"United States","canonicalUrl":"https://foursquare.com/v/zucchis-sports-bar/4c4261c1af052d7f2ef37e79","categoryId":"4bf58dd8d48988d11d941735","category":"Sports Bar","checkinsCount":487,"usersCount":205,"tipCount":4,"visitsCount":733,"url":"http://www.zucchis.com","tier":"","message":"","currency":"","rating":7.3},{"name":"Basin Nights","address":"2113 Kermit Hwy","lat":31.862518974985715,"lng":-102.38252035700468,"city_fetched":"Midland,US","state":"TX","country":"United States","canonicalUrl":"https://foursquare.com/v/basin-nights/4c46760a417b20a101dfdaa9","categoryId":"4bf58dd8d48988d11a941735","category":"Other Nightlife","checkinsCount":164,"usersCount":70,"tipCount":3,"visitsCount":205,"tier":"","message":"","currency":"","rating":7.3},{"name":"Oasis Grill & Bar","phone":"4323636237","address":"Elegante Hotel","lat":31.882569633366558,"lng":-102.31427522852997,"city_fetched":"Midland,US","state":"TX","country":"United States","canonicalUrl":"https://foursquare.com/v/oasis-grill--bar/4c86f0a0b504a1431fe7b21c","categoryId":"4bf58dd8d48988d1d5941735","category":"Hotel Bar","checkinsCount":200,"usersCount":138,"tipCount":1,"visitsCount":207,"url":"https://oasisgrill.com","tier":"","message":"","currency":"","rating":7.3},{"name":"Fast Eddies","phone":"4325500190","twitter":"fasteddies_","address":"4031 E 42nd St","lat":31.89243107112179,"lng":-102.34356039909986,"city_fetched":"Midland,US","state":"TX","country":"United States","canonicalUrl":"https://foursquare.com/v/fast-eddies/4bf8a5205ec320a16f3389d3","categoryId":"4bf58dd8d48988d11d941735","category":"Sports Bar","checkinsCount":337,"usersCount":182,"tipCount":4,"visitsCount":374,"url":"http://fasteddiesbilliards.com","tier":"","message":"","currency":"","rating":7.2},{"name":"Triple Threat Sports Bar & Grill","phone":"4326835300","address":"12 Meta Dr","lat":31.9942254,"lng":-102.1010459,"city_fetched":"Midland,US","state":"TX","country":"United States","canonicalUrl":"https://foursquare.com/v/triple-threat-sports-bar--grill/4cd1eebef6378cfac19bbed6","categoryId":"4bf58dd8d48988d116941735","category":"Bar","checkinsCount":543,"usersCount":290,"tipCount":7,"visitsCount":743,"url":"http://triplethreatsportsbar.com","tier":"","message":"","currency":"","rating":6.9},{"name":"Tilted Kilt Midland","phone":"4804565458","twitter":"tiltedkiltpub","address":"1119 Deauville Blvd","lat":31.991550353649238,"lng":-102.15811549460021,"city_fetched":"Midland,US","state":"TX","country":"United States","canonicalUrl":"https://foursquare.com/v/tilted-kilt-midland/53b3191711d296b7f0f09cd1","categoryId":"4bf58dd8d48988d11d941735","category":"Sports Bar","checkinsCount":82,"usersCount":210,"tipCount":1,"visitsCount":391,"url":"http://www.tiltedkilt.com","tier":"","message":"","currency":"","rating":6.8},{"name":"Woofers and Tweeters","phone":"4325222111","address":"3303 N Midkiff Rd","lat":32.02115011666667,"lng":-102.126172,"city_fetched":"Midland,US","state":"TX","country":"United States","canonicalUrl":"https://foursquare.com/v/woofers-and-tweeters/4c01c0f0f99620a1081f2504","categoryId":"4bf58dd8d48988d116941735","category":"Bar","checkinsCount":278,"usersCount":150,"tipCount":7,"visitsCount":287,"url":"http://localedge.com/listing/125399/71947/woofers+%7c+tweeters/4325222111/3303+n+midkiff+rd/midland/tx/79705","tier":"","message":"","currency":"","rating":6.7},{"name":"Rockin Rodeo","lat":32.04034223707313,"lng":-102.08500354075635,"city_fetched":"Midland,US","state":"TX","country":"United States","canonicalUrl":"https://foursquare.com/v/rockin-rodeo/4c74776b2db5236acf92ba79","categoryId":"4bf58dd8d48988d122941735","category":"Whisky Bar","checkinsCount":564,"usersCount":333,"tipCount":4,"visitsCount":788,"tier":"","message":"","currency":"","rating":6.4}]