[{"name":"Lakefront Brewery","phone":"4143728800","twitter":"lakefront","address":"1872 N Commerce St","lat":43.054872046423505,"lng":-87.90517087244625,"neighborhood":"Brewer's Hill","city_fetched":"Milwaukee,US","state":"WI","country":"United States","canonicalUrl":"https://foursquare.com/v/lakefront-brewery/4ad4c004f964a5208bec20e3","categoryId":"50327c8591d4c4b30a586d5d","category":"Brewery","checkinsCount":19039,"usersCount":14153,"tipCount":191,"visitsCount":21709,"url":"http://www.lakefrontbrewery.com","tier":1,"message":"Cheap","currency":"$","rating":9.6},{"name":"Bryant's Cocktail Lounge","phone":"4143832620","twitter":"bryantslounge","address":"1579 S 9th St","lat":43.01430812932507,"lng":-87.92282103587036,"neighborhood":"Historic Mitchell Street","city_fetched":"Milwaukee,US","state":"WI","country":"United States","canonicalUrl":"https://foursquare.com/v/bryants-cocktail-lounge/4ad4f5f7f964a520f50021e3","categoryId":"4bf58dd8d48988d11e941735","category":"Cocktail Bar","checkinsCount":5350,"usersCount":2953,"tipCount":65,"visitsCount":6084,"url":"http://www.bryantscocktaillounge.com","tier":2,"message":"Moderate","currency":"$","rating":9.4},{"name":"Estabrook Park Beer Garden","address":"4600 Estabrook Drive","lat":43.09959614019193,"lng":-87.90718278801533,"city_fetched":"Milwaukee,US","state":"WI","country":"United States","canonicalUrl":"https://foursquare.com/v/estabrook-park-beer-garden/4fc7d718e4b057f64a86de14","categoryId":"4bf58dd8d48988d117941735","category":"Beer Garden","checkinsCount":4442,"usersCount":2476,"tipCount":57,"visitsCount":5313,"url":"http://www.estabrookbeergarden.com","tier":2,"message":"Moderate","currency":"$","rating":9.1},{"name":"Buckley's Restaurant & Bar","phone":"4142771111","twitter":"buckleysmke","address":"801 N Cass St","lat":43.04156717130515,"lng":-87.90198036374485,"neighborhood":"Juneau Town","city_fetched":"Milwaukee,US","state":"WI","country":"United States","canonicalUrl":"https://foursquare.com/v/buckleys-restaurant--bar/4ad7d68cf964a520410f21e3","categoryId":"4bf58dd8d48988d116941735","category":"Bar","checkinsCount":3340,"usersCount":1727,"tipCount":46,"visitsCount":3810,"url":"http://www.buckleysmilwaukee.com","tier":2,"message":"Moderate","currency":"$","rating":9.1},{"name":"Nessun Dorma","phone":"4142648466","address":"2778 N Weil St","lat":43.06924732344259,"lng":-87.89906271753418,"neighborhood":"Riverwest","city_fetched":"Milwaukee,US","state":"WI","country":"United States","canonicalUrl":"https://foursquare.com/v/nessun-dorma/4ad4f378f964a520de0021e3","categoryId":"4bf58dd8d48988d123941735","category":"Wine Bar","checkinsCount":2851,"usersCount":1392,"tipCount":39,"visitsCount":3181,"url":"http://nessundormariverwest.com","tier":"","message":"","currency":"","rating":9.1},{"name":"Balzac","phone":"4147550099","address":"1716 N Arlington Pl","lat":43.053555177138705,"lng":-87.8946590423584,"neighborhood":"Lower East Side","city_fetched":"Milwaukee,US","state":"WI","country":"United States","canonicalUrl":"https://foursquare.com/v/balzac/4ae636e6f964a520afa521e3","categoryId":"4bf58dd8d48988d123941735","category":"Wine Bar","checkinsCount":7620,"usersCount":3244,"tipCount":65,"visitsCount":7742,"url":"http://www.balzacwinebar.com","tier":2,"message":"Moderate","currency":"$","rating":9},{"name":"Burnhearts","phone":"4142940490","twitter":"burnhearts","address":"2599 S Logan Ave","lat":42.99721494796219,"lng":-87.89700252440028,"neighborhood":"Bay View","city_fetched":"Milwaukee,US","state":"WI","country":"United States","canonicalUrl":"https://foursquare.com/v/burnhearts/4ad7dc70f964a520950f21e3","categoryId":"4bf58dd8d48988d116941735","category":"Bar","checkinsCount":9116,"usersCount":2647,"tipCount":31,"visitsCount":10353,"url":"http://www.burnheartsbar.com","tier":2,"message":"Moderate","currency":"$","rating":9},{"name":"Jackson's Blue Ribbon Pub: Downtown","phone":"4142767271","twitter":"jacksonsbrpub","address":"1203 N 10th St","lat":43.045893321281966,"lng":-87.9245200753212,"neighborhood":"Kilbourn Town","city_fetched":"Milwaukee,US","state":"WI","country":"United States","canonicalUrl":"https://foursquare.com/jacksonsbrpub","categoryId":"4bf58dd8d48988d116941735","category":"Bar","checkinsCount":4662,"usersCount":2508,"tipCount":26,"visitsCount":5722,"url":"http://jacksonsbrp.com","tier":2,"message":"Moderate","currency":"$","rating":8.9},{"name":"Milwaukee Brewing Company","phone":"4142262337","twitter":"mkebrewco","address":"613 S 2nd St","lat":43.024912,"lng":-87.91285499,"neighborhood":"Walker's Point","city_fetched":"Milwaukee,US","state":"WI","country":"United States","canonicalUrl":"https://foursquare.com/v/milwaukee-brewing-company/4bf46ee594af2d7ff89a3a72","categoryId":"50327c8591d4c4b30a586d5d","category":"Brewery","checkinsCount":6015,"usersCount":3560,"tipCount":47,"visitsCount":6180,"url":"http://mkebrewing.com","tier":1,"message":"Cheap","currency":"$","rating":8.9},{"name":"Blu Milwaukee","phone":"4143904661","twitter":"pfisterhotel","address":"424 E Wisconsin Ave","lat":43.039708649082904,"lng":-87.90577411651611,"neighborhood":"Juneau Town","city_fetched":"Milwaukee,US","state":"WI","country":"United States","canonicalUrl":"https://foursquare.com/v/blu-milwaukee/4ad16f9af964a52067de20e3","categoryId":"4bf58dd8d48988d1d5941735","category":"Hotel Bar","checkinsCount":4507,"usersCount":2869,"tipCount":30,"visitsCount":4541,"url":"http://www.blumilwaukee.com","tier":1,"message":"Cheap","currency":"$","rating":8.9},{"name":"Hudson Business Lounge","phone":"4142209460","twitter":"hudsonmke","address":"310 N  Broadway","lat":43.03401545523317,"lng":-87.90700793266296,"neighborhood":"Historic Third Ward","city_fetched":"Milwaukee,US","state":"WI","country":"United States","canonicalUrl":"https://foursquare.com/hudsonmke","categoryId":"4bf58dd8d48988d123941735","category":"Wine Bar","checkinsCount":3823,"usersCount":1004,"tipCount":41,"visitsCount":4120,"url":"http://www.thehudson.org","tier":"","message":"","currency":"","rating":8.8},{"name":"Best Place at the Historic Pabst Brewery","phone":"4146301609","twitter":"bestplacepabst","address":"901 W Juneau Ave","lat":43.04567321199289,"lng":-87.92333710519722,"neighborhood":"Kilbourn Town","city_fetched":"Milwaukee,US","state":"WI","country":"United States","canonicalUrl":"https://foursquare.com/v/best-place-at-the-historic-pabst-brewery/4b7dcad4f964a520efd42fe3","categoryId":"4bf58dd8d48988d117941735","category":"Beer Garden","checkinsCount":4533,"usersCount":2532,"tipCount":31,"visitsCount":4883,"url":"http://www.bestplacemilwaukee.com","tier":1,"message":"Cheap","currency":"$","rating":8.7},{"name":"Sugar Maple","phone":"4144812393","twitter":"thesugarmaple","address":"441 E Lincoln Ave","lat":43.00285379679395,"lng":-87.90350857872474,"neighborhood":"Bay View","city_fetched":"Milwaukee,US","state":"WI","country":"United States","canonicalUrl":"https://foursquare.com/v/sugar-maple/4ad4f772f964a520030121e3","categoryId":"4bf58dd8d48988d116941735","category":"Bar","checkinsCount":8200,"usersCount":3464,"tipCount":59,"visitsCount":8423,"url":"http://www.mysugarmaple.com","tier":2,"message":"Moderate","currency":"$","rating":8.7},{"name":"Hi Hat Garage","phone":"4142208090","twitter":"hihatloungemke","address":"1709 N Arlington Pl","lat":43.05316906916216,"lng":-87.89510697126389,"neighborhood":"Lower East Side","city_fetched":"Milwaukee,US","state":"WI","country":"United States","canonicalUrl":"https://foursquare.com/v/hi-hat-garage/4ad5f47af964a5202e0421e3","categoryId":"4bf58dd8d48988d116941735","category":"Bar","checkinsCount":22295,"usersCount":7088,"tipCount":89,"visitsCount":23084,"url":"http://hihatlounge.com/garage/","tier":2,"message":"Moderate","currency":"$","rating":8.7},{"name":"Brenner Brewing Co.","phone":"4144658469","twitter":"brennerbrewing","address":"706 S 5th St","lat":43.02394684138036,"lng":-87.91682435601686,"neighborhood":"Walker's Point","city_fetched":"Milwaukee,US","state":"WI","country":"United States","canonicalUrl":"https://foursquare.com/brennerbrewing","categoryId":"4bf58dd8d48988d116941735","category":"Bar","checkinsCount":916,"usersCount":855,"tipCount":14,"visitsCount":1315,"url":"http://www.brennerbrewing.com","tier":2,"message":"Moderate","currency":"$","rating":8.7},{"name":"Foundation Bar","phone":"4143742587","address":"2718 N Bremen St","lat":43.06789097940384,"lng":-87.90009756947886,"neighborhood":"Riverwest","city_fetched":"Milwaukee,US","state":"WI","country":"United States","canonicalUrl":"https://foursquare.com/v/foundation-bar/4ad4d146f964a52000fc20e3","categoryId":"4bf58dd8d48988d11e941735","category":"Cocktail Bar","checkinsCount":5643,"usersCount":2545,"tipCount":58,"visitsCount":6138,"url":"http://foundationbar.com","tier":2,"message":"Moderate","currency":"$","rating":8.7},{"name":"The Wicked Hop","phone":"4142230345","twitter":"thewickedhop","address":"345 N Broadway","lat":43.0348310415865,"lng":-87.90740489959717,"neighborhood":"Historic Third Ward","city_fetched":"Milwaukee,US","state":"WI","country":"United States","canonicalUrl":"https://foursquare.com/v/the-wicked-hop/4ad9267cf964a520981821e3","categoryId":"4bf58dd8d48988d116941735","category":"Bar","checkinsCount":23244,"usersCount":9458,"tipCount":121,"visitsCount":23834,"url":"http://www.thewickedhop.com","tier":2,"message":"Moderate","currency":"$","rating":8.7},{"name":"Branded","phone":"4143744766","twitter":"ironhorsehotel","address":"500 W Florida St","lat":43.027494,"lng":-87.917098,"neighborhood":"Walker's Point","city_fetched":"Milwaukee,US","state":"WI","country":"United States","canonicalUrl":"https://foursquare.com/v/branded/4ad4c004f964a5207fec20e3","categoryId":"4bf58dd8d48988d121941735","category":"Lounge","checkinsCount":1174,"usersCount":589,"tipCount":12,"visitsCount":1187,"url":"https://www.facebook.com/ironhorsehotel","tier":"","message":"","currency":"","rating":8.7},{"name":"Milwaukee Brat House","phone":"4142738709","twitter":"mkebrathouse","address":"1013 N Old World 3rd St","lat":43.0432714107753,"lng":-87.9145829846569,"neighborhood":"Kilbourn Town","city_fetched":"Milwaukee,US","state":"WI","country":"United States","canonicalUrl":"https://foursquare.com/v/milwaukee-brat-house/4ade4930f964a520a17421e3","categoryId":"4bf58dd8d48988d11b941735","category":"Pub","checkinsCount":12822,"usersCount":5107,"tipCount":86,"visitsCount":13004,"url":"http://milwaukeebrathouse.com","tier":2,"message":"Moderate","currency":"$","rating":8.7},{"name":"Leff's Lucky Town","phone":"4142589886","twitter":"leffsluckytown","address":"7208 W State St","lat":43.048264,"lng":-88.002328,"city_fetched":"Milwaukee,US","state":"WI","country":"United States","canonicalUrl":"https://foursquare.com/v/leffs-lucky-town/4b018704f964a520214322e3","categoryId":"4bf58dd8d48988d116941735","category":"Bar","checkinsCount":22804,"usersCount":5509,"tipCount":69,"visitsCount":25894,"url":"http://www.leffs.com","tier":2,"message":"Moderate","currency":"$","rating":8.7},{"name":"Splash Studio","phone":"4148827621","twitter":"splash_studio","address":"184 N Broadway","lat":43.03226455425779,"lng":-87.90698639071786,"neighborhood":"Historic Third Ward","city_fetched":"Milwaukee,US","state":"WI","country":"United States","canonicalUrl":"https://foursquare.com/v/splash-studio/4f5ccf6ce4b0b28dd522fed5","categoryId":"4bf58dd8d48988d116941735","category":"Bar","checkinsCount":1242,"usersCount":987,"tipCount":15,"visitsCount":1345,"url":"http://www.splashmilwaukee.com","tier":"","message":"","currency":"","rating":8.7},{"name":"Jimmy B's","phone":"4145459657","address":"7216 W Lincoln Ave","lat":43.00291061502674,"lng":-88.00361478933233,"city_fetched":"Milwaukee,US","state":"WI","country":"United States","canonicalUrl":"https://foursquare.com/v/jimmy-bs/4c38b8881e06d13a1640783e","categoryId":"4bf58dd8d48988d118941735","category":"Dive Bar","checkinsCount":1682,"usersCount":287,"tipCount":11,"visitsCount":1863,"tier":"","message":"","currency":"","rating":8.6},{"name":"Red Lion Pub","phone":"4144319009","twitter":"redlionpubmke","address":"1850 N Water St","lat":43.05525216605832,"lng":-87.90113718831746,"neighborhood":"Lower East Side","city_fetched":"Milwaukee,US","state":"WI","country":"United States","canonicalUrl":"https://foursquare.com/v/red-lion-pub/548242f2498e9dcac12dfe0f","categoryId":"4bf58dd8d48988d11b941735","category":"Pub","checkinsCount":848,"usersCount":766,"tipCount":9,"visitsCount":1469,"url":"http://www.redlionpubmke.com","tier":"","message":"","currency":"","rating":8.6},{"name":"Champion's Pub","phone":"4143322440","twitter":"championspub","address":"2417 N Bartlett Ave","lat":43.0618029996191,"lng":-87.88940995931625,"neighborhood":"Riverside Park","city_fetched":"Milwaukee,US","state":"WI","country":"United States","canonicalUrl":"https://foursquare.com/v/champions-pub/4add2a12f964a520646421e3","categoryId":"4bf58dd8d48988d116941735","category":"Bar","checkinsCount":4756,"usersCount":957,"tipCount":17,"visitsCount":5124,"url":"http://www.championspub.com","tier":1,"message":"Cheap","currency":"$","rating":8.6},{"name":"Miller Brewing Company","phone":"4149312337","address":"4251 W State St","lat":43.04217462235986,"lng":-87.96751251600729,"neighborhood":"Miller Valley","city_fetched":"Milwaukee,US","state":"WI","country":"United States","canonicalUrl":"https://foursquare.com/v/miller-brewing-company/4b14349af964a520279f23e3","categoryId":"50327c8591d4c4b30a586d5d","category":"Brewery","checkinsCount":8041,"usersCount":6338,"tipCount":42,"visitsCount":8872,"url":"http://millercoors.com","tier":1,"message":"Cheap","currency":"$","rating":8.6},{"name":"Elsa's On The Park","phone":"4147650615","address":"833 N Jefferson St","lat":43.04201406912937,"lng":-87.90564511783572,"neighborhood":"Juneau Town","city_fetched":"Milwaukee,US","state":"WI","country":"United States","canonicalUrl":"https://foursquare.com/v/elsas-on-the-park/4ad7d73bf964a5204b0f21e3","categoryId":"4bf58dd8d48988d121941735","category":"Lounge","checkinsCount":9023,"usersCount":3989,"tipCount":95,"visitsCount":9442,"url":"http://elsas.com","tier":2,"message":"Moderate","currency":"$","rating":8.5},{"name":"42 Lounge","phone":"4149889982","twitter":"42lounge","address":"326 E Mason St","lat":43.04010072288151,"lng":-87.90701866149902,"neighborhood":"Juneau Town","city_fetched":"Milwaukee,US","state":"WI","country":"United States","canonicalUrl":"https://foursquare.com/42lounge","categoryId":"4bf58dd8d48988d121941735","category":"Lounge","checkinsCount":2594,"usersCount":1116,"tipCount":26,"visitsCount":2857,"url":"http://42lounge.com","tier":2,"message":"Moderate","currency":"$","rating":8.4},{"name":"Benno's Bar and Grill","phone":"4144539094","address":"7413 W Greenfield Ave","lat":43.01655184143764,"lng":-88.00529247344186,"city_fetched":"Milwaukee,US","state":"WI","country":"United States","canonicalUrl":"https://foursquare.com/v/bennos-bar-and-grill/4b0c798cf964a520e43d23e3","categoryId":"4bf58dd8d48988d116941735","category":"Bar","checkinsCount":2849,"usersCount":945,"tipCount":24,"visitsCount":3054,"url":"http://www.bennosbar.com","tier":1,"message":"Cheap","currency":"$","rating":8.4},{"name":"The Yard","address":"500 W Florida St","lat":43.02748,"lng":-87.917691,"neighborhood":"Walker's Point","city_fetched":"Milwaukee,US","state":"WI","country":"United States","canonicalUrl":"https://foursquare.com/v/the-yard/4c005d4e34ccc9288c7ce1cd","categoryId":"4bf58dd8d48988d121941735","category":"Lounge","checkinsCount":1189,"usersCount":694,"tipCount":11,"visitsCount":1209,"tier":"","message":"","currency":"","rating":8.4},{"name":"O'Lydias","phone":"4142717546","address":"338 S 1st St","lat":43.027436375491625,"lng":-87.9108998035649,"city_fetched":"Milwaukee,US","state":"WI","country":"United States","canonicalUrl":"https://foursquare.com/v/olydias/4addfd3ff964a5201c6721e3","categoryId":"4bf58dd8d48988d116941735","category":"Bar","checkinsCount":11663,"usersCount":4147,"tipCount":47,"visitsCount":13425,"url":"http://www.olydias.com","tier":1,"message":"Cheap","currency":"$","rating":8.4},{"name":"The Safe House","phone":"4142712007","twitter":"safehousemke","address":"779 N Front St","lat":43.04049279417474,"lng":-87.91021049022675,"neighborhood":"Juneau Town","city_fetched":"Milwaukee,US","state":"WI","country":"United States","canonicalUrl":"https://foursquare.com/v/the-safe-house/4a74fb1bf964a52031e01fe3","categoryId":"4bf58dd8d48988d1d4941735","category":"Speakeasy","checkinsCount":10742,"usersCount":8254,"tipCount":130,"visitsCount":11317,"url":"http://www.safe-house.com","tier":2,"message":"Moderate","currency":"$","rating":8.4},{"name":"Tasting Room","phone":"4144318683","address":"616 W Virginia St","lat":43.026608933612906,"lng":-87.9186585571007,"neighborhood":"Walker's Point","city_fetched":"Milwaukee,US","state":"WI","country":"United States","canonicalUrl":"https://foursquare.com/v/tasting-room/4f39ac28e4b09289885201bf","categoryId":"4bf58dd8d48988d11e941735","category":"Cocktail Bar","checkinsCount":815,"usersCount":172,"tipCount":8,"visitsCount":821,"tier":"","message":"","currency":"","rating":8.4},{"name":"This Is It","phone":"4142789192","twitter":"thisisitmke","address":"418 E Wells St","lat":43.04137102477998,"lng":-87.9060423374176,"neighborhood":"Juneau Town","city_fetched":"Milwaukee,US","state":"WI","country":"United States","canonicalUrl":"https://foursquare.com/thisisitmke","categoryId":"4bf58dd8d48988d1d8941735","category":"Gay Bar","checkinsCount":18857,"usersCount":2196,"tipCount":38,"visitsCount":20817,"url":"http://www.thisisitbar.com","tier":1,"message":"Cheap","currency":"$","rating":8.4},{"name":"Wolski's Tavern","phone":"4142768130","address":"1836 N Pulaski St","lat":43.05521070957184,"lng":-87.89669752120972,"neighborhood":"Lower East Side","city_fetched":"Milwaukee,US","state":"WI","country":"United States","canonicalUrl":"https://foursquare.com/v/wolskis-tavern/4ad4f725f964a520010121e3","categoryId":"4bf58dd8d48988d116941735","category":"Bar","checkinsCount":7616,"usersCount":3496,"tipCount":44,"visitsCount":8477,"url":"http://www.wolskis.com","tier":1,"message":"Cheap","currency":"$","rating":8.4},{"name":"Kochanski's Concertina Beer Hall","phone":"4148376552","twitter":"concertinabar","address":"1920 S 37th St","lat":43.0097464,"lng":-87.960299,"neighborhood":"Burnham Park","city_fetched":"Milwaukee,US","state":"WI","country":"United States","canonicalUrl":"https://foursquare.com/v/kochanskis-concertina-beer-hall/4b11f300f964a520618723e3","categoryId":"4bf58dd8d48988d116941735","category":"Bar","checkinsCount":1029,"usersCount":579,"tipCount":14,"visitsCount":1127,"url":"http://www.beer-hall.com","tier":"","message":"","currency":"","rating":8.4},{"name":"Von Trier","phone":"4142721775","twitter":"vontriermke","address":"2235 N Farwell Ave","lat":43.05995206413187,"lng":-87.88580775260925,"neighborhood":"Lower East Side","city_fetched":"Milwaukee,US","state":"WI","country":"United States","canonicalUrl":"https://foursquare.com/v/von-trier/4ada8390f964a5202e2321e3","categoryId":"4bf58dd8d48988d116941735","category":"Bar","checkinsCount":7649,"usersCount":3138,"tipCount":66,"visitsCount":7814,"url":"http://vontriers.com","tier":2,"message":"Moderate","currency":"$","rating":8.4},{"name":"Good City Brewing Company","address":"2108 N Farwell Ave","lat":43.057794,"lng":-87.887421,"neighborhood":"Lower East Side","city_fetched":"Milwaukee,US","state":"WI","country":"United States","canonicalUrl":"https://foursquare.com/v/good-city-brewing-company/5758980e498e1ce7199d1aa1","categoryId":"50327c8591d4c4b30a586d5d","category":"Brewery","checkinsCount":274,"usersCount":235,"tipCount":3,"visitsCount":321,"tier":"","message":"","currency":"","rating":8.4},{"name":"Nomad World Pub","phone":"4142248111","address":"1401 E Brady St","lat":43.052841795396844,"lng":-87.89381143351437,"neighborhood":"Lower East Side","city_fetched":"Milwaukee,US","state":"WI","country":"United States","canonicalUrl":"https://foursquare.com/v/nomad-world-pub/4ada9831f964a520b42321e3","categoryId":"4bf58dd8d48988d116941735","category":"Bar","checkinsCount":19061,"usersCount":4627,"tipCount":70,"visitsCount":19526,"url":"http://nomadworldpub.com","tier":2,"message":"Moderate","currency":"$","rating":8.4},{"name":"Rock Bottom Restaurant & Brewery","phone":"4142763030","twitter":"rockbottommke","address":"740 N Plankinton Ave","lat":43.03997525953855,"lng":-87.911696434021,"neighborhood":"Kilbourn Town","city_fetched":"Milwaukee,US","state":"WI","country":"United States","canonicalUrl":"https://foursquare.com/v/rock-bottom-restaurant--brewery/4ae27553f964a5206e8e21e3","categoryId":"50327c8591d4c4b30a586d5d","category":"Brewery","checkinsCount":16755,"usersCount":9996,"tipCount":104,"visitsCount":18278,"url":"http://www.rockbottom.com/milwaukee","tier":2,"message":"Moderate","currency":"$","rating":8.4},{"name":"Points East Pub","phone":"4142770122","address":"1501 N Jackson St","lat":43.0494576150954,"lng":-87.9048930293783,"neighborhood":"Lower East Side","city_fetched":"Milwaukee,US","state":"WI","country":"United States","canonicalUrl":"https://foursquare.com/v/points-east-pub/4addfd9ff964a5201f6721e3","categoryId":"4bf58dd8d48988d116941735","category":"Bar","checkinsCount":10221,"usersCount":2872,"tipCount":83,"visitsCount":10949,"url":"http://thepointseastpub.com","tier":2,"message":"Moderate","currency":"$","rating":8.3},{"name":"Distil","phone":"4142209411","twitter":"distilmilwaukee","address":"722 N Milwaukee St","lat":43.03928701056123,"lng":-87.90665107626647,"neighborhood":"Juneau Town","city_fetched":"Milwaukee,US","state":"WI","country":"United States","canonicalUrl":"https://foursquare.com/v/distil/4c6315a469a1c9b60e473aa4","categoryId":"4bf58dd8d48988d11e941735","category":"Cocktail Bar","checkinsCount":4806,"usersCount":1931,"tipCount":38,"visitsCount":4824,"url":"http://www.distilmilwaukee.com","tier":2,"message":"Moderate","currency":"$","rating":8.3},{"name":"The Standard Tavern","phone":"4144054656","address":"1754 N Franklin Pl","lat":43.054260887798314,"lng":-87.89672463062927,"neighborhood":"Lower East Side","city_fetched":"Milwaukee,US","state":"WI","country":"United States","canonicalUrl":"https://foursquare.com/v/the-standard-tavern/4e2f4178d4c058fdbef22811","categoryId":"4bf58dd8d48988d116941735","category":"Bar","checkinsCount":4828,"usersCount":1125,"tipCount":28,"visitsCount":5369,"tier":1,"message":"Cheap","currency":"$","rating":8.3},{"name":"Kam's Corner Tap","phone":"4148714680","address":"8340 W Lisbon Ave","lat":43.08141556339189,"lng":-88.0170058173489,"city_fetched":"Milwaukee,US","state":"WI","country":"United States","canonicalUrl":"https://foursquare.com/v/kams-corner-tap/4cc2721db2beb1f7c84b104c","categoryId":"4bf58dd8d48988d116941735","category":"Bar","checkinsCount":756,"usersCount":248,"tipCount":12,"visitsCount":991,"tier":"","message":"","currency":"","rating":8.3},{"name":"Miller Beer Garden","lat":43.04227035076284,"lng":-87.96290079211678,"neighborhood":"Miller Valley","city_fetched":"Milwaukee,US","state":"WI","country":"United States","canonicalUrl":"https://foursquare.com/v/miller-beer-garden/4c66fcd6f7a80f47a4ba9f7a","categoryId":"4bf58dd8d48988d117941735","category":"Beer Garden","checkinsCount":594,"usersCount":508,"tipCount":3,"visitsCount":602,"tier":"","message":"","currency":"","rating":8.3},{"name":"Highbury","phone":"4142944400","address":"2320 S Kinnickinnic Ave","lat":43.00253259966708,"lng":-87.90384829044342,"neighborhood":"Bay View","city_fetched":"Milwaukee,US","state":"WI","country":"United States","canonicalUrl":"https://foursquare.com/v/highbury/4ad61c0df964a520230521e3","categoryId":"4bf58dd8d48988d116941735","category":"Bar","checkinsCount":6823,"usersCount":1728,"tipCount":36,"visitsCount":7049,"url":"http://thehighbury.com","tier":2,"message":"Moderate","currency":"$","rating":8.3},{"name":"Harp and Shamrock","address":"2106 W Wells","lat":43.04026448,"lng":-87.939649,"neighborhood":"Avenues West","city_fetched":"Milwaukee,US","state":"WI","country":"United States","canonicalUrl":"https://foursquare.com/v/harp-and-shamrock/4b5f7b45f964a520f0bc29e3","categoryId":"4bf58dd8d48988d118941735","category":"Dive Bar","checkinsCount":2947,"usersCount":571,"tipCount":11,"visitsCount":3143,"tier":1,"message":"Cheap","currency":"$","rating":8.3},{"name":"Hooligan's Super Bar","phone":"4142735230","address":"2017 E North Ave","lat":43.05997656073133,"lng":-87.88495346903801,"neighborhood":"Lower East Side","city_fetched":"Milwaukee,US","state":"WI","country":"United States","canonicalUrl":"https://foursquare.com/v/hooligans-super-bar/4ad5eeb2f964a520050421e3","categoryId":"4bf58dd8d48988d116941735","category":"Bar","checkinsCount":12170,"usersCount":4232,"tipCount":56,"visitsCount":12356,"url":"http://hooliganssuperbar.com","tier":1,"message":"Cheap","currency":"$","rating":8.2},{"name":"Stubby's Gastropub & Beer Bar","phone":"4147636324","twitter":"stubbysmke","address":"2060 N Humboldt Blvd","lat":43.05791391277381,"lng":-87.89886474609375,"neighborhood":"Riverwest","city_fetched":"Milwaukee,US","state":"WI","country":"United States","canonicalUrl":"https://foursquare.com/v/stubbys-gastropub--beer-bar/4c574ace2308be9ad9dd586c","categoryId":"4bf58dd8d48988d11b941735","category":"Pub","checkinsCount":14086,"usersCount":4627,"tipCount":71,"visitsCount":14581,"url":"http://stubbyspubandgrub.com","tier":2,"message":"Moderate","currency":"$","rating":8.2},{"name":"Shi Chai","phone":"4147554455","address":"832 E Center St","lat":43.06761025,"lng":-87.90051095,"neighborhood":"Riverwest","city_fetched":"Milwaukee,US","state":"WI","country":"United States","canonicalUrl":"https://foursquare.com/v/shi-chai/4b3d809af964a520f69425e3","categoryId":"4bf58dd8d48988d119941735","category":"Hookah Bar","checkinsCount":2270,"usersCount":839,"tipCount":25,"visitsCount":2407,"url":"http://shichai.weebly.com","tier":1,"message":"Cheap","currency":"$","rating":8.2},{"name":"The Knick","phone":"4142720011","address":"1030 E Juneau Ave","lat":43.04566495,"lng":-87.898696,"neighborhood":"Yankee Hill","city_fetched":"Milwaukee,US","state":"WI","country":"United States","canonicalUrl":"https://foursquare.com/v/the-knick/4ad7d2eff964a520180f21e3","categoryId":"4bf58dd8d48988d1d5941735","category":"Hotel Bar","checkinsCount":4958,"usersCount":2735,"tipCount":44,"visitsCount":5841,"url":"http://www.theknickrestaurant.com","tier":2,"message":"Moderate","currency":"$","rating":8.2},{"name":"Bradford Beach Tiki Bar","address":"2400 N Lincoln Memorial Dr","lat":43.06094348433453,"lng":-87.87456903484907,"neighborhood":"Lake Park","city_fetched":"Milwaukee,US","state":"WI","country":"United States","canonicalUrl":"https://foursquare.com/v/bradford-beach-tiki-bar/4c5b1421b05c1b8de6d6d9b1","categoryId":"4bf58dd8d48988d116941735","category":"Bar","checkinsCount":1200,"usersCount":624,"tipCount":5,"visitsCount":1204,"tier":"","message":"","currency":"","rating":8.2},{"name":"The Bottle","phone":"4143895337","address":"1753 S Kinnickinnic Ave","lat":43.011192718785445,"lng":-87.91003284688395,"city_fetched":"Milwaukee,US","state":"WI","country":"United States","canonicalUrl":"https://foursquare.com/v/the-bottle/4ad7dbbef964a5208e0f21e3","categoryId":"4bf58dd8d48988d116941735","category":"Bar","checkinsCount":9349,"usersCount":1305,"tipCount":14,"visitsCount":10421,"tier":1,"message":"Cheap","currency":"$","rating":8.2},{"name":"Milwaukee Nights Pub","phone":"4149884130","address":"3830 S 39th St.","lat":43.02150371363706,"lng":-87.96227884261253,"neighborhood":"Silver City","city_fetched":"Milwaukee,US","state":"WI","country":"United States","canonicalUrl":"https://foursquare.com/v/milwaukee-nights-pub/4d8a95c4401a224b99cea518","categoryId":"4bf58dd8d48988d116941735","category":"Bar","checkinsCount":6572,"usersCount":437,"tipCount":13,"visitsCount":7010,"tier":1,"message":"Cheap","currency":"$","rating":8.1},{"name":"The Stone","phone":"4144319768","twitter":"stonebarbayview","address":"2422 S Howell Ave","lat":43.000515587218246,"lng":-87.90477805932835,"neighborhood":"Bay View","city_fetched":"Milwaukee,US","state":"WI","country":"United States","canonicalUrl":"https://foursquare.com/v/the-stone/4ad818b2f964a520ba1021e3","categoryId":"4bf58dd8d48988d116941735","category":"Bar","checkinsCount":3046,"usersCount":834,"tipCount":15,"visitsCount":3683,"tier":1,"message":"Cheap","currency":"$","rating":8.1},{"name":"Boone & Crockett","phone":"4147634935","twitter":"boonemilwaukee","address":"2151 W Kinnickinnic Ave","lat":43.005407023520945,"lng":-87.90655527167598,"neighborhood":"Bay View","city_fetched":"Milwaukee,US","state":"WI","country":"United States","canonicalUrl":"https://foursquare.com/v/boone--crockett/4fc03cebe4b0b469de5b12de","categoryId":"4bf58dd8d48988d116941735","category":"Bar","checkinsCount":2444,"usersCount":1250,"tipCount":22,"visitsCount":2647,"url":"http://booneandcrockettmke.com","tier":2,"message":"Moderate","currency":"$","rating":8.1},{"name":"Fred's Fast Track","phone":"4145463628","address":"2626 S 68th St","lat":42.996823026631034,"lng":-87.99743405591295,"neighborhood":"Fairview","city_fetched":"Milwaukee,US","state":"WI","country":"United States","canonicalUrl":"https://foursquare.com/v/freds-fast-track/4bf0746bf45ec92897dc933c","categoryId":"4bf58dd8d48988d116941735","category":"Bar","checkinsCount":1415,"usersCount":114,"tipCount":2,"visitsCount":1480,"tier":"","message":"","currency":"","rating":8.1},{"name":"Bar 360","phone":"4148477400","twitter":"paysbig","address":"1721 W Canal St","lat":43.02998608563394,"lng":-87.93370765666943,"neighborhood":"Menomonee River Valley","city_fetched":"Milwaukee,US","state":"WI","country":"United States","canonicalUrl":"https://foursquare.com/v/bar-360/4b9d990ef964a520afb536e3","categoryId":"4bf58dd8d48988d116941735","category":"Bar","checkinsCount":1490,"usersCount":583,"tipCount":3,"visitsCount":1494,"url":"http://paysbig.com/bar360","tier":"","message":"","currency":"","rating":8.1},{"name":"Jamo's","address":"1800 N Arlington Pl","lat":43.05448079045024,"lng":-87.89480328341325,"neighborhood":"Lower East Side","city_fetched":"Milwaukee,US","state":"WI","country":"United States","canonicalUrl":"https://foursquare.com/v/jamos/4b2ef913f964a520d9e824e3","categoryId":"4bf58dd8d48988d116941735","category":"Bar","checkinsCount":2936,"usersCount":855,"tipCount":12,"visitsCount":3290,"tier":2,"message":"Moderate","currency":"$","rating":8.1},{"name":"Aliota's Pub & Grill","phone":"4148101656","address":"261 E Hampton Rd","lat":43.10377306534019,"lng":-87.90786298662637,"city_fetched":"Milwaukee,US","state":"WI","country":"United States","canonicalUrl":"https://foursquare.com/v/aliotas-pub--grill/50454fa3e4b08098dabd4cb5","categoryId":"4bf58dd8d48988d11b941735","category":"Pub","checkinsCount":1543,"usersCount":365,"tipCount":13,"visitsCount":1657,"url":"http://www.aliotaspub.com","tier":1,"message":"Cheap","currency":"$","rating":8.1},{"name":"Boscos Social Club","phone":"2625493910","twitter":"boscosbar","address":"260 W Main St","lat":43.012082,"lng":-88.230794,"city_fetched":"Milwaukee,US","state":"WI","country":"United States","canonicalUrl":"https://foursquare.com/v/boscos-social-club/4b51427cf964a520034927e3","categoryId":"4bf58dd8d48988d121941735","category":"Lounge","checkinsCount":4201,"usersCount":1269,"tipCount":14,"visitsCount":4815,"url":"http://www.boscosbar.com","tier":2,"message":"Moderate","currency":"$","rating":8.1},{"name":"D.I.X.","phone":"4142319085","address":"739 S 1st St","lat":43.02329378281383,"lng":-87.91142667510714,"city_fetched":"Milwaukee,US","state":"WI","country":"United States","canonicalUrl":"https://foursquare.com/v/dix/4c09dbd37e3fc928c3cbf282","categoryId":"4bf58dd8d48988d1d8941735","category":"Gay Bar","checkinsCount":10981,"usersCount":1569,"tipCount":21,"visitsCount":11949,"tier":1,"message":"Cheap","currency":"$","rating":8.1},{"name":"McKiernan's","lat":43.00699471248236,"lng":-87.96025505452894,"neighborhood":"Burnham Park","city_fetched":"Milwaukee,US","state":"WI","country":"United States","canonicalUrl":"https://foursquare.com/v/mckiernans/4b91af60f964a520cecf33e3","categoryId":"4bf58dd8d48988d116941735","category":"Bar","checkinsCount":1065,"usersCount":143,"tipCount":15,"visitsCount":1185,"tier":"","message":"","currency":"","rating":8.1},{"name":"Studio 200","address":"200 E Washington St","lat":43.02035113221147,"lng":-87.9096400764485,"city_fetched":"Milwaukee,US","state":"WI","country":"United States","canonicalUrl":"https://foursquare.com/v/studio-200/4be332b8cbdbef3bc18c60d8","categoryId":"4bf58dd8d48988d116941735","category":"Bar","checkinsCount":2098,"usersCount":506,"tipCount":16,"visitsCount":2335,"tier":2,"message":"Moderate","currency":"$","rating":8},{"name":"Hi Hat Lounge","phone":"4142208090","twitter":"hihatloungemke","address":"1701 N Arlington Pl","lat":43.05301979462193,"lng":-87.89518798618965,"neighborhood":"Lower East Side","city_fetched":"Milwaukee,US","state":"WI","country":"United States","canonicalUrl":"https://foursquare.com/v/hi-hat-lounge/4ad5f421f964a520290421e3","categoryId":"4bf58dd8d48988d121941735","category":"Lounge","checkinsCount":4883,"usersCount":2271,"tipCount":20,"visitsCount":4893,"url":"http://hihatlounge.com","tier":"","message":"","currency":"","rating":8},{"name":"Ãœber Tap Room and Cheese Bar","phone":"4147552424","twitter":"ubertaproom","address":"215 W Highland Ave","lat":43.044242,"lng":-87.914232,"neighborhood":"Kilbourn Town","city_fetched":"Milwaukee,US","state":"WI","country":"United States","canonicalUrl":"https://foursquare.com/v/%C3%BCber-tap-room-and-cheese-bar/50ce3504e4b0e6c84838f7d0","categoryId":"4bf58dd8d48988d11b941735","category":"Pub","checkinsCount":1808,"usersCount":1114,"tipCount":17,"visitsCount":1888,"url":"http://ubertaproom.com","tier":1,"message":"Cheap","currency":"$","rating":8},{"name":"The Palm Tavern","phone":"4147440393","address":"2989 S Kinnickinnic Ave","lat":42.990432,"lng":-87.885402,"neighborhood":"Bay View","city_fetched":"Milwaukee,US","state":"WI","country":"United States","canonicalUrl":"https://foursquare.com/v/the-palm-tavern/4ad7dce7f964a520a20f21e3","categoryId":"4bf58dd8d48988d116941735","category":"Bar","checkinsCount":2201,"usersCount":900,"tipCount":19,"visitsCount":2267,"tier":2,"message":"Moderate","currency":"$","rating":8},{"name":"Hybrid Lounge","phone":"4148101809","address":"707 E Brady St","lat":43.05282289217237,"lng":-87.90324030651672,"neighborhood":"Lower East Side","city_fetched":"Milwaukee,US","state":"WI","country":"United States","canonicalUrl":"https://foursquare.com/v/hybrid-lounge/4b971734f964a52081f734e3","categoryId":"4bf58dd8d48988d116941735","category":"Bar","checkinsCount":14897,"usersCount":2233,"tipCount":41,"visitsCount":16442,"url":"http://www.hybridlounge.net","tier":2,"message":"Moderate","currency":"$","rating":8},{"name":"Tracks","phone":"4145622020","address":"1020 E Locust St","lat":43.071251968291726,"lng":-87.89811887337619,"neighborhood":"Riverwest","city_fetched":"Milwaukee,US","state":"WI","country":"United States","canonicalUrl":"https://foursquare.com/v/tracks/4ad5fb1cf964a5204d0421e3","categoryId":"4bf58dd8d48988d116941735","category":"Bar","checkinsCount":9610,"usersCount":1835,"tipCount":29,"visitsCount":10825,"url":"http://www.trackstavernmilwaukee.com","tier":1,"message":"Cheap","currency":"$","rating":8},{"name":"Mortimer's Pub","phone":"4144756664","address":"7023 W Adler St","lat":43.02843153476715,"lng":-88.00061166286469,"neighborhood":"Fair Park","city_fetched":"Milwaukee,US","state":"WI","country":"United States","canonicalUrl":"https://foursquare.com/v/mortimers-pub/4c05a27791d776b09ebef7f9","categoryId":"4bf58dd8d48988d116941735","category":"Bar","checkinsCount":623,"usersCount":223,"tipCount":2,"visitsCount":713,"tier":"","message":"","currency":"","rating":8},{"name":"Blackbird Bar","phone":"4144861344","address":"3007 S Kinnickinnic Ave","lat":42.99007772,"lng":-87.88495605,"neighborhood":"Bay View","city_fetched":"Milwaukee,US","state":"WI","country":"United States","canonicalUrl":"https://foursquare.com/v/blackbird-bar/4ad61b50f964a5201f0521e3","categoryId":"4bf58dd8d48988d116941735","category":"Bar","checkinsCount":6482,"usersCount":1700,"tipCount":41,"visitsCount":6830,"tier":2,"message":"Moderate","currency":"$","rating":8},{"name":"Brooklyn's Adult Night Club","phone":"4145451550","address":"9440 W National Ave","lat":43.00297279679826,"lng":-88.03061254377202,"city_fetched":"Milwaukee,US","state":"WI","country":"United States","canonicalUrl":"https://foursquare.com/v/brooklyns-adult-night-club/5079bf7ce0e2e26c2858c472","categoryId":"4bf58dd8d48988d1d6941735","category":"Strip Club","checkinsCount":823,"usersCount":308,"tipCount":2,"visitsCount":922,"tier":"","message":"","currency":"","rating":8},{"name":"Y-Not II","phone":"4143479972","address":"706 E Lyon St","lat":43.04957246438,"lng":-87.90294170379639,"neighborhood":"Lower East Side","city_fetched":"Milwaukee,US","state":"WI","country":"United States","canonicalUrl":"https://foursquare.com/v/ynot-ii/4ad60701f964a5209c0421e3","categoryId":"4bf58dd8d48988d118941735","category":"Dive Bar","checkinsCount":10856,"usersCount":1598,"tipCount":29,"visitsCount":11672,"tier":1,"message":"Cheap","currency":"$","rating":8},{"name":"JYNX NightClub","phone":"4146716666","twitter":"jynxmke","address":"715 S 5th St","lat":43.023860392754614,"lng":-87.9171979069871,"neighborhood":"Walker's Point","city_fetched":"Milwaukee,US","state":"WI","country":"United States","canonicalUrl":"https://foursquare.com/v/jynx-nightclub/52b168f311d20db5a44006ac","categoryId":"4bf58dd8d48988d11f941735","category":"Nightclub","checkinsCount":333,"usersCount":94,"tipCount":1,"visitsCount":383,"tier":"","message":"","currency":"","rating":8},{"name":"Drink Wisconsibly","address":"135 E National Ave","lat":43.023150476778504,"lng":-87.91010469476123,"city_fetched":"Milwaukee,US","state":"WI","country":"United States","canonicalUrl":"https://foursquare.com/v/drink-wisconsibly/56b559eb498ebb14f6c8eff4","categoryId":"4bf58dd8d48988d116941735","category":"Bar","checkinsCount":355,"usersCount":290,"tipCount":9,"visitsCount":424,"tier":"","message":"","currency":"","rating":8},{"name":"Studz Pub Sports Bar & Grill","phone":"4146078839","address":"6833 W National Ave","lat":43.01331566654756,"lng":-87.99894466257365,"city_fetched":"Milwaukee,US","state":"WI","country":"United States","canonicalUrl":"https://foursquare.com/v/studz-pub-sports-bar--grill/4c22dc9113c00f473e4388de","categoryId":"4bf58dd8d48988d11b941735","category":"Pub","checkinsCount":2516,"usersCount":466,"tipCount":12,"visitsCount":2802,"tier":"","message":"","currency":"","rating":7.9},{"name":"Steny's Tavern","phone":"4146727139","twitter":"stenystavern","address":"800 S 2nd St","lat":43.02323006790175,"lng":-87.91241813472705,"neighborhood":"Walker's Point","city_fetched":"Milwaukee,US","state":"WI","country":"United States","canonicalUrl":"https://foursquare.com/v/stenys-tavern/4ad7db15f964a520840f21e3","categoryId":"4bf58dd8d48988d11d941735","category":"Sports Bar","checkinsCount":14325,"usersCount":4989,"tipCount":69,"visitsCount":15273,"url":"http://www.stenystavern.com","tier":2,"message":"Moderate","currency":"$","rating":7.9},{"name":"Beso","phone":"4145022300","twitter":"besobarmke","address":"1537 S Cesar E Chavez Dr","lat":43.01528,"lng":-87.93312191963196,"neighborhood":"Historic Mitchell Street","city_fetched":"Milwaukee,US","state":"WI","country":"United States","canonicalUrl":"https://foursquare.com/besobarmke","categoryId":"4bf58dd8d48988d11e941735","category":"Cocktail Bar","checkinsCount":364,"usersCount":75,"tipCount":4,"visitsCount":364,"tier":"","message":"","currency":"","rating":7.9},{"name":"The Outsider","phone":"4142913980","address":"310 E Chicago St #9","lat":43.03302380525726,"lng":-87.90685705544145,"neighborhood":"Historic Third Ward","city_fetched":"Milwaukee,US","state":"WI","country":"United States","canonicalUrl":"https://foursquare.com/v/the-outsider/5775b5c6498e03e6521ef64c","categoryId":"4bf58dd8d48988d121941735","category":"Lounge","checkinsCount":174,"usersCount":155,"tipCount":1,"visitsCount":191,"url":"http://www.outsiderrooftop.com","tier":"","message":"","currency":"","rating":7.9},{"name":"Waterford Wine Company","phone":"4142899463","address":"1327 E Brady St","lat":43.05287657338181,"lng":-87.89457329118994,"neighborhood":"Lower East Side","city_fetched":"Milwaukee,US","state":"WI","country":"United States","canonicalUrl":"https://foursquare.com/v/waterford-wine-company/4ba2cd98f964a5207b1a38e3","categoryId":"4bf58dd8d48988d123941735","category":"Wine Bar","checkinsCount":577,"usersCount":210,"tipCount":2,"visitsCount":583,"url":"http://www.waterfordwine.com","tier":"","message":"","currency":"","rating":7.9},{"name":"Black Husky Brewery","phone":"4145098855","address":"909 E Locust St","lat":43.07098,"lng":-87.90015,"neighborhood":"Riverwest","city_fetched":"Milwaukee,US","state":"WI","country":"United States","canonicalUrl":"https://foursquare.com/v/black-husky-brewery/579bf73e498e9a4d66346816","categoryId":"50327c8591d4c4b30a586d5d","category":"Brewery","checkinsCount":92,"usersCount":71,"tipCount":3,"visitsCount":100,"url":"http://www.blackhuskybrewing.com","tier":"","message":"","currency":"","rating":7.9},{"name":"Who's On Third","phone":"4148978373","twitter":"whosonthirdmke","address":"1007 N Old World 3rd St.","lat":43.043131724964006,"lng":-87.9146739826907,"neighborhood":"Kilbourn Town","city_fetched":"Milwaukee,US","state":"WI","country":"United States","canonicalUrl":"https://foursquare.com/v/whos-on-third/5323b09f498e4537ebcae156","categoryId":"4bf58dd8d48988d116941735","category":"Bar","checkinsCount":2154,"usersCount":959,"tipCount":16,"visitsCount":2298,"url":"http://www.whosonthirdmke.com","tier":2,"message":"Moderate","currency":"$","rating":7.9},{"name":"The Irish Pub","phone":"4142259400","twitter":"irishpubmke124","address":"124 N Water St","lat":43.03191373257804,"lng":-87.90918982317034,"neighborhood":"Historic Third Ward","city_fetched":"Milwaukee,US","state":"WI","country":"United States","canonicalUrl":"https://foursquare.com/irishpubmke124","categoryId":"4bf58dd8d48988d11b941735","category":"Pub","checkinsCount":11194,"usersCount":4517,"tipCount":54,"visitsCount":12540,"url":"http://theirishpub.us","tier":2,"message":"Moderate","currency":"$","rating":7.9},{"name":"The Bubbler","phone":"4144824941","address":"3158 S Howell Ave","lat":42.987023050000005,"lng":-87.90462946666666,"neighborhood":"Bay View","city_fetched":"Milwaukee,US","state":"WI","country":"United States","canonicalUrl":"https://foursquare.com/v/the-bubbler/4b6cc5dff964a52063532ce3","categoryId":"4bf58dd8d48988d116941735","category":"Bar","checkinsCount":7348,"usersCount":1046,"tipCount":19,"visitsCount":8461,"tier":2,"message":"Moderate","currency":"$","rating":7.9},{"name":"Black Sheep MKE","phone":"4142230903","twitter":"blacksheepmke","address":"216 S 2nd St","lat":43.02889125230057,"lng":-87.91252829555042,"neighborhood":"Walker's Point","city_fetched":"Milwaukee,US","state":"WI","country":"United States","canonicalUrl":"https://foursquare.com/v/black-sheep-mke/51eedc6750192ffd6fbd3ab7","categoryId":"4bf58dd8d48988d123941735","category":"Wine Bar","checkinsCount":2322,"usersCount":1339,"tipCount":23,"visitsCount":2648,"url":"http://www.blacksheepmke.com","tier":2,"message":"Moderate","currency":"$","rating":7.9},{"name":"Knight's Bar","phone":"4142713377","address":"1037 N Old World 3rd St","lat":43.04390863623071,"lng":-87.91448719705284,"neighborhood":"Kilbourn Town","city_fetched":"Milwaukee,US","state":"WI","country":"United States","canonicalUrl":"https://foursquare.com/v/knights-bar/4b3f9827f964a520e6a925e3","categoryId":"4bf58dd8d48988d116941735","category":"Bar","checkinsCount":260,"usersCount":206,"tipCount":6,"visitsCount":261,"url":"http://www.madersrestaurant.com/knights-bar.html","tier":"","message":"","currency":"","rating":7.9},{"name":"Red Dot","phone":"4149645720","address":"2498 N Bartlett Ave","lat":43.06364800039784,"lng":-87.88909614086151,"neighborhood":"Riverside Park","city_fetched":"Milwaukee,US","state":"WI","country":"United States","canonicalUrl":"https://foursquare.com/v/red-dot/4ad80914f964a520991021e3","categoryId":"4bf58dd8d48988d11e941735","category":"Cocktail Bar","checkinsCount":8273,"usersCount":2135,"tipCount":50,"visitsCount":9043,"url":"http://www.reddotmke.com","tier":2,"message":"Moderate","currency":"$","rating":7.8},{"name":"Red Rock Saloon","phone":"4144310467","address":"1227 N Water St","lat":43.04629496363996,"lng":-87.91114887088558,"neighborhood":"Juneau Town","city_fetched":"Milwaukee,US","state":"WI","country":"United States","canonicalUrl":"https://foursquare.com/v/red-rock-saloon/4c534307fd2ea593d67a2528","categoryId":"4bf58dd8d48988d116941735","category":"Bar","checkinsCount":19278,"usersCount":7145,"tipCount":68,"visitsCount":20105,"url":"http://www.redrockmilwaukee.com","tier":2,"message":"Moderate","currency":"$","rating":7.8},{"name":"Bugsy's Back Alley Saloon","phone":"4142216564","twitter":"bugsysbackalley","address":"218 N Water St","lat":43.03292567614625,"lng":-87.90887368518207,"neighborhood":"Historic Third Ward","city_fetched":"Milwaukee,US","state":"WI","country":"United States","canonicalUrl":"https://foursquare.com/v/bugsys-back-alley-saloon/52574b5e11d268b93d74b5f5","categoryId":"4bf58dd8d48988d1d4941735","category":"Speakeasy","checkinsCount":1158,"usersCount":722,"tipCount":13,"visitsCount":1242,"url":"http://www.bugsysbackalleysaloon.com","tier":3,"message":"Expensive","currency":"$","rating":7.8},{"name":"Camp Bar","phone":"4149625182","twitter":"campbarmke","address":"4044 N Oakland Ave","lat":43.0903925427048,"lng":-87.88740940052594,"city_fetched":"Milwaukee,US","state":"WI","country":"United States","canonicalUrl":"https://foursquare.com/v/camp-bar/5029bab4e4b07d6743c285e4","categoryId":"4bf58dd8d48988d116941735","category":"Bar","checkinsCount":3987,"usersCount":1818,"tipCount":40,"visitsCount":4685,"url":"http://www.campbarmke.com","tier":2,"message":"Moderate","currency":"$","rating":7.8},{"name":"The Pub Club","phone":"4149885000","address":"1103 N Old World 3rd St","lat":43.04443004848378,"lng":-87.91452072273759,"neighborhood":"Kilbourn Town","city_fetched":"Milwaukee,US","state":"WI","country":"United States","canonicalUrl":"https://foursquare.com/v/the-pub-club/54aec525498e7b9d45d919fe","categoryId":"4bf58dd8d48988d11b941735","category":"Pub","checkinsCount":717,"usersCount":527,"tipCount":5,"visitsCount":900,"url":"http://mke.thepubclubmilwaukee.com","tier":"","message":"","currency":"","rating":7.8},{"name":"Camp Bar Third Ward","phone":"4149309282","twitter":"campbarmke","address":"525 E Menomonee St","lat":43.03166028124726,"lng":-87.90363313313185,"neighborhood":"Historic Third Ward","city_fetched":"Milwaukee,US","state":"WI","country":"United States","canonicalUrl":"https://foursquare.com/v/camp-bar-third-ward/56c4b91fcd104b041f3b2109","categoryId":"4bf58dd8d48988d116941735","category":"Bar","checkinsCount":467,"usersCount":485,"tipCount":5,"visitsCount":817,"url":"http://www.campbarmke.com/#!milwaukee/wqwe4","tier":"","message":"","currency":"","rating":7.8},{"name":"The Historic White House Tavern","phone":"4144832900","address":"2900 S Kinnickinnic Ave","lat":42.992204964292114,"lng":-87.887208124178,"neighborhood":"Bay View","city_fetched":"Milwaukee,US","state":"WI","country":"United States","canonicalUrl":"https://foursquare.com/v/the-historic-white-house-tavern/4ad61af5f964a520190521e3","categoryId":"4bf58dd8d48988d116941735","category":"Bar","checkinsCount":2810,"usersCount":697,"tipCount":24,"visitsCount":3108,"tier":"","message":"","currency":"","rating":7.8},{"name":"The Brass Alley","address":"1023 N Old World 3rd St","lat":43.04361,"lng":-87.914749,"neighborhood":"Kilbourn Town","city_fetched":"Milwaukee,US","state":"WI","country":"United States","canonicalUrl":"https://foursquare.com/v/the-brass-alley/56070ae1498e21a5e9acaeb2","categoryId":"4bf58dd8d48988d116941735","category":"Bar","checkinsCount":496,"usersCount":369,"tipCount":1,"visitsCount":600,"tier":"","message":"","currency":"","rating":7.8},{"name":"Miller Inn","address":"4251 W State St","lat":43.04224,"lng":-87.962961,"neighborhood":"Miller Valley","city_fetched":"Milwaukee,US","state":"WI","country":"United States","canonicalUrl":"https://foursquare.com/v/miller-inn/4afda874f964a520962922e3","categoryId":"4bf58dd8d48988d116941735","category":"Bar","checkinsCount":1183,"usersCount":971,"tipCount":9,"visitsCount":1211,"tier":"","message":"","currency":"","rating":7.8},{"name":"Gene's Lane & Lounge","phone":"4143933357","address":"6315 W Fond du Lac Ave","lat":43.10082312554582,"lng":-87.99068828381007,"city_fetched":"Milwaukee,US","state":"WI","country":"United States","canonicalUrl":"https://foursquare.com/v/genes-lane--lounge/4c50f6b49426c9288574ee72","categoryId":"4bf58dd8d48988d116941735","category":"Bar","checkinsCount":1266,"usersCount":425,"tipCount":11,"visitsCount":1392,"tier":"","message":"","currency":"","rating":7.8},{"name":"Coach's Pub 'N' Grill","phone":"4142818175","address":"5356 S 13th St","lat":42.94725515826873,"lng":-87.92943715789627,"city_fetched":"Milwaukee,US","state":"WI","country":"United States","canonicalUrl":"https://foursquare.com/v/coachs-pub-n-grill/4bc091cfb492d13aa968a460","categoryId":"4bf58dd8d48988d11d941735","category":"Sports Bar","checkinsCount":2174,"usersCount":855,"tipCount":15,"visitsCount":2761,"url":"http://www.coachspubngrill.com","tier":2,"message":"Moderate","currency":"$","rating":7.8},{"name":"Company Brewing","address":"735 E Center St","lat":43.06741573500403,"lng":-87.90173124538526,"neighborhood":"Riverwest","city_fetched":"Milwaukee,US","state":"WI","country":"United States","canonicalUrl":"https://foursquare.com/v/company-brewing/551ef253498e71559f8ab8bb","categoryId":"50327c8591d4c4b30a586d5d","category":"Brewery","checkinsCount":481,"usersCount":468,"tipCount":10,"visitsCount":804,"url":"http://companybrewing.com","tier":"","message":"","currency":"","rating":7.8},{"name":"George's Pub","phone":"4143833909","address":"224 E Washington St","lat":43.02026311666667,"lng":-87.909018,"city_fetched":"Milwaukee,US","state":"WI","country":"United States","canonicalUrl":"https://foursquare.com/v/georges-pub/4ad7db82f964a5208c0f21e3","categoryId":"4bf58dd8d48988d11b941735","category":"Pub","checkinsCount":671,"usersCount":554,"tipCount":8,"visitsCount":716,"tier":"","message":"","currency":"","rating":7.8},{"name":"Frederick J. Miller's Pub","address":"W Highland Blvd","lat":43.04381709150276,"lng":-87.96254676038645,"neighborhood":"Miller Valley","city_fetched":"Milwaukee,US","state":"Wisconsin","country":"United States","canonicalUrl":"https://foursquare.com/v/frederick-j-millers-pub/4e7126eab0fbba9aaee69e66","categoryId":"4bf58dd8d48988d116941735","category":"Bar","checkinsCount":598,"usersCount":212,"tipCount":1,"visitsCount":634,"tier":"","message":"","currency":"","rating":7.8},{"name":"Romans' Pub","phone":"4144813396","address":"3475 S Kinnickinnic Ave","lat":42.981149,"lng":-87.880067,"neighborhood":"Fernwood","city_fetched":"Milwaukee,US","state":"WI","country":"United States","canonicalUrl":"https://foursquare.com/v/romans-pub/4ad7dd74f964a520a90f21e3","categoryId":"4bf58dd8d48988d11b941735","category":"Pub","checkinsCount":2074,"usersCount":649,"tipCount":16,"visitsCount":2267,"url":"http://www.romanspub.com","tier":2,"message":"Moderate","currency":"$","rating":7.8},{"name":"Envoy","phone":"4143455000","twitter":"ambassadormke","address":"2308 W Wisconsin Ave","lat":43.038865833078866,"lng":-87.94192673842466,"neighborhood":"Avenues West","city_fetched":"Milwaukee,US","state":"WI","country":"United States","canonicalUrl":"https://foursquare.com/v/envoy/4b93ebd9f964a520f25934e3","categoryId":"4bf58dd8d48988d1d5941735","category":"Hotel Bar","checkinsCount":1421,"usersCount":727,"tipCount":18,"visitsCount":1433,"url":"http://www.envoymilwaukee.com","tier":"","message":"","currency":"","rating":7.7},{"name":"Silk Exotic","phone":"4144627455","address":"11400 W Silver Spring Rd","lat":43.11962416157864,"lng":-88.05460453033447,"neighborhood":"Timmerman West","city_fetched":"Milwaukee,US","state":"WI","country":"United States","canonicalUrl":"https://foursquare.com/v/silk-exotic/4d7ece07b25d6dcb8659c142","categoryId":"4bf58dd8d48988d1d6941735","category":"Strip Club","checkinsCount":4531,"usersCount":1651,"tipCount":21,"visitsCount":4860,"tier":"","message":"","currency":"","rating":7.7},{"name":"Klinger's East","phone":"4142632424","address":"920 E Locust St","lat":43.071255683898926,"lng":-87.89978071,"neighborhood":"Riverwest","city_fetched":"Milwaukee,US","state":"WI","country":"United States","canonicalUrl":"https://foursquare.com/v/klingers-east/4ad5f3ccf964a520280421e3","categoryId":"4bf58dd8d48988d116941735","category":"Bar","checkinsCount":776,"usersCount":360,"tipCount":7,"visitsCount":926,"tier":"","message":"","currency":"","rating":7.7},{"name":"Total Game Sports Bar","address":"1806 N Dr Martin Luther King Dr","lat":43.05528057536926,"lng":-87.91303120021034,"neighborhood":"Brewer's Hill","city_fetched":"Milwaukee,US","state":"WI","country":"United States","canonicalUrl":"https://foursquare.com/v/total-game-sports-bar/4e6ae351b993d5439f83485f","categoryId":"4bf58dd8d48988d116941735","category":"Bar","checkinsCount":875,"usersCount":218,"tipCount":5,"visitsCount":1158,"tier":1,"message":"Cheap","currency":"$","rating":7.7},{"name":"Glory Daaze II Bar& Grille","phone":"4144445101","address":"4200 W Burleigh St","lat":43.07548249078884,"lng":-87.96578078355464,"neighborhood":"Sherman Park","city_fetched":"Milwaukee,US","state":"WI","country":"United States","canonicalUrl":"https://foursquare.com/v/glory-daaze-ii-bar-grille/4bf1a8ce3fa220a1698f1820","categoryId":"4bf58dd8d48988d116941735","category":"Bar","checkinsCount":723,"usersCount":157,"tipCount":5,"visitsCount":852,"tier":"","message":"","currency":"","rating":7.7},{"name":"Brew City Tap","address":"3105 W Forest Home Ave","lat":42.997499172529714,"lng":-87.95320217651799,"city_fetched":"Milwaukee,US","state":"WI","country":"United States","canonicalUrl":"https://foursquare.com/v/brew-city-tap/4cc5ed54b2beb1f75786254c","categoryId":"4bf58dd8d48988d116941735","category":"Bar","checkinsCount":1053,"usersCount":232,"tipCount":8,"visitsCount":1203,"tier":"","message":"","currency":"","rating":7.7},{"name":"Urban Harvest Brewing Company","address":"1024 South 5th St.","lat":43.02047827598192,"lng":-87.91667461395262,"neighborhood":"Walker's Point","city_fetched":"Milwaukee,US","state":"WI","country":"United States","canonicalUrl":"https://foursquare.com/v/urban-harvest-brewing-company/54b1b1b5498e67b43d8efcda","categoryId":"50327c8591d4c4b30a586d5d","category":"Brewery","checkinsCount":80,"usersCount":114,"tipCount":4,"visitsCount":140,"url":"http://www.urbanharvestbrewing.com","tier":"","message":"","currency":"","rating":7.7},{"name":"Indulge","phone":"4143909463","twitter":"getindulge","address":"708 N Milwaukee St","lat":43.03905,"lng":-87.906573,"neighborhood":"Juneau Town","city_fetched":"Milwaukee,US","state":"WI","country":"United States","canonicalUrl":"https://foursquare.com/v/indulge/4ade6345f964a520867521e3","categoryId":"4bf58dd8d48988d123941735","category":"Wine Bar","checkinsCount":1001,"usersCount":581,"tipCount":15,"visitsCount":1002,"url":"http://www.getindulge.com","tier":"","message":"","currency":"","rating":7.7},{"name":"Club Charlies","phone":"4147638548","twitter":"clubcharlies","address":"320 E Menomonee St","lat":43.03147852420807,"lng":-87.906155,"neighborhood":"Historic Third Ward","city_fetched":"Milwaukee,US","state":"WI","country":"United States","canonicalUrl":"https://foursquare.com/v/club-charlies/4ad7d93bf964a520630f21e3","categoryId":"4bf58dd8d48988d116941735","category":"Bar","checkinsCount":8205,"usersCount":2889,"tipCount":38,"visitsCount":8813,"url":"http://clubcharlies.com","tier":2,"message":"Moderate","currency":"$","rating":7.7},{"name":"The Harp Irish Pub","phone":"4142890700","twitter":"theharpmke","address":"113 E Juneau Ave","lat":43.04550783342183,"lng":-87.9127917225061,"neighborhood":"Juneau Town","city_fetched":"Milwaukee,US","state":"WI","country":"United States","canonicalUrl":"https://foursquare.com/v/the-harp-irish-pub/4add5a81f964a520e86421e3","categoryId":"4bf58dd8d48988d116941735","category":"Bar","checkinsCount":14820,"usersCount":5528,"tipCount":43,"visitsCount":15413,"url":"http://www.theharpirishpub.com","tier":2,"message":"Moderate","currency":"$","rating":7.7},{"name":"Paddy's Pub","phone":"4142233496","address":"2339 N Murray Ave","lat":43.06102794555624,"lng":-87.88573533296585,"city_fetched":"Milwaukee,US","state":"WI","country":"United States","canonicalUrl":"https://foursquare.com/v/paddys-pub/4addfc69f964a520126721e3","categoryId":"4bf58dd8d48988d11b941735","category":"Pub","checkinsCount":3446,"usersCount":1538,"tipCount":30,"visitsCount":3556,"url":"http://www.paddyspub.com","tier":1,"message":"Cheap","currency":"$","rating":7.7},{"name":"Kruz","phone":"4142725789","address":"354 E National Ave","lat":43.023310406620325,"lng":-87.90678520234857,"city_fetched":"Milwaukee,US","state":"WI","country":"United States","canonicalUrl":"https://foursquare.com/v/kruz/4aed549bf964a5207fcd21e3","categoryId":"4bf58dd8d48988d1d8941735","category":"Gay Bar","checkinsCount":8728,"usersCount":1501,"tipCount":30,"visitsCount":11106,"tier":2,"message":"Moderate","currency":"$","rating":7.7},{"name":"Fat Daddy's","phone":"4143470524","twitter":"fatdaddystavern","address":"120 W National Ave","lat":43.023475,"lng":-87.911995,"neighborhood":"Walker's Point","city_fetched":"Milwaukee,US","state":"WI","country":"United States","canonicalUrl":"https://foursquare.com/v/fat-daddys/4ad7dafef964a520830f21e3","categoryId":"4bf58dd8d48988d116941735","category":"Bar","checkinsCount":10328,"usersCount":1438,"tipCount":20,"visitsCount":10553,"url":"http://fatdaddyball.com","tier":2,"message":"Moderate","currency":"$","rating":7.7},{"name":"Fink's","phone":"4142265882","address":"1875 N Humboldt Ave","lat":43.056085327894806,"lng":-87.89828177175812,"neighborhood":"Lower East Side","city_fetched":"Milwaukee,US","state":"WI","country":"United States","canonicalUrl":"https://foursquare.com/v/finks/51128a50e4b040523639e777","categoryId":"4bf58dd8d48988d11e941735","category":"Cocktail Bar","checkinsCount":2484,"usersCount":1126,"tipCount":15,"visitsCount":2599,"tier":2,"message":"Moderate","currency":"$","rating":7.7},{"name":"Ralph's Coffee","phone":"4144448883","address":"4538 W Lisbon Ave","lat":43.05962026119232,"lng":-87.97113494,"neighborhood":"Washington Park","city_fetched":"Milwaukee,US","state":"WI","country":"United States","canonicalUrl":"https://foursquare.com/v/ralphs-coffee/4da122457aee5481fa75bbfe","categoryId":"4bf58dd8d48988d116941735","category":"Bar","checkinsCount":150,"usersCount":73,"tipCount":3,"visitsCount":151,"tier":"","message":"","currency":"","rating":7.7},{"name":"Lee's Luxury Lounge","phone":"4147445960","address":"2988 S Kinnickinnic Ave","lat":42.99048364162445,"lng":-87.88510167,"neighborhood":"Bay View","city_fetched":"Milwaukee,US","state":"WI","country":"United States","canonicalUrl":"https://foursquare.com/v/lees-luxury-lounge/4ad7dd09f964a520a30f21e3","categoryId":"4bf58dd8d48988d118941735","category":"Dive Bar","checkinsCount":3517,"usersCount":1213,"tipCount":22,"visitsCount":3706,"tier":2,"message":"Moderate","currency":"$","rating":7.7},{"name":"Dugout 54","phone":"4142591200","address":"5328 W Blue Mound Rd","lat":43.03675351007911,"lng":-87.98090485697112,"neighborhood":"Story Hill","city_fetched":"Milwaukee,US","state":"WI","country":"United States","canonicalUrl":"https://foursquare.com/v/dugout-54/567b3cc2498e836ef5b7e817","categoryId":"4bf58dd8d48988d116941735","category":"Bar","checkinsCount":206,"usersCount":109,"tipCount":1,"visitsCount":260,"tier":"","message":"","currency":"","rating":7.6},{"name":"Wauwatiki Bar & Grill","phone":"4143237555","address":"6502 W North Ave","lat":43.06094932185115,"lng":-87.99360472479941,"city_fetched":"Milwaukee,US","state":"WI","country":"United States","canonicalUrl":"https://foursquare.com/v/wauwatiki-bar--grill/56e9e264498e672b08ce406d","categoryId":"56aa371be4b08b9a8d57354d","category":"Tiki Bar","checkinsCount":306,"usersCount":241,"tipCount":6,"visitsCount":387,"url":"http://wauwatikis.com","tier":"","message":"","currency":"","rating":7.6},{"name":"Scaffidi's Hideout","phone":"4142731665","address":"1837 N Humboldt Ave","lat":43.055252455454,"lng":-87.89821565151215,"neighborhood":"Lower East Side","city_fetched":"Milwaukee,US","state":"WI","country":"United States","canonicalUrl":"https://foursquare.com/v/scaffidis-hideout/4b4fffe8f964a520051b27e3","categoryId":"4bf58dd8d48988d116941735","category":"Bar","checkinsCount":1520,"usersCount":716,"tipCount":7,"visitsCount":1847,"tier":1,"message":"Cheap","currency":"$","rating":7.6},{"name":"Humphrey Scottish Rite Masonic Center","address":"790 N Van Buren St","lat":43.041246409128036,"lng":-87.9030486825265,"neighborhood":"Juneau Town","city_fetched":"Milwaukee,US","state":"WI","country":"United States","canonicalUrl":"https://foursquare.com/v/humphrey-scottish-rite-masonic-center/4b0bfe2cf964a5206e3523e3","categoryId":"4bf58dd8d48988d1d4941735","category":"Speakeasy","checkinsCount":1114,"usersCount":498,"tipCount":4,"visitsCount":1158,"tier":"","message":"","currency":"","rating":7.6},{"name":"District Fourteen","phone":"4147440399","address":"2273 S Howell Ave","lat":43.00316099196402,"lng":-87.90498883752763,"neighborhood":"Bay View","city_fetched":"Milwaukee,US","state":"WI","country":"United States","canonicalUrl":"https://foursquare.com/v/district-fourteen/5414d822498e740c6568e0d1","categoryId":"50327c8591d4c4b30a586d5d","category":"Brewery","checkinsCount":567,"usersCount":299,"tipCount":3,"visitsCount":630,"url":"http://www.d14beer.com","tier":"","message":"","currency":"","rating":7.6},{"name":"Walker's Pint","phone":"4146437468","address":"818 S 2nd St","lat":43.022752859168264,"lng":-87.9125570331119,"neighborhood":"Walker's Point","city_fetched":"Milwaukee,US","state":"WI","country":"United States","canonicalUrl":"https://foursquare.com/v/walkers-pint/4ad7db2cf964a520860f21e3","categoryId":"4bf58dd8d48988d116941735","category":"Bar","checkinsCount":11693,"usersCount":1364,"tipCount":21,"visitsCount":11894,"tier":1,"message":"Cheap","currency":"$","rating":7.6},{"name":"METRO","phone":"4142721937","twitter":"hotelmetro","address":"411 E Mason St","lat":43.039766240809485,"lng":-87.90669897848481,"neighborhood":"Juneau Town","city_fetched":"Milwaukee,US","state":"WI","country":"United States","canonicalUrl":"https://foursquare.com/v/metro/4baa61f2f964a520ee643ae3","categoryId":"4bf58dd8d48988d121941735","category":"Lounge","checkinsCount":1783,"usersCount":755,"tipCount":13,"visitsCount":1792,"url":"http://www.hotelmetro.com","tier":4,"message":"Very Expensive","currency":"$","rating":7.6},{"name":"Liquid Johnny's","phone":"4144768668","address":"540 S 76th St","lat":43.02633749546095,"lng":-88.00713737482306,"neighborhood":"Fair Park","city_fetched":"Milwaukee,US","state":"WI","country":"United States","canonicalUrl":"https://foursquare.com/v/liquid-johnnys/4b06e7ebf964a520a8f222e3","categoryId":"4bf58dd8d48988d116941735","category":"Bar","checkinsCount":1615,"usersCount":749,"tipCount":19,"visitsCount":2100,"tier":1,"message":"Cheap","currency":"$","rating":7.6},{"name":"Amelia's","phone":"4144830345","address":"724 E Layton Ave","lat":42.95932998914774,"lng":-87.90027483338447,"neighborhood":"Town of Lake","city_fetched":"Milwaukee,US","state":"WI","country":"United States","canonicalUrl":"https://foursquare.com/v/amelias/4bf6eadf5ec320a15a0686d3","categoryId":"4bf58dd8d48988d116941735","category":"Bar","checkinsCount":3861,"usersCount":1530,"tipCount":40,"visitsCount":4525,"url":"http://foodspot.com","tier":2,"message":"Moderate","currency":"$","rating":7.6},{"name":"THE SLY FOX","phone":"4142319156","twitter":"slyfoxmke","address":"1401 S 38th St","lat":43.016728749453776,"lng":-87.96195030212402,"neighborhood":"Silver City","city_fetched":"Milwaukee,US","state":"WI","country":"United States","canonicalUrl":"https://foursquare.com/v/the-sly-fox/4fe7861d121dcc1a186ad04c","categoryId":"4bf58dd8d48988d11e941735","category":"Cocktail Bar","checkinsCount":1263,"usersCount":225,"tipCount":2,"visitsCount":1398,"tier":1,"message":"Cheap","currency":"$","rating":7.6},{"name":"Dino's Riverwest","address":"808 E Chambers St","lat":43.07303189256645,"lng":-87.90118988724699,"neighborhood":"Riverwest","city_fetched":"Milwaukee,US","state":"WI","country":"United States","canonicalUrl":"https://foursquare.com/v/dinos-riverwest/4c14f57b82a3c9b66cf9fdf8","categoryId":"4bf58dd8d48988d116941735","category":"Bar","checkinsCount":231,"usersCount":189,"tipCount":4,"visitsCount":348,"url":"http://www.dinosriverwest.com","tier":"","message":"","currency":"","rating":7.6},{"name":"Taylor's","phone":"4142712855","address":"795 N Jefferson St","lat":43.04109225873427,"lng":-87.90557805313625,"neighborhood":"Juneau Town","city_fetched":"Milwaukee,US","state":"WI","country":"United States","canonicalUrl":"https://foursquare.com/v/taylors/4607cc91f964a520d8441fe3","categoryId":"4bf58dd8d48988d121941735","category":"Lounge","checkinsCount":10033,"usersCount":3138,"tipCount":30,"visitsCount":10264,"tier":2,"message":"Moderate","currency":"$","rating":7.6},{"name":"Salt Sports bar","twitter":"ipictheaters","lat":43.12200777068356,"lng":-87.91423814832207,"city_fetched":"Milwaukee,US","state":"WI","country":"United States","canonicalUrl":"https://foursquare.com/v/salt-sports-bar/50ea401ee4b0497551d5e0ab","categoryId":"4bf58dd8d48988d11d941735","category":"Sports Bar","checkinsCount":126,"usersCount":78,"tipCount":0,"visitsCount":126,"url":"http://www.ipic.com","tier":"","message":"","currency":"","rating":7.6},{"name":"Sabbatic","phone":"4142209440","twitter":"sabbaticbar","address":"700 S 2nd St","lat":43.02400795573252,"lng":-87.91246891021729,"neighborhood":"Walker's Point","city_fetched":"Milwaukee,US","state":"WI","country":"United States","canonicalUrl":"https://foursquare.com/v/sabbatic/4b663129f964a5205f182be3","categoryId":"4bf58dd8d48988d116941735","category":"Bar","checkinsCount":7643,"usersCount":1721,"tipCount":36,"visitsCount":7872,"tier":1,"message":"Cheap","currency":"$","rating":7.6},{"name":"Holler House","phone":"4146479284","address":"2042 W Lincoln Ave","lat":43.003122210502625,"lng":-87.93972551822662,"city_fetched":"Milwaukee,US","state":"WI","country":"United States","canonicalUrl":"https://foursquare.com/v/holler-house/4b32bfd9f964a520321325e3","categoryId":"4bf58dd8d48988d118941735","category":"Dive Bar","checkinsCount":390,"usersCount":248,"tipCount":6,"visitsCount":485,"tier":"","message":"","currency":"","rating":7.6},{"name":"The Duplex Lounge & Bar- MILWAUKEE","phone":"4142785884","twitter":"twojinx","address":"785 N Jefferson St","lat":43.04086918025915,"lng":-87.90579557418822,"neighborhood":"Juneau Town","city_fetched":"Milwaukee,US","state":"WI","country":"United States","canonicalUrl":"https://foursquare.com/twojinx","categoryId":"4bf58dd8d48988d121941735","category":"Lounge","checkinsCount":1020,"usersCount":467,"tipCount":10,"visitsCount":1021,"url":"http://www.theduplexmke.com","tier":"","message":"","currency":"","rating":7.6},{"name":"Upper 90 Sports Pub","phone":"4149889372","twitter":"upper90sp","address":"322 W State St","lat":43.04312355145021,"lng":-87.91533012092684,"neighborhood":"Kilbourn Town","city_fetched":"Milwaukee,US","state":"WI","country":"United States","canonicalUrl":"https://foursquare.com/v/upper-90-sports-pub/4e8c894830f8f7d2103d3888","categoryId":"4bf58dd8d48988d11d941735","category":"Sports Bar","checkinsCount":4545,"usersCount":2001,"tipCount":21,"visitsCount":4606,"url":"http://www.upper90sportspub.com","tier":2,"message":"Moderate","currency":"$","rating":7.6},{"name":"The Hotch Spot","phone":"4147272122","address":"1813 E Kenilworth Pl","lat":43.059822147955025,"lng":-87.88761546823127,"neighborhood":"Lower East Side","city_fetched":"Milwaukee,US","state":"WI","country":"United States","canonicalUrl":"https://foursquare.com/v/the-hotch-spot/4fe14664e4b00017d7d0178e","categoryId":"4bf58dd8d48988d116941735","category":"Bar","checkinsCount":6035,"usersCount":1808,"tipCount":35,"visitsCount":6286,"tier":2,"message":"Moderate","currency":"$","rating":7.5},{"name":"Rogues Gallery","phone":"4147611102","twitter":"roguesgallery_","address":"134 E Juneau Ave","lat":43.04592037054755,"lng":-87.91194875078648,"neighborhood":"Juneau Town","city_fetched":"Milwaukee,US","state":"WI","country":"United States","canonicalUrl":"https://foursquare.com/v/rogues-gallery/4ede761af790c0454a74113a","categoryId":"4bf58dd8d48988d116941735","category":"Bar","checkinsCount":10418,"usersCount":3056,"tipCount":29,"visitsCount":10933,"tier":1,"message":"Cheap","currency":"$","rating":7.5},{"name":"Hot Water / Wherehouse","phone":"4143837593","twitter":"wherehouse1","address":"818 S Water St","lat":43.022564,"lng":-87.906176,"city_fetched":"Milwaukee,US","state":"WI","country":"United States","canonicalUrl":"https://foursquare.com/v/hot-water--wherehouse/4b91caeef964a520c6d733e3","categoryId":"4bf58dd8d48988d11f941735","category":"Nightclub","checkinsCount":3704,"usersCount":2042,"tipCount":25,"visitsCount":4080,"url":"http://www.hotwatermilwaukee.com","tier":2,"message":"Moderate","currency":"$","rating":7.5},{"name":"Landmark 1850 Inn","phone":"4147691850","address":"5905 S Howell Ave","lat":42.93732623291325,"lng":-87.91013343387984,"neighborhood":"Mitchell Field","city_fetched":"Milwaukee,US","state":"WI","country":"United States","canonicalUrl":"https://foursquare.com/v/landmark-1850-inn/4e4c566abd413c4cc668971a","categoryId":"4bf58dd8d48988d116941735","category":"Bar","checkinsCount":2740,"usersCount":1035,"tipCount":17,"visitsCount":2972,"url":"http://www.landmark1850inn.com","tier":2,"message":"Moderate","currency":"$","rating":7.5},{"name":"McGinn's","phone":"4144757546","address":"5901 W Bluemound Rd","lat":43.03635389218186,"lng":-87.98622241163842,"neighborhood":"Bluemound Heights","city_fetched":"Milwaukee,US","state":"WI","country":"United States","canonicalUrl":"https://foursquare.com/v/mcginns/4b4fd3fbf964a520de1627e3","categoryId":"4bf58dd8d48988d11b941735","category":"Pub","checkinsCount":3846,"usersCount":1164,"tipCount":21,"visitsCount":4194,"tier":2,"message":"Moderate","currency":"$","rating":7.5},{"name":"The Happy Tap","phone":"4445413550","address":"6801 W Beloit Rd","lat":43.00264292969817,"lng":-87.99752488497963,"city_fetched":"Milwaukee,US","state":"WI","country":"United States","canonicalUrl":"https://foursquare.com/v/the-happy-tap/4b5ca822f964a520933c29e3","categoryId":"4bf58dd8d48988d116941735","category":"Bar","checkinsCount":1091,"usersCount":494,"tipCount":13,"visitsCount":1374,"tier":"","message":"","currency":"","rating":7.5},{"name":"Bert's Bar","phone":"4147443722","twitter":"bertsbar","address":"3907 S Lake Dr","lat":42.973378051399834,"lng":-87.85642137807791,"city_fetched":"Milwaukee,US","state":"WI","country":"United States","canonicalUrl":"https://foursquare.com/v/berts-bar/4ec7230461af9e142f5d69d6","categoryId":"4bf58dd8d48988d11b941735","category":"Pub","checkinsCount":625,"usersCount":281,"tipCount":9,"visitsCount":719,"tier":"","message":"","currency":"","rating":7.5},{"name":"Historic Pabst Brewery","phone":"4146301609","address":"915 W Juneau Ave","lat":43.04584796177151,"lng":-87.92343287384044,"neighborhood":"Kilbourn Town","city_fetched":"Milwaukee,US","state":"WI","country":"United States","canonicalUrl":"https://foursquare.com/v/historic-pabst-brewery/4be5d6f6d4f7c9b6f1022620","categoryId":"50327c8591d4c4b30a586d5d","category":"Brewery","checkinsCount":3146,"usersCount":1400,"tipCount":3,"visitsCount":3229,"url":"http://bestplacemilwaukee.com","tier":"","message":"","currency":"","rating":7.5},{"name":"J&B's Blue Ribbon Bar & Grill","phone":"4144431844","address":"5230 W Blue Mound Rd","lat":43.03684409770324,"lng":-87.97979535895327,"neighborhood":"Story Hill","city_fetched":"Milwaukee,US","state":"WI","country":"United States","canonicalUrl":"https://foursquare.com/v/jbs-blue-ribbon-bar--grill/4f5bc377e4b0a61f4b6b944d","categoryId":"4bf58dd8d48988d116941735","category":"Bar","checkinsCount":4628,"usersCount":1477,"tipCount":20,"visitsCount":5251,"url":"https://jbblueribbon.wordpress.com","tier":1,"message":"Cheap","currency":"$","rating":7.5},{"name":"Bull Shooter Saloon","lat":43.02590488707674,"lng":-87.99223736809277,"neighborhood":"Johnson's Woods","city_fetched":"Milwaukee,US","state":"WI","country":"United States","canonicalUrl":"https://foursquare.com/v/bull-shooter-saloon/5395102f498e266078201a80","categoryId":"4bf58dd8d48988d11d941735","category":"Sports Bar","checkinsCount":438,"usersCount":122,"tipCount":1,"visitsCount":558,"tier":"","message":"","currency":"","rating":7.5},{"name":"My Office","phone":"4142769646","address":"763 N Milwaukee St","lat":43.040311,"lng":-87.906616,"neighborhood":"Juneau Town","city_fetched":"Milwaukee,US","state":"WI","country":"United States","canonicalUrl":"https://foursquare.com/v/my-office/4b404869f964a5205fb725e3","categoryId":"4bf58dd8d48988d118941735","category":"Dive Bar","checkinsCount":3434,"usersCount":1099,"tipCount":15,"visitsCount":3528,"tier":1,"message":"Cheap","currency":"$","rating":7.5},{"name":"Shaker's Cigar Bar","phone":"4142724222","address":"422 S 2nd St","lat":43.02679867348683,"lng":-87.91251392676276,"neighborhood":"Walker's Point","city_fetched":"Milwaukee,US","state":"WI","country":"United States","canonicalUrl":"https://foursquare.com/v/shakers-cigar-bar/4bdce814462b2d7f89dc113c","categoryId":"4bf58dd8d48988d11b941735","category":"Pub","checkinsCount":2103,"usersCount":1211,"tipCount":27,"visitsCount":2248,"tier":"","message":"","currency":"","rating":7.5},{"name":"Genes Supper Club & Banquet Hall","phone":"4145357789","address":"4323 N 60th St","lat":43.096012473106384,"lng":-87.98707431,"city_fetched":"Milwaukee,US","state":"WI","country":"United States","canonicalUrl":"https://foursquare.com/v/genes-supper-club--banquet-hall/4d40af7d915a370467f0177f","categoryId":"4bf58dd8d48988d120941735","category":"Karaoke Bar","checkinsCount":2381,"usersCount":522,"tipCount":12,"visitsCount":2756,"tier":1,"message":"Cheap","currency":"$","rating":7.5},{"name":"Axel's Inn","phone":"4149622122","address":"2859 N Oakland Ave","lat":43.070779,"lng":-87.888113,"neighborhood":"Riverside Park","city_fetched":"Milwaukee,US","state":"WI","country":"United States","canonicalUrl":"https://foursquare.com/v/axels-inn/4ad4f85bf964a5200a0121e3","categoryId":"4bf58dd8d48988d118941735","category":"Dive Bar","checkinsCount":2888,"usersCount":815,"tipCount":14,"visitsCount":2894,"tier":1,"message":"Cheap","currency":"$","rating":7.5},{"name":"Milwaukee Athletic Club Rooftop","address":"758 N Broadway","lat":43.04006935706985,"lng":-87.90779113769531,"neighborhood":"Juneau Town","city_fetched":"Milwaukee,US","state":"WI","country":"United States","canonicalUrl":"https://foursquare.com/v/milwaukee-athletic-club-rooftop/4d012fd82685a35dd1decc90","categoryId":"4bf58dd8d48988d11a941735","category":"Other Nightlife","checkinsCount":1030,"usersCount":450,"tipCount":5,"visitsCount":1052,"tier":"","message":"","currency":"","rating":7.5},{"name":"Bad Genie","phone":"4148101670","twitter":"badgenie","address":"789 N Jefferson St","lat":43.040944,"lng":-87.90561076,"neighborhood":"Juneau Town","city_fetched":"Milwaukee,US","state":"WI","country":"United States","canonicalUrl":"https://foursquare.com/badgenie","categoryId":"4bf58dd8d48988d11b941735","category":"Pub","checkinsCount":7811,"usersCount":2992,"tipCount":27,"visitsCount":7882,"url":"http://www.badgenie.com","tier":2,"message":"Moderate","currency":"$","rating":7.5},{"name":"Major Goolsby's","phone":"4142713414","twitter":"majorgoolsbys","address":"340 W Kilbourn Ave","lat":43.04170035801596,"lng":-87.91553735733032,"neighborhood":"Kilbourn Town","city_fetched":"Milwaukee,US","state":"WI","country":"United States","canonicalUrl":"https://foursquare.com/v/major-goolsbys/4ae3c5f7f964a520d49821e3","categoryId":"4bf58dd8d48988d11d941735","category":"Sports Bar","checkinsCount":5844,"usersCount":3630,"tipCount":38,"visitsCount":6338,"url":"http://www.foodspot.com/majorgoolsbys","tier":2,"message":"Moderate","currency":"$","rating":7.5},{"name":"Monica's","phone":"4142724747","address":"1228 N Astor St","lat":43.04638116489768,"lng":-87.8996136833526,"neighborhood":"Yankee Hill","city_fetched":"Milwaukee,US","state":"WI","country":"United States","canonicalUrl":"https://foursquare.com/v/monicas/4ad7d638f964a5203b0f21e3","categoryId":"4bf58dd8d48988d116941735","category":"Bar","checkinsCount":10475,"usersCount":1352,"tipCount":18,"visitsCount":11194,"tier":1,"message":"Cheap","currency":"$","rating":7.4},{"name":"Camino","phone":"4148005641","address":"434 S 2nd St","lat":43.0265117784527,"lng":-87.91252350595505,"neighborhood":"Walker's Point","city_fetched":"Milwaukee,US","state":"WI","country":"United States","canonicalUrl":"https://foursquare.com/v/camino/564656ba498e97b3fbb681d1","categoryId":"4bf58dd8d48988d116941735","category":"Bar","checkinsCount":297,"usersCount":171,"tipCount":2,"visitsCount":332,"url":"http://www.caminomke.com","tier":"","message":"","currency":"","rating":7.4},{"name":"Dana's Fieldhouse","address":"5004 W Vliet St","lat":43.04892956130608,"lng":-87.97624111175537,"neighborhood":"Wick Field","city_fetched":"Milwaukee,US","state":"WI","country":"United States","canonicalUrl":"https://foursquare.com/v/danas-fieldhouse/4b91c116f964a520f8d433e3","categoryId":"4bf58dd8d48988d116941735","category":"Bar","checkinsCount":750,"usersCount":183,"tipCount":4,"visitsCount":756,"tier":"","message":"","currency":"","rating":7.4},{"name":"Dale's Lounge","address":"6132 W Capitol Dr","lat":43.09012839420454,"lng":-87.98926824246988,"city_fetched":"Milwaukee,US","state":"WI","country":"United States","canonicalUrl":"https://foursquare.com/v/dales-lounge/4b19b8d6f964a520c6e223e3","categoryId":"4bf58dd8d48988d116941735","category":"Bar","checkinsCount":772,"usersCount":341,"tipCount":6,"visitsCount":1070,"tier":"","message":"","currency":"","rating":7.4},{"name":"Paulie's Field Trip","phone":"4149824977","address":"1430 S 81st St","lat":43.015819236197174,"lng":-88.01281020528506,"city_fetched":"Milwaukee,US","state":"WI","country":"United States","canonicalUrl":"https://foursquare.com/v/paulies-field-trip/51bc101a498ebcce4a24f899","categoryId":"4bf58dd8d48988d116941735","category":"Bar","checkinsCount":648,"usersCount":194,"tipCount":7,"visitsCount":760,"tier":1,"message":"Cheap","currency":"$","rating":7.4},{"name":"Buck Bradley's","phone":"4142248500","address":"1019 N Old World 3rd St","lat":43.04329837301761,"lng":-87.91464045712084,"neighborhood":"Kilbourn Town","city_fetched":"Milwaukee,US","state":"WI","country":"United States","canonicalUrl":"https://foursquare.com/v/buck-bradleys/4af63cc9f964a520850222e3","categoryId":"4bf58dd8d48988d116941735","category":"Bar","checkinsCount":6401,"usersCount":3818,"tipCount":34,"visitsCount":6473,"url":"http://www.buckbradleys.com","tier":2,"message":"Moderate","currency":"$","rating":7.4},{"name":"Social Live","phone":"4146499999","twitter":"slmilwaukee","address":"906 S Barclay St","lat":43.02194058895111,"lng":-87.909622,"city_fetched":"Milwaukee,US","state":"WI","country":"United States","canonicalUrl":"https://foursquare.com/v/social-live/4e3e2122fa76455375c25b11","categoryId":"4d4b7105d754a06376d81259","category":"Nightlife Spot","checkinsCount":1405,"usersCount":480,"tipCount":6,"visitsCount":1518,"url":"http://slmilwaukee.com","tier":1,"message":"Cheap","currency":"$","rating":7.4},{"name":"Valley Inn","phone":"4143441158","address":"4000 W Clybourn St","lat":43.036284979229904,"lng":-87.96436473129634,"city_fetched":"Milwaukee,US","state":"WI","country":"United States","canonicalUrl":"https://foursquare.com/v/valley-inn/4b1d2ac6f964a5207b0c24e3","categoryId":"4bf58dd8d48988d116941735","category":"Bar","checkinsCount":558,"usersCount":289,"tipCount":13,"visitsCount":732,"tier":"","message":"","currency":"","rating":7.4},{"name":"LaCage NiteClub","phone":"4143838330","twitter":"lacagemilwaukee","address":"801 S 2nd St","lat":43.02303119,"lng":-87.91291015,"neighborhood":"Walker's Point","city_fetched":"Milwaukee,US","state":"WI","country":"United States","canonicalUrl":"https://foursquare.com/v/lacage-niteclub/4b371e0bf964a520893f25e3","categoryId":"4bf58dd8d48988d1d8941735","category":"Gay Bar","checkinsCount":15367,"usersCount":2931,"tipCount":54,"visitsCount":15944,"url":"http://lacagemke.com","tier":2,"message":"Moderate","currency":"$","rating":7.4},{"name":"Fluid","phone":"4146435843","address":"819 S 2nd St","lat":43.02278,"lng":-87.91276931762695,"neighborhood":"Walker's Point","city_fetched":"Milwaukee,US","state":"WI","country":"United States","canonicalUrl":"https://foursquare.com/v/fluid/4ad4c004f964a52081ec20e3","categoryId":"4bf58dd8d48988d1d8941735","category":"Gay Bar","checkinsCount":6764,"usersCount":1151,"tipCount":23,"visitsCount":6887,"url":"http://fluid.gaymke.com","tier":2,"message":"Moderate","currency":"$","rating":7.4},{"name":"Pedal Tavern","phone":"4144056682","twitter":"pedaltavern","address":"800 S 2nd St","lat":43.02318385656028,"lng":-87.91191043351263,"neighborhood":"Walker's Point","city_fetched":"Milwaukee,US","state":"WI","country":"United States","canonicalUrl":"https://foursquare.com/v/pedal-tavern/4c64d209dddfa5932cbc92ff","categoryId":"4bf58dd8d48988d116941735","category":"Bar","checkinsCount":567,"usersCount":412,"tipCount":2,"visitsCount":571,"url":"http://www.pedaltavern.com","tier":"","message":"","currency":"","rating":7.4},{"name":"Twisters","phone":"4142642325","address":"508 W Center St","lat":43.06769162997163,"lng":-87.91741341574256,"neighborhood":"Harambee","city_fetched":"Milwaukee,US","state":"WI","country":"United States","canonicalUrl":"https://foursquare.com/v/twisters/4f2cb22ae4b0b0d08323a0da","categoryId":"4bf58dd8d48988d116941735","category":"Bar","checkinsCount":200,"usersCount":54,"tipCount":3,"visitsCount":239,"tier":"","message":"","currency":"","rating":7.4},{"name":"Dee's Elegance","phone":"4146163337","address":"7420 W Villard Ave","lat":43.112509999646065,"lng":-88.0042313814558,"city_fetched":"Milwaukee,US","state":"WI","country":"United States","canonicalUrl":"https://foursquare.com/v/dees-elegance/4c147f4f7f7f2d7fd811e168","categoryId":"4bf58dd8d48988d116941735","category":"Bar","checkinsCount":1444,"usersCount":358,"tipCount":12,"visitsCount":2041,"tier":"","message":"","currency":"","rating":7.4},{"name":"Straight Shots","phone":"4147470644","address":"1503 E Oklahoma Ave","lat":42.98806667,"lng":-87.8904456,"neighborhood":"Bay View","city_fetched":"Milwaukee,US","state":"WI","country":"United States","canonicalUrl":"https://foursquare.com/v/straight-shots/4ad7dd3cf964a520a50f21e3","categoryId":"4bf58dd8d48988d116941735","category":"Bar","checkinsCount":2280,"usersCount":541,"tipCount":7,"visitsCount":2587,"url":"http://straightshotsbar.com","tier":"","message":"","currency":"","rating":7.3},{"name":"Bamboo shot bar + cocktail lounge","phone":"4147635019","address":"201 W Mitchell St","lat":43.012163117251276,"lng":-87.91264057159424,"neighborhood":"Clock Tower Acres","city_fetched":"Milwaukee,US","state":"WI","country":"United States","canonicalUrl":"https://foursquare.com/v/bamboo-shot-bar--cocktail-lounge/513972398acaee988fe08806","categoryId":"4bf58dd8d48988d11f941735","category":"Nightclub","checkinsCount":343,"usersCount":211,"tipCount":3,"visitsCount":408,"url":"http://www.bamboomke.com","tier":"","message":"","currency":"","rating":7.3},{"name":"Sheehan's Bar and Grill","phone":"4143543210","address":"8741 N Granville Rd","lat":43.17677163603266,"lng":-88.04392379172438,"city_fetched":"Milwaukee,US","state":"WI","country":"United States","canonicalUrl":"https://foursquare.com/v/sheehans-bar-and-grill/4bdf91e20ee3a59362d634b0","categoryId":"4bf58dd8d48988d11b941735","category":"Pub","checkinsCount":996,"usersCount":154,"tipCount":3,"visitsCount":1061,"tier":"","message":"","currency":"","rating":7.3},{"name":"Stir","address":"112 W Wisconsin Ave","lat":43.038923069926675,"lng":-87.9104016647631,"neighborhood":"Kilbourn Town","city_fetched":"Milwaukee,US","state":"WI","country":"United States","canonicalUrl":"https://foursquare.com/v/stir/4ad91173f964a520bf1721e3","categoryId":"4bf58dd8d48988d11e941735","category":"Cocktail Bar","checkinsCount":2141,"usersCount":510,"tipCount":13,"visitsCount":2206,"tier":2,"message":"Moderate","currency":"$","rating":7.3},{"name":"Pfister Lobby Lounge","twitter":"pfisterhotel","address":"424 E Wisconsin Ave","lat":43.039080374444566,"lng":-87.90555889177509,"neighborhood":"Juneau Town","city_fetched":"Milwaukee,US","state":"WI","country":"United States","canonicalUrl":"https://foursquare.com/v/pfister-lobby-lounge/4f298634e4b09023de95d9b2","categoryId":"4bf58dd8d48988d121941735","category":"Lounge","checkinsCount":477,"usersCount":287,"tipCount":5,"visitsCount":477,"url":"http://www.thepfisterhotel.com","tier":"","message":"","currency":"","rating":7.3},{"name":"The Tonic Tavern","phone":"4144553205","twitter":"tonictavern","address":"2335 S Kinnickinnic Ave","lat":43.00213243958694,"lng":-87.90412187576294,"neighborhood":"Bay View","city_fetched":"Milwaukee,US","state":"WI","country":"United States","canonicalUrl":"https://foursquare.com/v/the-tonic-tavern/4ad7520cf964a520790921e3","categoryId":"4bf58dd8d48988d116941735","category":"Bar","checkinsCount":5809,"usersCount":2452,"tipCount":29,"visitsCount":5981,"url":"http://tonictavern.com","tier":2,"message":"Moderate","currency":"$","rating":7.3},{"name":"The Backyard","phone":"4147514087","address":"2155 S Kinnickinnic Ave","lat":43.005329578840225,"lng":-87.90629180799442,"neighborhood":"Bay View","city_fetched":"Milwaukee,US","state":"WI","country":"United States","canonicalUrl":"https://foursquare.com/v/the-backyard/4ea5cf21722e2c16d2bfe1f5","categoryId":"4bf58dd8d48988d116941735","category":"Bar","checkinsCount":2764,"usersCount":752,"tipCount":13,"visitsCount":2830,"tier":"","message":"","currency":"","rating":7.3},{"name":"Layton Heights","phone":"4142829881","address":"4553 S 13th St","lat":42.96185342269818,"lng":-87.92942758232812,"city_fetched":"Milwaukee,US","state":"WI","country":"United States","canonicalUrl":"https://foursquare.com/v/layton-heights/4c5d883d9b28d13affc05970","categoryId":"4bf58dd8d48988d116941735","category":"Bar","checkinsCount":4135,"usersCount":321,"tipCount":6,"visitsCount":4438,"tier":"","message":"","currency":"","rating":7.3},{"name":"Ugly's","phone":"4147633852","twitter":"uglyspub","address":"1125 N Old World 3rd St","lat":43.04493671325535,"lng":-87.9145159333556,"neighborhood":"Kilbourn Town","city_fetched":"Milwaukee,US","state":"WI","country":"United States","canonicalUrl":"https://foursquare.com/uglyspub","categoryId":"4bf58dd8d48988d11b941735","category":"Pub","checkinsCount":3280,"usersCount":1949,"tipCount":25,"visitsCount":3693,"url":"http://www.uglyspub.com","tier":2,"message":"Moderate","currency":"$","rating":7.3},{"name":"Beer Bellys","phone":"4144815520","address":"512 W Layton Ave","lat":42.959652239253565,"lng":-87.91749961895388,"neighborhood":"Town of Lake","city_fetched":"Milwaukee,US","state":"WI","country":"United States","canonicalUrl":"https://foursquare.com/v/beer-bellys/4c789e7e81bca09371f2fa14","categoryId":"4bf58dd8d48988d116941735","category":"Bar","checkinsCount":3605,"usersCount":1539,"tipCount":34,"visitsCount":3787,"url":"http://www.foodspot.com/beerbellys","tier":2,"message":"Moderate","currency":"$","rating":7.3},{"name":"Spitfires On State","phone":"4147775060","twitter":"spitfiresmilw","address":"5018 W State St","lat":43.04435620665596,"lng":-87.9765049607916,"neighborhood":"Wick Field","city_fetched":"Milwaukee,US","state":"WI","country":"United States","canonicalUrl":"https://foursquare.com/v/spitfires-on-state/4f1dca41e4b01d7c61072d50","categoryId":"4bf58dd8d48988d11d941735","category":"Sports Bar","checkinsCount":4326,"usersCount":1061,"tipCount":37,"visitsCount":5183,"url":"http://www.spitfireswi.com","tier":1,"message":"Cheap","currency":"$","rating":7.3},{"name":"The Landing","phone":"4144830702","address":"2234 E Layton Ave","lat":42.95935762830937,"lng":-87.88121254991434,"city_fetched":"Milwaukee,US","state":"WI","country":"United States","canonicalUrl":"https://foursquare.com/v/the-landing/4c7daf2c3b22a1cd0cd95f9e","categoryId":"4bf58dd8d48988d11d941735","category":"Sports Bar","checkinsCount":2109,"usersCount":417,"tipCount":12,"visitsCount":2380,"url":"http://landingonlayton.org","tier":"","message":"","currency":"","rating":7.3},{"name":"Rustico Pizzeria","phone":"4142209933","twitter":"rusticopizzeria","address":"223 N Water St","lat":43.03309097482397,"lng":-87.90933352151742,"neighborhood":"Historic Third Ward","city_fetched":"Milwaukee,US","state":"WI","country":"United States","canonicalUrl":"https://foursquare.com/v/rustico-pizzeria/4ae23227f964a520ad8b21e3","categoryId":"4bf58dd8d48988d123941735","category":"Wine Bar","checkinsCount":7440,"usersCount":3214,"tipCount":57,"visitsCount":7490,"url":"http://www.rusticopizzeria.com","tier":2,"message":"Moderate","currency":"$","rating":7.3},{"name":"Miller Brewing - Brewhouse","address":"Building 33","lat":43.042187328308124,"lng":-87.96314000115288,"neighborhood":"Miller Valley","city_fetched":"Milwaukee,US","state":"WI","country":"United States","canonicalUrl":"https://foursquare.com/v/miller-brewing--brewhouse/4de8f0ce45dde4a28d5c0228","categoryId":"50327c8591d4c4b30a586d5d","category":"Brewery","checkinsCount":379,"usersCount":296,"tipCount":2,"visitsCount":379,"tier":"","message":"","currency":"","rating":7.3},{"name":"Woody's","phone":"4146720806","address":"1579 S 2nd St","lat":43.014300420990175,"lng":-87.91282045989833,"neighborhood":"Clock Tower Acres","city_fetched":"Milwaukee,US","state":"WI","country":"United States","canonicalUrl":"https://foursquare.com/v/woodys/4aea6dd4f964a52089bb21e3","categoryId":"4bf58dd8d48988d1d8941735","category":"Gay Bar","checkinsCount":11592,"usersCount":1052,"tipCount":26,"visitsCount":12817,"tier":1,"message":"Cheap","currency":"$","rating":7.3},{"name":"Joey's Mob Scene","phone":"4145458867","twitter":"joeysmobscene","address":"4500 W Forest Home Ave","lat":42.987732,"lng":-87.97058165073395,"neighborhood":"Jackson Park","city_fetched":"Milwaukee,US","state":"WI","country":"United States","canonicalUrl":"https://foursquare.com/joeysmobscene","categoryId":"4bf58dd8d48988d116941735","category":"Bar","checkinsCount":1176,"usersCount":306,"tipCount":8,"visitsCount":1236,"url":"http://www.joeysmobscene.com","tier":"","message":"","currency":"","rating":7.3},{"name":"The Winchester","address":"2321 N Murray Ave","lat":43.060743,"lng":-87.88597,"city_fetched":"Milwaukee,US","state":"WI","country":"United States","canonicalUrl":"https://foursquare.com/v/the-winchester/55e8db30498e4510fe017b06","categoryId":"4bf58dd8d48988d11e941735","category":"Cocktail Bar","checkinsCount":298,"usersCount":126,"tipCount":5,"visitsCount":364,"tier":"","message":"","currency":"","rating":7.3},{"name":"Oakcrest Tavern","phone":"4149670222","address":"4022 N Oakland Ave","lat":43.089594,"lng":-87.887482,"city_fetched":"Milwaukee,US","state":"WI","country":"United States","canonicalUrl":"https://foursquare.com/v/oakcrest-tavern/4ad7cfc1f964a520fd0e21e3","categoryId":"4bf58dd8d48988d11b941735","category":"Pub","checkinsCount":2747,"usersCount":1032,"tipCount":14,"visitsCount":2820,"url":"http://oakcresttavern.com","tier":2,"message":"Moderate","currency":"$","rating":7.2},{"name":"Water Street Brewery","phone":"4142721195","twitter":"waterstreetbrew","address":"1101 N Water St","lat":43.04463534282118,"lng":-87.91129735266692,"neighborhood":"Juneau Town","city_fetched":"Milwaukee,US","state":"WI","country":"United States","canonicalUrl":"https://foursquare.com/v/water-street-brewery/4abe740df964a520b38d20e3","categoryId":"50327c8591d4c4b30a586d5d","category":"Brewery","checkinsCount":9289,"usersCount":5428,"tipCount":61,"visitsCount":9519,"url":"http://www.waterstreetbrewery.com","tier":2,"message":"Moderate","currency":"$","rating":7.2},{"name":"1st choice","phone":"4145439662","address":"3872 S 92nd St","lat":42.97387165335876,"lng":-88.02749311195184,"city_fetched":"Milwaukee,US","state":"WI","country":"United States","canonicalUrl":"https://foursquare.com/v/1st-choice/4be74c6fd4f7c9b677bc2720","categoryId":"4bf58dd8d48988d118941735","category":"Dive Bar","checkinsCount":333,"usersCount":146,"tipCount":6,"visitsCount":383,"url":"http://www.jobsforphysicians.com","tier":"","message":"","currency":"","rating":7.2},{"name":"Kelly's Bleachers","phone":"4142589837","twitter":"kellysbleachers","address":"5218 W Blue Mound Rd","lat":43.03667391314009,"lng":-87.9793792963028,"neighborhood":"Story Hill","city_fetched":"Milwaukee,US","state":"WI","country":"United States","canonicalUrl":"https://foursquare.com/v/kellys-bleachers/4b6f6232f964a52035ee2ce3","categoryId":"4bf58dd8d48988d11d941735","category":"Sports Bar","checkinsCount":10305,"usersCount":3726,"tipCount":50,"visitsCount":11106,"url":"http://www.kellysbleachers1.com","tier":2,"message":"Moderate","currency":"$","rating":7.2},{"name":"Rusty's Old 50 Night Pub","phone":"4142219200","address":"730 N Old World 3rd St","lat":43.039679649999314,"lng":-87.91426209537569,"neighborhood":"Kilbourn Town","city_fetched":"Milwaukee,US","state":"WI","country":"United States","canonicalUrl":"https://foursquare.com/v/rustys-old-50-night-pub/4e4ac23c483b16676e42f0ae","categoryId":"4bf58dd8d48988d11b941735","category":"Pub","checkinsCount":1840,"usersCount":663,"tipCount":13,"visitsCount":1840,"url":"http://rustysold50.com","tier":"","message":"","currency":"","rating":7.2},{"name":"O'Brien's Pub","phone":"4144536200","address":"4928 W Vliet St","lat":43.04901521016582,"lng":-87.9757110201549,"neighborhood":"Washington Heights","city_fetched":"Milwaukee,US","state":"WI","country":"United States","canonicalUrl":"https://foursquare.com/v/obriens-pub/4ad88162f964a520db1121e3","categoryId":"4bf58dd8d48988d116941735","category":"Bar","checkinsCount":9142,"usersCount":1956,"tipCount":31,"visitsCount":9899,"url":"http://obriens-irishpub.com","tier":2,"message":"Moderate","currency":"$","rating":7.2},{"name":"The Corner Pub","phone":"4144479356","address":"7602 W Lisbon Ave","lat":43.07849324432141,"lng":-88.00765355112453,"city_fetched":"Milwaukee,US","state":"WI","country":"United States","canonicalUrl":"https://foursquare.com/v/the-corner-pub/4ae3b78cf964a520709821e3","categoryId":"4bf58dd8d48988d116941735","category":"Bar","checkinsCount":3679,"usersCount":784,"tipCount":16,"visitsCount":4337,"tier":"","message":"","currency":"","rating":7.2},{"name":"Vintage","phone":"4142262303","address":"2203 N Prospect Ave","lat":43.058842420578,"lng":-87.885065,"city_fetched":"Milwaukee,US","state":"WI","country":"United States","canonicalUrl":"https://foursquare.com/v/vintage/4bad0788f964a52039263be3","categoryId":"4bf58dd8d48988d116941735","category":"Bar","checkinsCount":5425,"usersCount":1816,"tipCount":22,"visitsCount":5481,"url":"http://vintagemilwaukee.com","tier":2,"message":"Moderate","currency":"$","rating":7.2},{"name":"Karma Bar & Grill","phone":"4142204118","twitter":"karmamke","address":"600 E Ogden Ave","lat":43.048322796821594,"lng":-87.90441691875458,"neighborhood":"Lower East Side","city_fetched":"Milwaukee,US","state":"WI","country":"United States","canonicalUrl":"https://foursquare.com/v/karma-bar--grill/4ad7e50df964a520e30f21e3","categoryId":"4bf58dd8d48988d11d941735","category":"Sports Bar","checkinsCount":10818,"usersCount":3854,"tipCount":64,"visitsCount":10976,"url":"http://www.karmamilwaukee.com","tier":2,"message":"Moderate","currency":"$","rating":7.2},{"name":"Puddler's Hall","phone":"4147479005","address":"2461 S Saint Clair St","lat":42.998746667143706,"lng":-87.89302825927734,"neighborhood":"Bay View","city_fetched":"Milwaukee,US","state":"WI","country":"United States","canonicalUrl":"https://foursquare.com/v/puddlers-hall/4ad7de1cf964a520b10f21e3","categoryId":"4bf58dd8d48988d116941735","category":"Bar","checkinsCount":2936,"usersCount":689,"tipCount":12,"visitsCount":3199,"tier":2,"message":"Moderate","currency":"$","rating":7.2},{"name":"CLEAR Bar & Lounge","phone":"4142914793","twitter":"interconmke","address":"139 E Kilbourn Ave","lat":43.04227883047272,"lng":-87.9105980470685,"neighborhood":"Juneau Town","city_fetched":"Milwaukee,US","state":"WI","country":"United States","canonicalUrl":"https://foursquare.com/v/clear-bar--lounge/4b4d4369f964a5209fcf26e3","categoryId":"4bf58dd8d48988d1d5941735","category":"Hotel Bar","checkinsCount":2176,"usersCount":1172,"tipCount":13,"visitsCount":2191,"url":"http://www.intercontinentalmilwaukee.com/milwaukee-dining/clear.asp","tier":3,"message":"Expensive","currency":"$","rating":7.2},{"name":"Hosed on Brady","phone":"4142233919","address":"1689 N Franklin Pl","lat":43.05274074367288,"lng":-87.8971558443633,"neighborhood":"Lower East Side","city_fetched":"Milwaukee,US","state":"WI","country":"United States","canonicalUrl":"https://foursquare.com/v/hosed-on-brady/4b4514ecf964a520e30326e3","categoryId":"4bf58dd8d48988d116941735","category":"Bar","checkinsCount":3919,"usersCount":1333,"tipCount":14,"visitsCount":4140,"tier":1,"message":"Cheap","currency":"$","rating":7.2},{"name":"SKYY Lounge","phone":"4149024452","twitter":"brewers","address":"Miller Park","lat":43.028968731952325,"lng":-87.9723868378277,"neighborhood":"Story Hill","city_fetched":"Milwaukee,US","state":"WI","country":"United States","canonicalUrl":"https://foursquare.com/v/skyy-lounge/5161d21de4b0878cfe94b004","categoryId":"4bf58dd8d48988d121941735","category":"Lounge","checkinsCount":356,"usersCount":123,"tipCount":2,"visitsCount":361,"url":"http://milwaukee.brewers.mlb.com/mil/ballpark/brewersenterprises/venues.jsp?content=skyy_lounge","tier":"","message":"","currency":"","rating":7.2},{"name":"Jonny Hammer's","address":"6300 W Lincoln Ave","lat":43.00303069414456,"lng":-87.99134330442936,"city_fetched":"Milwaukee,US","state":"WI","country":"United States","canonicalUrl":"https://foursquare.com/v/jonny-hammers/4bec8fb575b2c9b673b4438d","categoryId":"4bf58dd8d48988d116941735","category":"Bar","checkinsCount":2156,"usersCount":718,"tipCount":36,"visitsCount":2654,"tier":1,"message":"Cheap","currency":"$","rating":7.2},{"name":"Buckshots Bar","phone":"4146713757","address":"3219 S 13th St","lat":42.98602044582367,"lng":-87.928972,"neighborhood":"Morgandale","city_fetched":"Milwaukee,US","state":"WI","country":"United States","canonicalUrl":"https://foursquare.com/v/buckshots-bar/4c2ab5f277cfe21ebe7cb3f1","categoryId":"4bf58dd8d48988d116941735","category":"Bar","checkinsCount":189,"usersCount":92,"tipCount":2,"visitsCount":216,"tier":"","message":"","currency":"","rating":7.1},{"name":"Plum Lounge","address":"780 N Jefferson St","lat":43.04056819231199,"lng":-87.90544871378918,"neighborhood":"Juneau Town","city_fetched":"Milwaukee,US","state":"WI","country":"United States","canonicalUrl":"https://foursquare.com/v/plum-lounge/556f9ff5498edb3cb8ab9bb4","categoryId":"4bf58dd8d48988d121941735","category":"Lounge","checkinsCount":474,"usersCount":254,"tipCount":1,"visitsCount":534,"tier":"","message":"","currency":"","rating":7.1},{"name":"Malone's On Brady","address":"1329 E Brady St","lat":43.05300058485504,"lng":-87.89454933359876,"neighborhood":"Lower East Side","city_fetched":"Milwaukee,US","state":"WI","country":"United States","canonicalUrl":"https://foursquare.com/v/malones-on-brady/5209a011498e79a98ad1d402","categoryId":"4bf58dd8d48988d116941735","category":"Bar","checkinsCount":2408,"usersCount":738,"tipCount":16,"visitsCount":2547,"tier":2,"message":"Moderate","currency":"$","rating":7.1},{"name":"Jackalope Lounj","phone":"4142230345","address":"345 N Broadway","lat":43.03496916666666,"lng":-87.90737408000001,"neighborhood":"Historic Third Ward","city_fetched":"Milwaukee,US","state":"WI","country":"United States","canonicalUrl":"https://foursquare.com/v/jackalope-lounj/4b63c7d7f964a5204c912ae3","categoryId":"4bf58dd8d48988d121941735","category":"Lounge","checkinsCount":4436,"usersCount":1085,"tipCount":6,"visitsCount":4485,"tier":"","message":"","currency":"","rating":7.1},{"name":"Angelo's Piano Bar","address":"1684 N Van Buren Ave","lat":43.05273810999383,"lng":-87.90325467828292,"neighborhood":"Lower East Side","city_fetched":"Milwaukee,US","state":"WI","country":"United States","canonicalUrl":"https://foursquare.com/v/angelos-piano-bar/4ae3d91bf964a5204d9921e3","categoryId":"4bf58dd8d48988d121941735","category":"Lounge","checkinsCount":620,"usersCount":269,"tipCount":6,"visitsCount":625,"tier":2,"message":"Moderate","currency":"$","rating":7.1},{"name":"Thief Wine Bar","phone":"4142777707","twitter":"thiefwine","address":"400 N Water St","lat":43.0352809270472,"lng":-87.90818871187707,"neighborhood":"Juneau Town","city_fetched":"Milwaukee,US","state":"WI","country":"United States","canonicalUrl":"https://foursquare.com/v/thief-wine-bar/4b40bf64f964a5209dba25e3","categoryId":"4bf58dd8d48988d123941735","category":"Wine Bar","checkinsCount":1922,"usersCount":931,"tipCount":17,"visitsCount":1925,"url":"http://www.thiefwine.com","tier":"","message":"","currency":"","rating":7.1},{"name":"Maverick's","phone":"4142826969","twitter":"mavericks_bar","address":"2030 W Howard Ave","lat":42.973876943557926,"lng":-87.93966269278377,"neighborhood":"Southpoint","city_fetched":"Milwaukee,US","state":"WI","country":"United States","canonicalUrl":"https://foursquare.com/v/mavericks/4ae75853f964a5208eaa21e3","categoryId":"4bf58dd8d48988d116941735","category":"Bar","checkinsCount":3330,"usersCount":717,"tipCount":21,"visitsCount":3871,"tier":"","message":"","currency":"","rating":7.1},{"name":"Two","address":"718 E Burleigh St","lat":43.074762,"lng":-87.902078,"neighborhood":"Riverwest","city_fetched":"Milwaukee,US","state":"WI","country":"United States","canonicalUrl":"https://foursquare.com/v/two/4ad752dff964a520800921e3","categoryId":"4bf58dd8d48988d116941735","category":"Bar","checkinsCount":620,"usersCount":180,"tipCount":9,"visitsCount":626,"tier":"","message":"","currency":"","rating":7.1},{"name":"Wine Maniacs - On the River","phone":"4142789463","twitter":"wmontheriver","address":"106 W Seeboth St","lat":43.031244888965375,"lng":-87.91089022402488,"city_fetched":"Milwaukee,US","state":"WI","country":"United States","canonicalUrl":"https://foursquare.com/v/wine-maniacs--on-the-river/519d5070498eb58fe517b34b","categoryId":"4bf58dd8d48988d123941735","category":"Wine Bar","checkinsCount":377,"usersCount":225,"tipCount":6,"visitsCount":387,"url":"http://www.winemaniacs.com","tier":"","message":"","currency":"","rating":7.1},{"name":"Chancery","phone":"2625491720","address":"2100 East Moreland Blvd","lat":43.02816836656871,"lng":-88.19034493179728,"neighborhood":"Westbrook Shopping Center","city_fetched":"Milwaukee,US","state":"WI","country":"United States","canonicalUrl":"https://foursquare.com/v/chancery/4c3043833ffc952101c58ff5","categoryId":"4bf58dd8d48988d116941735","category":"Bar","checkinsCount":2343,"usersCount":1318,"tipCount":20,"visitsCount":2681,"url":"http://www.thechancery.com","tier":2,"message":"Moderate","currency":"$","rating":7.1},{"name":"Fritz's Pub","phone":"4146436995","address":"3086 S 20th St","lat":42.988496,"lng":-87.93835018333333,"city_fetched":"Milwaukee,US","state":"WI","country":"United States","canonicalUrl":"https://foursquare.com/v/fritzs-pub/4aebaffef964a52069c421e3","categoryId":"4bf58dd8d48988d118941735","category":"Dive Bar","checkinsCount":538,"usersCount":287,"tipCount":14,"visitsCount":574,"tier":"","message":"","currency":"","rating":7.1},{"name":"Miller Time Pub & Grill","phone":"4142712337","twitter":"miller_time_pub","address":"509 W Wisconsin Ave","lat":43.03864219567545,"lng":-87.91768312454224,"neighborhood":"Kilbourn Town","city_fetched":"Milwaukee,US","state":"WI","country":"United States","canonicalUrl":"https://foursquare.com/miller_time_pub","categoryId":"4bf58dd8d48988d11b941735","category":"Pub","checkinsCount":6963,"usersCount":3874,"tipCount":52,"visitsCount":7245,"url":"http://milwaukee.millertimepub.com","tier":2,"message":"Moderate","currency":"$","rating":7},{"name":"The Gasthaus","address":"2200 E Kenwood Blvd","lat":43.07517747373759,"lng":-87.88153367613556,"city_fetched":"Milwaukee,US","state":"WI","country":"United States","canonicalUrl":"https://foursquare.com/v/the-gasthaus/4ad4f4bbf964a520e60021e3","categoryId":"4bf58dd8d48988d116941735","category":"Bar","checkinsCount":7973,"usersCount":1706,"tipCount":24,"visitsCount":8009,"tier":1,"message":"Cheap","currency":"$","rating":7},{"name":"Belmont Tavern","phone":"4149886161","address":"784 N Jefferson St","lat":43.04101588823454,"lng":-87.90555410143352,"neighborhood":"Juneau Town","city_fetched":"Milwaukee,US","state":"WI","country":"United States","canonicalUrl":"https://foursquare.com/v/belmont-tavern/4d641ebb823ca35d8526f088","categoryId":"4bf58dd8d48988d116941735","category":"Bar","checkinsCount":4335,"usersCount":1902,"tipCount":15,"visitsCount":4410,"tier":3,"message":"Expensive","currency":"$","rating":7},{"name":"Evolution Gastro Pong","phone":"4148317746","address":"233 E Chicago St","lat":43.03226147594723,"lng":-87.90826056271608,"neighborhood":"Historic Third Ward","city_fetched":"Milwaukee,US","state":"WI","country":"United States","canonicalUrl":"https://foursquare.com/v/evolution-gastro-pong/4be97a03fbbb9c74ef401e8e","categoryId":"4bf58dd8d48988d11d941735","category":"Sports Bar","checkinsCount":8938,"usersCount":4134,"tipCount":49,"visitsCount":9148,"url":"http://www.evolutionmke.com","tier":"","message":"","currency":"","rating":7},{"name":"Water Street Brewery","lat":43.02928058494596,"lng":-87.89867984159133,"neighborhood":"Historic Third Ward","city_fetched":"Milwaukee,US","state":"WI","country":"United States","canonicalUrl":"https://foursquare.com/v/water-street-brewery/4c2d5b623a4d0f47aed7e386","categoryId":"4bf58dd8d48988d117941735","category":"Beer Garden","checkinsCount":724,"usersCount":532,"tipCount":1,"visitsCount":734,"tier":"","message":"","currency":"","rating":7},{"name":"Lucky Joe's Tiki Room","phone":"4142718454","address":"196 S 2nd St","lat":43.02942758003205,"lng":-87.91244745254517,"neighborhood":"Walker's Point","city_fetched":"Milwaukee,US","state":"WI","country":"United States","canonicalUrl":"https://foursquare.com/v/lucky-joes-tiki-room/506233a8e4b0dc672ee9978d","categoryId":"4bf58dd8d48988d11e941735","category":"Cocktail Bar","checkinsCount":3387,"usersCount":1779,"tipCount":25,"visitsCount":3718,"url":"http://luckyjoestiki.com","tier":2,"message":"Moderate","currency":"$","rating":7},{"name":"Gig","phone":"4145620219","address":"1132 E Wright St","lat":43.06391130464982,"lng":-87.89681566498558,"neighborhood":"Riverwest","city_fetched":"Milwaukee,US","state":"WI","country":"United States","canonicalUrl":"https://foursquare.com/v/gig/4ad5f2a4f964a520220421e3","categoryId":"4bf58dd8d48988d116941735","category":"Bar","checkinsCount":2349,"usersCount":745,"tipCount":17,"visitsCount":2740,"url":"http://guyfi.com","tier":1,"message":"Cheap","currency":"$","rating":7},{"name":"Brewski's Sports Club","phone":"4144750500","address":"304 N 76th St","lat":43.034107807147215,"lng":-88.0069892119986,"neighborhood":"Bluemound Heights","city_fetched":"Milwaukee,US","state":"WI","country":"United States","canonicalUrl":"https://foursquare.com/v/brewskis-sports-club/4b06b015f964a520a4ee22e3","categoryId":"4bf58dd8d48988d11d941735","category":"Sports Bar","checkinsCount":11082,"usersCount":3047,"tipCount":69,"visitsCount":12017,"url":"http://brewskissc.com","tier":2,"message":"Moderate","currency":"$","rating":7},{"name":"Burke's Irish Castle","phone":"4144536088","twitter":"dakotasievert","address":"5328 W Bluemound Ed","lat":43.03680251738738,"lng":-87.98082355848672,"neighborhood":"Story Hill","city_fetched":"Milwaukee,US","state":"WI","country":"United States","canonicalUrl":"https://foursquare.com/dakotasievert","categoryId":"4bf58dd8d48988d11b941735","category":"Pub","checkinsCount":1685,"usersCount":531,"tipCount":8,"visitsCount":1805,"url":"http://burkesirishcastle.com","tier":2,"message":"Moderate","currency":"$","rating":6.9},{"name":"Rumor Upbeat Lounge","phone":"4146161806","address":"161 S 1st St","lat":43.029543113669874,"lng":-87.91106744518333,"city_fetched":"Milwaukee,US","state":"WI","country":"United States","canonicalUrl":"https://foursquare.com/v/rumor-upbeat-lounge/4fc02714e4b0152d44ab1efd","categoryId":"4bf58dd8d48988d11f941735","category":"Nightclub","checkinsCount":2622,"usersCount":1140,"tipCount":9,"visitsCount":2724,"tier":2,"message":"Moderate","currency":"$","rating":6.9},{"name":"Rounding Third","phone":"4144751982","address":"6137 Bluemound Rd","lat":43.036113924673046,"lng":-87.9916301717349,"neighborhood":"Bluemound Heights","city_fetched":"Milwaukee,US","state":"WI","country":"United States","canonicalUrl":"https://foursquare.com/v/rounding-third/4b05e22ef964a5201ce522e3","categoryId":"4bf58dd8d48988d11d941735","category":"Sports Bar","checkinsCount":3620,"usersCount":1226,"tipCount":21,"visitsCount":4065,"url":"http://www.roundingthirdsports.com","tier":2,"message":"Moderate","currency":"$","rating":6.9},{"name":"Steve's On Bluemound","phone":"4142573210","address":"5841 W Bluemound Rd","lat":43.036264316759286,"lng":-87.98589247395589,"neighborhood":"Bluemound Heights","city_fetched":"Milwaukee,US","state":"WI","country":"United States","canonicalUrl":"https://foursquare.com/v/steves-on-bluemound/4b871e4ff964a520a0b131e3","categoryId":"4bf58dd8d48988d116941735","category":"Bar","checkinsCount":7051,"usersCount":1759,"tipCount":16,"visitsCount":7456,"tier":1,"message":"Cheap","currency":"$","rating":6.9},{"name":"OAK","phone":"4142701018","twitter":"oakmke","address":"231 E Buffalo St","lat":43.03378375938785,"lng":-87.90800668923518,"neighborhood":"Historic Third Ward","city_fetched":"Milwaukee,US","state":"WI","country":"United States","canonicalUrl":"https://foursquare.com/v/oak/4f46fabcd5fbfd95d1a6919b","categoryId":"4bf58dd8d48988d11f941735","category":"Nightclub","checkinsCount":5621,"usersCount":2041,"tipCount":14,"visitsCount":6203,"url":"http://www.oakmilwaukee.com","tier":"","message":"","currency":"","rating":6.9},{"name":"Trinity Three Irish Pubs","phone":"4142787033","address":"125 E Juneau Ave","lat":43.04550602147201,"lng":-87.9120870145046,"neighborhood":"Juneau Town","city_fetched":"Milwaukee,US","state":"WI","country":"United States","canonicalUrl":"https://foursquare.com/v/trinity-three-irish-pubs/4ad7794af964a520130b21e3","categoryId":"4bf58dd8d48988d116941735","category":"Bar","checkinsCount":26151,"usersCount":8075,"tipCount":54,"visitsCount":27108,"url":"http://trinitythreeirishpubs.com","tier":2,"message":"Moderate","currency":"$","rating":6.9},{"name":"Humboldt Park Beer Garden","lat":42.99079526585698,"lng":-87.90136714682731,"neighborhood":"Bay View","city_fetched":"Milwaukee,US","state":"WI","country":"United States","canonicalUrl":"https://foursquare.com/v/humboldt-park-beer-garden/53b0684c498e8e174c9f92f3","categoryId":"4bf58dd8d48988d117941735","category":"Beer Garden","checkinsCount":455,"usersCount":318,"tipCount":5,"visitsCount":490,"tier":"","message":"","currency":"","rating":6.9},{"name":"Riverwest Public House","phone":"4145629472","address":"815 E Locust St","lat":43.07112189269186,"lng":-87.90115635157174,"neighborhood":"Riverwest","city_fetched":"Milwaukee,US","state":"WI","country":"United States","canonicalUrl":"https://foursquare.com/v/riverwest-public-house/4d817fc9c8bdb1f7f711ccc2","categoryId":"4bf58dd8d48988d116941735","category":"Bar","checkinsCount":2142,"usersCount":1053,"tipCount":19,"visitsCount":2421,"tier":"","message":"","currency":"","rating":6.9},{"name":"Lost Cause","phone":"4142944600","address":"733 W Oklahoma Ave","lat":42.98816399684844,"lng":-87.92141211194907,"neighborhood":"Morgandale","city_fetched":"Milwaukee,US","state":"WI","country":"United States","canonicalUrl":"https://foursquare.com/v/lost-cause/4b92d00bf964a520271e34e3","categoryId":"4bf58dd8d48988d116941735","category":"Bar","checkinsCount":4568,"usersCount":196,"tipCount":7,"visitsCount":4697,"tier":"","message":"","currency":"","rating":6.9},{"name":"At Random","phone":"4144818030","address":"2501 S Delaware Ave","lat":42.99801103386283,"lng":-87.89157370113755,"neighborhood":"Bay View","city_fetched":"Milwaukee,US","state":"WI","country":"United States","canonicalUrl":"https://foursquare.com/v/at-random/4ad7ddccf964a520af0f21e3","categoryId":"4bf58dd8d48988d11e941735","category":"Cocktail Bar","checkinsCount":1877,"usersCount":1439,"tipCount":31,"visitsCount":2018,"tier":2,"message":"Moderate","currency":"$","rating":6.9},{"name":"Roman Coin","phone":"4142789334","address":"1004 E Brady St","lat":43.05303806263043,"lng":-87.89942204383696,"neighborhood":"Lower East Side","city_fetched":"Milwaukee,US","state":"WI","country":"United States","canonicalUrl":"https://foursquare.com/v/roman-coin/4ae3d11ef964a520239921e3","categoryId":"4bf58dd8d48988d118941735","category":"Dive Bar","checkinsCount":3384,"usersCount":1462,"tipCount":23,"visitsCount":3453,"url":"http://www.romancoinmilwaukee.com","tier":1,"message":"Cheap","currency":"$","rating":6.9},{"name":"Gus Amann's Bar","phone":"4143214877","address":"9131 W Beloit Rd","lat":42.98677000699257,"lng":-88.02642777331941,"neighborhood":"Euclid Park","city_fetched":"Milwaukee,US","state":"WI","country":"United States","canonicalUrl":"https://foursquare.com/v/gus-amanns-bar/4b60cd0bf964a52062fa29e3","categoryId":"4bf58dd8d48988d118941735","category":"Dive Bar","checkinsCount":2198,"usersCount":682,"tipCount":25,"visitsCount":2446,"tier":1,"message":"Cheap","currency":"$","rating":6.8},{"name":"BBC Bar & Grill","phone":"4142727263","twitter":"bbcmilwaukee","address":"2022 E North Ave","lat":43.06016567414987,"lng":-87.8851318359375,"city_fetched":"Milwaukee,US","state":"WI","country":"United States","canonicalUrl":"https://foursquare.com/v/bbc-bar--grill/4ad5eef3f964a520080421e3","categoryId":"4bf58dd8d48988d11d941735","category":"Sports Bar","checkinsCount":16159,"usersCount":5220,"tipCount":83,"visitsCount":16521,"url":"http://bbcmilwaukee.com","tier":1,"message":"Cheap","currency":"$","rating":6.8},{"name":"The Tin Window","phone":"4143678461","address":"703 S 2nd St","lat":43.024133451721134,"lng":-87.91268348693848,"neighborhood":"Walker's Point","city_fetched":"Milwaukee,US","state":"WI","country":"United States","canonicalUrl":"https://foursquare.com/v/the-tin-window/4b398881f964a520875d25e3","categoryId":"4bf58dd8d48988d116941735","category":"Bar","checkinsCount":3329,"usersCount":742,"tipCount":9,"visitsCount":3347,"tier":"","message":"","currency":"","rating":6.8},{"name":"Caffrey's Pub","phone":"4149339047","address":"717 N 16th St","lat":43.03916311118012,"lng":-87.93306136301206,"neighborhood":"Marquette","city_fetched":"Milwaukee,US","state":"WI","country":"United States","canonicalUrl":"https://foursquare.com/v/caffreys-pub/4ad94531f964a520821921e3","categoryId":"4bf58dd8d48988d11b941735","category":"Pub","checkinsCount":9384,"usersCount":1695,"tipCount":39,"visitsCount":9577,"url":"http://caffreyspub.com","tier":2,"message":"Moderate","currency":"$","rating":6.8},{"name":"The Little Whiskey Bar","address":"309 W National Ave","lat":43.02322012092661,"lng":-87.91452551211908,"neighborhood":"Walker's Point","city_fetched":"Milwaukee,US","state":"WI","country":"United States","canonicalUrl":"https://foursquare.com/v/the-little-whiskey-bar/5168a601e4b07da5763eac4b","categoryId":"4bf58dd8d48988d116941735","category":"Bar","checkinsCount":1803,"usersCount":486,"tipCount":5,"visitsCount":2321,"tier":2,"message":"Moderate","currency":"$","rating":6.8},{"name":"J.Beans Pub","lat":43.00559134763311,"lng":-88.02560128222002,"city_fetched":"Milwaukee,US","state":"WI","country":"United States","canonicalUrl":"https://foursquare.com/v/jbeans-pub/511eda35e4b0c66bc995dcad","categoryId":"4bf58dd8d48988d11b941735","category":"Pub","checkinsCount":868,"usersCount":193,"tipCount":9,"visitsCount":1110,"tier":1,"message":"Cheap","currency":"$","rating":6.8},{"name":"Anticipation Tavern","phone":"4142826669","address":"6218 S 27th St","lat":42.93179743094539,"lng":-87.94918718386107,"city_fetched":"Milwaukee,US","state":"WI","country":"United States","canonicalUrl":"https://foursquare.com/v/anticipation-tavern/4cf5c44e11e76a31e4d4aa3b","categoryId":"4bf58dd8d48988d118941735","category":"Dive Bar","checkinsCount":1862,"usersCount":286,"tipCount":7,"visitsCount":2108,"tier":"","message":"","currency":"","rating":6.8},{"name":"Mr. J's Lounge","phone":"4144558779","address":"4610 W. Fondulac Ave.","lat":43.086635179560325,"lng":-87.9717267548224,"neighborhood":"Roosevelt Grove","city_fetched":"Milwaukee,US","state":"WI","country":"United States","canonicalUrl":"https://foursquare.com/v/mr-js-lounge/550b7050498efb35336a673f","categoryId":"4bf58dd8d48988d11e941735","category":"Cocktail Bar","checkinsCount":135,"usersCount":163,"tipCount":0,"visitsCount":394,"tier":"","message":"","currency":"","rating":6.8},{"name":"618 Live on Water","phone":"4142240618","address":"618 N Water St","lat":43.037870717705424,"lng":-87.909079654125,"neighborhood":"Juneau Town","city_fetched":"Milwaukee,US","state":"WI","country":"United States","canonicalUrl":"https://foursquare.com/v/618-live-on-water/4c45f505342c1b8dc730b589","categoryId":"4bf58dd8d48988d11f941735","category":"Nightclub","checkinsCount":1220,"usersCount":302,"tipCount":5,"visitsCount":1272,"url":"http://www.618liveonwater.com","tier":"","message":"","currency":"","rating":6.8},{"name":"Flannery's","phone":"4142788586","twitter":"flannerysmke","address":"425 E Wells St","lat":43.0411159389197,"lng":-87.90596127863651,"neighborhood":"Juneau Town","city_fetched":"Milwaukee,US","state":"WI","country":"United States","canonicalUrl":"https://foursquare.com/v/flannerys/4aedeb66f964a52042d021e3","categoryId":"4bf58dd8d48988d11b941735","category":"Pub","checkinsCount":17066,"usersCount":4666,"tipCount":52,"visitsCount":17303,"url":"http://www.flannerysmilwaukee.com","tier":2,"message":"Moderate","currency":"$","rating":6.8},{"name":"Studio Lounge","phone":"4146997033","address":"2246 S Kinnickinnic Ave","lat":43.0036738807297,"lng":-87.90471099332949,"neighborhood":"Bay View","city_fetched":"Milwaukee,US","state":"WI","country":"United States","canonicalUrl":"https://foursquare.com/v/studio-lounge/4b75daaef964a520a4292ee3","categoryId":"4bf58dd8d48988d11e941735","category":"Cocktail Bar","checkinsCount":1433,"usersCount":694,"tipCount":18,"visitsCount":1456,"tier":"","message":"","currency":"","rating":6.8},{"name":"Jo-Cat's Pub","phone":"4147659955","address":"1311 E Brady St","lat":43.05291783182789,"lng":-87.89501890004992,"neighborhood":"Lower East Side","city_fetched":"Milwaukee,US","state":"WI","country":"United States","canonicalUrl":"https://foursquare.com/v/jocats-pub/4b19d116f964a520bae423e3","categoryId":"4bf58dd8d48988d116941735","category":"Bar","checkinsCount":13247,"usersCount":3448,"tipCount":30,"visitsCount":13454,"tier":2,"message":"Moderate","currency":"$","rating":6.8},{"name":"NYCE Stadium Club","phone":"4149024707","address":"Miller Park","lat":43.02833306885362,"lng":-87.97034915876814,"neighborhood":"Story Hill","city_fetched":"Milwaukee,US","state":"WI","country":"United States","canonicalUrl":"https://foursquare.com/v/nyce-stadium-club/4bc0d17d2a89ef3b7636f188","categoryId":"4bf58dd8d48988d121941735","category":"Lounge","checkinsCount":2272,"usersCount":1257,"tipCount":15,"visitsCount":2281,"tier":"","message":"","currency":"","rating":6.7},{"name":"Red Star","phone":"4142720205","address":"1758 N Water St","lat":43.053827637677855,"lng":-87.90296245146325,"neighborhood":"Lower East Side","city_fetched":"Milwaukee,US","state":"WI","country":"United States","canonicalUrl":"https://foursquare.com/v/red-star/5288445b498e563551941c9f","categoryId":"4bf58dd8d48988d121941735","category":"Lounge","checkinsCount":270,"usersCount":152,"tipCount":7,"visitsCount":278,"tier":2,"message":"Moderate","currency":"$","rating":6.7},{"name":"Alioto's Bar & Restaurant","phone":"4144766900","address":"3041 N Mayfair Rd","lat":43.07368504313749,"lng":-88.04833611054505,"city_fetched":"Milwaukee,US","state":"WI","country":"United States","canonicalUrl":"https://foursquare.com/v/aliotos-bar--restaurant/4b08adccf964a520a81023e3","categoryId":"4bf58dd8d48988d116941735","category":"Bar","checkinsCount":1120,"usersCount":918,"tipCount":17,"visitsCount":1460,"url":"http://www.aliotos.net","tier":"","message":"","currency":"","rating":6.7},{"name":"Vino 100","phone":"4142778466","twitter":"vino100milwauke","address":"102 N Water St","lat":43.0317828713921,"lng":-87.90930478188493,"neighborhood":"Historic Third Ward","city_fetched":"Milwaukee,US","state":"WI","country":"United States","canonicalUrl":"https://foursquare.com/v/vino-100/4b7489edf964a520a6e22de3","categoryId":"4bf58dd8d48988d123941735","category":"Wine Bar","checkinsCount":1614,"usersCount":736,"tipCount":11,"visitsCount":1632,"url":"http://vino100cc.com","tier":"","message":"","currency":"","rating":6.7},{"name":"Victoria's On Potter","phone":"4144819974","address":"1100 E Potter Ave","lat":42.99779045570928,"lng":-87.89510993787374,"neighborhood":"Bay View","city_fetched":"Milwaukee,US","state":"WI","country":"United States","canonicalUrl":"https://foursquare.com/v/victorias-on-potter/4d1d2eaf8629224baff5f686","categoryId":"4bf58dd8d48988d116941735","category":"Bar","checkinsCount":2724,"usersCount":483,"tipCount":8,"visitsCount":3142,"tier":1,"message":"Cheap","currency":"$","rating":6.7},{"name":"Garfield's 502","address":"502 W Garfield Ave","lat":43.05924923333333,"lng":-87.91738,"neighborhood":"Halyard Park","city_fetched":"Milwaukee,US","state":"WI","country":"United States","canonicalUrl":"https://foursquare.com/v/garfields-502/4b7b1567f964a5207e502fe3","categoryId":"4bf58dd8d48988d116941735","category":"Bar","checkinsCount":759,"usersCount":378,"tipCount":11,"visitsCount":1059,"tier":"","message":"","currency":"","rating":6.7},{"name":"Whiskey Bar","phone":"4143128566","twitter":"whiskeybarmke","address":"788 N Jackson St","lat":43.04099508360043,"lng":-87.9043421285392,"neighborhood":"Juneau Town","city_fetched":"Milwaukee,US","state":"WI","country":"United States","canonicalUrl":"https://foursquare.com/v/whiskey-bar/4ad7d6b9f964a520470f21e3","categoryId":"4bf58dd8d48988d122941735","category":"Whisky Bar","checkinsCount":9065,"usersCount":4337,"tipCount":43,"visitsCount":9731,"url":"http://www.whiskeybarmilwaukee.com","tier":2,"message":"Moderate","currency":"$","rating":6.7},{"name":"Frank's Power Plant","address":"2800 S Kinnickinnic Ave","lat":42.99417972564697,"lng":-87.89319402,"neighborhood":"Bay View","city_fetched":"Milwaukee,US","state":"WI","country":"United States","canonicalUrl":"https://foursquare.com/v/franks-power-plant/4ad7dcbbf964a5209b0f21e3","categoryId":"4bf58dd8d48988d118941735","category":"Dive Bar","checkinsCount":2748,"usersCount":1109,"tipCount":9,"visitsCount":2837,"tier":"","message":"","currency":"","rating":6.7},{"name":"Fat Valdy's","phone":"4144430287","address":"5108 W Blue Mound Rd","lat":43.0368717184604,"lng":-87.97806888676477,"neighborhood":"Story Hill","city_fetched":"Milwaukee,US","state":"WI","country":"United States","canonicalUrl":"https://foursquare.com/v/fat-valdys/53aa270f498ea95438612252","categoryId":"4bf58dd8d48988d11d941735","category":"Sports Bar","checkinsCount":249,"usersCount":150,"tipCount":7,"visitsCount":263,"tier":"","message":"","currency":"","rating":6.6},{"name":"Wonder Bar","address":"5520 W Vliet St","lat":43.04959170828774,"lng":-87.9829516169237,"neighborhood":"Wick Field","city_fetched":"Milwaukee,US","state":"WI","country":"United States","canonicalUrl":"https://foursquare.com/v/wonder-bar/4bad9f69f964a5208c5f3be3","categoryId":"4bf58dd8d48988d116941735","category":"Bar","checkinsCount":3409,"usersCount":721,"tipCount":9,"visitsCount":4274,"tier":1,"message":"Cheap","currency":"$","rating":6.6},{"name":"Grainger's Pub & Grill","phone":"4142829917","address":"3400 W Loomis Rd","lat":42.973705219290714,"lng":-87.95772399398913,"city_fetched":"Milwaukee,US","state":"WI","country":"United States","canonicalUrl":"https://foursquare.com/v/graingers-pub--grill/4b089d14f964a520790f23e3","categoryId":"4bf58dd8d48988d116941735","category":"Bar","checkinsCount":2079,"usersCount":968,"tipCount":15,"visitsCount":2377,"url":"http://graingersbar.com","tier":"","message":"","currency":"","rating":6.6},{"name":"Miller Caves","address":"4000 W State St","lat":43.042227404791554,"lng":-87.96295341821491,"neighborhood":"Miller Valley","city_fetched":"Milwaukee,US","state":"WI","country":"United States","canonicalUrl":"https://foursquare.com/v/miller-caves/4beecf2e5e7b9c743f15b58d","categoryId":"4bf58dd8d48988d117941735","category":"Beer Garden","checkinsCount":440,"usersCount":392,"tipCount":8,"visitsCount":442,"tier":"","message":"","currency":"","rating":6.6},{"name":"Zad's","phone":"4142719130","address":"438 S 2nd St","lat":43.02640954960964,"lng":-87.91258098106567,"neighborhood":"Walker's Point","city_fetched":"Milwaukee,US","state":"WI","country":"United States","canonicalUrl":"https://foursquare.com/v/zads/4ad7da89f964a5207b0f21e3","categoryId":"4bf58dd8d48988d118941735","category":"Dive Bar","checkinsCount":5465,"usersCount":1098,"tipCount":19,"visitsCount":5817,"tier":1,"message":"Cheap","currency":"$","rating":6.6},{"name":"Just Arts Saloon","phone":"4143471171","address":"181 S 2nd St","lat":43.029842,"lng":-87.912746,"neighborhood":"Walker's Point","city_fetched":"Milwaukee,US","state":"WI","country":"United States","canonicalUrl":"https://foursquare.com/v/just-arts-saloon/4b85d5a7f964a520777531e3","categoryId":"4bf58dd8d48988d118941735","category":"Dive Bar","checkinsCount":1145,"usersCount":429,"tipCount":7,"visitsCount":1166,"tier":"","message":"","currency":"","rating":6.6},{"name":"The Black Rose Irish Pub","phone":"4147636526","address":"2856 N Oakland Ave","lat":43.07068502465318,"lng":-87.88790300298064,"neighborhood":"Upper East Side","city_fetched":"Milwaukee,US","state":"WI","country":"United States","canonicalUrl":"https://foursquare.com/v/the-black-rose-irish-pub/4ad61a29f964a520140521e3","categoryId":"4bf58dd8d48988d116941735","category":"Bar","checkinsCount":10422,"usersCount":2250,"tipCount":37,"visitsCount":10625,"url":"http://theblackroseirishpub.com","tier":1,"message":"Cheap","currency":"$","rating":6.6},{"name":"Fairview Tap","phone":"4147712811","address":"6712 W Fairview Ave","lat":43.031478899999996,"lng":-87.99663601666667,"neighborhood":"Bluemound Heights","city_fetched":"Milwaukee,US","state":"WI","country":"United States","canonicalUrl":"https://foursquare.com/v/fairview-tap/4b997889f964a520b57c35e3","categoryId":"4bf58dd8d48988d118941735","category":"Dive Bar","checkinsCount":1089,"usersCount":266,"tipCount":14,"visitsCount":1137,"tier":1,"message":"Cheap","currency":"$","rating":6.6},{"name":"Showtime Sports Bar","phone":"4144314215","address":"11400 W Silver Spring Rd","lat":43.12002716261521,"lng":-88.0546959520906,"neighborhood":"Timmerman West","city_fetched":"Milwaukee,US","state":"WI","country":"United States","canonicalUrl":"https://foursquare.com/v/showtime-sports-bar/4d41064c7a516ea8416bc082","categoryId":"4bf58dd8d48988d11d941735","category":"Sports Bar","checkinsCount":1341,"usersCount":447,"tipCount":5,"visitsCount":1373,"tier":"","message":"","currency":"","rating":6.5},{"name":"Mason Jar","address":"645 N James Lovell St","lat":43.038652318708486,"lng":-87.9204447954862,"neighborhood":"Kilbourn Town","city_fetched":"Milwaukee,US","state":"WI","country":"United States","canonicalUrl":"https://foursquare.com/v/mason-jar/5300320911d27a2ee732fd75","categoryId":"4bf58dd8d48988d116941735","category":"Bar","checkinsCount":91,"usersCount":68,"tipCount":2,"visitsCount":93,"tier":"","message":"","currency":"","rating":6.5},{"name":"Best Friendz Klubhouse","phone":"4149889432","address":"2722 N Dr Martin Luther King Dr","lat":43.0682022134112,"lng":-87.91425730596599,"neighborhood":"Harambee","city_fetched":"Milwaukee,US","state":"WI","country":"United States","canonicalUrl":"https://foursquare.com/v/best-friendz-klubhouse/500b4652e4b052b69f453a79","categoryId":"4bf58dd8d48988d121941735","category":"Lounge","checkinsCount":710,"usersCount":224,"tipCount":8,"visitsCount":982,"tier":"","message":"","currency":"","rating":6.5},{"name":"Una Bar","phone":"4143272393","address":"4410 W Forest Home Ave","lat":42.98816621303558,"lng":-87.96981186,"neighborhood":"Jackson Park","city_fetched":"Milwaukee,US","state":"WI","country":"United States","canonicalUrl":"https://foursquare.com/v/una-bar/4b84a7c6f964a520d93f31e3","categoryId":"4bf58dd8d48988d116941735","category":"Bar","checkinsCount":1481,"usersCount":351,"tipCount":8,"visitsCount":1557,"tier":"","message":"","currency":"","rating":6.5},{"name":"Newsroom Pub","phone":"4142734900","address":"137 E Wells St","lat":43.04083,"lng":-87.910327,"neighborhood":"Juneau Town","city_fetched":"Milwaukee,US","state":"WI","country":"United States","canonicalUrl":"https://foursquare.com/v/newsroom-pub/4b05d996f964a5205ae422e3","categoryId":"4bf58dd8d48988d116941735","category":"Bar","checkinsCount":1141,"usersCount":801,"tipCount":4,"visitsCount":1141,"tier":"","message":"","currency":"","rating":6.5},{"name":"The Hotel Foster","phone":"4149884758","twitter":"thehotelfoster","address":"2028 E North Ave","lat":43.060202770601784,"lng":-87.88474960440013,"city_fetched":"Milwaukee,US","state":"WI","country":"United States","canonicalUrl":"https://foursquare.com/v/the-hotel-foster/4d6984e6c1655481f000ed81","categoryId":"4bf58dd8d48988d116941735","category":"Bar","checkinsCount":8897,"usersCount":3466,"tipCount":59,"visitsCount":8969,"url":"http://thehotelfoster.com","tier":2,"message":"Moderate","currency":"$","rating":6.5},{"name":"McGillycuddy's","phone":"4142788888","address":"1135 N Water St","lat":43.045405770829674,"lng":-87.91113450165477,"neighborhood":"Juneau Town","city_fetched":"Milwaukee,US","state":"WI","country":"United States","canonicalUrl":"https://foursquare.com/v/mcgillycuddys/4ae68eaef964a5201ea721e3","categoryId":"4bf58dd8d48988d11d941735","category":"Sports Bar","checkinsCount":19984,"usersCount":6225,"tipCount":56,"visitsCount":20447,"url":"http://mcgillycuddysmilwaukee.com","tier":1,"message":"Cheap","currency":"$","rating":6.5},{"name":"Jack's American Pub","phone":"4147632830","address":"1323 E Brady St","lat":43.0528506861098,"lng":-87.89475057696639,"neighborhood":"Lower East Side","city_fetched":"Milwaukee,US","state":"WI","country":"United States","canonicalUrl":"https://foursquare.com/v/jacks-american-pub/51e07fb4498eb7f2b5a7313e","categoryId":"4bf58dd8d48988d116941735","category":"Bar","checkinsCount":4873,"usersCount":1967,"tipCount":22,"visitsCount":5319,"url":"http://www.jacksamericanpub.com","tier":2,"message":"Moderate","currency":"$","rating":6.5},{"name":"The Newport","address":"939 E Conway St","lat":43.000590205192566,"lng":-87.896876,"neighborhood":"Bay View","city_fetched":"Milwaukee,US","state":"WI","country":"United States","canonicalUrl":"https://foursquare.com/v/the-newport/4ad7de39f964a520b20f21e3","categoryId":"4bf58dd8d48988d116941735","category":"Bar","checkinsCount":2159,"usersCount":866,"tipCount":9,"visitsCount":2806,"tier":1,"message":"Cheap","currency":"$","rating":6.5},{"name":"Milwaukeeâ€™s Firehouse Pub","phone":"4143835300","address":"2758 S 35th St","lat":42.994515644487464,"lng":-87.95781490413417,"city_fetched":"Milwaukee,US","state":"WI","country":"United States","canonicalUrl":"https://foursquare.com/v/milwaukees-firehouse-pub/4c3651201e06d13a2004743e","categoryId":"4bf58dd8d48988d116941735","category":"Bar","checkinsCount":1647,"usersCount":236,"tipCount":3,"visitsCount":1706,"tier":"","message":"","currency":"","rating":6.5},{"name":"On The Border","phone":"4147616440","address":"10741 S 27th St","lat":42.84999701055404,"lng":-87.95268058776855,"city_fetched":"Milwaukee,US","state":"WI","country":"United States","canonicalUrl":"https://foursquare.com/v/on-the-border/4bafeeecf964a520972c3ce3","categoryId":"4bf58dd8d48988d1d6941735","category":"Strip Club","checkinsCount":1294,"usersCount":939,"tipCount":2,"visitsCount":1715,"tier":"","message":"","currency":"","rating":6.5},{"name":"Henry's Pub & Grille","phone":"4143329690","address":"2523 E Belleview Pl","lat":43.06613113089394,"lng":-87.87853800636528,"city_fetched":"Milwaukee,US","state":"WI","country":"United States","canonicalUrl":"https://foursquare.com/v/henrys-pub--grille/4af504e0f964a52004f821e3","categoryId":"4bf58dd8d48988d11b941735","category":"Pub","checkinsCount":2873,"usersCount":813,"tipCount":18,"visitsCount":2890,"url":"http://henrysonbelleview.com","tier":"","message":"","currency":"","rating":6.4},{"name":"Leinenkugel Brewery","phone":"4149313900","address":"1515 N 10th St","lat":43.05155370175147,"lng":-87.92531947426502,"neighborhood":"Hillside","city_fetched":"Milwaukee,US","state":"WI","country":"United States","canonicalUrl":"https://foursquare.com/v/leinenkugel-brewery/4bd730e9e914a593c5b150fa","categoryId":"50327c8591d4c4b30a586d5d","category":"Brewery","checkinsCount":634,"usersCount":261,"tipCount":2,"visitsCount":687,"tier":"","message":"","currency":"","rating":6.4},{"name":"O'Connors Perfect Pint","phone":"4142571898","address":"8423 W Greenfield Ave","lat":43.01653808971552,"lng":-88.01792325597052,"city_fetched":"Milwaukee,US","state":"WI","country":"United States","canonicalUrl":"https://foursquare.com/v/oconnors-perfect-pint/4ae39652f964a520f99621e3","categoryId":"4bf58dd8d48988d11b941735","category":"Pub","checkinsCount":2877,"usersCount":786,"tipCount":13,"visitsCount":3257,"tier":1,"message":"Cheap","currency":"$","rating":6.4},{"name":"Mikey's","phone":"4149375185","twitter":"mikeysmilwaukee","address":"811 N Jefferson St","lat":43.04156771413455,"lng":-87.90539601987395,"neighborhood":"Juneau Town","city_fetched":"Milwaukee,US","state":"WI","country":"United States","canonicalUrl":"https://foursquare.com/v/mikeys/4ad7d7f8f964a520530f21e3","categoryId":"4bf58dd8d48988d116941735","category":"Bar","checkinsCount":7694,"usersCount":2695,"tipCount":28,"visitsCount":7858,"url":"http://www.mikeysmilwaukee.com","tier":3,"message":"Expensive","currency":"$","rating":6.4},{"name":"BarNone","phone":"4142266969","twitter":"barnonemke","address":"1139 N Water St","lat":43.04551500583038,"lng":-87.91118681430817,"neighborhood":"Juneau Town","city_fetched":"Milwaukee,US","state":"WI","country":"United States","canonicalUrl":"https://foursquare.com/v/barnone/4aee2134f964a52062d221e3","categoryId":"4bf58dd8d48988d116941735","category":"Bar","checkinsCount":9003,"usersCount":1596,"tipCount":31,"visitsCount":9073,"url":"http://www.barnonemilwaukee.com","tier":2,"message":"Moderate","currency":"$","rating":6.4},{"name":"Rookies Sports Club","phone":"4144829700","address":"3915 S Howell Ave","lat":42.97334969043732,"lng":-87.90980279445648,"neighborhood":"Tippecanoe","city_fetched":"Milwaukee,US","state":"WI","country":"United States","canonicalUrl":"https://foursquare.com/v/rookies-sports-club/4ae3e3ddf964a5207c9921e3","categoryId":"4bf58dd8d48988d11d941735","category":"Sports Bar","checkinsCount":1690,"usersCount":580,"tipCount":11,"visitsCount":1730,"tier":"","message":"","currency":"","rating":6.4},{"name":"Coffeetails","address":"1506 N Van Buren","lat":43.04959952831268,"lng":-87.903318,"neighborhood":"Lower East Side","city_fetched":"Milwaukee,US","state":"WI","country":"United States","canonicalUrl":"https://foursquare.com/v/coffeetails/4bf5df67004ed13abf9241a0","categoryId":"4bf58dd8d48988d118941735","category":"Dive Bar","checkinsCount":2112,"usersCount":69,"tipCount":2,"visitsCount":2123,"tier":"","message":"","currency":"","rating":6.4},{"name":"Duke's on Water","phone":"4142210621","address":"158 E Juneau Ave","lat":43.04574600309449,"lng":-87.91114408114248,"neighborhood":"Juneau Town","city_fetched":"Milwaukee,US","state":"WI","country":"United States","canonicalUrl":"https://foursquare.com/v/dukes-on-water/4ad96239f964a520091a21e3","categoryId":"4bf58dd8d48988d116941735","category":"Bar","checkinsCount":15715,"usersCount":5117,"tipCount":38,"visitsCount":15885,"tier":1,"message":"Cheap","currency":"$","rating":6.4},{"name":"Paje' Restaurant & Lounge","phone":"4142657227","address":"2213 N Dr Martin Luther King Dr","lat":43.05944920102991,"lng":-87.91436267286083,"neighborhood":"Halyard Park","city_fetched":"Milwaukee,US","state":"WI","country":"United States","canonicalUrl":"https://foursquare.com/v/paje-restaurant--lounge/5019989fe4b093d4aff7ee89","categoryId":"4bf58dd8d48988d121941735","category":"Lounge","checkinsCount":318,"usersCount":165,"tipCount":7,"visitsCount":318,"tier":"","message":"","currency":"","rating":6.4},{"name":"Rascals","phone":"4142247084","address":"2311 N Murray Ave","lat":43.060487067637155,"lng":-87.8857433795929,"city_fetched":"Milwaukee,US","state":"WI","country":"United States","canonicalUrl":"https://foursquare.com/v/rascals/4ade284bf964a520747321e3","categoryId":"4bf58dd8d48988d120941735","category":"Karaoke Bar","checkinsCount":8644,"usersCount":2558,"tipCount":39,"visitsCount":8700,"tier":1,"message":"Cheap","currency":"$","rating":6.3},{"name":"Gard's","address":"7170 W Burleigh St","lat":43.07540637542556,"lng":-88.00208522153243,"neighborhood":"Enderis Park","city_fetched":"Milwaukee,US","state":"WI","country":"United States","canonicalUrl":"https://foursquare.com/v/gards/4b493f7cf964a520576b26e3","categoryId":"4bf58dd8d48988d11d941735","category":"Sports Bar","checkinsCount":408,"usersCount":125,"tipCount":3,"visitsCount":599,"tier":"","message":"","currency":"","rating":6.3},{"name":"Hampton House Tavern","phone":"4144612108","address":"5403 W Hampton Ave","lat":43.10467069682049,"lng":-87.98090485697112,"city_fetched":"Milwaukee,US","state":"WI","country":"United States","canonicalUrl":"https://foursquare.com/v/hampton-house-tavern/4bb818563db7b7133609219a","categoryId":"4bf58dd8d48988d116941735","category":"Bar","checkinsCount":606,"usersCount":114,"tipCount":11,"visitsCount":812,"tier":"","message":"","currency":"","rating":6.3},{"name":"CuvÃ©e","phone":"4142259800","address":"177 N Broadway","lat":43.032107,"lng":-87.90748,"neighborhood":"Historic Third Ward","city_fetched":"Milwaukee,US","state":"WI","country":"United States","canonicalUrl":"https://foursquare.com/v/cuv%C3%A9e/4b063265f964a520a7e922e3","categoryId":"4bf58dd8d48988d11e941735","category":"Cocktail Bar","checkinsCount":1106,"usersCount":865,"tipCount":8,"visitsCount":1126,"tier":"","message":"","currency":"","rating":6.3},{"name":"Club Onyx","phone":"4144646699","twitter":"milwaukeeonyx","address":"3120 W Villard Ave","lat":43.11204098925388,"lng":-87.9523264699688,"neighborhood":"Old North Milwaukee","city_fetched":"Milwaukee,US","state":"WI","country":"United States","canonicalUrl":"https://foursquare.com/v/club-onyx/4c660cfd19f3c9b6b1289fff","categoryId":"4bf58dd8d48988d11f941735","category":"Nightclub","checkinsCount":1354,"usersCount":363,"tipCount":2,"visitsCount":1439,"url":"http://www.milwaukeeonyx.com","tier":"","message":"","currency":"","rating":6.3},{"name":"The Monarch Lounge","phone":"4142717250","twitter":"hiltonmilwaukee","address":"509 W Wisconsin Ave","lat":43.03857946254484,"lng":-87.91772603988647,"neighborhood":"Kilbourn Town","city_fetched":"Milwaukee,US","state":"WI","country":"United States","canonicalUrl":"https://foursquare.com/v/the-monarch-lounge/501be4d1e4b0d84830e09257","categoryId":"4bf58dd8d48988d11e941735","category":"Cocktail Bar","checkinsCount":585,"usersCount":282,"tipCount":5,"visitsCount":590,"url":"http://www.hiltonmilwaukee.com/downtown-milwaukee-dining/monarch-lounge.asp","tier":2,"message":"Moderate","currency":"$","rating":6.3},{"name":"WXYZ Lounge","phone":"4142260122","address":"1230 N Old World 3rd St","lat":43.046101787724304,"lng":-87.91404657143153,"neighborhood":"Kilbourn Town","city_fetched":"Milwaukee,US","state":"WI","country":"United States","canonicalUrl":"https://foursquare.com/v/wxyz-lounge/4b3d859ef964a520299525e3","categoryId":"4bf58dd8d48988d121941735","category":"Lounge","checkinsCount":1085,"usersCount":489,"tipCount":7,"visitsCount":1087,"url":"http://www.aloftmilwaukeedowntown.com/wxyz-bar-in-milwaukee","tier":"","message":"","currency":"","rating":6.2},{"name":"Comfort Zone","lat":43.09508972372051,"lng":-87.98227256214336,"city_fetched":"Milwaukee,US","state":"WI","country":"United States","canonicalUrl":"https://foursquare.com/v/comfort-zone/4c1475f677cea59307c3d060","categoryId":"4bf58dd8d48988d116941735","category":"Bar","checkinsCount":390,"usersCount":197,"tipCount":2,"visitsCount":414,"tier":"","message":"","currency":"","rating":6.2},{"name":"Scooter's Pub","phone":"4142747201","address":"158 E Juneau Ave","lat":43.04570801480722,"lng":-87.91120634776263,"neighborhood":"Juneau Town","city_fetched":"Milwaukee,US","state":"WI","country":"United States","canonicalUrl":"https://foursquare.com/v/scooters-pub/4ad96167f964a520071a21e3","categoryId":"4bf58dd8d48988d11b941735","category":"Pub","checkinsCount":10728,"usersCount":2649,"tipCount":27,"visitsCount":10841,"tier":1,"message":"Cheap","currency":"$","rating":6.2},{"name":"Airport Lounge","phone":"4147471142","address":"5881 S Howell Ave","lat":42.93782145673297,"lng":-87.91002326715827,"neighborhood":"Mitchell Field","city_fetched":"Milwaukee,US","state":"WI","country":"United States","canonicalUrl":"https://foursquare.com/v/airport-lounge/4b7ed05cf964a520620130e3","categoryId":"4bf58dd8d48988d1d6941735","category":"Strip Club","checkinsCount":1721,"usersCount":548,"tipCount":5,"visitsCount":1744,"url":"http://www.airportlounge.com","tier":"","message":"","currency":"","rating":6.2},{"name":"John Hawks Pub","phone":"4142723199","address":"100 E Wisconsin Ave","lat":43.039047142549336,"lng":-87.9100567961892,"neighborhood":"Juneau Town","city_fetched":"Milwaukee,US","state":"WI","country":"United States","canonicalUrl":"https://foursquare.com/v/john-hawks-pub/4b3071cdf964a520a5f924e3","categoryId":"4bf58dd8d48988d11b941735","category":"Pub","checkinsCount":4108,"usersCount":1907,"tipCount":32,"visitsCount":4123,"url":"http://www.johnhawkspub.com","tier":2,"message":"Moderate","currency":"$","rating":6.2},{"name":"ENVY Nightclub","phone":"4146716666","twitter":"envymilwaukee","address":"715 S 5th St","lat":43.023826090488406,"lng":-87.91726495426678,"neighborhood":"Walker's Point","city_fetched":"Milwaukee,US","state":"WI","country":"United States","canonicalUrl":"https://foursquare.com/v/envy-nightclub/4b21d640f964a520d84124e3","categoryId":"4bf58dd8d48988d11f941735","category":"Nightclub","checkinsCount":1336,"usersCount":300,"tipCount":6,"visitsCount":1343,"tier":"","message":"","currency":"","rating":6.1},{"name":"Cutting Room","address":"400 N Water St","lat":43.03515865079332,"lng":-87.9081216509899,"neighborhood":"Juneau Town","city_fetched":"Milwaukee,US","state":"WI","country":"United States","canonicalUrl":"https://foursquare.com/v/cutting-room/509d5ecce4b051548d6075af","categoryId":"4bf58dd8d48988d117941735","category":"Beer Garden","checkinsCount":180,"usersCount":88,"tipCount":2,"visitsCount":180,"tier":"","message":"","currency":"","rating":6.1},{"name":"Kip's Inn","phone":"4142588650","address":"837 S 108th St","lat":43.02210995368708,"lng":-88.04723784718166,"city_fetched":"Milwaukee,US","state":"WI","country":"United States","canonicalUrl":"https://foursquare.com/v/kips-inn/4af65519f964a520180322e3","categoryId":"4bf58dd8d48988d116941735","category":"Bar","checkinsCount":1436,"usersCount":578,"tipCount":11,"visitsCount":1838,"tier":1,"message":"Cheap","currency":"$","rating":6.1},{"name":"Dale Z.'s On Tour","phone":"4144832030","twitter":"dalezsontour","address":"3585 S Howell Ave","lat":42.97941207885742,"lng":-87.90875244140625,"neighborhood":"Tippecanoe","city_fetched":"Milwaukee,US","state":"WI","country":"United States","canonicalUrl":"https://foursquare.com/v/dale-zs-on-tour/5168639be4b01483be54acac","categoryId":"4bf58dd8d48988d11d941735","category":"Sports Bar","checkinsCount":377,"usersCount":137,"tipCount":1,"visitsCount":463,"url":"http://dalezsontour-hub.com","tier":"","message":"","currency":"","rating":6.1},{"name":"The Fire Pit Sports Bar & Grill","phone":"4148477993","twitter":"paysbig","address":"1721 W Canal St","lat":43.03071658401459,"lng":-87.93521085166233,"neighborhood":"Menomonee River Valley","city_fetched":"Milwaukee,US","state":"WI","country":"United States","canonicalUrl":"https://foursquare.com/v/the-fire-pit-sports-bar--grill/4de83d1bc65b72347a0bfe51","categoryId":"4bf58dd8d48988d11d941735","category":"Sports Bar","checkinsCount":2957,"usersCount":1052,"tipCount":20,"visitsCount":2994,"url":"http://paysbig.com/dining/the-fire-pit/the-fire-pits-side-bar/","tier":2,"message":"Moderate","currency":"$","rating":6.1},{"name":"Thurman's 15","phone":"4142241080","address":"1731 N Arlington Pl","lat":43.053617894956176,"lng":-87.89508819580078,"neighborhood":"Lower East Side","city_fetched":"Milwaukee,US","state":"WI","country":"United States","canonicalUrl":"https://foursquare.com/v/thurmans-15/4b35b490f964a5209c2e25e3","categoryId":"4bf58dd8d48988d116941735","category":"Bar","checkinsCount":2145,"usersCount":769,"tipCount":12,"visitsCount":2193,"tier":"","message":"","currency":"","rating":6.1},{"name":"Eastsider Bar","phone":"4143950069","twitter":"eastsiderbar","address":"1732 E North Ave","lat":43.06021858660814,"lng":-87.88817882537842,"city_fetched":"Milwaukee,US","state":"WI","country":"United States","canonicalUrl":"https://foursquare.com/eastsiderbar","categoryId":"4bf58dd8d48988d116941735","category":"Bar","checkinsCount":15336,"usersCount":2995,"tipCount":51,"visitsCount":15670,"url":"http://www.eastsiderbar.com","tier":1,"message":"Cheap","currency":"$","rating":6.1},{"name":"Brass Monkey Milwaukee","phone":"4144860484","address":"700 E Layton Ave","lat":42.95950231595188,"lng":-87.90128570332352,"neighborhood":"Town of Lake","city_fetched":"Milwaukee,US","state":"WI","country":"United States","canonicalUrl":"https://foursquare.com/v/brass-monkey-milwaukee/4e66d42fd16433b90019e18a","categoryId":"4bf58dd8d48988d116941735","category":"Bar","checkinsCount":2121,"usersCount":957,"tipCount":17,"visitsCount":2490,"tier":2,"message":"Moderate","currency":"$","rating":6.1},{"name":"Murphy's Irish Pub","phone":"4143440116","twitter":"murphysmu","address":"1613 W Wells St","lat":43.04018121217283,"lng":-87.93335339315635,"neighborhood":"Marquette","city_fetched":"Milwaukee,US","state":"WI","country":"United States","canonicalUrl":"https://foursquare.com/v/murphys-irish-pub/4ad93ec0f964a520621921e3","categoryId":"4bf58dd8d48988d116941735","category":"Bar","checkinsCount":6126,"usersCount":1175,"tipCount":38,"visitsCount":6150,"url":"http://murphyslawpub.com","tier":1,"message":"Cheap","currency":"$","rating":6.1},{"name":"Nostalgia II","phone":"4144633880","address":"9316 W Appleton Ave","lat":43.11495061383482,"lng":-88.02841033367544,"city_fetched":"Milwaukee,US","state":"WI","country":"United States","canonicalUrl":"https://foursquare.com/v/nostalgia-ii/4b982975f964a5209d3035e3","categoryId":"4bf58dd8d48988d121941735","category":"Lounge","checkinsCount":521,"usersCount":291,"tipCount":8,"visitsCount":592,"tier":"","message":"","currency":"","rating":6.1},{"name":"Encore Strip Club","phone":"4142570234","address":"101 S Dana Ct","lat":43.03133085980487,"lng":-87.98508913719034,"neighborhood":"Story Hill","city_fetched":"Milwaukee,US","state":"WI","country":"United States","canonicalUrl":"https://foursquare.com/v/encore-strip-club/4bca9dfd68f976b024da5f83","categoryId":"4bf58dd8d48988d1d6941735","category":"Strip Club","checkinsCount":932,"usersCount":557,"tipCount":6,"visitsCount":1224,"tier":"","message":"","currency":"","rating":6.1},{"name":"Up & Under Pub","phone":"4142762677","address":"1216 E Brady St","lat":43.05307303177525,"lng":-87.89627373218536,"neighborhood":"Lower East Side","city_fetched":"Milwaukee,US","state":"WI","country":"United States","canonicalUrl":"https://foursquare.com/v/up--under-pub/4ad94bb4f964a520a51921e3","categoryId":"4bf58dd8d48988d120941735","category":"Karaoke Bar","checkinsCount":5194,"usersCount":1964,"tipCount":25,"visitsCount":5328,"tier":"","message":"","currency":"","rating":6.1},{"name":"Victor's","phone":"4142722522","twitter":"vicsnightclub","address":"1230 N Van Buren St","lat":43.0461295912708,"lng":-87.90347504478667,"neighborhood":"Yankee Hill","city_fetched":"Milwaukee,US","state":"WI","country":"United States","canonicalUrl":"https://foursquare.com/v/victors/4ae3f11cf964a520a89921e3","categoryId":"4bf58dd8d48988d11f941735","category":"Nightclub","checkinsCount":8261,"usersCount":3379,"tipCount":48,"visitsCount":8903,"url":"http://www.victorsnightclub.com","tier":2,"message":"Moderate","currency":"$","rating":6},{"name":"Vitucci's","phone":"4142736477","twitter":"vituccis","address":"1832 E North Ave","lat":43.06026170042924,"lng":-87.88701474666595,"city_fetched":"Milwaukee,US","state":"WI","country":"United States","canonicalUrl":"https://foursquare.com/v/vituccis/4607cd3df964a520d9441fe3","categoryId":"4bf58dd8d48988d116941735","category":"Bar","checkinsCount":10598,"usersCount":3626,"tipCount":38,"visitsCount":10761,"url":"http://www.vituccis.com","tier":2,"message":"Moderate","currency":"$","rating":6},{"name":"Brooklyn's Restaurant","phone":"4144428330","address":"4610 W Fond du Lac Ave","lat":43.08649545808837,"lng":-87.97197069968173,"neighborhood":"Roosevelt Grove","city_fetched":"Milwaukee,US","state":"WI","country":"United States","canonicalUrl":"https://foursquare.com/v/brooklyns-restaurant/4bef446ef2712d7fcc91fbd8","categoryId":"4bf58dd8d48988d116941735","category":"Bar","checkinsCount":555,"usersCount":242,"tipCount":4,"visitsCount":602,"tier":"","message":"","currency":"","rating":6},{"name":"Bistro 333","phone":"4142706130","address":"333 W Kilbourn Ave","lat":43.04097895909885,"lng":-87.9149580001831,"neighborhood":"Kilbourn Town","city_fetched":"Milwaukee,US","state":"WI","country":"United States","canonicalUrl":"https://foursquare.com/v/bistro-333/4b718e73f964a520424d2de3","categoryId":"4bf58dd8d48988d1d5941735","category":"Hotel Bar","checkinsCount":1233,"usersCount":800,"tipCount":13,"visitsCount":1234,"tier":"","message":"","currency":"","rating":6},{"name":"Halliday's Lounge","phone":"4142789290","address":"1729 N Farwell Ave","lat":43.05353753774099,"lng":-87.89197951555252,"neighborhood":"Lower East Side","city_fetched":"Milwaukee,US","state":"WI","country":"United States","canonicalUrl":"https://foursquare.com/v/hallidays-lounge/4ade3ba1f964a520247421e3","categoryId":"4bf58dd8d48988d116941735","category":"Bar","checkinsCount":2171,"usersCount":635,"tipCount":6,"visitsCount":2219,"tier":"","message":"","currency":"","rating":6},{"name":"lux","address":"2712 N Dr Martin Luther King Dr","lat":43.06793951412764,"lng":-87.91410404458486,"neighborhood":"Harambee","city_fetched":"Milwaukee,US","state":"WI","country":"United States","canonicalUrl":"https://foursquare.com/v/lux/5539d35d498edd70d750a997","categoryId":"4bf58dd8d48988d121941735","category":"Lounge","checkinsCount":68,"usersCount":41,"tipCount":0,"visitsCount":99,"tier":"","message":"","currency":"","rating":6},{"name":"Aviator Sports Bar & Grille","phone":"4148313659","twitter":"aviatormke","address":"5105 S Howell Ave","lat":42.9515219449532,"lng":-87.91084711606936,"neighborhood":"Holler Park","city_fetched":"Milwaukee,US","state":"WI","country":"United States","canonicalUrl":"https://foursquare.com/aviatormke","categoryId":"4bf58dd8d48988d116941735","category":"Bar","checkinsCount":653,"usersCount":386,"tipCount":9,"visitsCount":671,"url":"http://aviatorbargrillemilwaukee.com","tier":"","message":"","currency":"","rating":6},{"name":"Bay Street Pub","address":"338 E Bay St","lat":43.00624430179596,"lng":-87.90572614,"neighborhood":"Bay View","city_fetched":"Milwaukee,US","state":"WI","country":"United States","canonicalUrl":"https://foursquare.com/v/bay-street-pub/4bf1e267324cc9b61498cc92","categoryId":"4bf58dd8d48988d116941735","category":"Bar","checkinsCount":431,"usersCount":193,"tipCount":3,"visitsCount":452,"tier":"","message":"","currency":"","rating":6},{"name":"Aris sports bar","lat":43.01208000528943,"lng":-88.04717577061281,"city_fetched":"Milwaukee,US","state":"WI","country":"United States","canonicalUrl":"https://foursquare.com/v/aris-sports-bar/4f07a018e4b0540ca14b0116","categoryId":"4bf58dd8d48988d116941735","category":"Bar","checkinsCount":580,"usersCount":296,"tipCount":7,"visitsCount":623,"tier":"","message":"","currency":"","rating":5.9},{"name":"Yield Bar","phone":"4143191170","address":"1932 E Kenilworth Pl","lat":43.05884955399234,"lng":-87.88538701136696,"neighborhood":"Lower East Side","city_fetched":"Milwaukee,US","state":"WI","country":"United States","canonicalUrl":"https://foursquare.com/v/yield-bar/4aea3ccbf964a5206dba21e3","categoryId":"4bf58dd8d48988d116941735","category":"Bar","checkinsCount":8366,"usersCount":2514,"tipCount":26,"visitsCount":8562,"tier":1,"message":"Cheap","currency":"$","rating":5.9},{"name":"Leinie Lodge","lat":43.03411650436745,"lng":-87.89874650800216,"neighborhood":"Historic Third Ward","city_fetched":"Milwaukee,US","state":"WI","country":"United States","canonicalUrl":"https://foursquare.com/v/leinie-lodge/4c28082b3492a59381deb628","categoryId":"4bf58dd8d48988d117941735","category":"Beer Garden","checkinsCount":516,"usersCount":401,"tipCount":1,"visitsCount":521,"tier":"","message":"","currency":"","rating":5.8},{"name":"Bay View Sports Bar & Grill","phone":"4144813969","address":"2327 S Kinnickinnic Ave","lat":43.00242233695254,"lng":-87.90390140298527,"neighborhood":"Bay View","city_fetched":"Milwaukee,US","state":"WI","country":"United States","canonicalUrl":"https://foursquare.com/v/bay-view-sports-bar--grill/4b2dbf5ef964a5200bdb24e3","categoryId":"4bf58dd8d48988d11d941735","category":"Sports Bar","checkinsCount":1520,"usersCount":492,"tipCount":14,"visitsCount":1541,"tier":"","message":"","currency":"","rating":5.8},{"name":"Club Brady","phone":"4142780188","address":"1339 E Brady St","lat":43.052876,"lng":-87.8942142,"neighborhood":"Lower East Side","city_fetched":"Milwaukee,US","state":"WI","country":"United States","canonicalUrl":"https://foursquare.com/v/club-brady/4b2da48cf964a520ebd924e3","categoryId":"4bf58dd8d48988d116941735","category":"Bar","checkinsCount":8196,"usersCount":1902,"tipCount":36,"visitsCount":8346,"tier":2,"message":"Moderate","currency":"$","rating":5.8},{"name":"Mark's Sports Pub","phone":"4144814993","address":"4035 S Clement Ave","lat":42.9711142,"lng":-87.894394,"neighborhood":"Tippecanoe","city_fetched":"Milwaukee,US","state":"WI","country":"United States","canonicalUrl":"https://foursquare.com/v/marks-sports-pub/4b9c520bf964a520315f36e3","categoryId":"4bf58dd8d48988d118941735","category":"Dive Bar","checkinsCount":597,"usersCount":197,"tipCount":7,"visitsCount":688,"tier":"","message":"","currency":"","rating":5.8},{"name":"Eric's Setback","phone":"4147610287","address":"6357 S 27th St","lat":42.92915704046134,"lng":-87.94986674319158,"city_fetched":"Milwaukee,US","state":"WI","country":"United States","canonicalUrl":"https://foursquare.com/v/erics-setback/4c901c5d590ab1f7a1d4e47d","categoryId":"4bf58dd8d48988d116941735","category":"Bar","checkinsCount":436,"usersCount":115,"tipCount":4,"visitsCount":484,"tier":1,"message":"Cheap","currency":"$","rating":5.8},{"name":"The Harbor Room","phone":"4146727988","address":"117 E Greenfield Ave","lat":43.017084311317014,"lng":-87.91119676828825,"city_fetched":"Milwaukee,US","state":"WI","country":"United States","canonicalUrl":"https://foursquare.com/v/the-harbor-room/4ad7db6cf964a5208b0f21e3","categoryId":"4bf58dd8d48988d1d8941735","category":"Gay Bar","checkinsCount":4842,"usersCount":581,"tipCount":14,"visitsCount":5133,"tier":3,"message":"Expensive","currency":"$","rating":5.8},{"name":"Scuttlebutt Sports Lounge","phone":"4142811447","address":"5175 S 27th St","lat":42.95067385548982,"lng":-87.94896704270266,"city_fetched":"Milwaukee,US","state":"WI","country":"United States","canonicalUrl":"https://foursquare.com/v/scuttlebutt-sports-lounge/4bfc6f76b5cd2d7fb19c31fb","categoryId":"4bf58dd8d48988d116941735","category":"Bar","checkinsCount":2654,"usersCount":265,"tipCount":4,"visitsCount":2660,"tier":"","message":"","currency":"","rating":5.8},{"name":"Buckhead Saloon","phone":"4143900233","address":"1044 N Old World 3rd St","lat":43.044005641169065,"lng":-87.91431427001953,"neighborhood":"Kilbourn Town","city_fetched":"Milwaukee,US","state":"WI","country":"United States","canonicalUrl":"https://foursquare.com/v/buckhead-saloon/4ae11345f964a5200f8521e3","categoryId":"4bf58dd8d48988d116941735","category":"Bar","checkinsCount":8926,"usersCount":3642,"tipCount":18,"visitsCount":9049,"url":"http://buckheadmilwaukee.com","tier":2,"message":"Moderate","currency":"$","rating":5.7},{"name":"The School Yard Bar & Grill","phone":"4142918990","twitter":"schoolyardmke","address":"1815 E Kenilworth Pl","lat":43.05987986982059,"lng":-87.8877208978536,"neighborhood":"Lower East Side","city_fetched":"Milwaukee,US","state":"WI","country":"United States","canonicalUrl":"https://foursquare.com/v/the-school-yard-bar--grill/5335ffdd498ea485121f11a3","categoryId":"4bf58dd8d48988d116941735","category":"Bar","checkinsCount":595,"usersCount":322,"tipCount":2,"visitsCount":649,"url":"http://www.schoolyardmke.com","tier":2,"message":"Moderate","currency":"$","rating":5.7},{"name":"Impala Lounge","address":"701 E Center St","lat":43.0673755998564,"lng":-87.90271812921516,"neighborhood":"Riverwest","city_fetched":"Milwaukee,US","state":"WI","country":"United States","canonicalUrl":"https://foursquare.com/v/impala-lounge/4f88ecfee4b0b1c4af4c80d1","categoryId":"4bf58dd8d48988d116941735","category":"Bar","checkinsCount":740,"usersCount":391,"tipCount":8,"visitsCount":802,"tier":"","message":"","currency":"","rating":5.7},{"name":"II Sweet International Delights","phone":"4149630202","address":"2128 E Locust St","lat":43.07104753185427,"lng":-87.88315102458,"neighborhood":"Upper East Side","city_fetched":"Milwaukee,US","state":"WI","country":"United States","canonicalUrl":"https://foursquare.com/v/ii-sweet-international-delights/4b9d89f0f964a52098b236e3","categoryId":"4bf58dd8d48988d119941735","category":"Hookah Bar","checkinsCount":2379,"usersCount":750,"tipCount":14,"visitsCount":2451,"tier":"","message":"","currency":"","rating":5.6},{"name":"Bruno's on Brady","phone":"4142731085","address":"1329 E Brady St","lat":43.052968,"lng":-87.894472,"neighborhood":"Lower East Side","city_fetched":"Milwaukee,US","state":"WI","country":"United States","canonicalUrl":"https://foursquare.com/v/brunos-on-brady/4b890870f964a520241932e3","categoryId":"4bf58dd8d48988d116941735","category":"Bar","checkinsCount":1218,"usersCount":465,"tipCount":11,"visitsCount":1218,"tier":"","message":"","currency":"","rating":5.6},{"name":"Miller Brewhouse","twitter":"hmshost","address":"Main Terminal","lat":42.94759661605926,"lng":-87.90217678301238,"neighborhood":"Mitchell Field","city_fetched":"Milwaukee,US","state":"WI","country":"United States","canonicalUrl":"https://foursquare.com/v/miller-brewhouse/4f9ab1dad4f2465542bc66c5","categoryId":"4bf58dd8d48988d11b941735","category":"Pub","checkinsCount":1453,"usersCount":1156,"tipCount":16,"visitsCount":1453,"tier":"","message":"","currency":"","rating":5.6},{"name":"The Library Club","phone":"4142723337","twitter":"libraryclubmke","address":"1905 E North Ave","lat":43.0599236794511,"lng":-87.88663783628272,"neighborhood":"Lower East Side","city_fetched":"Milwaukee,US","state":"WI","country":"United States","canonicalUrl":"https://foursquare.com/v/the-library-club/4e9f9eded3e3291fde04433c","categoryId":"4bf58dd8d48988d11f941735","category":"Nightclub","checkinsCount":3443,"usersCount":1479,"tipCount":20,"visitsCount":3443,"url":"http://www.thelibraryclubmke.com","tier":"","message":"","currency":"","rating":5.5},{"name":"Treats","phone":"4142657054","address":"Humboldt Ave","lat":43.05949821,"lng":-87.898157,"neighborhood":"Riverwest","city_fetched":"Milwaukee,US","state":"WI","country":"United States","canonicalUrl":"https://foursquare.com/v/treats/4ba6e039f964a520de7439e3","categoryId":"4bf58dd8d48988d116941735","category":"Bar","checkinsCount":406,"usersCount":210,"tipCount":3,"visitsCount":416,"tier":"","message":"","currency":"","rating":5.5},{"name":"R.C.'s Beer Garden","phone":"4142731100","address":"1530 E North Ave","lat":43.06036164598889,"lng":-87.89080202579498,"neighborhood":"Riverside Park","city_fetched":"Milwaukee,US","state":"WI","country":"United States","canonicalUrl":"https://foursquare.com/v/rcs-beer-garden/4b475571f964a520272f26e3","categoryId":"4bf58dd8d48988d116941735","category":"Bar","checkinsCount":3818,"usersCount":1348,"tipCount":15,"visitsCount":4072,"tier":2,"message":"Moderate","currency":"$","rating":5.5},{"name":"Ice House","phone":"4146720320","address":"4238 W Orchard St","lat":43.01605045795441,"lng":-87.96735388,"neighborhood":"Burnham Park","city_fetched":"Milwaukee,US","state":"WI","country":"United States","canonicalUrl":"https://foursquare.com/v/ice-house/4af13cfcf964a520e5e021e3","categoryId":"4bf58dd8d48988d116941735","category":"Bar","checkinsCount":863,"usersCount":313,"tipCount":8,"visitsCount":884,"tier":"","message":"","currency":"","rating":5.5},{"name":"Art's Performing Center","phone":"4142718288","address":"144 E Juneau Ave","lat":43.04582043174562,"lng":-87.9115751559663,"neighborhood":"Juneau Town","city_fetched":"Milwaukee,US","state":"WI","country":"United States","canonicalUrl":"https://foursquare.com/v/arts-performing-center/4b6e6d7cf964a52011bd2ce3","categoryId":"4bf58dd8d48988d1d6941735","category":"Strip Club","checkinsCount":798,"usersCount":527,"tipCount":7,"visitsCount":799,"tier":"","message":"","currency":"","rating":5.5},{"name":"Rosie's Waterworks","phone":"4142747213","address":"1111 N Water St","lat":43.044945641174984,"lng":-87.9112398759068,"neighborhood":"Juneau Town","city_fetched":"Milwaukee,US","state":"WI","country":"United States","canonicalUrl":"https://foursquare.com/v/rosies-waterworks/4ad96459f964a5200c1a21e3","categoryId":"4bf58dd8d48988d116941735","category":"Bar","checkinsCount":6191,"usersCount":3172,"tipCount":29,"visitsCount":6236,"url":"http://www.rosieswaterworks.com","tier":1,"message":"Cheap","currency":"$","rating":5.4},{"name":"Wild Bill's Sports Saloon","phone":"4148376015","address":"789 W Layton Ave","lat":42.959009,"lng":-87.921971,"city_fetched":"Milwaukee,US","state":"WI","country":"United States","canonicalUrl":"https://foursquare.com/v/wild-bills-sports-saloon/532e1713498ee7a9117e0e32","categoryId":"4bf58dd8d48988d11d941735","category":"Sports Bar","checkinsCount":579,"usersCount":330,"tipCount":8,"visitsCount":653,"tier":1,"message":"Cheap","currency":"$","rating":5.4},{"name":"Aura","phone":"4142721011","address":"1101 N Astor St","lat":43.04417241494811,"lng":-87.899699920867,"neighborhood":"Yankee Hill","city_fetched":"Milwaukee,US","state":"WI","country":"United States","canonicalUrl":"https://foursquare.com/v/aura/4bdcd094afe8c9b6a42e5185","categoryId":"4bf58dd8d48988d11e941735","category":"Cocktail Bar","checkinsCount":595,"usersCount":405,"tipCount":7,"visitsCount":639,"url":"http://www.aquamilwaukee.com","tier":"","message":"","currency":"","rating":5.3},{"name":"Coyote Ugly Saloon","phone":"4142718459","address":"1131 N Water St","lat":43.04524,"lng":-87.91124402950327,"neighborhood":"Juneau Town","city_fetched":"Milwaukee,US","state":"WI","country":"United States","canonicalUrl":"https://foursquare.com/v/coyote-ugly-saloon/4d4c4a757aa6a35db39ed570","categoryId":"4bf58dd8d48988d116941735","category":"Bar","checkinsCount":4692,"usersCount":2262,"tipCount":53,"visitsCount":4726,"url":"http://www.coyoteuglysaloon.com","tier":"","message":"","currency":"","rating":4.9}]