[{"name":"Surly Brewing Company","phone":"7639994040","twitter":"surlybrewing","address":"520 Malcolm Ave SE","lat":44.97319711453495,"lng":-93.21001639622052,"neighborhood":"University","city_fetched":"Minneapolis","state":"MN","country":"United States","canonicalUrl":"https://foursquare.com/v/surly-brewing-company/52190bad11d28f3e1ce73946","category":"Brewery","checkinsCount":7273,"usersCount":6527,"tipCount":92,"visitsCount":11961,"url":"http://surlybrewing.com/breweries-tap-room/","tier":1,"message":"Cheap","currency":"$","rating":9.6},{"name":"First Avenue & 7th St Entry","phone":"6123321775","address":"701 1st Ave N","lat":44.97854700033971,"lng":-93.27584966041965,"neighborhood":"Downtown West","city_fetched":"Minneapolis","state":"MN","country":"United States","canonicalUrl":"https://foursquare.com/v/first-avenue--7th-st-entry/41326e00f964a520ed161fe3","category":"Music Venue","checkinsCount":41738,"usersCount":14010,"tipCount":123,"visitsCount":43420,"url":"http://www.first-avenue.com","tier":"","message":"","currency":"","rating":9.5},{"name":"Butcher & the Boar","phone":"6122388888","twitter":"butcherandboar","address":"1121 Hennepin Ave","lat":44.97470935134812,"lng":-93.27970058398738,"neighborhood":"Downtown West","city_fetched":"Minneapolis","state":"MN","country":"United States","canonicalUrl":"https://foursquare.com/butcherandboar","category":"American Restaurant","checkinsCount":12178,"usersCount":7204,"tipCount":178,"visitsCount":13244,"url":"http://butcherandtheboar.com","tier":3,"message":"Expensive","currency":"$","rating":9.5},{"name":"Tattersall Distilling","phone":"6125844152","twitter":"tattersallco","address":"1620 Central Ave NE","lat":45.005058,"lng":-93.249264,"neighborhood":"Logan Park","city_fetched":"Minneapolis","state":"MN","country":"United States","canonicalUrl":"https://foursquare.com/v/tattersall-distilling/55946be2498ee799d00e960d","category":"Distillery","checkinsCount":1132,"usersCount":1089,"tipCount":12,"visitsCount":1866,"url":"http://tattersalldistilling.com","tier":"","message":"","currency":"","rating":9.5},{"name":"Surdyk's Liquor Store and Gourmet Cheese Shop","phone":"6123793232","twitter":"surdyksliquor","address":"303 E Hennepin Ave","lat":44.9882951380248,"lng":-93.2563304901123,"neighborhood":"University","city_fetched":"Minneapolis","state":"MN","country":"United States","canonicalUrl":"https://foursquare.com/v/surdyks-liquor-store-and-gourmet-cheese-shop/428a8580f964a52091231fe3","category":"Liquor Store","checkinsCount":13558,"usersCount":5260,"tipCount":61,"visitsCount":15220,"url":"http://www.surdyks.com","tier":"","message":"","currency":"","rating":9.4},{"name":"Fulton Brewing Company","phone":"6123333208","twitter":"fultonbeer","address":"414 6th Ave N","lat":44.98485355333035,"lng":-93.2787085947798,"neighborhood":"North Loop","city_fetched":"Minneapolis","state":"MN","country":"United States","canonicalUrl":"https://foursquare.com/v/fulton-brewing-company/4c8d128bc37a6dcb86d0fc7a","category":"Brewery","checkinsCount":10697,"usersCount":5926,"tipCount":65,"visitsCount":12843,"url":"http://www.fultonbeer.com","tier":2,"message":"Moderate","currency":"$","rating":9.3},{"name":"Dangerous Man Brewing Co","phone":"6122092626","twitter":"dangerousman7","address":"1300 2nd St NE","lat":45.00100202350233,"lng":-93.26619963474268,"neighborhood":"Sheridan","city_fetched":"Minneapolis","state":"MN","country":"United States","canonicalUrl":"https://foursquare.com/v/dangerous-man-brewing-co/5047b636e4b04db60102f96d","category":"Brewery","checkinsCount":10677,"usersCount":5314,"tipCount":106,"visitsCount":13272,"url":"http://www.dangerousmanbrewing.com","tier":1,"message":"Cheap","currency":"$","rating":9.3},{"name":"Zen Box Izakaya","phone":"6123323936","twitter":"zenboxizakaya","address":"602 Washington Ave S","lat":44.97838437635786,"lng":-93.25954914093018,"neighborhood":"Downtown East","city_fetched":"Minneapolis","state":"MN","country":"United States","canonicalUrl":"https://foursquare.com/v/zen-box-izakaya/4e7a75087d8bf4f6a24576ed","category":"Japanese Restaurant","checkinsCount":3855,"usersCount":2097,"tipCount":49,"visitsCount":4647,"url":"http://www.zenbox.com","tier":2,"message":"Moderate","currency":"$","rating":9.3},{"name":"Barbette","phone":"6128275710","twitter":"barbettempls","address":"1600 W Lake St","lat":44.94845699504878,"lng":-93.30209309214405,"neighborhood":"Uptown","city_fetched":"Minneapolis","state":"MN","country":"United States","canonicalUrl":"https://foursquare.com/barbettempls","category":"French Restaurant","checkinsCount":8891,"usersCount":4273,"tipCount":88,"visitsCount":9418,"url":"http://www.barbette.com","tier":2,"message":"Moderate","currency":"$","rating":9.2},{"name":"Northbound Smokehouse and Brewpub","phone":"6122081450","twitter":"northboundbrew","address":"2716 East 38th Street","lat":44.9341937932241,"lng":-93.23230406031102,"neighborhood":"Standish","city_fetched":"Minneapolis","state":"MN","country":"United States","canonicalUrl":"https://foursquare.com/v/northbound-smokehouse-and-brewpub/5057bd72e4b008a6a8de8a3a","category":"Brewery","checkinsCount":8177,"usersCount":3281,"tipCount":74,"visitsCount":10039,"url":"http://northboundbrewpub.com","tier":2,"message":"Moderate","currency":"$","rating":9.2},{"name":"Bar La Grassa","phone":"6123333837","twitter":"barlagrassa","address":"800 Washington Ave N","lat":44.989058500028875,"lng":-93.27884467458655,"neighborhood":"Warehouse District","city_fetched":"Minneapolis","state":"MN","country":"United States","canonicalUrl":"https://foursquare.com/v/bar-la-grassa/4acc0172f964a52093c820e3","category":"Italian Restaurant","checkinsCount":9770,"usersCount":5825,"tipCount":153,"visitsCount":10673,"url":"http://barlagrassa.com","tier":3,"message":"Expensive","currency":"$","rating":9.2},{"name":"Pizza Lucé","phone":"6123337359","address":"119 N. Fourth St.","lat":44.98160474623123,"lng":-93.27340515757079,"neighborhood":"Warehouse District","city_fetched":"Minneapolis","state":"MN","country":"United States","canonicalUrl":"https://foursquare.com/v/pizza-luc%C3%A9/4283ee00f964a520ba221fe3","category":"Pizza Place","checkinsCount":16183,"usersCount":7418,"tipCount":116,"visitsCount":17304,"url":"http://www.pizzaluce.com","tier":2,"message":"Moderate","currency":"$","rating":9.2},{"name":"Indeed Brewing Company","phone":"6128435090","twitter":"indeedbrewing","address":"711 15th Ave NE Ste 102","lat":45.00332792445013,"lng":-93.25146792322539,"neighborhood":"Logan Park","city_fetched":"Minneapolis","state":"MN","country":"United States","canonicalUrl":"https://foursquare.com/v/indeed-brewing-company/4f3dcd09e4b0e4bab927d3d6","category":"Brewery","checkinsCount":9111,"usersCount":5097,"tipCount":59,"visitsCount":10987,"url":"http://indeedbrewing.com","tier":1,"message":"Cheap","currency":"$","rating":9.1},{"name":"Muddy Waters Bar & Eatery","phone":"6128722232","twitter":"muddywatersmpls","address":"2933 Lyndale Ave S","lat":44.949230352924324,"lng":-93.28787965883589,"neighborhood":"Lyn Lake","city_fetched":"Minneapolis","state":"MN","country":"United States","canonicalUrl":"https://foursquare.com/v/muddy-waters-bar--eatery/4df8279ab0fb9724c5d7f4c7","category":"Bar","checkinsCount":18424,"usersCount":5266,"tipCount":129,"visitsCount":18707,"url":"http://muddywatersmpls.com/Home.html","tier":2,"message":"Moderate","currency":"$","rating":9.1},{"name":"Masu Sushi & Robata","phone":"6123326278","twitter":"masu_ne","address":"330 E Hennepin Ave","lat":44.9882951380248,"lng":-93.25504839420319,"neighborhood":"University","city_fetched":"Minneapolis","state":"MN","country":"United States","canonicalUrl":"https://foursquare.com/v/masu-sushi--robata/4d5c01c5fb186dcb9190fa9a","category":"Sushi Restaurant","checkinsCount":9965,"usersCount":4290,"tipCount":114,"visitsCount":10333,"url":"http://www.masusushiandrobata.com","tier":2,"message":"Moderate","currency":"$","rating":9.1},{"name":"George & the Dragon","phone":"6122081047","twitter":"ganddpub","address":"813 W 50th St","lat":44.91241642903963,"lng":-93.29044484940995,"neighborhood":"Lynnhurst","city_fetched":"Minneapolis","state":"MN","country":"United States","canonicalUrl":"https://foursquare.com/v/george--the-dragon/4f84b005e4b0a23e67728982","category":"English Restaurant","checkinsCount":3187,"usersCount":2189,"tipCount":61,"visitsCount":4265,"url":"http://ganddpub.com","tier":2,"message":"Moderate","currency":"$","rating":9.1},{"name":"Surly Brewing Co","phone":"7635353330","twitter":"surlybrewing","address":"4811 Dusharme Dr","lat":45.042556672392394,"lng":-93.32473621783615,"city_fetched":"Minneapolis","state":"MN","country":"United States","canonicalUrl":"https://foursquare.com/v/surly-brewing-co/48f88684f964a5204d521fe3","category":"Brewery","checkinsCount":3936,"usersCount":2133,"tipCount":40,"visitsCount":4092,"url":"http://surlybrewing.com","tier":1,"message":"Cheap","currency":"$","rating":9.1},{"name":"The Blue Door Pub Longfellow","phone":"6123152470","address":"3448 42nd Ave S","lat":44.93978655673199,"lng":-93.21302257214997,"neighborhood":"Howe","city_fetched":"Minneapolis","state":"MN","country":"United States","canonicalUrl":"https://foursquare.com/v/the-blue-door-pub-longfellow/50e08b81e4b0bc86aeedf2e7","category":"Burger Joint","checkinsCount":6644,"usersCount":3730,"tipCount":89,"visitsCount":8480,"url":"http://www.bluedoorpubmn.com","tier":2,"message":"Moderate","currency":"$","rating":9.1},{"name":"Tilia","phone":"6123542806","twitter":"tiliampls","address":"2726 W 43rd St","lat":44.924533043013795,"lng":-93.31411284829471,"neighborhood":"Linden Hills","city_fetched":"Minneapolis","state":"MN","country":"United States","canonicalUrl":"https://foursquare.com/v/tilia/4d76cec8de42721e874b462b","category":"New American Restaurant","checkinsCount":5388,"usersCount":2944,"tipCount":91,"visitsCount":5892,"url":"http://www.tiliampls.com","tier":2,"message":"Moderate","currency":"$","rating":9},{"name":"Bauhaus Brew Labs","phone":"6122766911","twitter":"bauhausbrewlabs","address":"1315 Tyler St NE","lat":45.00088899728074,"lng":-93.24494224267468,"neighborhood":"Northeast Park","city_fetched":"Minneapolis","state":"MN","country":"United States","canonicalUrl":"https://foursquare.com/v/bauhaus-brew-labs/53286e45498e19b6016298b4","category":"Brewery","checkinsCount":3464,"usersCount":2875,"tipCount":40,"visitsCount":5493,"url":"http://bauhausbrewlabs.com","tier":2,"message":"Moderate","currency":"$","rating":9},{"name":"Marvel Bar","phone":"6122063929","twitter":"marvelbar","address":"50 2nd Ave N","lat":44.985652650218995,"lng":-93.26886253082698,"neighborhood":"Warehouse District","city_fetched":"Minneapolis","state":"MN","country":"United States","canonicalUrl":"https://foursquare.com/v/marvel-bar/4e0cf71d7d8bb178a89ab3b2","category":"Speakeasy","checkinsCount":8775,"usersCount":4509,"tipCount":105,"visitsCount":9081,"url":"http://www.marvelbar.com","tier":2,"message":"Moderate","currency":"$","rating":9},{"name":"Acme Comedy Company","phone":"6123386393","address":"708 N 1st St","lat":44.98983414170606,"lng":-93.27520257973194,"neighborhood":"Warehouse District","city_fetched":"Minneapolis","state":"MN","country":"United States","canonicalUrl":"https://foursquare.com/v/acme-comedy-company/41326e00f964a52056161fe3","category":"Comedy Club","checkinsCount":5818,"usersCount":3602,"tipCount":35,"visitsCount":6516,"tier":"","message":"","currency":"","rating":9},{"name":"Restaurant Alma","phone":"6123794909","address":"528 University Ave SE","lat":44.98386121,"lng":-93.247955,"neighborhood":"Marcy - Holmes","city_fetched":"Minneapolis","state":"MN","country":"United States","canonicalUrl":"https://foursquare.com/v/restaurant-alma/49cf8e1ef964a520ad5a1fe3","category":"New American Restaurant","checkinsCount":1493,"usersCount":1231,"tipCount":29,"visitsCount":1640,"url":"http://www.restaurantalma.com","tier":2,"message":"Moderate","currency":"$","rating":9},{"name":"Zipps Liquors","phone":"6123338686","twitter":"zippsbeer","address":"2618 E Franklin Ave","lat":44.962936,"lng":-93.233472,"neighborhood":"Seward","city_fetched":"Minneapolis","state":"MN","country":"United States","canonicalUrl":"https://foursquare.com/v/zipps-liquors/4a0300fff964a52077711fe3","category":"Liquor Store","checkinsCount":5301,"usersCount":1882,"tipCount":24,"visitsCount":6021,"url":"http://www.zippsliquors.com","tier":"","message":"","currency":"","rating":9},{"name":"The 1029 Bar & Smack Shack","phone":"6123794322","address":"1029 Marshall St NE","lat":44.99810874471413,"lng":-93.26839506711421,"neighborhood":"St. Anthony West","city_fetched":"Minneapolis","state":"MN","country":"United States","canonicalUrl":"https://foursquare.com/v/the-1029-bar--smack-shack/4502a48ef964a520cb381fe3","category":"Karaoke Bar","checkinsCount":9789,"usersCount":4573,"tipCount":70,"visitsCount":11433,"url":"http://the1029bar.com","tier":2,"message":"Moderate","currency":"$","rating":8.9},{"name":"Jax Cafe","phone":"6127897297","twitter":"jaxcafe","address":"1928 University Ave NE","lat":45.00846693,"lng":-93.26348662376404,"neighborhood":"Bottineau","city_fetched":"Minneapolis","state":"MN","country":"United States","canonicalUrl":"https://foursquare.com/v/jax-cafe/41326e00f964a5201e171fe3","category":"Steakhouse","checkinsCount":3849,"usersCount":3037,"tipCount":39,"visitsCount":4646,"url":"http://www.jaxcafe.com","tier":3,"message":"Expensive","currency":"$","rating":8.9},{"name":"Fair State Brewing Cooperative","phone":"6122935231","twitter":"fairstatecoop","address":"2506 Central Ave NE","lat":45.01353793543597,"lng":-93.24774508781299,"neighborhood":"Northeast Minneapolis","city_fetched":"Minneapolis","state":"MN","country":"United States","canonicalUrl":"https://foursquare.com/v/fair-state-brewing-cooperative/53286dcd498ec2cc97ce9ce1","category":"Brewery","checkinsCount":2267,"usersCount":1110,"tipCount":17,"visitsCount":3051,"url":"http://fairstate.coop","tier":"","message":"","currency":"","rating":8.9},{"name":"Brit's Pub & Eating Establishment","phone":"6123328011","twitter":"britspubmpls","address":"1110 Nicollet Mall","lat":44.97288187400927,"lng":-93.27623248100281,"neighborhood":"Downtown West","city_fetched":"Minneapolis","state":"MN","country":"United States","canonicalUrl":"https://foursquare.com/v/brits-pub--eating-establishment/41326e00f964a52093161fe3","category":"Pub","checkinsCount":31994,"usersCount":16343,"tipCount":214,"visitsCount":33045,"url":"http://britspub.com","tier":2,"message":"Moderate","currency":"$","rating":8.9},{"name":"Eli's Food & Cocktails","phone":"6123329997","address":"1225 E Hennepin Ave","lat":44.97425185671514,"lng":-93.2813313603401,"neighborhood":"Loring Park","city_fetched":"Minneapolis","state":"MN","country":"United States","canonicalUrl":"https://foursquare.com/v/elis-food--cocktails/4a8ecee4f964a520b61220e3","category":"American Restaurant","checkinsCount":6593,"usersCount":2465,"tipCount":74,"visitsCount":6706,"url":"http://www.elisfoodandcocktails.com","tier":2,"message":"Moderate","currency":"$","rating":8.9},{"name":"New Bohemia Wurst + BierHaus","phone":"6123314929","twitter":"newbohemiamn","address":"233 E Hennepin Ave","lat":44.98802779210853,"lng":-93.25652046736336,"neighborhood":"University","city_fetched":"Minneapolis","state":"MN","country":"United States","canonicalUrl":"https://foursquare.com/newbohemiamn","category":"German Restaurant","checkinsCount":5283,"usersCount":2709,"tipCount":46,"visitsCount":5717,"url":"http://newbohemiausa.com","tier":2,"message":"Moderate","currency":"$","rating":8.8},{"name":"Icehouse","phone":"6122766523","twitter":"icehousempls","address":"2528 Nicollet Ave","lat":44.95627685322523,"lng":-93.27815043209121,"neighborhood":"Whittier","city_fetched":"Minneapolis","state":"MN","country":"United States","canonicalUrl":"https://foursquare.com/v/icehouse/4f9acc6ce4b04dd734504f00","category":"American Restaurant","checkinsCount":7457,"usersCount":3738,"tipCount":90,"visitsCount":7924,"url":"http://www.icehousempls.com","tier":3,"message":"Expensive","currency":"$","rating":8.8},{"name":"Varsity Theater & Cafe des Artistes","phone":"6126040222","twitter":"varsitytheater","address":"1308 4th St SE","lat":44.980711530103555,"lng":-93.23687053633486,"neighborhood":"Dinkytown","city_fetched":"Minneapolis","state":"MN","country":"United States","canonicalUrl":"https://foursquare.com/v/varsity-theater--cafe-des-artistes/42cf1380f964a520f4251fe3","category":"Music Venue","checkinsCount":10629,"usersCount":6037,"tipCount":67,"visitsCount":10952,"url":"http://www.varsitytheater.org","tier":"","message":"","currency":"","rating":8.8},{"name":"Sisyphus Brewing","phone":"6124448674","twitter":"sisyphusbrewing","address":"712 Ontario Ave W","lat":44.97316677857935,"lng":-93.28904260477037,"neighborhood":"Lowry Hill","city_fetched":"Minneapolis","state":"MN","country":"United States","canonicalUrl":"https://foursquare.com/v/sisyphus-brewing/52d4225b498e07070c180a62","category":"Brewery","checkinsCount":1467,"usersCount":1028,"tipCount":21,"visitsCount":2133,"url":"http://www.sisyphusbrewing.com","tier":"","message":"","currency":"","rating":8.8},{"name":"Al Vento","phone":"6127243009","twitter":"alventomn","address":"5001 34th Ave S","lat":44.91246562264528,"lng":-93.22269426207619,"neighborhood":"Minnehaha","city_fetched":"Minneapolis","state":"MN","country":"United States","canonicalUrl":"https://foursquare.com/v/al-vento/43de6e3cf964a520b52e1fe3","category":"Italian Restaurant","checkinsCount":3188,"usersCount":1863,"tipCount":51,"visitsCount":3696,"url":"http://alventorestaurant.com","tier":2,"message":"Moderate","currency":"$","rating":8.7},{"name":"Republic","phone":"6123386146","twitter":"republicmn","address":"221 Cedar Ave S","lat":44.97326896385272,"lng":-93.24725389480591,"neighborhood":"Cedar-Riverside","city_fetched":"Minneapolis","state":"MN","country":"United States","canonicalUrl":"https://foursquare.com/v/republic/4dcd527252b1f8915b7a3807","category":"Bar","checkinsCount":13978,"usersCount":5290,"tipCount":114,"visitsCount":14923,"url":"http://www.republicmn.com","tier":2,"message":"Moderate","currency":"$","rating":8.7},{"name":"Matt's Bar","phone":"6127227072","address":"3500 Cedar Ave S","lat":44.9394795404613,"lng":-93.2475226256566,"neighborhood":"Powderhorn Park","city_fetched":"Minneapolis","state":"MN","country":"United States","canonicalUrl":"https://foursquare.com/v/matts-bar/41326e00f964a52055171fe3","category":"Burger Joint","checkinsCount":11120,"usersCount":8618,"tipCount":202,"visitsCount":12802,"url":"http://mattsbar.com","tier":1,"message":"Cheap","currency":"$","rating":8.7},{"name":"Lucia's Restaurant and Wine Bar","phone":"6128251572","twitter":"luciasmpls","address":"1432 W 31st St","lat":44.94675389226546,"lng":-93.29875561246703,"neighborhood":"Uptown","city_fetched":"Minneapolis","state":"MN","country":"United States","canonicalUrl":"https://foursquare.com/v/lucias-restaurant-and-wine-bar/46f10267f964a520e74a1fe3","category":"Italian Restaurant","checkinsCount":6804,"usersCount":2612,"tipCount":74,"visitsCount":7139,"url":"http://www.lucias.com","tier":2,"message":"Moderate","currency":"$","rating":8.7},{"name":"Pat's Tap","phone":"6128228216","twitter":"patstapmpls","address":"3510 Nicollet Ave","lat":44.93922119418078,"lng":-93.2781606720137,"neighborhood":"Lyndale","city_fetched":"Minneapolis","state":"MN","country":"United States","canonicalUrl":"https://foursquare.com/v/pats-tap/4e792fcc45dd919c6106bccb","category":"Gastropub","checkinsCount":10832,"usersCount":4774,"tipCount":121,"visitsCount":12045,"url":"http://patstap.com","tier":2,"message":"Moderate","currency":"$","rating":8.7},{"name":"WXYZ Bar","phone":"6124558400","twitter":"spg","address":"900 Washington Ave S","lat":44.976576734147805,"lng":-93.25530162406476,"neighborhood":"Downtown East","city_fetched":"Minneapolis","state":"MN","country":"United States","canonicalUrl":"https://foursquare.com/v/wxyz-bar/4aa90bddf964a520e75120e3","category":"Hotel Bar","checkinsCount":2124,"usersCount":888,"tipCount":11,"visitsCount":2175,"url":"http://www.spg.com/foursquare/","tier":"","message":"","currency":"","rating":8.7},{"name":"Up-Down","twitter":"updownmpls","address":"3012 Lyndale Ave S","lat":44.94790182825562,"lng":-93.28833175164579,"neighborhood":"Lyn Lake","city_fetched":"Minneapolis","state":"MN","country":"United States","canonicalUrl":"https://foursquare.com/v/updown/576459aa498edbcfb99371cd","category":"Arcade","checkinsCount":649,"usersCount":508,"tipCount":7,"visitsCount":833,"url":"http://www.updownmpls.com","tier":"","message":"","currency":"","rating":8.7},{"name":"Café & Bar Lurcat","phone":"6124865500","twitter":"cafelurcat_mn","address":"1624 Harmon Pl","lat":44.97120985889761,"lng":-93.28604827455146,"neighborhood":"Loring Park","city_fetched":"Minneapolis","state":"MN","country":"United States","canonicalUrl":"https://foursquare.com/cafelurcat_mn","category":"New American Restaurant","checkinsCount":6044,"usersCount":4155,"tipCount":55,"visitsCount":6691,"url":"http://cafelurcat.com","tier":3,"message":"Expensive","currency":"$","rating":8.7},{"name":"Minneapolis Club","address":"729 2nd Ave S","lat":44.974723842590414,"lng":-93.26990022832612,"neighborhood":"Downtown West","city_fetched":"Minneapolis","state":"MN","country":"United States","canonicalUrl":"https://foursquare.com/v/minneapolis-club/43504680f964a520ae281fe3","category":"Event Space","checkinsCount":2676,"usersCount":1032,"tipCount":8,"visitsCount":2799,"tier":"","message":"","currency":"","rating":8.7},{"name":"HauteDish","phone":"6123388484","twitter":"hautedish","address":"119 Washington Ave N","lat":44.983104723085425,"lng":-93.2710075378418,"neighborhood":"Warehouse District","city_fetched":"Minneapolis","state":"MN","country":"United States","canonicalUrl":"https://foursquare.com/hautedish","category":"American Restaurant","checkinsCount":6810,"usersCount":3722,"tipCount":108,"visitsCount":7153,"url":"http://www.haute-dish.com","tier":3,"message":"Expensive","currency":"$","rating":8.7},{"name":"Northern Brewer","phone":"6128434444","twitter":"northern_brewer","address":"6021 Lyndale Ave S","lat":44.89360329666123,"lng":-93.28773715218401,"neighborhood":"Windom","city_fetched":"Minneapolis","state":"MN","country":"United States","canonicalUrl":"https://foursquare.com/v/northern-brewer/4ed0321e7ee5be844af67b16","category":"Brewery","checkinsCount":1768,"usersCount":789,"tipCount":7,"visitsCount":2305,"url":"http://northernbrewer.com","tier":"","message":"","currency":"","rating":8.6},{"name":"Parlour","phone":"6123543135","twitter":"parlourbarmpls","address":"730 Washington Ave N","lat":44.988791118168976,"lng":-93.27831040779489,"neighborhood":"Warehouse District","city_fetched":"Minneapolis","state":"MN","country":"United States","canonicalUrl":"https://foursquare.com/v/parlour/50f5094ee4b0ebcba2efe174","category":"Cocktail Bar","checkinsCount":2646,"usersCount":1580,"tipCount":32,"visitsCount":2778,"url":"http://www.boroughmpls.com/parlour/","tier":2,"message":"Moderate","currency":"$","rating":8.6},{"name":"Monte Carlo Restaurant","phone":"6123335900","address":"219 3rd Ave N","lat":44.98474240055527,"lng":-93.27189531041674,"neighborhood":"Warehouse District","city_fetched":"Minneapolis","state":"MN","country":"United States","canonicalUrl":"https://foursquare.com/v/monte-carlo-restaurant/4538d792f964a520d23b1fe3","category":"Lounge","checkinsCount":5887,"usersCount":2910,"tipCount":68,"visitsCount":6044,"url":"http://www.montecarlomn.com","tier":2,"message":"Moderate","currency":"$","rating":8.6},{"name":"Du Nord Craft Spirits","phone":"6127999166","twitter":"dunordcs","address":"2610 E 32nd St","lat":44.944914348319415,"lng":-93.23430184021812,"neighborhood":"Longfellow","city_fetched":"Minneapolis","state":"MN","country":"United States","canonicalUrl":"https://foursquare.com/v/du-nord-craft-spirits/52dd2855498e35b966373122","category":"Distillery","checkinsCount":571,"usersCount":590,"tipCount":12,"visitsCount":921,"url":"http://dunordcraftspirits.com","tier":"","message":"","currency":"","rating":8.6},{"name":"The Depot Tavern","phone":"6123381828","twitter":"the_depot","address":"17 N 7th St","lat":44.97830658603872,"lng":-93.27561289072037,"neighborhood":"Downtown West","city_fetched":"Minneapolis","state":"MN","country":"United States","canonicalUrl":"https://foursquare.com/v/the-depot-tavern/4c06ea0f0e0a2d7f199aec0c","category":"Bar","checkinsCount":19316,"usersCount":5569,"tipCount":86,"visitsCount":19453,"url":"http://thedepottavern.com","tier":2,"message":"Moderate","currency":"$","rating":8.6},{"name":"Psycho Suzi's Motor Lounge & Tiki Garden","phone":"6127889069","twitter":"psychosuzis","address":"1900 Marshall St NE","lat":45.00746766397725,"lng":-93.27212335160671,"neighborhood":"Bottineau","city_fetched":"Minneapolis","state":"MN","country":"United States","canonicalUrl":"https://foursquare.com/v/psycho-suzis-motor-lounge--tiki-garden/4dafa01543a1e3d9e64b72d7","category":"Theme Restaurant","checkinsCount":34550,"usersCount":16587,"tipCount":265,"visitsCount":37620,"url":"http://www.psychosuzis.com","tier":2,"message":"Moderate","currency":"$","rating":8.6},{"name":"Grumpy's Bar & Grill","phone":"6123409738","twitter":"grumpysne","address":"1111 Washington Ave S","lat":44.97505648315494,"lng":-93.25306960251692,"neighborhood":"Downtown East","city_fetched":"Minneapolis","state":"MN","country":"United States","canonicalUrl":"https://foursquare.com/v/grumpys-bar--grill/42829c80f964a5203b221fe3","category":"Bar","checkinsCount":17374,"usersCount":5253,"tipCount":77,"visitsCount":18255,"url":"http://grumpys-bar.com/downtown/","tier":2,"message":"Moderate","currency":"$","rating":8.5},{"name":"Minneapolis Town Hall Brewery","phone":"6123398696","twitter":"thbrewery","address":"1430 Washington Ave S","lat":44.97326586205087,"lng":-93.24773262369662,"neighborhood":"Cedar-Riverside","city_fetched":"Minneapolis","state":"MN","country":"United States","canonicalUrl":"https://foursquare.com/v/minneapolis-town-hall-brewery/41326e00f964a52060171fe3","category":"Brewery","checkinsCount":11065,"usersCount":5186,"tipCount":103,"visitsCount":11835,"url":"http://townhallbrewery.com","tier":2,"message":"Moderate","currency":"$","rating":8.5},{"name":"Riverview Cafe & Wine Bar","phone":"6127294200","address":"3747 42nd Ave S","lat":44.934438,"lng":-93.212641,"neighborhood":"Howe","city_fetched":"Minneapolis","state":"MN","country":"United States","canonicalUrl":"https://foursquare.com/v/riverview-cafe--wine-bar/42cf1380f964a520fc251fe3","category":"Wine Bar","checkinsCount":3122,"usersCount":1373,"tipCount":40,"visitsCount":3305,"url":"http://theriverview.com","tier":2,"message":"Moderate","currency":"$","rating":8.5},{"name":"Lagoon Cinema","phone":"6128233020","twitter":"lagooncinema","address":"1320 Lagoon Ave","lat":44.949382146575175,"lng":-93.29698204994202,"neighborhood":"Uptown","city_fetched":"Minneapolis","state":"MN","country":"United States","canonicalUrl":"https://foursquare.com/v/lagoon-cinema/42fa9500f964a520dc261fe3","category":"Indie Movie Theater","checkinsCount":6721,"usersCount":3288,"tipCount":25,"visitsCount":6785,"tier":"","message":"","currency":"","rating":8.5},{"name":"The Cowles Center for Dance & The Performing Arts","phone":"6122063636","twitter":"thecowlescenter","address":"528 Hennepin Ave","lat":44.97904801175508,"lng":-93.27357854522226,"neighborhood":"Downtown West","city_fetched":"Minneapolis","state":"MN","country":"United States","canonicalUrl":"https://foursquare.com/v/the-cowles-center-for-dance--the-performing-arts/4a555e09f964a5201cb41fe3","category":"Performing Arts Venue","checkinsCount":2961,"usersCount":1027,"tipCount":13,"visitsCount":2994,"url":"http://www.thecowlescenter.org","tier":"","message":"","currency":"","rating":8.5},{"name":"Sociable Cider Werks","phone":"6127580105","twitter":"sociablecider","address":"1500 Fillmore St NE","lat":45.00444018508203,"lng":-93.2441439284493,"neighborhood":"Northeast Park","city_fetched":"Minneapolis","state":"MN","country":"United States","canonicalUrl":"https://foursquare.com/v/sociable-cider-werks/527bb8a511d2e7d7239d2c41","category":"Brewery","checkinsCount":3459,"usersCount":2375,"tipCount":29,"visitsCount":4079,"url":"http://sociablecider.com","tier":1,"message":"Cheap","currency":"$","rating":8.5},{"name":"Lakes & Legends Brewing Company","phone":"6129996020","twitter":"lakesandlegends","address":"1368 Lasalle Ave","lat":44.96873770010145,"lng":-93.27960861805437,"neighborhood":"Loring Park","city_fetched":"Minneapolis","state":"MN","country":"United States","canonicalUrl":"https://foursquare.com/v/lakes--legends-brewing-company/56242508498e6aeb80142c2c","category":"Brewery","checkinsCount":539,"usersCount":577,"tipCount":9,"visitsCount":834,"url":"http://lakesandlegends.com","tier":"","message":"","currency":"","rating":8.5},{"name":"The Freehouse","phone":"6123397011","twitter":"freehousempls","address":"701 Washington Ave N","lat":44.98746045388422,"lng":-93.27731609344482,"neighborhood":"Warehouse District","city_fetched":"Minneapolis","state":"MN","country":"United States","canonicalUrl":"https://foursquare.com/v/the-freehouse/526b3f73498e20ff85cecb2f","category":"Brewery","checkinsCount":7708,"usersCount":4676,"tipCount":52,"visitsCount":10621,"url":"http://www.freehousempls.com","tier":2,"message":"Moderate","currency":"$","rating":8.5},{"name":"Barrio Tequila Bar","phone":"6123339953","twitter":"barrio_mpls","address":"925 Nicollet Mall","lat":44.974324646787224,"lng":-93.27446194753274,"neighborhood":"Downtown West","city_fetched":"Minneapolis","state":"MN","country":"United States","canonicalUrl":"https://foursquare.com/v/barrio-tequila-bar/4869ed21f964a520f0501fe3","category":"Mexican Restaurant","checkinsCount":11733,"usersCount":6245,"tipCount":107,"visitsCount":11803,"url":"http://barriotequila.com/barrio/#!/BarrioMpls","tier":2,"message":"Moderate","currency":"$","rating":8.5},{"name":"First Avenue","lat":44.97887124915401,"lng":-93.27566201875547,"neighborhood":"Warehouse District","city_fetched":"Minneapolis","state":"MN","country":"United States","canonicalUrl":"https://foursquare.com/v/first-avenue/5042ac25e4b08d9f594b0b53","category":"Nightclub","checkinsCount":482,"usersCount":343,"tipCount":1,"visitsCount":482,"tier":"","message":"","currency":"","rating":8.5},{"name":"Mayslack's","phone":"6127899862","twitter":"mayslacks","address":"1428 4th St NE","lat":45.00293555992983,"lng":-93.2618113679067,"neighborhood":"Sheridan","city_fetched":"Minneapolis","state":"MN","country":"United States","canonicalUrl":"https://foursquare.com/v/mayslacks/4345ba80f964a5207e281fe3","category":"Dive Bar","checkinsCount":11521,"usersCount":3966,"tipCount":54,"visitsCount":12935,"url":"http://www.mayslacksbar.com","tier":1,"message":"Cheap","currency":"$","rating":8.5},{"name":"Stone Arch Bar and Patio","phone":"6123751700","twitter":"renaissancempls","address":"225 3rd Ave S","lat":44.9803328,"lng":-93.2629967,"neighborhood":"Downtown West","city_fetched":"Minneapolis","state":"MN","country":"United States","canonicalUrl":"https://foursquare.com/v/stone-arch-bar-and-patio/4b79e55ef964a5200b192fe3","category":"Bar","checkinsCount":1152,"usersCount":376,"tipCount":6,"visitsCount":1160,"url":"http://www.thedepotminneapolis.com","tier":2,"message":"Moderate","currency":"$","rating":8.5},{"name":"Stanley's Northeast Bar Room","phone":"6127882529","twitter":"stanleysbarroom","address":"2500 University Ave NE","lat":45.013316689682405,"lng":-93.26332842959704,"neighborhood":"Marshall Terrace","city_fetched":"Minneapolis","state":"MN","country":"United States","canonicalUrl":"https://foursquare.com/stanleysbarroom","category":"American Restaurant","checkinsCount":15532,"usersCount":5061,"tipCount":81,"visitsCount":17469,"url":"http://www.stanleysbarroom.com","tier":2,"message":"Moderate","currency":"$","rating":8.5},{"name":"Triple Rock Social Club","phone":"6123337399","twitter":"triplerockmpls","address":"629 Cedar Ave S","lat":44.96677537580352,"lng":-93.24708491563797,"neighborhood":"Cedar-Riverside","city_fetched":"Minneapolis","state":"MN","country":"United States","canonicalUrl":"https://foursquare.com/v/triple-rock-social-club/41326e00f964a520d5171fe3","category":"Rock Club","checkinsCount":15516,"usersCount":5709,"tipCount":87,"visitsCount":16628,"url":"http://www.triplerocksocialclub.com","tier":"","message":"","currency":"","rating":8.4},{"name":"Town Hall Lanes","phone":"6127673354","address":"5019 34th Ave S","lat":44.91189702200114,"lng":-93.22267463214784,"neighborhood":"Minnehaha","city_fetched":"Minneapolis","state":"MN","country":"United States","canonicalUrl":"https://foursquare.com/v/town-hall-lanes/51e617ec498ec598b23cac64","category":"Bowling Alley","checkinsCount":3079,"usersCount":1475,"tipCount":38,"visitsCount":3908,"tier":"","message":"","currency":"","rating":8.4},{"name":"Insight Brewing","phone":"6127227222","twitter":"insightbrewing","address":"2821 East Hennepin Avenue","lat":44.9915,"lng":-93.21388,"neighborhood":"Mid-City Industrial","city_fetched":"Minneapolis","state":"MN","country":"United States","canonicalUrl":"https://foursquare.com/v/insight-brewing/5352dbbb498e0bbe7896752e","category":"Brewery","checkinsCount":1639,"usersCount":1448,"tipCount":21,"visitsCount":2872,"url":"http://insightbrewing.com/#xxrNEd","tier":"","message":"","currency":"","rating":8.4},{"name":"Victory 44","phone":"6125882228","twitter":"victory_44","address":"2203 44th Ave N","lat":45.03534836437918,"lng":-93.3089172942477,"neighborhood":"Victory","city_fetched":"Minneapolis","state":"MN","country":"United States","canonicalUrl":"https://foursquare.com/v/victory-44/49faf5bef964a5200c6e1fe3","category":"Gastropub","checkinsCount":5561,"usersCount":2534,"tipCount":129,"visitsCount":6398,"url":"http://victory-44.com","tier":2,"message":"Moderate","currency":"$","rating":8.4},{"name":"Eastlake Craft Brewery","phone":"6122249713","twitter":"eastlakemgm","address":"920 E Lake St #123","lat":44.94860655784523,"lng":-93.26048177891032,"neighborhood":"Phillips","city_fetched":"Minneapolis","state":"MN","country":"United States","canonicalUrl":"https://foursquare.com/v/eastlake-craft-brewery/538bf392498e382b6fa108b4","category":"Brewery","checkinsCount":1068,"usersCount":673,"tipCount":6,"visitsCount":1252,"url":"http://www.eastlakemgm.com","tier":"","message":"","currency":"","rating":8.4},{"name":"Town Hall Tap","phone":"6127677307","address":"4810 Chicago Ave","lat":44.915762,"lng":-93.262865,"neighborhood":"Nokomis","city_fetched":"Minneapolis","state":"MN","country":"United States","canonicalUrl":"https://foursquare.com/v/town-hall-tap/4cdc3be1930af04db4368f97","category":"Bar","checkinsCount":7683,"usersCount":2931,"tipCount":83,"visitsCount":8461,"url":"http://www.townhallbrewery.com","tier":2,"message":"Moderate","currency":"$","rating":8.4},{"name":"The Nomad World Pub","phone":"6123386424","twitter":"nomadpubmpls","address":"501 Cedar Ave S","lat":44.96879831161859,"lng":-93.24706841360472,"neighborhood":"Cedar-Riverside","city_fetched":"Minneapolis","state":"MN","country":"United States","canonicalUrl":"https://foursquare.com/v/the-nomad-world-pub/4392bb78f964a5206b2b1fe3","category":"Bar","checkinsCount":11296,"usersCount":3867,"tipCount":47,"visitsCount":12380,"url":"http://www.nomadworldpub.com","tier":1,"message":"Cheap","currency":"$","rating":8.4},{"name":"Day Block Brewing Company","phone":"6126177793","twitter":"dayblockbrewing","address":"1105 Washington Ave S","lat":44.975280270980576,"lng":-93.25317353010178,"neighborhood":"Downtown East","city_fetched":"Minneapolis","state":"MN","country":"United States","canonicalUrl":"https://foursquare.com/v/day-block-brewing-company/51f2d31c498eed6962fdc888","category":"Brewery","checkinsCount":3183,"usersCount":2143,"tipCount":30,"visitsCount":3753,"url":"https://www.dayblockbrewing.com","tier":2,"message":"Moderate","currency":"$","rating":8.4},{"name":"moto-i","phone":"6128216262","twitter":"motoisake","address":"2940 Lyndale Ave S","lat":44.94865130296815,"lng":-93.28824073076248,"neighborhood":"Lyn Lake","city_fetched":"Minneapolis","state":"MN","country":"United States","canonicalUrl":"https://foursquare.com/v/motoi/49aac3fbf964a520aa521fe3","category":"Sake Bar","checkinsCount":17833,"usersCount":6195,"tipCount":140,"visitsCount":18169,"url":"http://www.moto-i.com","tier":2,"message":"Moderate","currency":"$","rating":8.4},{"name":"Spyhouse Coffee","phone":"6123772278","twitter":"spyhousecoffee","address":"2404 Hennepin Ave","lat":44.95890883819588,"lng":-93.29456269741058,"neighborhood":"East Isles","city_fetched":"Minneapolis","state":"MN","country":"United States","canonicalUrl":"https://foursquare.com/v/spyhouse-coffee/49cd6a2cf964a520f0591fe3","category":"Coffee Shop","checkinsCount":9651,"usersCount":3314,"tipCount":80,"visitsCount":11358,"url":"http://spyhousecoffee.com","tier":1,"message":"Cheap","currency":"$","rating":8.4},{"name":"The Bulldog Northeast","phone":"6123782855","twitter":"bulldogne","address":"401 E Hennepin Ave","lat":44.98875041516029,"lng":-93.25493574142456,"neighborhood":"University","city_fetched":"Minneapolis","state":"MN","country":"United States","canonicalUrl":"https://foursquare.com/v/the-bulldog-northeast/452b2ec5f964a520373b1fe3","category":"Burger Joint","checkinsCount":20363,"usersCount":8370,"tipCount":148,"visitsCount":20931,"url":"http://thebulldognortheast.com","tier":2,"message":"Moderate","currency":"$","rating":8.4},{"name":"The Saloon","phone":"6123320835","twitter":"thesaloonmn","address":"830 Hennepin Ave","lat":44.976608453995325,"lng":-93.27697277069092,"neighborhood":"Downtown West","city_fetched":"Minneapolis","state":"MN","country":"United States","canonicalUrl":"https://foursquare.com/v/the-saloon/41326e00f964a52098171fe3","category":"Gay Bar","checkinsCount":35006,"usersCount":5656,"tipCount":87,"visitsCount":36604,"url":"http://www.saloonmn.com","tier":1,"message":"Cheap","currency":"$","rating":8.3},{"name":"Maxwell's American Cafe","phone":"6123381980","address":"1201 Washington Ave S","lat":44.97469695534422,"lng":-93.25183063979554,"neighborhood":"Downtown East","city_fetched":"Minneapolis","state":"MN","country":"United States","canonicalUrl":"https://foursquare.com/v/maxwells-american-cafe/437fbc80f964a520db2a1fe3","category":"Bar","checkinsCount":4952,"usersCount":1845,"tipCount":28,"visitsCount":5534,"url":"http://maxwellsbar.net","tier":2,"message":"Moderate","currency":"$","rating":8.3},{"name":"Sencha Tea Bar","phone":"6128774244","twitter":"senchateabar","address":"825 Washington Ave SE","lat":44.97372441929566,"lng":-93.226013854028,"neighborhood":"University","city_fetched":"Minneapolis","state":"MN","country":"United States","canonicalUrl":"https://foursquare.com/v/sencha-tea-bar/4b1ea09bf964a520ef1c24e3","category":"Tea Room","checkinsCount":2820,"usersCount":909,"tipCount":20,"visitsCount":2854,"url":"http://steepery.com","tier":1,"message":"Cheap","currency":"$","rating":8.3},{"name":"Wild Mind Artisan Ales","address":"6031 Pillsbury Ave S","lat":44.893115,"lng":-93.281566,"neighborhood":"Windom","city_fetched":"Minneapolis","state":"MN","country":"United States","canonicalUrl":"https://foursquare.com/v/wild-mind-artisan-ales/5797e9c4498ea7062d007931","category":"Brewery","checkinsCount":63,"usersCount":89,"tipCount":1,"visitsCount":104,"tier":"","message":"","currency":"","rating":8.3},{"name":"Barley John's Brewpub","phone":"6516364670","twitter":"barleyjohns","address":"781 Old Highway 8 SW","lat":45.036109819290736,"lng":-93.19834113121033,"city_fetched":"Minneapolis","state":"MN","country":"United States","canonicalUrl":"https://foursquare.com/v/barley-johns-brewpub/41326e00f964a5206e161fe3","category":"Brewery","checkinsCount":4075,"usersCount":1629,"tipCount":40,"visitsCount":4416,"url":"http://www.barleyjohns.com","tier":2,"message":"Moderate","currency":"$","rating":8.3},{"name":"Lush Food Bar","phone":"6122080358","twitter":"lushfoodbar","address":"990 Central Ave NE","lat":44.995246085546135,"lng":-93.2477584161677,"neighborhood":"Beltrami","city_fetched":"Minneapolis","state":"MN","country":"United States","canonicalUrl":"https://foursquare.com/v/lush-food-bar/4a7a48bdf964a52013e91fe3","category":"Gay Bar","checkinsCount":20189,"usersCount":4094,"tipCount":68,"visitsCount":21880,"url":"http://www.lushfoodbar.com","tier":2,"message":"Moderate","currency":"$","rating":8.3},{"name":"Urban Eatery","phone":"6129205000","twitter":"urbaneatery","address":"2730 W Lake St","lat":44.949507433116295,"lng":-93.31506013870239,"neighborhood":"Cedar Isles - Dean","city_fetched":"Minneapolis","state":"MN","country":"United States","canonicalUrl":"https://foursquare.com/urbaneatery","category":"American Restaurant","checkinsCount":5224,"usersCount":2778,"tipCount":65,"visitsCount":5443,"url":"http://myurbaneatery.com","tier":2,"message":"Moderate","currency":"$","rating":8.3},{"name":"Borough","phone":"6123543135","twitter":"boroughmpls","address":"730 Washington Ave N","lat":44.98889886096532,"lng":-93.27835675795276,"neighborhood":"Warehouse District","city_fetched":"Minneapolis","state":"MN","country":"United States","canonicalUrl":"https://foursquare.com/v/borough/50cfb1c8e4b09858eca57a84","category":"American Restaurant","checkinsCount":2733,"usersCount":1753,"tipCount":59,"visitsCount":2780,"url":"http://www.boroughmpls.com","tier":3,"message":"Expensive","currency":"$","rating":8.3},{"name":"Harriet Brewing","phone":"6123154633","twitter":"harrietbrewing","address":"3036 Minnehaha Ave","lat":44.947012092362456,"lng":-93.23401713931453,"neighborhood":"Longfellow","city_fetched":"Minneapolis","state":"MN","country":"United States","canonicalUrl":"https://foursquare.com/v/harriet-brewing/4d41e76bc95b721e1868642b","category":"Brewery","checkinsCount":5115,"usersCount":2803,"tipCount":37,"visitsCount":5766,"url":"http://www.harrietbrewing.com","tier":2,"message":"Moderate","currency":"$","rating":8.3},{"name":"Grumpy's Bar","phone":"6127897429","twitter":"grumpysne","address":"2200 4th St NE","lat":45.01006475110989,"lng":-93.26178063086576,"neighborhood":"Northeast Minneapolis","city_fetched":"Minneapolis","state":"MN","country":"United States","canonicalUrl":"https://foursquare.com/v/grumpys-bar/43a6b885f964a5205f2c1fe3","category":"Dive Bar","checkinsCount":10359,"usersCount":2887,"tipCount":40,"visitsCount":12144,"url":"http://www.grumpysbar.com","tier":1,"message":"Cheap","currency":"$","rating":8.3},{"name":"Volstead's Emporium","address":"711 W. Lake","lat":44.948348,"lng":-93.288838,"neighborhood":"Lyn Lake","city_fetched":"Minneapolis","state":"MN","country":"United States","canonicalUrl":"https://foursquare.com/v/volsteads-emporium/5660e42b498e79f359e39c17","category":"Speakeasy","checkinsCount":395,"usersCount":351,"tipCount":8,"visitsCount":522,"tier":"","message":"","currency":"","rating":8.3},{"name":"19 Bar","phone":"6128715553","address":"19 W 15th St","lat":44.96760789616981,"lng":-93.27884764753458,"neighborhood":"Loring Park","city_fetched":"Minneapolis","state":"MN","country":"United States","canonicalUrl":"https://foursquare.com/v/19-bar/41326e00f964a520a6161fe3","category":"Gay Bar","checkinsCount":14238,"usersCount":2486,"tipCount":47,"visitsCount":15223,"url":"http://19bar.itgo.com","tier":1,"message":"Cheap","currency":"$","rating":8.2},{"name":"Stella's Fish Cafe & Prestige Oyster Bar","phone":"6128248862","twitter":"stellasfishcafe","address":"1400 W Lake St","lat":44.94861379850451,"lng":-93.29723194906917,"neighborhood":"Uptown","city_fetched":"Minneapolis","state":"MN","country":"United States","canonicalUrl":"https://foursquare.com/v/stellas-fish-cafe--prestige-oyster-bar/4150c080f964a520041d1fe3","category":"Seafood Restaurant","checkinsCount":25873,"usersCount":12326,"tipCount":137,"visitsCount":26382,"url":"http://stellasfishcafe.com","tier":2,"message":"Moderate","currency":"$","rating":8.2},{"name":"Prohibition Bar","phone":"6122153700","address":"821 Marquette Ave","lat":44.974766293966226,"lng":-93.27155280300512,"neighborhood":"Downtown West","city_fetched":"Minneapolis","state":"MN","country":"United States","canonicalUrl":"https://foursquare.com/v/prohibition-bar/4a522cd8f964a52050b11fe3","category":"Lounge","checkinsCount":6610,"usersCount":3987,"tipCount":51,"visitsCount":6672,"url":"http://wminneapolishotel.com/prohibition-bar/","tier":3,"message":"Expensive","currency":"$","rating":8.2},{"name":"Gasthof zur Gemütlichkeit","phone":"6127813860","address":"2300 University Ave NE","lat":45.011456710467655,"lng":-93.26321670466339,"neighborhood":"Bottineau","city_fetched":"Minneapolis","state":"MN","country":"United States","canonicalUrl":"https://foursquare.com/v/gasthof-zur-gem%C3%BCtlichkeit/42853f80f964a5200f231fe3","category":"German Restaurant","checkinsCount":7179,"usersCount":4951,"tipCount":48,"visitsCount":7941,"url":"http://gasthofzg.com","tier":2,"message":"Moderate","currency":"$","rating":8.2},{"name":"Buster's On 28th","phone":"6127290911","twitter":"busterson28th","address":"4204 28th Ave S","lat":44.92661609869798,"lng":-93.23221570829645,"neighborhood":"Standish","city_fetched":"Minneapolis","state":"MN","country":"United States","canonicalUrl":"https://foursquare.com/v/busters-on-28th/46a4c4c5f964a5203a491fe3","category":"Gastropub","checkinsCount":7102,"usersCount":2626,"tipCount":74,"visitsCount":7477,"url":"http://www.busterson28th.com","tier":2,"message":"Moderate","currency":"$","rating":8.2},{"name":"Kitty Cat Klub","phone":"6123319800","twitter":"kckmpls","address":"313 14th Ave SE","lat":44.980064954876696,"lng":-93.23653419050486,"neighborhood":"Dinkytown","city_fetched":"Minneapolis","state":"MN","country":"United States","canonicalUrl":"https://foursquare.com/v/kitty-cat-klub/41326e00f964a52031171fe3","category":"Bar","checkinsCount":7970,"usersCount":3472,"tipCount":48,"visitsCount":8163,"url":"http://kittycatklub.net","tier":2,"message":"Moderate","currency":"$","rating":8.2},{"name":"Northgate Brewing","phone":"6123542858","twitter":"northgatebrew","address":"783 Harding St NE","lat":44.99839250791617,"lng":-93.2213839063694,"neighborhood":"Mid-City Industrial","city_fetched":"Minneapolis","state":"MN","country":"United States","canonicalUrl":"https://foursquare.com/v/northgate-brewing/541da276498e556bb433fbd7","category":"Brewery","checkinsCount":852,"usersCount":704,"tipCount":6,"visitsCount":1242,"url":"http://www.northgatebrew.com","tier":"","message":"","currency":"","rating":8.1},{"name":"Dunn Bros Coffee","phone":"6126928530","address":"201 3rd Ave S","lat":44.98076563406521,"lng":-93.26329555467535,"neighborhood":"Downtown West","city_fetched":"Minneapolis","state":"MN","country":"United States","canonicalUrl":"https://foursquare.com/v/dunn-bros-coffee/43a040baf964a520202c1fe3","category":"Coffee Shop","checkinsCount":6408,"usersCount":2399,"tipCount":24,"visitsCount":6801,"url":"http://dunnbros.com","tier":1,"message":"Cheap","currency":"$","rating":8.1},{"name":"Elsie's Restaurant, Bar & Bowling","phone":"6123789701","twitter":"elsiesbowling","address":"729 Marshall St NE","lat":44.99504503305324,"lng":-93.26628528777313,"neighborhood":"St. Anthony West","city_fetched":"Minneapolis","state":"MN","country":"United States","canonicalUrl":"https://foursquare.com/v/elsies-restaurant-bar--bowling/41326e00f964a5200a181fe3","category":"Bowling Alley","checkinsCount":12246,"usersCount":4646,"tipCount":58,"visitsCount":13506,"url":"http://www.elsies.com","tier":"","message":"","currency":"","rating":8.1},{"name":"City Works","phone":"6123612900","twitter":"cityworksmpls","address":"600 Hennepin Ave","lat":44.978141701317035,"lng":-93.27484123098041,"neighborhood":"Warehouse District","city_fetched":"Minneapolis","state":"MN","country":"United States","canonicalUrl":"https://foursquare.com/v/city-works/5668b28c498ea3ed2ceb1c35","category":"American Restaurant","checkinsCount":511,"usersCount":415,"tipCount":7,"visitsCount":605,"url":"http://www.cityworksrestaurant.com/minneapolis","tier":"","message":"","currency":"","rating":8.1},{"name":"The Seville Club","phone":"6124658777","twitter":"sevilleclub","address":"15 Glenwood Ave","lat":44.97885680320375,"lng":-93.27669436486521,"neighborhood":"Downtown West","city_fetched":"Minneapolis","state":"MN","country":"United States","canonicalUrl":"https://foursquare.com/sevilleclub","category":"Strip Club","checkinsCount":2473,"usersCount":1056,"tipCount":15,"visitsCount":2487,"url":"http://www.thesevilleclub.com","tier":"","message":"","currency":"","rating":8.1},{"name":"Pig & Fiddle","phone":"9529558385","twitter":"pignfiddle","address":"3808 W 50th St","lat":44.912632,"lng":-93.328526,"neighborhood":"Fulton","city_fetched":"Minneapolis","state":"MN","country":"United States","canonicalUrl":"https://foursquare.com/v/pig--fiddle/4e861cb80aafdd0b122b7e23","category":"Gastropub","checkinsCount":3616,"usersCount":1904,"tipCount":33,"visitsCount":3989,"url":"http://pignfiddle.com","tier":2,"message":"Moderate","currency":"$","rating":8.1},{"name":"Sporty's Pub and Grill","phone":"6123798407","twitter":"sportyspub","address":"2124 Como Ave SE","lat":44.98779470397288,"lng":-93.22187917184866,"neighborhood":"Como","city_fetched":"Minneapolis","state":"MN","country":"United States","canonicalUrl":"https://foursquare.com/sportyspub","category":"Dive Bar","checkinsCount":6667,"usersCount":1590,"tipCount":40,"visitsCount":7978,"url":"http://sportyspub.com","tier":1,"message":"Cheap","currency":"$","rating":8.1},{"name":"Spring Street Tavern","phone":"6126279123","address":"355 Monroe St NE","lat":44.994821591726776,"lng":-93.25213804349413,"neighborhood":"Northeast Minneapolis","city_fetched":"Minneapolis","state":"MN","country":"United States","canonicalUrl":"https://foursquare.com/v/spring-street-tavern/42e6ce80f964a5207e261fe3","category":"Dive Bar","checkinsCount":8900,"usersCount":2204,"tipCount":56,"visitsCount":9750,"url":"http://springstreettavern.com","tier":1,"message":"Cheap","currency":"$","rating":8.1},{"name":"Eat Street Social","phone":"6127676850","address":"18 W 26th St","lat":44.95565897336097,"lng":-93.27855690088981,"neighborhood":"Whittier","city_fetched":"Minneapolis","state":"MN","country":"United States","canonicalUrl":"https://foursquare.com/v/eat-street-social/4f00075a8231bcb7040fe64a","category":"New American Restaurant","checkinsCount":6922,"usersCount":3401,"tipCount":75,"visitsCount":7325,"url":"http://www.eatstreetsocial.com","tier":2,"message":"Moderate","currency":"$","rating":8.1},{"name":"Obento-Ya","phone":"6123311432","address":"1510 Como Ave SE","lat":44.98780317191883,"lng":-93.22986232038754,"neighborhood":"Como","city_fetched":"Minneapolis","state":"MN","country":"United States","canonicalUrl":"https://foursquare.com/v/obentoya/4a14ba52f964a5206f781fe3","category":"Sushi Restaurant","checkinsCount":2754,"usersCount":1305,"tipCount":45,"visitsCount":3048,"url":"http://www.obento-ya.com","tier":2,"message":"Moderate","currency":"$","rating":8.1},{"name":"Bev's Wine Bar","phone":"6123370102","address":"250 3rd Ave N","lat":44.98409098708315,"lng":-93.27290253707135,"neighborhood":"Warehouse District","city_fetched":"Minneapolis","state":"MN","country":"United States","canonicalUrl":"https://foursquare.com/v/bevs-wine-bar/41326e00f964a5207a161fe3","category":"Wine Bar","checkinsCount":2087,"usersCount":825,"tipCount":13,"visitsCount":2153,"url":"http://bevswinebar.com","tier":"","message":"","currency":"","rating":8},{"name":"Origami Uptown","phone":"6122238666","twitter":"origamimpls","address":"1354 Lagoon Ave","lat":44.94948465376553,"lng":-93.29716444015502,"neighborhood":"Uptown","city_fetched":"Minneapolis","state":"MN","country":"United States","canonicalUrl":"https://foursquare.com/origamimpls","category":"Japanese Restaurant","checkinsCount":1423,"usersCount":793,"tipCount":11,"visitsCount":1460,"url":"http://www.origamirestaurant.com","tier":2,"message":"Moderate","currency":"$","rating":8},{"name":"Amazing Thailand","phone":"6128225588","address":"3024 Hennepin Ave","lat":44.94750084484951,"lng":-93.29840664022052,"neighborhood":"Uptown","city_fetched":"Minneapolis","state":"MN","country":"United States","canonicalUrl":"https://foursquare.com/v/amazing-thailand/461f5c90f964a5207d451fe3","category":"Thai Restaurant","checkinsCount":6448,"usersCount":3081,"tipCount":92,"visitsCount":6540,"url":"http://www.amazingthailandusa.com","tier":2,"message":"Moderate","currency":"$","rating":8},{"name":"Toast Wine Bar & Cafe","phone":"6123334305","twitter":"toastwinebar","address":"415 N 1st St","lat":44.98659069958973,"lng":-93.2717468479763,"neighborhood":"Warehouse District","city_fetched":"Minneapolis","state":"MN","country":"United States","canonicalUrl":"https://foursquare.com/v/toast-wine-bar--cafe/45e85e5ef964a52069431fe3","category":"Wine Bar","checkinsCount":2547,"usersCount":1157,"tipCount":30,"visitsCount":2711,"url":"http://toastwinebarandcafe.com","tier":2,"message":"Moderate","currency":"$","rating":8},{"name":"Surly Brewing Co Beer Garden","lat":44.973160513204945,"lng":-93.21047011889044,"neighborhood":"University","city_fetched":"Minneapolis","state":"MN","country":"United States","canonicalUrl":"https://foursquare.com/v/surly-brewing-co-beer-garden/55611e1b498e5eb4deba0903","category":"Beer Garden","checkinsCount":179,"usersCount":151,"tipCount":1,"visitsCount":180,"tier":"","message":"","currency":"","rating":8},{"name":"331 Club","phone":"6123311746","twitter":"331club","address":"331 13th Ave NE","lat":45.001112076105834,"lng":-93.26296291724941,"neighborhood":"Sheridan","city_fetched":"Minneapolis","state":"MN","country":"United States","canonicalUrl":"https://foursquare.com/v/331-club/41326e00f964a52050161fe3","category":"Dive Bar","checkinsCount":15942,"usersCount":4395,"tipCount":63,"visitsCount":17093,"url":"http://331.mn","tier":1,"message":"Cheap","currency":"$","rating":8},{"name":"Crave Rooftop","phone":"6123321133","twitter":"craveamerica","address":"825 Hennepin Ave","lat":44.976434111595154,"lng":-93.2765543460846,"neighborhood":"Downtown West","city_fetched":"Minneapolis","state":"MN","country":"United States","canonicalUrl":"https://foursquare.com/v/crave-rooftop/4de9963152b11677f025d84d","category":"Bar","checkinsCount":2629,"usersCount":1620,"tipCount":10,"visitsCount":2635,"url":"http://craveminneapolis.com","tier":"","message":"","currency":"","rating":8},{"name":"Able Seedhouse + Brewery","phone":"6124054642","twitter":"ablebeer","address":"1121 Quincy St NE","lat":44.999284,"lng":-93.25102,"neighborhood":"Logan Park","city_fetched":"Minneapolis","state":"MN","country":"United States","canonicalUrl":"https://foursquare.com/v/able-seedhouse--brewery/563bdda2cd102a33973c8c97","category":"Brewery","checkinsCount":742,"usersCount":798,"tipCount":4,"visitsCount":1158,"url":"http://ablebeer.com","tier":"","message":"","currency":"","rating":8},{"name":"Inbound BrewCo","twitter":"inboundbrewco","address":"701 N 5th St","lat":44.98552732840507,"lng":-93.2813073593769,"neighborhood":"North Loop","city_fetched":"Minneapolis","state":"MN","country":"United States","canonicalUrl":"https://foursquare.com/v/inbound-brewco/570d7c00cd102c0fabd7d768","category":"Brewery","checkinsCount":666,"usersCount":545,"tipCount":5,"visitsCount":892,"url":"http://inboundbrew.co","tier":"","message":"","currency":"","rating":8},{"name":"Marin Restaurant & Bar","phone":"6122527000","twitter":"marinmpls","address":"901 Hennepin Ave","lat":44.9762074674102,"lng":-93.27690167329159,"neighborhood":"Downtown West","city_fetched":"Minneapolis","state":"MN","country":"United States","canonicalUrl":"https://foursquare.com/v/marin-restaurant--bar/51c39c0b498e224aa9abc757","category":"American Restaurant","checkinsCount":2292,"usersCount":1334,"tipCount":21,"visitsCount":2352,"url":"http://www.marinrestaurant.com","tier":3,"message":"Expensive","currency":"$","rating":8},{"name":"Merlins Rest","phone":"6122162419","twitter":"merlinsrest","address":"3601 E Lake St","lat":44.94819220326251,"lng":-93.22024058226242,"neighborhood":"Longfellow","city_fetched":"Minneapolis","state":"MN","country":"United States","canonicalUrl":"https://foursquare.com/v/merlins-rest/4640057ff964a52057461fe3","category":"Pub","checkinsCount":8178,"usersCount":2784,"tipCount":67,"visitsCount":9227,"url":"http://merlinsrest.com","tier":2,"message":"Moderate","currency":"$","rating":8},{"name":"Mac's Industrial Sports Bar","phone":"6123793379","twitter":"macsindustrial","address":"312 Central Ave SE","lat":44.98718766126735,"lng":-93.25418097179778,"neighborhood":"Marcy - Holmes","city_fetched":"Minneapolis","state":"MN","country":"United States","canonicalUrl":"https://foursquare.com/v/macs-industrial-sports-bar/41326e00f964a5204e171fe3","category":"Sports Bar","checkinsCount":12915,"usersCount":3409,"tipCount":84,"visitsCount":14350,"url":"http://macsindustrial.com","tier":2,"message":"Moderate","currency":"$","rating":8},{"name":"Ginger Hop","phone":"6127460304","twitter":"gingerhop_ne","address":"201 E Hennepin Ave","lat":44.98759,"lng":-93.257683,"neighborhood":"University","city_fetched":"Minneapolis","state":"MN","country":"United States","canonicalUrl":"https://foursquare.com/v/ginger-hop/4ab58784f964a520317520e3","category":"Asian Restaurant","checkinsCount":7746,"usersCount":3621,"tipCount":69,"visitsCount":7908,"url":"http://gingerhop.com","tier":2,"message":"Moderate","currency":"$","rating":8},{"name":"The Unofficial","phone":"6122488820","twitter":"theunofficialdb","address":"3701 Stinson Blvd","lat":45.03905,"lng":-93.22686,"city_fetched":"Minneapolis","state":"MN","country":"United States","canonicalUrl":"https://foursquare.com/v/the-unofficial/55df28c9498e8f5a46bfaf14","category":"Bar","checkinsCount":265,"usersCount":178,"tipCount":8,"visitsCount":338,"url":"http://www.theunofficialdb.com/#D0AmW9","tier":"","message":"","currency":"","rating":7.9},{"name":"Harriet's Inn","phone":"6123543852","twitter":"harrietsinn","address":"4000 Lyndale Ave S","lat":44.930205,"lng":-93.288696,"neighborhood":"East Harriet","city_fetched":"Minneapolis","state":"MN","country":"United States","canonicalUrl":"https://foursquare.com/v/harriets-inn/563a5850cd107b9fa007395d","category":"Restaurant","checkinsCount":417,"usersCount":352,"tipCount":5,"visitsCount":742,"url":"http://www.harrietsinn.com","tier":"","message":"","currency":"","rating":7.9},{"name":"Mackenzie Pub","phone":"6123337268","twitter":"mackenziepubmn","address":"918 Hennepin Ave","lat":44.976287873241134,"lng":-93.27777433350525,"neighborhood":"Downtown West","city_fetched":"Minneapolis","state":"MN","country":"United States","canonicalUrl":"https://foursquare.com/v/mackenzie-pub/41326e00f964a52014181fe3","category":"Whisky Bar","checkinsCount":8730,"usersCount":3172,"tipCount":69,"visitsCount":9016,"url":"http://www.mackenziepub.com","tier":1,"message":"Cheap","currency":"$","rating":7.9},{"name":"Clubhouse Jäger","phone":"6123322686","twitter":"clubjager","address":"923 Washington Ave N","lat":44.98993943784169,"lng":-93.28060955527941,"neighborhood":"Warehouse District","city_fetched":"Minneapolis","state":"MN","country":"United States","canonicalUrl":"https://foursquare.com/v/clubhouse-j%C3%A4ger/454b3fbff964a520b33c1fe3","category":"Bar","checkinsCount":10440,"usersCount":3289,"tipCount":45,"visitsCount":11510,"url":"http://clubjager.com","tier":2,"message":"Moderate","currency":"$","rating":7.9},{"name":"Hangar 45","phone":"7635712722","twitter":"tastypizzamn","address":"875 45th Ave NE","lat":45.05032185,"lng":-93.24865014,"city_fetched":"Minneapolis","state":"MN","country":"United States","canonicalUrl":"https://foursquare.com/v/hangar-45/4d4ccbba1a2d721ead51901d","category":"Karaoke Bar","checkinsCount":2113,"usersCount":297,"tipCount":5,"visitsCount":2334,"url":"http://tastypizzatogo.com/hangar45.html","tier":1,"message":"Cheap","currency":"$","rating":7.9},{"name":"W Minneapolis - The Foshay","phone":"6122153700","twitter":"spg","address":"821 Marquette Ave","lat":44.974473194652354,"lng":-93.27192484558418,"neighborhood":"Downtown West","city_fetched":"Minneapolis","state":"MN","country":"United States","canonicalUrl":"https://foursquare.com/v/w-minneapolis--the-foshay/49cd59cef964a520e7591fe3","category":"Hotel","checkinsCount":16089,"usersCount":7340,"tipCount":59,"visitsCount":16345,"url":"http://www.whotels.com/minneapolis","tier":"","message":"","currency":"","rating":7.9},{"name":"Constantine","phone":"6128861297","twitter":"constantinempls","address":"1115 2nd Ave S","lat":44.97120536563787,"lng":-93.2731845259212,"neighborhood":"Downtown West","city_fetched":"Minneapolis","state":"MN","country":"United States","canonicalUrl":"https://foursquare.com/v/constantine/5570beb6498eb08a0f251583","category":"Bar","checkinsCount":337,"usersCount":204,"tipCount":9,"visitsCount":354,"url":"http://constantinempls.com","tier":"","message":"","currency":"","rating":7.9},{"name":"Little Tijuana Restaurant","phone":"6128720578","twitter":"littletjmn","address":"17 E 26th St","lat":44.95557451724757,"lng":-93.27710393389077,"neighborhood":"Whittier","city_fetched":"Minneapolis","state":"MN","country":"United States","canonicalUrl":"https://foursquare.com/littletjmn","category":"Taco Place","checkinsCount":2366,"usersCount":1060,"tipCount":25,"visitsCount":2459,"url":"http://littletjs.com","tier":2,"message":"Moderate","currency":"$","rating":7.9},{"name":"LynLake Brewery","phone":"6122249682","twitter":"lynlakebrewery","address":"2934 Lyndale Ave S","lat":44.94882404866056,"lng":-93.28836679458618,"neighborhood":"Lyn Lake","city_fetched":"Minneapolis","state":"MN","country":"United States","canonicalUrl":"https://foursquare.com/lynlakebrewery","category":"Brewery","checkinsCount":2358,"usersCount":1268,"tipCount":15,"visitsCount":2722,"url":"http://www.lynlakebrewery.com","tier":1,"message":"Cheap","currency":"$","rating":7.9},{"name":"The Cabooze","phone":"6123386425","twitter":"caboozempls","address":"917 Cedar Ave S","lat":44.96363262947976,"lng":-93.24706879365696,"neighborhood":"Seward","city_fetched":"Minneapolis","state":"MN","country":"United States","canonicalUrl":"https://foursquare.com/v/the-cabooze/41326e00f964a5209d161fe3","category":"Rock Club","checkinsCount":7612,"usersCount":4392,"tipCount":41,"visitsCount":7931,"url":"http://www.cabooze.com","tier":"","message":"","currency":"","rating":7.9},{"name":"Shout House Dueling Pianos","phone":"6123376700","twitter":"shouthousempls","address":"110 N 5th St","lat":44.981145498777785,"lng":-93.27431674495924,"neighborhood":"Warehouse District","city_fetched":"Minneapolis","state":"MN","country":"United States","canonicalUrl":"https://foursquare.com/shouthousempls","category":"Piano Bar","checkinsCount":8756,"usersCount":5415,"tipCount":49,"visitsCount":8793,"url":"http://www.shouthousempls.com","tier":"","message":"","currency":"","rating":7.9},{"name":"Green Mill Restaurant & Bar","phone":"6123742131","twitter":"greenmill","address":"2626 Hennepin Ave","lat":44.954740749314404,"lng":-93.29742729663849,"neighborhood":"East Isles","city_fetched":"Minneapolis","state":"MN","country":"United States","canonicalUrl":"https://foursquare.com/v/green-mill-restaurant--bar/43cb9b90f964a520bf2d1fe3","category":"American Restaurant","checkinsCount":13527,"usersCount":3950,"tipCount":79,"visitsCount":14267,"url":"http://www.greenmill.com","tier":2,"message":"Moderate","currency":"$","rating":7.8},{"name":"Big Ten Restaurant and Bar","phone":"6123780467","twitter":"thebigten","address":"606 Washington Ave SE","lat":44.97352828965229,"lng":-93.2297140939202,"neighborhood":"University","city_fetched":"Minneapolis","state":"MN","country":"United States","canonicalUrl":"https://foursquare.com/v/big-ten-restaurant-and-bar/41326e00f964a5207b161fe3","category":"Sports Bar","checkinsCount":3648,"usersCount":1565,"tipCount":23,"visitsCount":3739,"url":"http://big10restaurant.com","tier":1,"message":"Cheap","currency":"$","rating":7.8},{"name":"Crooked Pint Ale House","phone":"6128776900","twitter":"crookedpintmpls","address":"501 Washington Ave S","lat":44.97841554525494,"lng":-93.26131313824123,"neighborhood":"Downtown West","city_fetched":"Minneapolis","state":"MN","country":"United States","canonicalUrl":"https://foursquare.com/v/crooked-pint-ale-house/4e6411a8196b6bc4d0047905","category":"Pub","checkinsCount":7145,"usersCount":3553,"tipCount":58,"visitsCount":7488,"url":"http://crookedpint.com","tier":2,"message":"Moderate","currency":"$","rating":7.8},{"name":"2 Gingers Pub at Target Field","twitter":"2gingerswhiskey","address":"1 Twins Way","lat":44.9817336830604,"lng":-93.27814327402277,"neighborhood":"North Loop","city_fetched":"Minneapolis","state":"MN","country":"United States","canonicalUrl":"https://foursquare.com/v/2-gingers-pub-at-target-field/4f862de1e4b0b24cafa6ff9e","category":"Pub","checkinsCount":869,"usersCount":583,"tipCount":9,"visitsCount":870,"url":"http://www.2gingerswhiskey.com","tier":"","message":"","currency":"","rating":7.8},{"name":"Cuzzy's Grill & Bar","phone":"6123396211","twitter":"cuzzys","address":"507 Washington Ave N","lat":44.98612498000093,"lng":-93.27520719899853,"neighborhood":"Warehouse District","city_fetched":"Minneapolis","state":"MN","country":"United States","canonicalUrl":"https://foursquare.com/v/cuzzys-grill--bar/439d3ceef964a520fe2b1fe3","category":"Bar","checkinsCount":8289,"usersCount":3406,"tipCount":42,"visitsCount":9682,"url":"http://www.cuzzys.com","tier":2,"message":"Moderate","currency":"$","rating":7.8},{"name":"Shaw's","phone":"6127814405","address":"1528 University Ave NE","lat":45.0040289337342,"lng":-93.2632675551092,"neighborhood":"Sheridan","city_fetched":"Minneapolis","state":"MN","country":"United States","canonicalUrl":"https://foursquare.com/v/shaws/4bc129864cdfc9b6114c9421","category":"Dive Bar","checkinsCount":2299,"usersCount":1141,"tipCount":23,"visitsCount":2702,"tier":1,"message":"Cheap","currency":"$","rating":7.8},{"name":"Tony Jaros' River Garden","phone":"6127899728","address":"2500 Marshall St NE","lat":45.01330915254879,"lng":-93.27207505702972,"neighborhood":"Marshall Terrace","city_fetched":"Minneapolis","state":"MN","country":"United States","canonicalUrl":"https://foursquare.com/v/tony-jaros-river-garden/41326e00f964a520cf171fe3","category":"Bar","checkinsCount":4399,"usersCount":2369,"tipCount":22,"visitsCount":4622,"tier":2,"message":"Moderate","currency":"$","rating":7.8},{"name":"O'Donovan's Irish Pub","phone":"6123178896","address":"700 1st Ave N","lat":44.97871071508315,"lng":-93.27605813741684,"neighborhood":"Downtown West","city_fetched":"Minneapolis","state":"MN","country":"United States","canonicalUrl":"https://foursquare.com/v/odonovans-irish-pub/4383b100f964a520fa2a1fe3","category":"Whisky Bar","checkinsCount":11517,"usersCount":5311,"tipCount":66,"visitsCount":11613,"url":"http://odonovans.com","tier":2,"message":"Moderate","currency":"$","rating":7.8},{"name":"Hop21 Table Tennis Club & Bar","phone":"6123152964","twitter":"maxhop21","address":"501 Washington Ave S","lat":44.97850984955447,"lng":-93.26146810392214,"neighborhood":"Downtown West","city_fetched":"Minneapolis","state":"MN","country":"United States","canonicalUrl":"https://foursquare.com/v/hop21-table-tennis-club--bar/55385715498e4f8a021ae719","category":"Bar","checkinsCount":75,"usersCount":55,"tipCount":3,"visitsCount":76,"url":"http://www.hop21.com","tier":"","message":"","currency":"","rating":7.8},{"name":"612 Brew","phone":"6122170437","twitter":"612brew","address":"945 Broadway St NE","lat":44.998922427283155,"lng":-93.24684698564698,"neighborhood":"Northeast Park","city_fetched":"Minneapolis","state":"MN","country":"United States","canonicalUrl":"https://foursquare.com/v/612-brew/50ef32cae4b033522d366ccf","category":"Brewery","checkinsCount":5431,"usersCount":3540,"tipCount":43,"visitsCount":5841,"url":"http://www.612brew.com","tier":1,"message":"Cheap","currency":"$","rating":7.8},{"name":"Camden Tavern and Grill","phone":"6125294990","address":"4601 Lyndale Ave N","lat":45.03862762451172,"lng":-93.28768157958984,"neighborhood":"Lind - Bohanon","city_fetched":"Minneapolis","state":"MN","country":"United States","canonicalUrl":"https://foursquare.com/v/camden-tavern-and-grill/4f67d1b6e4b0da7ca532896a","category":"Restaurant","checkinsCount":232,"usersCount":137,"tipCount":4,"visitsCount":320,"tier":1,"message":"Cheap","currency":"$","rating":7.7},{"name":"Metropolitan Club","phone":"6126593964","address":"Target Field","lat":44.98105853163108,"lng":-93.27743831302095,"neighborhood":"North Loop","city_fetched":"Minneapolis","state":"MN","country":"United States","canonicalUrl":"https://foursquare.com/v/metropolitan-club/4bbdcc068a4fb713f9573d9d","category":"Baseball Field","checkinsCount":3369,"usersCount":1445,"tipCount":19,"visitsCount":3390,"tier":"","message":"","currency":"","rating":7.7},{"name":"The Joint","phone":"6123386425","address":"913 Cedar Ave S","lat":44.96371791044641,"lng":-93.24687888613147,"neighborhood":"Seward","city_fetched":"Minneapolis","state":"MN","country":"United States","canonicalUrl":"https://foursquare.com/v/the-joint/41326e00f964a52029171fe3","category":"Bar","checkinsCount":1728,"usersCount":783,"tipCount":3,"visitsCount":1741,"url":"http://www.thejointbar.com","tier":"","message":"","currency":"","rating":7.7},{"name":"Peacock Lounge","phone":"6126234211","address":"323 13th Ave NE","lat":45.0009692,"lng":-93.263644,"neighborhood":"Sheridan","city_fetched":"Minneapolis","state":"MN","country":"United States","canonicalUrl":"https://foursquare.com/v/peacock-lounge/4a94653df964a520742120e3","category":"Cocktail Bar","checkinsCount":1629,"usersCount":594,"tipCount":14,"visitsCount":1659,"tier":"","message":"","currency":"","rating":7.7},{"name":"56 Brewing","phone":"6124040056","twitter":"56brewing","address":"3134 California St NE","lat":45.025407,"lng":-93.270731,"neighborhood":"Marshall Terrace","city_fetched":"Minneapolis","state":"MN","country":"United States","canonicalUrl":"https://foursquare.com/v/56-brewing/54c7bc15498e300defaf449c","category":"Brewery","checkinsCount":96,"usersCount":106,"tipCount":0,"visitsCount":139,"tier":"","message":"","currency":"","rating":7.7},{"name":"Modist Brewing Co","phone":"6124540258","twitter":"modistbrewing","address":"505 N 3rd St","lat":44.98506169766805,"lng":-93.27630919994546,"neighborhood":"North Loop","city_fetched":"Minneapolis","state":"MN","country":"United States","canonicalUrl":"https://foursquare.com/v/modist-brewing-co/5655f13b498efec375b04a8c","category":"Brewery","checkinsCount":693,"usersCount":670,"tipCount":7,"visitsCount":986,"tier":"","message":"","currency":"","rating":7.7},{"name":"Gluek's Restaurant & Bar","phone":"6123386621","twitter":"glueks","address":"16 N 6th St","lat":44.97952877924101,"lng":-93.27441626909757,"neighborhood":"Warehouse District","city_fetched":"Minneapolis","state":"MN","country":"United States","canonicalUrl":"https://foursquare.com/v/glueks-restaurant--bar/41326e00f964a5200d181fe3","category":"German Restaurant","checkinsCount":8875,"usersCount":4992,"tipCount":36,"visitsCount":8986,"url":"http://www.glueks.com","tier":1,"message":"Cheap","currency":"$","rating":7.7},{"name":"Stub & Herb's","phone":"6123790555","twitter":"stubandherbs","address":"227 Oak St SE","lat":44.973707838004756,"lng":-93.22704139947595,"neighborhood":"University","city_fetched":"Minneapolis","state":"MN","country":"United States","canonicalUrl":"https://foursquare.com/v/stub--herbs/41326e00f964a520be171fe3","category":"Bar","checkinsCount":8531,"usersCount":3799,"tipCount":51,"visitsCount":9335,"url":"http://www.stubandherbsbar.com","tier":1,"message":"Cheap","currency":"$","rating":7.7},{"name":"Kiku Bistro Uptown","phone":"6128721778","twitter":"kikubistro","address":"2819 Hennepin Ave","lat":44.95127244970987,"lng":-93.29806750055653,"neighborhood":"Uptown","city_fetched":"Minneapolis","state":"MN","country":"United States","canonicalUrl":"https://foursquare.com/kikubistro","category":"Sushi Restaurant","checkinsCount":3410,"usersCount":1435,"tipCount":54,"visitsCount":3443,"url":"http://www.kikubistro.com","tier":1,"message":"Cheap","currency":"$","rating":7.6},{"name":"Rock Bottom Restaurant & Brewery","phone":"6123322739","twitter":"rockbottommpls","address":"800 La Salle Plaza","lat":44.97639594678024,"lng":-93.27632904052734,"neighborhood":"Downtown West","city_fetched":"Minneapolis","state":"MN","country":"United States","canonicalUrl":"https://foursquare.com/v/rock-bottom-restaurant--brewery/41326e00f964a52092171fe3","category":"Brewery","checkinsCount":14016,"usersCount":7519,"tipCount":97,"visitsCount":14189,"url":"http://www.rockbottom.com","tier":2,"message":"Moderate","currency":"$","rating":7.6},{"name":"Cosmos Restaurant","phone":"6123121168","twitter":"cosmos601","address":"601 1st Ave N","lat":44.979044,"lng":-93.275153,"neighborhood":"Warehouse District","city_fetched":"Minneapolis","state":"MN","country":"United States","canonicalUrl":"https://foursquare.com/v/cosmos-restaurant/4513fb63f964a520cd391fe3","category":"Lounge","checkinsCount":1764,"usersCount":1330,"tipCount":21,"visitsCount":1766,"url":"http://www.cosmosrestaurant.com","tier":"","message":"","currency":"","rating":7.6},{"name":"Brewer's Table Kitchen at Surly","address":"520 Malcolm Ave SE","lat":44.973246,"lng":-93.210048,"neighborhood":"University","city_fetched":"Minneapolis","state":"MN","country":"United States","canonicalUrl":"https://foursquare.com/v/brewers-table-kitchen-at-surly/5560f787498eb40f9f3df140","category":"Gastropub","checkinsCount":144,"usersCount":128,"tipCount":4,"visitsCount":144,"tier":3,"message":"Expensive","currency":"$","rating":7.6},{"name":"Miller's Bar and Grill","phone":"7637885789","address":"547 40th Ave NE","lat":45.04113429489848,"lng":-93.25773697446711,"city_fetched":"Minneapolis","state":"MN","country":"United States","canonicalUrl":"https://foursquare.com/v/millers-bar-and-grill/5036b4e4e4b090fae05ac277","category":"Bar","checkinsCount":333,"usersCount":164,"tipCount":6,"visitsCount":426,"tier":"","message":"","currency":"","rating":7.6},{"name":"Ike's Food & Cocktails","phone":"6127464537","twitter":"ilikeikesmn","address":"50 S 6th St","lat":44.97818705436708,"lng":-93.27229499816895,"neighborhood":"Downtown West","city_fetched":"Minneapolis","state":"MN","country":"United States","canonicalUrl":"https://foursquare.com/ilikeikesmn","category":"Cocktail Bar","checkinsCount":5422,"usersCount":3509,"tipCount":55,"visitsCount":5447,"url":"http://www.ilikeikes.com","tier":3,"message":"Expensive","currency":"$","rating":7.6},{"name":"Patty Wagon","phone":"6128615500","address":"6042 Nicollet Ave","lat":44.89273025270571,"lng":-93.27860284896627,"neighborhood":"Windom","city_fetched":"Minneapolis","state":"MN","country":"United States","canonicalUrl":"https://foursquare.com/v/patty-wagon/5530359a498ec8363efaa5ae","category":"Burger Joint","checkinsCount":113,"usersCount":56,"tipCount":3,"visitsCount":125,"url":"http://thepattywagonmn.com","tier":"","message":"","currency":"","rating":7.6},{"name":"Lyon's Pub","phone":"6123336612","twitter":"lyonspub","address":"16 S 6th St","lat":44.978472101998506,"lng":-93.27275490152726,"neighborhood":"Downtown West","city_fetched":"Minneapolis","state":"MN","country":"United States","canonicalUrl":"https://foursquare.com/v/lyons-pub/41326e00f964a5204d171fe3","category":"Pub","checkinsCount":7735,"usersCount":3912,"tipCount":34,"visitsCount":7902,"url":"http://www.lyonspub.com","tier":2,"message":"Moderate","currency":"$","rating":7.6},{"name":"Village Pub - St. Anthony","phone":"6127889680","address":"2770 Highway 88","lat":45.017107050254275,"lng":-93.21817874908447,"city_fetched":"Minneapolis","state":"MN","country":"United States","canonicalUrl":"https://foursquare.com/v/village-pub--st-anthony/4a3ad0b9f964a5204ea01fe3","category":"Bar","checkinsCount":3623,"usersCount":1563,"tipCount":38,"visitsCount":4466,"url":"http://stanthonyvillagepub.com","tier":2,"message":"Moderate","currency":"$","rating":7.6},{"name":"The Six 15 Room","phone":"6122888888","address":"615 2nd Ave. S","lat":44.976202,"lng":-93.269276,"neighborhood":"Downtown West","city_fetched":"Minneapolis","state":"MN","country":"United States","canonicalUrl":"https://foursquare.com/v/the-six-15-room/4d9e3cb5f941a35d70d555d5","category":"Cocktail Bar","checkinsCount":624,"usersCount":363,"tipCount":10,"visitsCount":626,"url":"http://six15room.com","tier":"","message":"","currency":"","rating":7.6},{"name":"Pracna On Main","phone":"6123793200","twitter":"pracnaonmain","address":"117 Main St SE","lat":44.984535635122754,"lng":-93.25555021727426,"neighborhood":"Marcy - Holmes","city_fetched":"Minneapolis","state":"MN","country":"United States","canonicalUrl":"https://foursquare.com/pracnaonmain","category":"Bar","checkinsCount":5507,"usersCount":2765,"tipCount":33,"visitsCount":5535,"url":"http://www.pracna.com","tier":2,"message":"Moderate","currency":"$","rating":7.6},{"name":"Acadia Cafe","phone":"6128748702","twitter":"acadiacafe","address":"329 Cedar Ave S","lat":44.970278437186735,"lng":-93.24710369110107,"neighborhood":"Cedar-Riverside","city_fetched":"Minneapolis","state":"MN","country":"United States","canonicalUrl":"https://foursquare.com/v/acadia-cafe/43cfdb44f964a520e92d1fe3","category":"Bar","checkinsCount":5860,"usersCount":2791,"tipCount":50,"visitsCount":6304,"url":"http://www.acadiacafe.com","tier":2,"message":"Moderate","currency":"$","rating":7.6},{"name":"The Bulldog Uptown","phone":"6128728893","twitter":"bulldog_uptown","address":"2549 Lyndale Ave S","lat":44.955928,"lng":-93.28789284,"neighborhood":"Whittier","city_fetched":"Minneapolis","state":"MN","country":"United States","canonicalUrl":"https://foursquare.com/v/the-bulldog-uptown/414e1d80f964a520d51c1fe3","category":"Bar","checkinsCount":11297,"usersCount":3892,"tipCount":69,"visitsCount":11695,"url":"http://www.barminneapolismn.com","tier":2,"message":"Moderate","currency":"$","rating":7.6},{"name":"Moose on Monroe Bar & Grill","phone":"6126234999","twitter":"mooseonmonroe","address":"356 Monroe St NE","lat":44.99472494285519,"lng":-93.25287691957304,"neighborhood":"Northeast Minneapolis","city_fetched":"Minneapolis","state":"MN","country":"United States","canonicalUrl":"https://foursquare.com/v/moose-on-monroe-bar--grill/4a9aaee8f964a5202f3220e3","category":"Dive Bar","checkinsCount":4608,"usersCount":1763,"tipCount":35,"visitsCount":5251,"tier":2,"message":"Moderate","currency":"$","rating":7.6},{"name":"Terzo","phone":"6129250330","twitter":"terzovinobar","address":"2221 W 50th St","lat":44.91226,"lng":-93.308563,"neighborhood":"Lynnhurst","city_fetched":"Minneapolis","state":"MN","country":"United States","canonicalUrl":"https://foursquare.com/v/terzo/51aa7d4b498e09d849e2edfa","category":"Italian Restaurant","checkinsCount":202,"usersCount":148,"tipCount":4,"visitsCount":211,"url":"http://www.broders.com/terzo-vino-bar/‎","tier":"","message":"","currency":"","rating":7.5},{"name":"Boom Island Brewing Company","phone":"6122279635","twitter":"boomislandbeer","address":"2014 Washington Ave N","lat":44.99998585831446,"lng":-93.28144447325188,"city_fetched":"Minneapolis","state":"MN","country":"United States","canonicalUrl":"https://foursquare.com/v/boom-island-brewing-company/4efa03f06da1f7b6633f3f1b","category":"Brewery","checkinsCount":1218,"usersCount":813,"tipCount":18,"visitsCount":1564,"url":"http://www.boomislandbrewing.com","tier":"","message":"","currency":"","rating":7.5},{"name":"Fallon","phone":"6127582345","twitter":"fallon","address":"901 Marquette Ave Ste 2400","lat":44.97404421672253,"lng":-93.27228796288821,"neighborhood":"Downtown West","city_fetched":"Minneapolis","state":"MN","country":"United States","canonicalUrl":"https://foursquare.com/v/fallon/4be17321a7380f47a30c1ab0","category":"Office","checkinsCount":5381,"usersCount":354,"tipCount":7,"visitsCount":5389,"tier":"","message":"","currency":"","rating":7.5},{"name":"Devil's Advocate","phone":"6128432260","twitter":"devilsbarmn","address":"89 S 10th St","lat":44.97357366860855,"lng":-93.2738931830564,"neighborhood":"Downtown West","city_fetched":"Minneapolis","state":"MN","country":"United States","canonicalUrl":"https://foursquare.com/v/devils-advocate/4f2dca55e4b083c427a473ae","category":"Gastropub","checkinsCount":5133,"usersCount":2693,"tipCount":73,"visitsCount":5351,"url":"http://www.devilsadvocatebar.com","tier":2,"message":"Moderate","currency":"$","rating":7.5},{"name":"Whitey's World Famous Saloon","phone":"6126239478","address":"400 E Hennepin Ave","lat":44.988320194032845,"lng":-93.25478002931996,"neighborhood":"University","city_fetched":"Minneapolis","state":"MN","country":"United States","canonicalUrl":"https://foursquare.com/v/whiteys-world-famous-saloon/41326e00f964a520fc171fe3","category":"Dive Bar","checkinsCount":6675,"usersCount":2750,"tipCount":45,"visitsCount":6729,"tier":2,"message":"Moderate","currency":"$","rating":7.5},{"name":"Morrissey's Irish Pub","phone":"6122321312","twitter":"morrisseyspubmn","address":"913 W Lake St","lat":44.94824529374674,"lng":-93.29142280222604,"neighborhood":"Lyn Lake","city_fetched":"Minneapolis","state":"MN","country":"United States","canonicalUrl":"https://foursquare.com/v/morrisseys-irish-pub/513b6579e4b0dcaa8c9cfa4a","category":"Whisky Bar","checkinsCount":4042,"usersCount":1768,"tipCount":32,"visitsCount":4672,"url":"http://www.morrisseysuptown.com","tier":2,"message":"Moderate","currency":"$","rating":7.5},{"name":"Bunker's Music Bar & Grill","phone":"6123388188","address":"761 Washington Ave N","lat":44.98867774063429,"lng":-93.2785782880479,"neighborhood":"Warehouse District","city_fetched":"Minneapolis","state":"MN","country":"United States","canonicalUrl":"https://foursquare.com/v/bunkers-music-bar--grill/41326e00f964a5209b161fe3","category":"Dive Bar","checkinsCount":3576,"usersCount":1962,"tipCount":25,"visitsCount":3669,"url":"http://www.bunkersmusic.com","tier":2,"message":"Moderate","currency":"$","rating":7.5},{"name":"Union Restaurant & Rooftop","phone":"6124556690","twitter":"unionmpls","address":"731 Hennepin Ave","lat":44.977163186792055,"lng":-93.27555600733403,"neighborhood":"Downtown West","city_fetched":"Minneapolis","state":"MN","country":"United States","canonicalUrl":"https://foursquare.com/unionmpls","category":"American Restaurant","checkinsCount":6616,"usersCount":4378,"tipCount":67,"visitsCount":7186,"url":"http://unionmpls.com","tier":3,"message":"Expensive","currency":"$","rating":7.5},{"name":"Huberts Sports Bar & Grill","phone":"6127672960","twitter":"huberts_mpls","address":"600 1st Ave N","lat":44.979803701060895,"lng":-93.27535208387532,"neighborhood":"Warehouse District","city_fetched":"Minneapolis","state":"MN","country":"United States","canonicalUrl":"https://foursquare.com/huberts_mpls","category":"Sports Bar","checkinsCount":10846,"usersCount":5248,"tipCount":51,"visitsCount":10907,"url":"http://www.hubertsmpls.com","tier":2,"message":"Moderate","currency":"$","rating":7.5},{"name":"St. Petersburg Restaurant & Vodka Bar","phone":"7635871787","twitter":"myvodkabar","address":"3610 France Ave N","lat":45.02079283692203,"lng":-93.32825660705566,"city_fetched":"Minneapolis","state":"MN","country":"United States","canonicalUrl":"https://foursquare.com/v/st-petersburg-restaurant--vodka-bar/49c0f982f964a52076551fe3","category":"Lounge","checkinsCount":4006,"usersCount":600,"tipCount":21,"visitsCount":4226,"url":"http://www.myvodkabar.com","tier":2,"message":"Moderate","currency":"$","rating":7.5},{"name":"The Pint Public House","phone":"6123535454","address":"430 1st Ave N","lat":44.98076944384984,"lng":-93.27324700309259,"neighborhood":"Warehouse District","city_fetched":"Minneapolis","state":"MN","country":"United States","canonicalUrl":"https://foursquare.com/v/the-pint-public-house/5650dbdb498e3127af8c1c75","category":"Sports Bar","checkinsCount":403,"usersCount":363,"tipCount":3,"visitsCount":616,"url":"http://www.pintminneapolis.com","tier":"","message":"","currency":"","rating":7.5},{"name":"New Bohemia Wurst + BierHaus","phone":"6123547724","twitter":"newbohemiamn","address":"800 W Lake St","lat":44.94849810694791,"lng":-93.28954554318246,"neighborhood":"Lyn Lake","city_fetched":"Minneapolis","state":"MN","country":"United States","canonicalUrl":"https://foursquare.com/v/new-bohemia-wurst--bierhaus/56e0ba73498e9b21fa684fdd","category":"German Restaurant","checkinsCount":217,"usersCount":140,"tipCount":0,"visitsCount":241,"url":"http://www.newbohemiausa.com","tier":"","message":"","currency":"","rating":7.4},{"name":"Spades Nigtclub","lat":44.98156795255143,"lng":-93.27234827019507,"neighborhood":"Warehouse District","city_fetched":"Minneapolis","state":"MN","country":"United States","canonicalUrl":"https://foursquare.com/v/spades-nigtclub/5376ad4911d2b93afe26bb37","category":"Nightclub","checkinsCount":278,"usersCount":155,"tipCount":3,"visitsCount":287,"tier":"","message":"","currency":"","rating":7.4},{"name":"Cedar Inn","address":"4155 Cedar Ave S","lat":44.92709957984988,"lng":-93.24718383825103,"neighborhood":"Standish","city_fetched":"Minneapolis","state":"MN","country":"United States","canonicalUrl":"https://foursquare.com/v/cedar-inn/41326e00f964a520a8161fe3","category":"Bar","checkinsCount":1614,"usersCount":543,"tipCount":12,"visitsCount":1732,"tier":"","message":"","currency":"","rating":7.4},{"name":"Williams Uptown Pub & Peanut Bar","phone":"6128236271","twitter":"williamsuptown","address":"2911 Hennepin Ave","lat":44.94958532982978,"lng":-93.2981805468507,"neighborhood":"Uptown","city_fetched":"Minneapolis","state":"MN","country":"United States","canonicalUrl":"https://foursquare.com/williamsuptown","category":"Pub","checkinsCount":15380,"usersCount":6019,"tipCount":62,"visitsCount":15763,"url":"http://williamsminneapolis.com","tier":2,"message":"Moderate","currency":"$","rating":7.4},{"name":"Minneapolis Eagle","phone":"6123384214","twitter":"eagleboltbar","address":"515 Washington Ave S","lat":44.97835590909121,"lng":-93.26092508802532,"neighborhood":"Downtown West","city_fetched":"Minneapolis","state":"MN","country":"United States","canonicalUrl":"https://foursquare.com/v/minneapolis-eagle/41326e00f964a5205f171fe3","category":"Gay Bar","checkinsCount":9370,"usersCount":1750,"tipCount":25,"visitsCount":9567,"url":"http://eagleboltbar.com","tier":2,"message":"Moderate","currency":"$","rating":7.4},{"name":"Aloft Minneapolis","phone":"6124558400","twitter":"spg","address":"900 Washington Ave S","lat":44.97664058823241,"lng":-93.25541208629943,"neighborhood":"Downtown East","city_fetched":"Minneapolis","state":"MN","country":"United States","canonicalUrl":"https://foursquare.com/v/aloft-minneapolis/4a3fd3c1f964a520f7a31fe3","category":"Hotel","checkinsCount":7814,"usersCount":2933,"tipCount":37,"visitsCount":8023,"url":"http://www.aloftminneapolis.com","tier":"","message":"","currency":"","rating":7.4},{"name":"Bluestem Bar & Table","phone":"6128701110","twitter":"bluestembar","address":"2610 Lyndale Ave S","lat":44.95489069947395,"lng":-93.28830242156981,"neighborhood":"Lowry Hill East","city_fetched":"Minneapolis","state":"MN","country":"United States","canonicalUrl":"https://foursquare.com/v/bluestem-bar--table/51c3dcb87dd27b1f24d795ab","category":"American Restaurant","checkinsCount":667,"usersCount":451,"tipCount":21,"visitsCount":669,"url":"http://www.bluestembarandtable.com","tier":2,"message":"Moderate","currency":"$","rating":7.4},{"name":"Vegas Lounge","phone":"6123781873","address":"965 Central Ave NE","lat":44.99492154188947,"lng":-93.24916556361767,"neighborhood":"Northeast Minneapolis","city_fetched":"Minneapolis","state":"MN","country":"United States","canonicalUrl":"https://foursquare.com/v/vegas-lounge/41326e00f964a520e7171fe3","category":"Karaoke Bar","checkinsCount":6899,"usersCount":3096,"tipCount":44,"visitsCount":7600,"url":"http://vegasloungemn.com","tier":1,"message":"Cheap","currency":"$","rating":7.4},{"name":"Betty Danger's Country Club","phone":"6123154997","twitter":"bettydangerscc","address":"2501 Marshall St NE","lat":45.013551,"lng":-93.271371,"neighborhood":"Marshall Terrace","city_fetched":"Minneapolis","state":"MN","country":"United States","canonicalUrl":"https://foursquare.com/v/betty-dangers-country-club/549dd152498ef504409089b4","category":"Theme Restaurant","checkinsCount":2181,"usersCount":2588,"tipCount":25,"visitsCount":3754,"url":"http://bettydangers.com","tier":"","message":"","currency":"","rating":7.4},{"name":"Ray J's American Grill Northeast","phone":"6128367505","twitter":"rayjsamergrill","address":"500 Central Ave SE","lat":44.98889488542496,"lng":-93.25294958691606,"neighborhood":"Marcy - Holmes","city_fetched":"Minneapolis","state":"MN","country":"United States","canonicalUrl":"https://foursquare.com/v/ray-js-american-grill-northeast/524b736611d29426850005b7","category":"American Restaurant","checkinsCount":1993,"usersCount":1009,"tipCount":20,"visitsCount":2661,"url":"http://www.ray-js.com/minneapolis/","tier":2,"message":"Moderate","currency":"$","rating":7.3},{"name":"Ground Zero","phone":"6123785115","address":"15 4th St NE","lat":44.98906777358594,"lng":-93.25511060632027,"neighborhood":"University","city_fetched":"Minneapolis","state":"MN","country":"United States","canonicalUrl":"https://foursquare.com/v/ground-zero/44b6667bf964a52065351fe3","category":"Nightclub","checkinsCount":3889,"usersCount":967,"tipCount":14,"visitsCount":3988,"tier":1,"message":"Cheap","currency":"$","rating":7.3},{"name":"Manning's Cafe and Bar","phone":"6123311053","twitter":"manningscafe","address":"2200 Como Ave SE","lat":44.9876660780607,"lng":-93.22140476875035,"neighborhood":"Como","city_fetched":"Minneapolis","state":"MN","country":"United States","canonicalUrl":"https://foursquare.com/v/mannings-cafe-and-bar/49f107aff964a52080691fe3","category":"Bar","checkinsCount":5083,"usersCount":1058,"tipCount":36,"visitsCount":5130,"url":"http://manningscafe.com","tier":2,"message":"Moderate","currency":"$","rating":7.3},{"name":"Community Keg House","address":"34 13th Ave NE","lat":44.999387873326896,"lng":-93.27180479677372,"neighborhood":"Sheridan","city_fetched":"Minneapolis","state":"MN","country":"United States","canonicalUrl":"https://foursquare.com/v/community-keg-house/56a41067498e66937b9a32c0","category":"Beer Garden","checkinsCount":128,"usersCount":100,"tipCount":2,"visitsCount":128,"tier":"","message":"","currency":"","rating":7.3},{"name":"Cowboy Jack's","phone":"6122249950","twitter":"cowboyjacks","address":"126 N 5th St","lat":44.98118538656268,"lng":-93.274449266877,"neighborhood":"Warehouse District","city_fetched":"Minneapolis","state":"MN","country":"United States","canonicalUrl":"https://foursquare.com/v/cowboy-jacks/4f7a09dbe4b0f6f30b7c9659","category":"American Restaurant","checkinsCount":14229,"usersCount":6912,"tipCount":48,"visitsCount":16976,"url":"http://www.theaftermidnightgroup.com","tier":2,"message":"Moderate","currency":"$","rating":7.3},{"name":"Fine Line Music Cafe","phone":"6123388100","address":"318 1st Ave N","lat":44.9815416015418,"lng":-93.2721471938924,"neighborhood":"Warehouse District","city_fetched":"Minneapolis","state":"MN","country":"United States","canonicalUrl":"https://foursquare.com/v/fine-line-music-cafe/41326e00f964a520eb161fe3","category":"Music Venue","checkinsCount":8549,"usersCount":4803,"tipCount":33,"visitsCount":8852,"url":"http://www.finelinemusic.com","tier":"","message":"","currency":"","rating":7.3},{"name":"Cask Cookhouse at Loews","phone":"6123121821","twitter":"bradstreet601","address":"601 1st Ave S","lat":44.97902434298731,"lng":-93.2751416441328,"neighborhood":"Warehouse District","city_fetched":"Minneapolis","state":"MN","country":"United States","canonicalUrl":"https://foursquare.com/v/cask-cookhouse-at-loews/4a149895f964a52056781fe3","category":"New American Restaurant","checkinsCount":3164,"usersCount":1788,"tipCount":58,"visitsCount":3169,"url":"http://www.loewshotels.com/en/Minneapolis-Hotel/dining/restaurants.com","tier":3,"message":"Expensive","currency":"$","rating":7.3},{"name":"Sushi Tango","phone":"6128227787","address":"3001 Hennepin Ave #F201","lat":44.94794323002691,"lng":-93.29778671264648,"neighborhood":"Uptown","city_fetched":"Minneapolis","state":"MN","country":"United States","canonicalUrl":"https://foursquare.com/v/sushi-tango/448d1b97f964a5204e341fe3","category":"Sushi Restaurant","checkinsCount":7868,"usersCount":3444,"tipCount":70,"visitsCount":7960,"url":"http://www.sushitango.com","tier":2,"message":"Moderate","currency":"$","rating":7.3},{"name":"Kings Wine Bar","phone":"6123547928","twitter":"kingswinebar","address":"4555 Grand Ave S","lat":44.919719508771,"lng":-93.28422546386719,"neighborhood":"Kingfield","city_fetched":"Minneapolis","state":"MN","country":"United States","canonicalUrl":"https://foursquare.com/v/kings-wine-bar/4a820a32f964a52060f81fe3","category":"Wine Bar","checkinsCount":4915,"usersCount":1910,"tipCount":56,"visitsCount":5127,"url":"http://www.kingsmpls.com","tier":2,"message":"Moderate","currency":"$","rating":7.3},{"name":"The Loop Bar + Restaurant","phone":"6123400010","twitter":"loopmpls","address":"606 Washington Ave N","lat":44.987191959056894,"lng":-93.27611384210141,"neighborhood":"Warehouse District","city_fetched":"Minneapolis","state":"MN","country":"United States","canonicalUrl":"https://foursquare.com/v/the-loop-bar--restaurant/45e88fdcf964a5206c431fe3","category":"Bar","checkinsCount":14639,"usersCount":5234,"tipCount":73,"visitsCount":15341,"url":"http://theloopmpls.com","tier":2,"message":"Moderate","currency":"$","rating":7.2},{"name":"The Beacon Public House","phone":"6123626666","twitter":"beaconatcommons","address":"615 Washington Ave SE","lat":44.97410029625549,"lng":-93.22948082846662,"neighborhood":"University","city_fetched":"Minneapolis","state":"MN","country":"United States","canonicalUrl":"https://foursquare.com/beaconatcommons","category":"Gastropub","checkinsCount":779,"usersCount":483,"tipCount":4,"visitsCount":789,"url":"http://www.commonshotel.com/beacon-restaurant.aspx","tier":2,"message":"Moderate","currency":"$","rating":7.2},{"name":"The News Room","phone":"6123430073","address":"990 Nicollet Mall","lat":44.974233189856264,"lng":-93.27467065944445,"neighborhood":"Downtown West","city_fetched":"Minneapolis","state":"MN","country":"United States","canonicalUrl":"https://foursquare.com/v/the-news-room/44143cfff964a520ee301fe3","category":"American Restaurant","checkinsCount":9947,"usersCount":6301,"tipCount":99,"visitsCount":10026,"url":"http://thenewsroommpls.com","tier":2,"message":"Moderate","currency":"$","rating":7.2},{"name":"The Gay 90's","phone":"6123337755","twitter":"gay90s","address":"408 Hennepin Ave","lat":44.980270634889926,"lng":-93.27176991869084,"neighborhood":"Warehouse District","city_fetched":"Minneapolis","state":"MN","country":"United States","canonicalUrl":"https://foursquare.com/v/the-gay-90s/41326e00f964a520f9161fe3","category":"Gay Bar","checkinsCount":12081,"usersCount":4698,"tipCount":66,"visitsCount":12627,"url":"http://www.gay90s.com","tier":2,"message":"Moderate","currency":"$","rating":7.2},{"name":"Chatterbox Pub","phone":"6127289871","twitter":"chatterboxpub","address":"2229 E 35th St","lat":44.939426687303744,"lng":-93.2391482591629,"neighborhood":"Corcoran","city_fetched":"Minneapolis","state":"MN","country":"United States","canonicalUrl":"https://foursquare.com/v/chatterbox-pub/4283ee00f964a520b1221fe3","category":"American Restaurant","checkinsCount":4489,"usersCount":2319,"tipCount":49,"visitsCount":4758,"url":"http://chatterboxpub.net","tier":2,"message":"Moderate","currency":"$","rating":7.2},{"name":"Tracy's Saloon","phone":"6123321865","twitter":"tracyssaloon","address":"2207 E Franklin Ave","lat":44.96279517552899,"lng":-93.24065525826033,"neighborhood":"Seward","city_fetched":"Minneapolis","state":"MN","country":"United States","canonicalUrl":"https://foursquare.com/v/tracys-saloon/452557eef964a520f43a1fe3","category":"Bar","checkinsCount":5337,"usersCount":1546,"tipCount":42,"visitsCount":5551,"url":"http://tracyssaloon.com","tier":2,"message":"Moderate","currency":"$","rating":7.2},{"name":"Cardinal Restaurant & Bar","phone":"6127245837","address":"2920 E 38th St","lat":44.93419767115529,"lng":-93.22989195585251,"neighborhood":"Standish","city_fetched":"Minneapolis","state":"MN","country":"United States","canonicalUrl":"https://foursquare.com/v/cardinal-restaurant--bar/41326e00f964a520a2161fe3","category":"Bar","checkinsCount":3417,"usersCount":1588,"tipCount":21,"visitsCount":3690,"url":"http://www.cardinaltavern.com","tier":1,"message":"Cheap","currency":"$","rating":7.2},{"name":"Aqua Night Club","lat":44.980873374222895,"lng":-93.27324461208919,"neighborhood":"Warehouse District","city_fetched":"Minneapolis","state":"MN","country":"United States","canonicalUrl":"https://foursquare.com/v/aqua-night-club/4f98c907e4b05c380fe5f08e","category":"Nightclub","checkinsCount":140,"usersCount":80,"tipCount":2,"visitsCount":140,"tier":"","message":"","currency":"","rating":7.2},{"name":"Dusty's Bar","phone":"6123782118","address":"1319 Marshall St NE","lat":45.00074648326163,"lng":-93.27020743504514,"neighborhood":"Sheridan","city_fetched":"Minneapolis","state":"MN","country":"United States","canonicalUrl":"https://foursquare.com/v/dustys-bar/41326e00f964a520de161fe3","category":"Bar","checkinsCount":2439,"usersCount":1172,"tipCount":24,"visitsCount":2706,"url":"http://dustysbaranddagos.com","tier":1,"message":"Cheap","currency":"$","rating":7.2},{"name":"Jackson's Hole","phone":"6123435930","twitter":"jacksonsholempl","address":"106 N 3rd St","lat":44.9821733021953,"lng":-93.2715974776919,"neighborhood":"Warehouse District","city_fetched":"Minneapolis","state":"MN","country":"United States","canonicalUrl":"https://foursquare.com/v/jacksons-hole/4f7821f5e4b0a35da4eb324f","category":"Bar","checkinsCount":9996,"usersCount":1634,"tipCount":37,"visitsCount":10452,"url":"http://www.jacksonsholempls.com","tier":2,"message":"Moderate","currency":"$","rating":7.2},{"name":"Target Lounge","lat":44.97842120487993,"lng":-93.25529925895347,"neighborhood":"Downtown East","city_fetched":"Minneapolis","state":"MN","country":"United States","canonicalUrl":"https://foursquare.com/v/target-lounge/4c2418abf1272d7f5d9b82c5","category":"Cocktail Bar","checkinsCount":520,"usersCount":115,"tipCount":5,"visitsCount":528,"tier":"","message":"","currency":"","rating":7.2},{"name":"Red Dragon","phone":"6128748877","address":"2116 Lyndale Ave S","lat":44.961261765322504,"lng":-93.28813186938416,"neighborhood":"Lowry Hill East","city_fetched":"Minneapolis","state":"MN","country":"United States","canonicalUrl":"https://foursquare.com/v/red-dragon/414e1d80f964a520d41c1fe3","category":"Dive Bar","checkinsCount":3855,"usersCount":1755,"tipCount":39,"visitsCount":3929,"url":"http://reddragonmpls.com","tier":2,"message":"Moderate","currency":"$","rating":7.2},{"name":"Jimmy's Bar & Lounge","phone":"6127881383","address":"1828 4th St NE","lat":45.007311260468605,"lng":-93.26180219650269,"neighborhood":"Northeast Minneapolis","city_fetched":"Minneapolis","state":"MN","country":"United States","canonicalUrl":"https://foursquare.com/v/jimmys-bar--lounge/41326e00f964a52023171fe3","category":"Dive Bar","checkinsCount":3159,"usersCount":1184,"tipCount":22,"visitsCount":3705,"tier":1,"message":"Cheap","currency":"$","rating":7.2},{"name":"The Loon Café","phone":"6123328342","twitter":"thelooncafe","address":"500 1st Ave N","lat":44.98031585902288,"lng":-93.27372469219064,"neighborhood":"Warehouse District","city_fetched":"Minneapolis","state":"MN","country":"United States","canonicalUrl":"https://foursquare.com/v/the-loon-caf%C3%A9/41326e00f964a52045171fe3","category":"American Restaurant","checkinsCount":13906,"usersCount":5672,"tipCount":70,"visitsCount":14297,"url":"http://www.thelooncafe.com","tier":2,"message":"Moderate","currency":"$","rating":7.2},{"name":"Darby's Pub and Grill","phone":"6127465064","twitter":"darbyoragens","address":"315 5th Ave N","lat":44.984592,"lng":-93.27564775943756,"neighborhood":"North Loop","city_fetched":"Minneapolis","state":"MN","country":"United States","canonicalUrl":"https://foursquare.com/v/darbys-pub-and-grill/4bb8bd19cf2fc9b654c99f02","category":"Bar","checkinsCount":5008,"usersCount":2111,"tipCount":29,"visitsCount":5657,"url":"http://www.darbysmpls.com","tier":2,"message":"Moderate","currency":"$","rating":7.1},{"name":"The Light Nightclub","phone":"6127464004","twitter":"lightmpls","address":"322 1st Ave N","lat":44.98155671805344,"lng":-93.27246340472055,"neighborhood":"Warehouse District","city_fetched":"Minneapolis","state":"MN","country":"United States","canonicalUrl":"https://foursquare.com/v/the-light-nightclub/51f48f48498ed0ba424bef78","category":"Nightclub","checkinsCount":338,"usersCount":150,"tipCount":3,"visitsCount":342,"url":"http://lightmpls.com","tier":"","message":"","currency":"","rating":7.1},{"name":"The Bulldog Downtown","phone":"6123390638","address":"1111 Hennepin Ave","lat":44.97499530396844,"lng":-93.2794663263893,"neighborhood":"Downtown West","city_fetched":"Minneapolis","state":"MN","country":"United States","canonicalUrl":"https://foursquare.com/v/the-bulldog-downtown/4d28d0af068e8cfa8b94c94c","category":"Bar","checkinsCount":5480,"usersCount":2431,"tipCount":49,"visitsCount":5617,"url":"http://thebulldogdowntown.com","tier":2,"message":"Moderate","currency":"$","rating":7.1},{"name":"The Herkimer Pub & Brewery","phone":"6128210101","twitter":"theherkimerpub","address":"2922 Lyndale Avenue South","lat":44.94912777608983,"lng":-93.2883882522583,"neighborhood":"Lyn Lake","city_fetched":"Minneapolis","state":"MN","country":"United States","canonicalUrl":"https://foursquare.com/theherkimerpub","category":"Brewery","checkinsCount":18138,"usersCount":6087,"tipCount":112,"visitsCount":18327,"url":"http://theherkimer.com","tier":2,"message":"Moderate","currency":"$","rating":7.1},{"name":"Runyon's","phone":"6123327158","address":"107 Washington Ave N","lat":44.98285622587975,"lng":-93.27041452018267,"neighborhood":"Warehouse District","city_fetched":"Minneapolis","state":"MN","country":"United States","canonicalUrl":"https://foursquare.com/v/runyons/43810e00f964a520ec2a1fe3","category":"Bar","checkinsCount":3908,"usersCount":1936,"tipCount":36,"visitsCount":4189,"tier":2,"message":"Moderate","currency":"$","rating":7.1},{"name":"The Exchange","lat":44.9798065289182,"lng":-93.27212971516869,"neighborhood":"Downtown West","city_fetched":"Minneapolis","state":"MN","country":"United States","canonicalUrl":"https://foursquare.com/v/the-exchange/55bc6d47498e97575f64f0e4","category":"Lounge","checkinsCount":229,"usersCount":128,"tipCount":0,"visitsCount":240,"tier":"","message":"","currency":"","rating":7.1},{"name":"Pancho Villa Mexican Restaurant","phone":"6128717014","twitter":"panchovillampls","address":"2539 Nicollet Ave","lat":44.9559880179458,"lng":-93.27795269622571,"neighborhood":"Whittier","city_fetched":"Minneapolis","state":"MN","country":"United States","canonicalUrl":"https://foursquare.com/v/pancho-villa-mexican-restaurant/48aed760f964a520aa511fe3","category":"Mexican Restaurant","checkinsCount":5754,"usersCount":2976,"tipCount":58,"visitsCount":5857,"url":"http://www.panchovillasgrill.com","tier":2,"message":"Moderate","currency":"$","rating":7},{"name":"EagleBOLT Bar","address":"515 Washington Ave S","lat":44.97845753623654,"lng":-93.26088836593111,"neighborhood":"Downtown West","city_fetched":"Minneapolis","state":"MN","country":"United States","canonicalUrl":"https://foursquare.com/v/eaglebolt-bar/4f91d573e4b0c9a2aa1f229d","category":"Gay Bar","checkinsCount":1957,"usersCount":731,"tipCount":4,"visitsCount":2146,"tier":1,"message":"Cheap","currency":"$","rating":7},{"name":"Hard Monday","phone":"6123320304","twitter":"hardmonday","address":"830 Hennepin Ave","lat":44.97669686137502,"lng":-93.27693906075523,"neighborhood":"Downtown West","city_fetched":"Minneapolis","state":"MN","country":"United States","canonicalUrl":"https://foursquare.com/v/hard-monday/4c60c443de6920a111ec9664","category":"Nightclub","checkinsCount":646,"usersCount":61,"tipCount":4,"visitsCount":665,"tier":1,"message":"Cheap","currency":"$","rating":7},{"name":"Liquor Lyle's","phone":"6128708183","twitter":"liquorlyles","address":"2021 Hennepin Ave","lat":44.9620820972026,"lng":-93.29158514663884,"neighborhood":"Lowry Hill East","city_fetched":"Minneapolis","state":"MN","country":"United States","canonicalUrl":"https://foursquare.com/v/liquor-lyles/41326e00f964a5203e171fe3","category":"Bar","checkinsCount":14397,"usersCount":4775,"tipCount":91,"visitsCount":15104,"url":"http://www.lylesliquor.com","tier":2,"message":"Moderate","currency":"$","rating":7},{"name":"Town Ball Tavern @ Target Field","phone":"6126593870","twitter":"2gingerswhiskey","address":"1 Twins Way","lat":44.98239881103307,"lng":-93.2775214877155,"neighborhood":"North Loop","city_fetched":"Minneapolis","state":"MN","country":"United States","canonicalUrl":"https://foursquare.com/v/town-ball-tavern--target-field/4bb69d052ea19521dbffab2f","category":"Burger Joint","checkinsCount":2269,"usersCount":1120,"tipCount":12,"visitsCount":2270,"url":"http://minnesota.twins.mlb.com/min/ballpark/events/index.jsp?content=town_ball_tavern","tier":"","message":"","currency":"","rating":7},{"name":"Donny Dirk's Zombie Den","phone":"6125889700","twitter":"donnydirks","address":"2027 N 2nd St","lat":45.00005917138309,"lng":-93.28033172424458,"city_fetched":"Minneapolis","state":"MN","country":"United States","canonicalUrl":"https://foursquare.com/v/donny-dirks-zombie-den/4a856866f964a5203dfe1fe3","category":"Bar","checkinsCount":3550,"usersCount":1972,"tipCount":52,"visitsCount":3787,"url":"http://www.donnydirks.com","tier":2,"message":"Moderate","currency":"$","rating":7},{"name":"Cowboy Slims","lat":44.94925817268164,"lng":-93.2979642846024,"neighborhood":"Uptown","city_fetched":"Minneapolis","state":"MN","country":"United States","canonicalUrl":"https://foursquare.com/v/cowboy-slims/5616f950498e8f7c5bfe1660","category":"Bar","checkinsCount":1002,"usersCount":608,"tipCount":2,"visitsCount":1300,"tier":"","message":"","currency":"","rating":6.9},{"name":"CC Club","phone":"6128747226","address":"2600 Lyndale Ave S","lat":44.95535820061642,"lng":-93.28829555535764,"neighborhood":"Lowry Hill East","city_fetched":"Minneapolis","state":"MN","country":"United States","canonicalUrl":"https://foursquare.com/v/cc-club/41326e00f964a520a7161fe3","category":"Dive Bar","checkinsCount":12102,"usersCount":3944,"tipCount":69,"visitsCount":12752,"tier":2,"message":"Moderate","currency":"$","rating":6.8},{"name":"The Venue","lat":44.98154643308328,"lng":-93.27166139377994,"neighborhood":"Warehouse District","city_fetched":"Minneapolis","state":"MN","country":"United States","canonicalUrl":"https://foursquare.com/v/the-venue/523b95bb498e73ac7cb03262","category":"Nightclub","checkinsCount":209,"usersCount":181,"tipCount":1,"visitsCount":217,"tier":"","message":"","currency":"","rating":6.7}]