[{"name":"Ebeneezer's Eatery & Irish Pub","phone":"7012407279","address":"300 E Central Ave","lat":48.236343468407,"lng":-101.28801763057709,"city_fetched":"Minot,US","state":"ND","country":"United States","canonicalUrl":"https://foursquare.com/v/ebeneezers-eatery--irish-pub/4ba7fa79f964a520b5c339e3","categoryId":"4bf58dd8d48988d11b941735","category":"Pub","checkinsCount":2139,"usersCount":737,"tipCount":25,"visitsCount":2821,"url":"http://ebeneezersnd.com","tier":2,"message":"Moderate","currency":"$","rating":9},{"name":"Blue Rider","phone":"7018529050","address":"118 1st Avenue Southeas","lat":48.23531081666667,"lng":-101.29044408,"city_fetched":"Minot,US","state":"ND","country":"United States","canonicalUrl":"https://foursquare.com/v/blue-rider/4b4cd421f964a5208fc026e3","categoryId":"4bf58dd8d48988d116941735","category":"Bar","checkinsCount":352,"usersCount":130,"tipCount":7,"visitsCount":358,"tier":"","message":"","currency":"","rating":8.1},{"name":"Off the Vine","phone":"7018387003","address":"15 Main St S","lat":48.23584859811954,"lng":-101.29270489976331,"city_fetched":"Minot,US","state":"ND","country":"United States","canonicalUrl":"https://foursquare.com/v/off-the-vine/4b7dffc6f964a52057de2fe3","categoryId":"4bf58dd8d48988d123941735","category":"Wine Bar","checkinsCount":1045,"usersCount":230,"tipCount":3,"visitsCount":1233,"url":"http://www.offvine.com","tier":"","message":"","currency":"","rating":7.9},{"name":"Bootlegrz","phone":"7018390962","address":"515 20th Ave SE Ste 2B","lat":48.211777719933174,"lng":-101.28662120269324,"city_fetched":"Minot,US","state":"ND","country":"United States","canonicalUrl":"https://foursquare.com/v/bootlegrz/4ba448b4f964a520e69238e3","categoryId":"4bf58dd8d48988d116941735","category":"Bar","checkinsCount":3108,"usersCount":370,"tipCount":5,"visitsCount":3637,"tier":"","message":"","currency":"","rating":7.8},{"name":"Souris River Brewing","phone":"7018371884","twitter":"lovesrbrew","address":"32 3rd St NE","lat":48.23742842246341,"lng":-101.28823556705782,"city_fetched":"Minot,US","state":"ND","country":"United States","canonicalUrl":"https://foursquare.com/v/souris-river-brewing/50d693b0e4b0ca0b9141fe44","categoryId":"50327c8591d4c4b30a586d5d","category":"Brewery","checkinsCount":834,"usersCount":373,"tipCount":19,"visitsCount":1066,"url":"http://sourisriverbrewing.com","tier":2,"message":"Moderate","currency":"$","rating":7.5},{"name":"The Barley Pop","phone":"7018384026","address":"437 N Broadway","lat":48.241444583034166,"lng":-101.29646988078802,"city_fetched":"Minot,US","state":"ND","country":"United States","canonicalUrl":"https://foursquare.com/v/the-barley-pop/4bdbab292a3a0f47a05cb0b6","categoryId":"4bf58dd8d48988d116941735","category":"Bar","checkinsCount":2589,"usersCount":235,"tipCount":5,"visitsCount":2933,"tier":"","message":"","currency":"","rating":7.4},{"name":"The Landing Bar","phone":"7018524523","address":"2015 N Broadway","lat":48.257169942935256,"lng":-101.29660606384277,"city_fetched":"Minot,US","state":"ND","country":"United States","canonicalUrl":"https://foursquare.com/v/the-landing-bar/4bfc58b7e9d8c928d768b2c7","categoryId":"4bf58dd8d48988d116941735","category":"Bar","checkinsCount":816,"usersCount":252,"tipCount":3,"visitsCount":1032,"tier":"","message":"","currency":"","rating":7.3},{"name":"Lucky Strike Casino & Lounge","phone":"7018524332","address":"1901 N Broadway","lat":48.25401423619509,"lng":-101.29680366416254,"city_fetched":"Minot,US","state":"ND","country":"United States","canonicalUrl":"https://foursquare.com/v/lucky-strike-casino--lounge/4c04706e0d0e0f477d06049a","categoryId":"4bf58dd8d48988d116941735","category":"Bar","checkinsCount":2097,"usersCount":326,"tipCount":11,"visitsCount":2243,"tier":"","message":"","currency":"","rating":7.3},{"name":"The Tap Room","phone":"7014842494","address":"23 Main St S","lat":48.235388,"lng":-101.292559,"city_fetched":"Minot,US","state":"ND","country":"United States","canonicalUrl":"https://foursquare.com/v/the-tap-room/53be0de3498e34b6afdf2411","categoryId":"4bf58dd8d48988d11b941735","category":"Pub","checkinsCount":165,"usersCount":67,"tipCount":3,"visitsCount":189,"url":"http://thetaproomnd.com","tier":"","message":"","currency":"","rating":7.2},{"name":"The Dakota Lounge","address":"1525 31st Ave","lat":48.20329664596267,"lng":-101.31660461425781,"city_fetched":"Minot,US","state":"ND","country":"United States","canonicalUrl":"https://foursquare.com/v/the-dakota-lounge/4ba45baef964a520579838e3","categoryId":"4bf58dd8d48988d116941735","category":"Bar","checkinsCount":831,"usersCount":305,"tipCount":4,"visitsCount":980,"tier":"","message":"","currency":"","rating":7.2},{"name":"Nola's Lounge","phone":"7018392350","address":"919 Burdick Expwy. W.","lat":48.23021,"lng":-101.30776405334473,"city_fetched":"Minot,US","state":"ND","country":"United States","canonicalUrl":"https://foursquare.com/v/nolas-lounge/4c709dc4df6b8cfa5910b94d","categoryId":"4bf58dd8d48988d118941735","category":"Dive Bar","checkinsCount":445,"usersCount":137,"tipCount":1,"visitsCount":644,"tier":"","message":"","currency":"","rating":7.2},{"name":"The Ranger","lat":48.223776118653284,"lng":-101.29628912844638,"city_fetched":"Minot,US","state":"ND","country":"United States","canonicalUrl":"https://foursquare.com/v/the-ranger/4c390d941e06d13ae7f9783e","categoryId":"4bf58dd8d48988d116941735","category":"Bar","checkinsCount":1314,"usersCount":165,"tipCount":1,"visitsCount":1600,"tier":"","message":"","currency":"","rating":6.9},{"name":"Sports On Tap","phone":"7018378220","address":"220 S Broadway","lat":48.233320602978004,"lng":-101.29662752151489,"city_fetched":"Minot,US","state":"ND","country":"United States","canonicalUrl":"https://foursquare.com/v/sports-on-tap/4c0998b76071a593993fde32","categoryId":"4bf58dd8d48988d116941735","category":"Bar","checkinsCount":964,"usersCount":275,"tipCount":4,"visitsCount":988,"tier":"","message":"","currency":"","rating":6.9},{"name":"Lamplighter Lounge","phone":"7018399743","address":"200-298 16th St SW","lat":48.23393519528297,"lng":-101.31814956665039,"city_fetched":"Minot,US","state":"ND","country":"United States","canonicalUrl":"https://foursquare.com/v/lamplighter-lounge/4c0742b50e0a2d7f491eed0c","categoryId":"4bf58dd8d48988d116941735","category":"Bar","checkinsCount":1433,"usersCount":279,"tipCount":7,"visitsCount":1779,"tier":"","message":"","currency":"","rating":6.7},{"name":"Sidekicks","phone":"7018384840","address":"1901 S Broadway","lat":48.21262512137066,"lng":-101.29511647447794,"city_fetched":"Minot,US","state":"ND","country":"United States","canonicalUrl":"https://foursquare.com/v/sidekicks/4c06d4aa9e1ab7132ae45243","categoryId":"4bf58dd8d48988d116941735","category":"Bar","checkinsCount":5827,"usersCount":382,"tipCount":11,"visitsCount":6535,"tier":2,"message":"Moderate","currency":"$","rating":6.7},{"name":"The Pour Farm","address":"Hwy 83 South","lat":48.19602172542067,"lng":-101.2971341356752,"city_fetched":"Minot,US","state":"ND","country":"United States","canonicalUrl":"https://foursquare.com/v/the-pour-farm/4deb113822713dd973a5a49b","categoryId":"4bf58dd8d48988d116941735","category":"Bar","checkinsCount":671,"usersCount":178,"tipCount":1,"visitsCount":799,"tier":"","message":"","currency":"","rating":6.4},{"name":"Blind Duck","phone":"7018524940","address":"1524 S Broadway","lat":48.21864175768324,"lng":-101.2966051495922,"city_fetched":"Minot,US","state":"ND","country":"United States","canonicalUrl":"https://foursquare.com/v/blind-duck/4bd73e6c35aad13ae7788ef3","categoryId":"4bf58dd8d48988d116941735","category":"Bar","checkinsCount":1117,"usersCount":128,"tipCount":6,"visitsCount":1141,"tier":"","message":"","currency":"","rating":6.2},{"name":"Moose Lodge","address":"400 9th St SW, Minot, ND 58701","lat":48.23213984301103,"lng":-101.30753557947541,"city_fetched":"Minot,US","state":"ND","country":"United States","canonicalUrl":"https://foursquare.com/v/moose-lodge/4f04f2710aafa1fe50b4a463","categoryId":"4bf58dd8d48988d116941735","category":"Bar","checkinsCount":560,"usersCount":129,"tipCount":3,"visitsCount":654,"tier":"","message":"","currency":"","rating":6.2},{"name":"The Original Bar","phone":"7018379882","address":"720 N Broadway","lat":48.244052781056496,"lng":-101.29567850147089,"city_fetched":"Minot,US","state":"ND","country":"United States","canonicalUrl":"https://foursquare.com/v/the-original-bar/4b931fc9f964a5207f3634e3","categoryId":"4bf58dd8d48988d116941735","category":"Bar","checkinsCount":1088,"usersCount":329,"tipCount":4,"visitsCount":1460,"tier":"","message":"","currency":"","rating":6},{"name":"Starlite Lounge","phone":"7018382074","address":"1915 N Broadway","lat":48.25479836760377,"lng":-101.29677772521973,"city_fetched":"Minot,US","state":"ND","country":"United States","canonicalUrl":"https://foursquare.com/v/starlite-lounge/4c7499d3ff1fb60cbf26f4a7","categoryId":"4bf58dd8d48988d120941735","category":"Karaoke Bar","checkinsCount":443,"usersCount":196,"tipCount":3,"visitsCount":467,"tier":"","message":"","currency":"","rating":6},{"name":"Dae Udder Place","phone":"7018525079","address":"1015 S Broadway #18B","lat":48.226273703233026,"lng":-101.2940526008606,"city_fetched":"Minot,US","state":"ND","country":"United States","canonicalUrl":"https://foursquare.com/v/dae-udder-place/4b9b2466f964a520c5f535e3","categoryId":"4bf58dd8d48988d116941735","category":"Bar","checkinsCount":834,"usersCount":232,"tipCount":2,"visitsCount":1014,"tier":"","message":"","currency":"","rating":5.9}]