[{"name":"Big Sky Brewing Company","phone":"4065492777","twitter":"bigskybrewing","address":"5417 Trumpeter Way","lat":46.92214032473656,"lng":-114.0727076277794,"city_fetched":"Missoula,US","state":"MT","country":"United States","canonicalUrl":"https://foursquare.com/v/big-sky-brewing-company/4be4a02fcf200f47093f123c","categoryId":"50327c8591d4c4b30a586d5d","category":"Brewery","checkinsCount":1127,"usersCount":865,"tipCount":10,"visitsCount":1354,"url":"http://www.bigskybrew.com‎","tier":"","message":"","currency":"","rating":8.8},{"name":"James Bar","phone":"4067218158","address":"127 W Alder St","lat":46.874974466666664,"lng":-113.99324406,"neighborhood":"Heart of Missoula","city_fetched":"Missoula,US","state":"MT","country":"United States","canonicalUrl":"https://foursquare.com/v/james-bar/4b3d4538f964a520629125e3","categoryId":"4bf58dd8d48988d116941735","category":"Bar","checkinsCount":1360,"usersCount":572,"tipCount":10,"visitsCount":1465,"tier":"","message":"","currency":"","rating":8.8},{"name":"Missoula Club","phone":"4067283740","address":"139 W Main St","lat":46.871316046678245,"lng":-113.99590245299548,"neighborhood":"Heart of Missoula","city_fetched":"Missoula,US","state":"MT","country":"United States","canonicalUrl":"https://foursquare.com/v/missoula-club/4bd7420c5cf276b048e19a00","categoryId":"4bf58dd8d48988d118941735","category":"Dive Bar","checkinsCount":902,"usersCount":409,"tipCount":17,"visitsCount":993,"tier":"","message":"","currency":"","rating":8.8},{"name":"Montgomery Distillery","phone":"4069261725","address":"129 W Front St","lat":46.87022048710416,"lng":-113.99631533685726,"neighborhood":"Heart of Missoula","city_fetched":"Missoula,US","state":"MT","country":"United States","canonicalUrl":"https://foursquare.com/v/montgomery-distillery/5070d374e4b09145ccf89c30","categoryId":"4bf58dd8d48988d11e941735","category":"Cocktail Bar","checkinsCount":660,"usersCount":317,"tipCount":12,"visitsCount":704,"url":"http://montgomerydistillery.com","tier":1,"message":"Cheap","currency":"$","rating":8.7},{"name":"Al's & Vic's Bar","phone":"4067284804","address":"119 W Alder St","lat":46.87504468,"lng":-113.9931477,"neighborhood":"Heart of Missoula","city_fetched":"Missoula,US","state":"MT","country":"United States","canonicalUrl":"https://foursquare.com/v/als--vics-bar/4b84bfddf964a520194331e3","categoryId":"4bf58dd8d48988d116941735","category":"Bar","checkinsCount":1417,"usersCount":356,"tipCount":15,"visitsCount":1448,"tier":1,"message":"Cheap","currency":"$","rating":8.6},{"name":"Kettlehouse Brewing Company North","phone":"4067281660","twitter":"kettlehouse","address":"313 N 1st St W","lat":46.87772160733977,"lng":-113.99517059326172,"city_fetched":"Missoula,US","state":"MT","country":"United States","canonicalUrl":"https://foursquare.com/v/kettlehouse-brewing-company-north/4b7b6248f964a52019612fe3","categoryId":"50327c8591d4c4b30a586d5d","category":"Brewery","checkinsCount":797,"usersCount":575,"tipCount":8,"visitsCount":948,"url":"http://www.kettlehouse.com","tier":1,"message":"Cheap","currency":"$","rating":8.5},{"name":"Draught Works","phone":"4065411592","address":"915 Toole Ave","lat":46.877714,"lng":-114.003387,"city_fetched":"Missoula,US","state":"MT","country":"United States","canonicalUrl":"https://foursquare.com/v/draught-works/4e8f924793adc15b61b7f6de","categoryId":"50327c8591d4c4b30a586d5d","category":"Brewery","checkinsCount":1123,"usersCount":561,"tipCount":12,"visitsCount":1433,"url":"http://draughtworksbrewery.com","tier":2,"message":"Moderate","currency":"$","rating":8.4},{"name":"Red Bird","phone":"4065492906","address":"120 W Front St","lat":46.870417718015695,"lng":-113.99539707992989,"neighborhood":"Heart of Missoula","city_fetched":"Missoula,US","state":"MT","country":"United States","canonicalUrl":"https://foursquare.com/v/red-bird/4b0c5081f964a5200a3b23e3","categoryId":"4bf58dd8d48988d123941735","category":"Wine Bar","checkinsCount":336,"usersCount":199,"tipCount":6,"visitsCount":338,"url":"http://www.redbirdrestaurant.com","tier":"","message":"","currency":"","rating":8.3},{"name":"Iron Horse Brew Pub","phone":"4067288866","address":"501 N Higgins Ave","lat":46.874487313873715,"lng":-113.99292826652527,"neighborhood":"Heart of Missoula","city_fetched":"Missoula,US","state":"MT","country":"United States","canonicalUrl":"https://foursquare.com/v/iron-horse-brew-pub/4b2c239af964a52077c224e3","categoryId":"4bf58dd8d48988d116941735","category":"Bar","checkinsCount":3410,"usersCount":1606,"tipCount":14,"visitsCount":3871,"url":"http://www.ironhorsebrewpub.com‎","tier":2,"message":"Moderate","currency":"$","rating":8.3},{"name":"Plonk","address":"322 N Higgins Ave","lat":46.87268511903963,"lng":-113.99325760500392,"neighborhood":"Heart of Missoula","city_fetched":"Missoula,US","state":"MT","country":"United States","canonicalUrl":"https://foursquare.com/v/plonk/51561a09e4b071544e9c5d30","categoryId":"4bf58dd8d48988d123941735","category":"Wine Bar","checkinsCount":642,"usersCount":339,"tipCount":13,"visitsCount":715,"url":"http://plonkwine.com","tier":"","message":"","currency":"","rating":8.3},{"name":"Finn & Porter","phone":"4065424660","address":"100 Madison St","lat":46.86757983761054,"lng":-113.98695510687034,"neighborhood":"Heart of Missoula","city_fetched":"Missoula,US","state":"MT","country":"United States","canonicalUrl":"https://foursquare.com/v/finn--porter/4b5a14f1f964a5200aac28e3","categoryId":"4bf58dd8d48988d121941735","category":"Lounge","checkinsCount":950,"usersCount":515,"tipCount":11,"visitsCount":1091,"url":"http://www.finnandporter.com/missoula","tier":"","message":"","currency":"","rating":8.3},{"name":"The Rhino","phone":"4067216061","address":"158 Ryman St","lat":46.87096543228536,"lng":-113.99649115807212,"neighborhood":"Heart of Missoula","city_fetched":"Missoula,US","state":"MT","country":"United States","canonicalUrl":"https://foursquare.com/v/the-rhino/4b05c18df964a52088e222e3","categoryId":"4bf58dd8d48988d116941735","category":"Bar","checkinsCount":1841,"usersCount":720,"tipCount":17,"visitsCount":1995,"tier":1,"message":"Cheap","currency":"$","rating":8.2},{"name":"The Depot","phone":"4067287007","address":"201 Railroad St W","lat":46.875956600904075,"lng":-113.99387980501618,"neighborhood":"Heart of Missoula","city_fetched":"Missoula,US","state":"MT","country":"United States","canonicalUrl":"https://foursquare.com/v/the-depot/4b8cb0c5f964a5209ada32e3","categoryId":"4bf58dd8d48988d116941735","category":"Bar","checkinsCount":912,"usersCount":448,"tipCount":7,"visitsCount":1053,"url":"http://suddensuccess.com","tier":"","message":"","currency":"","rating":8.1},{"name":"Missoula brewing company","phone":"4065498193","address":"200 International Dr","lat":46.90473533685233,"lng":-114.04499826393037,"city_fetched":"Missoula,US","state":"MT","country":"United States","canonicalUrl":"https://foursquare.com/v/missoula-brewing-company/55e757ec498e657ce099d027","categoryId":"50327c8591d4c4b30a586d5d","category":"Brewery","checkinsCount":119,"usersCount":80,"tipCount":3,"visitsCount":191,"tier":"","message":"","currency":"","rating":8},{"name":"Kettlehouse","phone":"4067281660","address":"602 Myrtle St","lat":46.865723952112866,"lng":-113.99870990532929,"neighborhood":"Riverfront","city_fetched":"Missoula,US","state":"MT","country":"United States","canonicalUrl":"https://foursquare.com/v/kettlehouse/4b07216ff964a520def722e3","categoryId":"50327c8591d4c4b30a586d5d","category":"Brewery","checkinsCount":1133,"usersCount":463,"tipCount":10,"visitsCount":1288,"tier":"","message":"","currency":"","rating":7.8},{"name":"Charlie B's & The Dinosaur Cafe","phone":"4065493589","address":"428 N Higgins Ave","lat":46.873637870524384,"lng":-113.99285999133082,"neighborhood":"Heart of Missoula","city_fetched":"Missoula,US","state":"MT","country":"United States","canonicalUrl":"https://foursquare.com/v/charlie-bs--the-dinosaur-cafe/4b7487d5f964a5202be22de3","categoryId":"4bf58dd8d48988d118941735","category":"Dive Bar","checkinsCount":945,"usersCount":407,"tipCount":17,"visitsCount":953,"tier":"","message":"","currency":"","rating":7.6},{"name":"Union Club","phone":"4065437788","address":"208 E Main St","lat":46.87074839392574,"lng":-113.99267849617286,"neighborhood":"Heart of Missoula","city_fetched":"Missoula,US","state":"MT","country":"United States","canonicalUrl":"https://foursquare.com/v/union-club/4b2c7fe9f964a52073c724e3","categoryId":"4bf58dd8d48988d116941735","category":"Bar","checkinsCount":516,"usersCount":258,"tipCount":3,"visitsCount":619,"url":"http://maggots.org","tier":"","message":"","currency":"","rating":7.3},{"name":"The Golden Rose","address":"123 W Broadway St","lat":46.872358394983124,"lng":-113.99519413924857,"neighborhood":"Heart of Missoula","city_fetched":"Missoula,US","state":"MT","country":"United States","canonicalUrl":"https://foursquare.com/v/the-golden-rose/4c006fcc34ccc928d5a1e1cd","categoryId":"4bf58dd8d48988d118941735","category":"Dive Bar","checkinsCount":704,"usersCount":156,"tipCount":4,"visitsCount":722,"tier":"","message":"","currency":"","rating":7.3},{"name":"The Old Post","phone":"4067217399","address":"103 E Spruce","lat":46.873890238765014,"lng":-113.99358608154283,"neighborhood":"Heart of Missoula","city_fetched":"Missoula,US","state":"MT","country":"United States","canonicalUrl":"https://foursquare.com/v/the-old-post/4b29925bf964a5200aa124e3","categoryId":"4bf58dd8d48988d11b941735","category":"Pub","checkinsCount":1289,"usersCount":599,"tipCount":18,"visitsCount":1316,"url":"http://www.oldpost.net","tier":2,"message":"Moderate","currency":"$","rating":7.2},{"name":"The Badlander","phone":"4065490235","twitter":"thebadlander","address":"208 Ryman St","lat":46.87216018,"lng":-113.995698,"neighborhood":"Heart of Missoula","city_fetched":"Missoula,US","state":"MT","country":"United States","canonicalUrl":"https://foursquare.com/v/the-badlander/4b6bb923f964a520b6162ce3","categoryId":"4bf58dd8d48988d116941735","category":"Bar","checkinsCount":1338,"usersCount":338,"tipCount":4,"visitsCount":1374,"tier":1,"message":"Cheap","currency":"$","rating":7.2},{"name":"Bayern Brewing","phone":"4067211482","address":"1507 Montana St","lat":46.87276188333333,"lng":-114.019971,"city_fetched":"Missoula,US","state":"MT","country":"United States","canonicalUrl":"https://foursquare.com/v/bayern-brewing/4b91a98bf964a520f2cd33e3","categoryId":"50327c8591d4c4b30a586d5d","category":"Brewery","checkinsCount":626,"usersCount":359,"tipCount":9,"visitsCount":804,"url":"http://www.bayernbrewing.com","tier":"","message":"","currency":"","rating":7.1},{"name":"Sean Kelly's","phone":"4065421471","address":"130 W Pine St","lat":46.87362263333333,"lng":-113.994237,"neighborhood":"Heart of Missoula","city_fetched":"Missoula,US","state":"MT","country":"United States","canonicalUrl":"https://foursquare.com/v/sean-kellys/4b21aadcf964a520d03f24e3","categoryId":"4bf58dd8d48988d11b941735","category":"Pub","checkinsCount":997,"usersCount":381,"tipCount":11,"visitsCount":1003,"tier":2,"message":"Moderate","currency":"$","rating":7.1},{"name":"Red's Bar","phone":"4067289881","address":"217 Ryman St","lat":46.87206053333333,"lng":-113.995909,"neighborhood":"Heart of Missoula","city_fetched":"Missoula,US","state":"MT","country":"United States","canonicalUrl":"https://foursquare.com/v/reds-bar/4b63c60af964a520fc902ae3","categoryId":"4bf58dd8d48988d116941735","category":"Bar","checkinsCount":1004,"usersCount":259,"tipCount":2,"visitsCount":1011,"tier":"","message":"","currency":"","rating":6.8},{"name":"Press Box Restaurant Casino","phone":"4067211212","address":"835 E Broadway St","lat":46.86857693333333,"lng":-113.98366556666667,"neighborhood":"Heart of Missoula","city_fetched":"Missoula,US","state":"MT","country":"United States","canonicalUrl":"https://foursquare.com/v/press-box-restaurant-casino/4b09f969f964a520a32023e3","categoryId":"4bf58dd8d48988d11d941735","category":"Sports Bar","checkinsCount":718,"usersCount":443,"tipCount":7,"visitsCount":923,"url":"http://www.pressboxsportsbar.com","tier":"","message":"","currency":"","rating":6.8},{"name":"Bodega","phone":"4065490435","address":"221 Ryman St","lat":46.872100816666666,"lng":-113.99591095,"neighborhood":"Heart of Missoula","city_fetched":"Missoula,US","state":"MT","country":"United States","canonicalUrl":"https://foursquare.com/v/bodega/4b6bc425f964a520ce172ce3","categoryId":"4bf58dd8d48988d116941735","category":"Bar","checkinsCount":912,"usersCount":274,"tipCount":7,"visitsCount":926,"tier":"","message":"","currency":"","rating":6.5},{"name":"Stockman's Bar & Lunch","phone":"4065499668","address":"125 W Front St","lat":46.870193119535266,"lng":-113.99606541297189,"neighborhood":"Heart of Missoula","city_fetched":"Missoula,US","state":"MT","country":"United States","canonicalUrl":"https://foursquare.com/v/stockmans-bar--lunch/4b56aadff964a520091828e3","categoryId":"4bf58dd8d48988d116941735","category":"Bar","checkinsCount":626,"usersCount":248,"tipCount":5,"visitsCount":631,"tier":"","message":"","currency":"","rating":6.4},{"name":"Silver Slipper","phone":"4062515402","address":"4055 U.S. 93","lat":46.83366245948878,"lng":-114.04938019784048,"city_fetched":"Missoula,US","state":"MT","country":"United States","canonicalUrl":"https://foursquare.com/v/silver-slipper/4b5938d2f964a520e88128e3","categoryId":"4bf58dd8d48988d116941735","category":"Bar","checkinsCount":442,"usersCount":139,"tipCount":2,"visitsCount":456,"url":"http://silverslipperlounge.com","tier":"","message":"","currency":"","rating":6.3},{"name":"The Palace Lounge","address":"147 W. Broadway","lat":46.87234439608608,"lng":-113.99517547062491,"neighborhood":"Heart of Missoula","city_fetched":"Missoula,US","state":"MT","country":"United States","canonicalUrl":"https://foursquare.com/v/the-palace-lounge/4b63dd6bf964a520df942ae3","categoryId":"4bf58dd8d48988d116941735","category":"Bar","checkinsCount":407,"usersCount":141,"tipCount":3,"visitsCount":409,"tier":"","message":"","currency":"","rating":6.3},{"name":"Elbow Room Sports Bar & Grill","address":"1025 Strand Ave","lat":46.85355225049848,"lng":-114.01359015238828,"city_fetched":"Missoula,US","state":"MT","country":"United States","canonicalUrl":"https://foursquare.com/v/elbow-room-sports-bar--grill/4f1726dde4b09e58a6b3ce42","categoryId":"4bf58dd8d48988d11d941735","category":"Sports Bar","checkinsCount":609,"usersCount":208,"tipCount":8,"visitsCount":622,"tier":2,"message":"Moderate","currency":"$","rating":6.1},{"name":"Lucky Strike Casino","phone":"4065494152","address":"1515 Dearborn Ave","lat":46.846764139819946,"lng":-114.01966452598572,"neighborhood":"Southgate Triangle","city_fetched":"Missoula,US","state":"MT","country":"United States","canonicalUrl":"https://foursquare.com/v/lucky-strike-casino/4b63b4b0f964a5203f8d2ae3","categoryId":"4bf58dd8d48988d120941735","category":"Karaoke Bar","checkinsCount":522,"usersCount":168,"tipCount":5,"visitsCount":573,"url":"http://www.luckystrikebarcasino.com‎","tier":"","message":"","currency":"","rating":5.8},{"name":"Monk's Bar","phone":"4065490435","twitter":"monksmissoula","address":"225 Ryman St","lat":46.87227189239291,"lng":-113.99583219932389,"neighborhood":"Heart of Missoula","city_fetched":"Missoula,US","state":"MT","country":"United States","canonicalUrl":"https://foursquare.com/v/monks-bar/4ea2657d4690104bb38d49ff","categoryId":"4bf58dd8d48988d116941735","category":"Bar","checkinsCount":444,"usersCount":130,"tipCount":5,"visitsCount":453,"url":"http://monksbarmt.com","tier":"","message":"","currency":"","rating":5.3}]