[{"name":"Depot Pub & Grill","phone":"6059969417","twitter":"mitchelldepot","address":"210 S Main St","lat":43.70809619806409,"lng":-98.02560326940583,"city_fetched":"Mitchell,US","state":"SD","country":"United States","canonicalUrl":"https://foursquare.com/v/depot-pub--grill/4c3e4126ca012d7fe73e2fbe","categoryId":"4bf58dd8d48988d116941735","category":"Bar","checkinsCount":733,"usersCount":383,"tipCount":10,"visitsCount":856,"url":"http://www.mitchelldepot.com","tier":"","message":"","currency":"","rating":8.2},{"name":"Moonlight Bar & Lounge","phone":"6059954972","twitter":"moonlightbl","address":"413 N Main St","lat":43.71392689004598,"lng":-98.02575772075964,"city_fetched":"Mitchell,US","state":"SD","country":"United States","canonicalUrl":"https://foursquare.com/v/moonlight-bar--lounge/4de0150c091a25306bca9d94","categoryId":"4bf58dd8d48988d116941735","category":"Bar","checkinsCount":385,"usersCount":139,"tipCount":4,"visitsCount":391,"tier":"","message":"","currency":"","rating":7.4},{"name":"Blarney's Sportsbar & Grill","phone":"6059955095","address":"2100 Highland Way #W","lat":43.68922110222009,"lng":-98.00697566352281,"city_fetched":"Mitchell,US","state":"SD","country":"United States","canonicalUrl":"https://foursquare.com/v/blarneys-sportsbar--grill/4c09ac476071a593316ade32","categoryId":"4bf58dd8d48988d11b941735","category":"Pub","checkinsCount":849,"usersCount":400,"tipCount":5,"visitsCount":946,"url":"http://www.blarneyssportsbar.com","tier":2,"message":"Moderate","currency":"$","rating":7.3}]