[{"name":"Callaghan's Irish Social Club","phone":"2514339374","address":"916 Charleston St","lat":30.68273063,"lng":-88.054628,"city_fetched":"Mobile,US","state":"AL","country":"United States","canonicalUrl":"https://foursquare.com/v/callaghans-irish-social-club/4b69dee8f964a52059b92be3","categoryId":"4bf58dd8d48988d11b941735","category":"Pub","checkinsCount":3081,"usersCount":1139,"tipCount":38,"visitsCount":3793,"url":"http://callaghansirishsocialclub.com","tier":1,"message":"Cheap","currency":"$","rating":9.4},{"name":"Butch Cassidy's","phone":"2514500690","address":"60 N Florida St","lat":30.69030233,"lng":-88.09974,"city_fetched":"Mobile,US","state":"AL","country":"United States","canonicalUrl":"https://foursquare.com/v/butch-cassidys/4b7841c6f964a52012c02ee3","categoryId":"4bf58dd8d48988d116941735","category":"Bar","checkinsCount":1172,"usersCount":643,"tipCount":28,"visitsCount":1425,"url":"http://www.butchcassidys.com","tier":"","message":"","currency":"","rating":8.8},{"name":"Ashland Pub","phone":"2514793278","twitter":"ashland_pub","address":"2453 Old Shell Rd","lat":30.689653121180186,"lng":-88.09788714609685,"city_fetched":"Mobile,US","state":"AL","country":"United States","canonicalUrl":"https://foursquare.com/v/ashland-pub/4bbfc319f8219c749399b010","categoryId":"4bf58dd8d48988d11b941735","category":"Pub","checkinsCount":644,"usersCount":340,"tipCount":10,"visitsCount":1012,"url":"http://ashlandmidtownpub.com","tier":"","message":"","currency":"","rating":8.6},{"name":"Fairhope Brewing Company","phone":"2512797517","twitter":"fairhopebrewing","address":"914 Nichols Ave","lat":30.516270323293554,"lng":-87.88496526942615,"city_fetched":"Mobile,US","state":"AL","country":"United States","canonicalUrl":"https://foursquare.com/v/fairhope-brewing-company/50c4d5fee4b00ce4a576ef92","categoryId":"50327c8591d4c4b30a586d5d","category":"Brewery","checkinsCount":550,"usersCount":399,"tipCount":14,"visitsCount":731,"url":"https://www.fairhopebrewing.com","tier":1,"message":"Cheap","currency":"$","rating":8.4},{"name":"LoDa Bier Garten","phone":"2515876871","address":"251 Dauphin St","lat":30.69099499304974,"lng":-88.04402589797974,"neighborhood":"Central Business District","city_fetched":"Mobile,US","state":"AL","country":"United States","canonicalUrl":"https://foursquare.com/v/loda-bier-garten/50c66aa7f1368727ca926e21","categoryId":"4bf58dd8d48988d117941735","category":"Beer Garden","checkinsCount":1271,"usersCount":711,"tipCount":29,"visitsCount":1491,"url":"http://lodabiergarten.com","tier":2,"message":"Moderate","currency":"$","rating":8.4},{"name":"B-Bob's","phone":"2514332262","address":"213 Conti St","lat":30.69045065309998,"lng":-88.04315686225891,"neighborhood":"Central Business District","city_fetched":"Mobile,US","state":"AL","country":"United States","canonicalUrl":"https://foursquare.com/v/bbobs/4b344768f964a520be2625e3","categoryId":"4bf58dd8d48988d1d8941735","category":"Gay Bar","checkinsCount":2392,"usersCount":484,"tipCount":18,"visitsCount":2514,"url":"http://www.b-bobs.com","tier":"","message":"","currency":"","rating":8.4},{"name":"McSharry's Irish Pub","phone":"2519905100","address":"101 N Bancroft St","lat":30.525485331018817,"lng":-87.90212631225586,"city_fetched":"Mobile,US","state":"AL","country":"United States","canonicalUrl":"https://foursquare.com/v/mcsharrys-irish-pub/4b5677ccf964a520c21128e3","categoryId":"4bf58dd8d48988d11b941735","category":"Pub","checkinsCount":1034,"usersCount":497,"tipCount":14,"visitsCount":1119,"url":"http://mcsharrys.com","tier":"","message":"","currency":"","rating":8.4},{"name":"The Industry Bar","address":"2551 Government Blvd","lat":30.6700065,"lng":-88.10173,"city_fetched":"Mobile,US","state":"AL","country":"United States","canonicalUrl":"https://foursquare.com/v/the-industry-bar/4d0449a854d0236a436ceed5","categoryId":"4bf58dd8d48988d116941735","category":"Bar","checkinsCount":624,"usersCount":96,"tipCount":5,"visitsCount":751,"tier":"","message":"","currency":"","rating":8.3},{"name":"The Haberdasher","phone":"2512871976","address":"451 Dauphin St","lat":30.692021388417864,"lng":-88.0413195490837,"neighborhood":"Central Business District","city_fetched":"Mobile,US","state":"AL","country":"United States","canonicalUrl":"https://foursquare.com/v/the-haberdasher/4f41b5d2e4b0f96037526f2a","categoryId":"4bf58dd8d48988d116941735","category":"Bar","checkinsCount":636,"usersCount":391,"tipCount":8,"visitsCount":831,"tier":"","message":"","currency":"","rating":8.2},{"name":"Alchemy Tavern","phone":"2514417741","twitter":"alchemy_tavern","address":"7 S Joachim St","lat":30.690709974672686,"lng":-88.04379962920663,"neighborhood":"Central Business District","city_fetched":"Mobile,US","state":"AL","country":"United States","canonicalUrl":"https://foursquare.com/v/alchemy-tavern/4f348a35e4b0e67f47df302d","categoryId":"4bf58dd8d48988d116941735","category":"Bar","checkinsCount":590,"usersCount":300,"tipCount":12,"visitsCount":638,"url":"http://www.alchemytavernmobile.com","tier":"","message":"","currency":"","rating":8.2},{"name":"Firehouse Wine Bar & Shop","phone":"2514212022","address":"216 Saint Francis St","lat":30.692423479135563,"lng":-88.04407183119439,"neighborhood":"Central Business District","city_fetched":"Mobile,US","state":"AL","country":"United States","canonicalUrl":"https://foursquare.com/v/firehouse-wine-bar--shop/52aa412f498e8d4d32e31ff4","categoryId":"4bf58dd8d48988d123941735","category":"Wine Bar","checkinsCount":65,"usersCount":44,"tipCount":1,"visitsCount":75,"url":"http://firehousewinebar.com","tier":"","message":"","currency":"","rating":8.2},{"name":"O'Daly's Irish Pub","phone":"2517256429","twitter":"odalysirishpub","address":"564 Dauphin St","lat":30.689453916666668,"lng":-88.0493218,"neighborhood":"Central Business District","city_fetched":"Mobile,US","state":"AL","country":"United States","canonicalUrl":"https://foursquare.com/v/odalys-irish-pub/4bdce3cc3904a5936a34509e","categoryId":"4bf58dd8d48988d11b941735","category":"Pub","checkinsCount":1813,"usersCount":610,"tipCount":8,"visitsCount":1987,"url":"http://www.visualtour.com/shownp.asp?sk=13&t=2135852","tier":"","message":"","currency":"","rating":7.9},{"name":"Hooters","phone":"2516619117","twitter":"hooters","address":"5470 Inn Rd","lat":30.584424174682518,"lng":-88.17098326815871,"city_fetched":"Mobile,US","state":"AL","country":"United States","canonicalUrl":"https://foursquare.com/v/hooters/4bb3897ceb3e95213046cb0a","categoryId":"4bf58dd8d48988d11d941735","category":"Sports Bar","checkinsCount":817,"usersCount":506,"tipCount":5,"visitsCount":904,"url":"http://hootersonline.net","tier":"","message":"","currency":"","rating":7.9},{"name":"Pour Baby","phone":"2513433555","address":"6808 Airport Blvd Ste H","lat":30.682791115002285,"lng":-88.20026286251696,"city_fetched":"Mobile,US","state":"AL","country":"United States","canonicalUrl":"https://foursquare.com/v/pour-baby/53e66c7c498ed3877e3f4565","categoryId":"4bf58dd8d48988d123941735","category":"Wine Bar","checkinsCount":41,"usersCount":23,"tipCount":1,"visitsCount":44,"url":"http://www.pour-baby.com","tier":"","message":"","currency":"","rating":7.8},{"name":"Boo Radleys","phone":"2514321996","address":"276 Dauphin St","lat":30.690957,"lng":-88.044718,"neighborhood":"Central Business District","city_fetched":"Mobile,US","state":"AL","country":"United States","canonicalUrl":"https://foursquare.com/v/boo-radleys/4b6e526cf964a5203cb82ce3","categoryId":"4bf58dd8d48988d116941735","category":"Bar","checkinsCount":1014,"usersCount":355,"tipCount":6,"visitsCount":1017,"url":"http://boo-radleys.com","tier":"","message":"","currency":"","rating":7.7},{"name":"Hayley's","phone":"2514334970","address":"278 Dauphin St","lat":30.691053074763012,"lng":-88.04478336883768,"neighborhood":"Central Business District","city_fetched":"Mobile,US","state":"AL","country":"United States","canonicalUrl":"https://foursquare.com/v/hayleys/4ba54b77f964a52064f738e3","categoryId":"4bf58dd8d48988d118941735","category":"Dive Bar","checkinsCount":1943,"usersCount":470,"tipCount":5,"visitsCount":2011,"tier":1,"message":"Cheap","currency":"$","rating":7.6},{"name":"The Bar Downtown Mobile","phone":"2515910792","address":"372 St Francis St, Mobile, AL 36602","lat":30.691659107522085,"lng":-88.04625416208296,"neighborhood":"Central Business District","city_fetched":"Mobile,US","state":"AL","country":"United States","canonicalUrl":"https://foursquare.com/v/the-bar-downtown-mobile/4ef51cd5d3e32dc39a775ffa","categoryId":"4bf58dd8d48988d116941735","category":"Bar","checkinsCount":600,"usersCount":259,"tipCount":8,"visitsCount":636,"tier":"","message":"","currency":"","rating":7.5},{"name":"Skyview Lounge","phone":"2516940100","address":"301 Government St","lat":30.68838266131899,"lng":-88.04401930111653,"neighborhood":"Central Business District","city_fetched":"Mobile,US","state":"AL","country":"United States","canonicalUrl":"https://foursquare.com/v/skyview-lounge/4b43d556f964a52072eb25e3","categoryId":"4bf58dd8d48988d1d5941735","category":"Hotel Bar","checkinsCount":374,"usersCount":254,"tipCount":4,"visitsCount":377,"tier":"","message":"","currency":"","rating":7.5},{"name":"Diamonds Exclusive Mens Club","phone":"2513426460","twitter":"diamondsmoblie","address":"4664 Airport Blvd","lat":30.676496407927022,"lng":-88.17120230701272,"city_fetched":"Mobile,US","state":"AL","country":"United States","canonicalUrl":"https://foursquare.com/diamondsmoblie","categoryId":"4bf58dd8d48988d1d6941735","category":"Strip Club","checkinsCount":655,"usersCount":117,"tipCount":13,"visitsCount":656,"tier":"","message":"","currency":"","rating":7.5},{"name":"TP Crockmiers","phone":"2514761890","address":"250 Dauphin St","lat":30.691215831375697,"lng":-88.0439906483205,"neighborhood":"Central Business District","city_fetched":"Mobile,US","state":"AL","country":"United States","canonicalUrl":"https://foursquare.com/v/tp-crockmiers/5064fde1e4b0fc16da3d261e","categoryId":"4bf58dd8d48988d11d941735","category":"Sports Bar","checkinsCount":849,"usersCount":479,"tipCount":15,"visitsCount":866,"url":"http://tpcrockmiers.com","tier":2,"message":"Moderate","currency":"$","rating":7.5},{"name":"Joe Cain Cafe","phone":"2513382000","address":"26 N Royal St","lat":30.69305238581149,"lng":-88.04113984107971,"neighborhood":"Central Business District","city_fetched":"Mobile,US","state":"AL","country":"United States","canonicalUrl":"https://foursquare.com/v/joe-cain-cafe/4b78511af964a520c6c42ee3","categoryId":"4bf58dd8d48988d1d5941735","category":"Hotel Bar","checkinsCount":510,"usersCount":380,"tipCount":12,"visitsCount":531,"tier":"","message":"","currency":"","rating":7.3},{"name":"Beef O' Bradys","phone":"2516613346","address":"4419 Rangeline Rd","lat":30.59804280259169,"lng":-88.16472115136061,"neighborhood":"Tillman","city_fetched":"Mobile,US","state":"AL","country":"United States","canonicalUrl":"https://foursquare.com/v/beef-o-bradys/4b676ba0f964a520dd4d2be3","categoryId":"4bf58dd8d48988d11d941735","category":"Sports Bar","checkinsCount":357,"usersCount":170,"tipCount":8,"visitsCount":366,"url":"http://www.beefobradys.com","tier":"","message":"","currency":"","rating":7.2},{"name":"Touchdown Tavern","phone":"2516627543","address":"5460 Inn Rd","lat":30.58498464278152,"lng":-88.17118406295776,"city_fetched":"Mobile,US","state":"AL","country":"United States","canonicalUrl":"https://foursquare.com/v/touchdown-tavern/4c411350af052d7f91e57c79","categoryId":"4bf58dd8d48988d11d941735","category":"Sports Bar","checkinsCount":209,"usersCount":108,"tipCount":4,"visitsCount":210,"tier":"","message":"","currency":"","rating":7.2},{"name":"The Garage","phone":"2514332223","address":"9 S Washington Ave","lat":30.688376716677507,"lng":-88.05082858978002,"neighborhood":"Central Business District","city_fetched":"Mobile,US","state":"AL","country":"United States","canonicalUrl":"https://foursquare.com/v/the-garage/4cd36cf472a1a1cd2c566551","categoryId":"4bf58dd8d48988d116941735","category":"Bar","checkinsCount":1470,"usersCount":455,"tipCount":8,"visitsCount":1547,"tier":"","message":"","currency":"","rating":7.2},{"name":"Flip Side","phone":"2514318869","address":"54 S Conception St","lat":30.690529975000327,"lng":-88.04267737527202,"neighborhood":"Central Business District","city_fetched":"Mobile,US","state":"AL","country":"United States","canonicalUrl":"https://foursquare.com/v/flip-side/51d4bc6a498ea93b4b22911b","categoryId":"4bf58dd8d48988d116941735","category":"Bar","checkinsCount":108,"usersCount":47,"tipCount":3,"visitsCount":113,"tier":"","message":"","currency":"","rating":7.1},{"name":"Stir Mobile","phone":"2513429995","address":"5821 Old Shell Rd Ste D","lat":30.689646107992566,"lng":-88.17762537301101,"city_fetched":"Mobile,US","state":"AL","country":"United States","canonicalUrl":"https://foursquare.com/v/stir-mobile/4ce1bbe800166ea8caf94288","categoryId":"4bf58dd8d48988d11e941735","category":"Cocktail Bar","checkinsCount":1038,"usersCount":182,"tipCount":3,"visitsCount":1064,"url":"http://www.stirnightlife.com","tier":"","message":"","currency":"","rating":7.1},{"name":"Gabriel's","phone":"2514324900","address":"55 S Joachim St","lat":30.690065644410723,"lng":-88.04337460872193,"neighborhood":"Central Business District","city_fetched":"Mobile,US","state":"AL","country":"United States","canonicalUrl":"https://foursquare.com/v/gabriels/4b4ff5d3f964a5205b1a27e3","categoryId":"4bf58dd8d48988d1d8941735","category":"Gay Bar","checkinsCount":2721,"usersCount":281,"tipCount":14,"visitsCount":2725,"tier":"","message":"","currency":"","rating":7.1},{"name":"Pat's Downtown Grill","phone":"2514389585","address":"271 Dauphin St","lat":30.690825562208474,"lng":-88.04453504827444,"neighborhood":"Central Business District","city_fetched":"Mobile,US","state":"AL","country":"United States","canonicalUrl":"https://foursquare.com/v/pats-downtown-grill/4b6e725af964a520c7bd2ce3","categoryId":"4bf58dd8d48988d116941735","category":"Bar","checkinsCount":264,"usersCount":161,"tipCount":4,"visitsCount":264,"tier":"","message":"","currency":"","rating":7},{"name":"Saddle Up Saloon","address":"9 N Jackson St","lat":30.691196220916222,"lng":-88.04523225247571,"neighborhood":"Central Business District","city_fetched":"Mobile,US","state":"AL","country":"United States","canonicalUrl":"https://foursquare.com/v/saddle-up-saloon/4fd2b4b2e4b09ba567bc5cb8","categoryId":"4bf58dd8d48988d116941735","category":"Bar","checkinsCount":286,"usersCount":109,"tipCount":3,"visitsCount":287,"tier":"","message":"","currency":"","rating":7},{"name":"Cockeyed Charlie's","lat":30.684099173549498,"lng":-88.2017427448996,"city_fetched":"Mobile,US","state":"AL","country":"United States","canonicalUrl":"https://foursquare.com/v/cockeyed-charlies/4f92229ae4b03460908f6c0a","categoryId":"4bf58dd8d48988d116941735","category":"Bar","checkinsCount":175,"usersCount":106,"tipCount":1,"visitsCount":195,"tier":"","message":"","currency":"","rating":6.7},{"name":"Dahlia's Electric Piano Hall","phone":"2513785025","twitter":"dahliaspianos","address":"258 Dauphin St","lat":30.691369449056396,"lng":-88.04425807369564,"neighborhood":"Central Business District","city_fetched":"Mobile,US","state":"AL","country":"United States","canonicalUrl":"https://foursquare.com/v/dahlias-electric-piano-hall/4bc559ea5935c9b6eee1a5d2","categoryId":"4bf58dd8d48988d116941735","category":"Bar","checkinsCount":990,"usersCount":261,"tipCount":13,"visitsCount":999,"tier":"","message":"","currency":"","rating":6.5},{"name":"Boondocks","phone":"2517767004","address":"10210 Airport Blvd","lat":30.67034094717008,"lng":-88.28357208303512,"city_fetched":"Mobile,US","state":"AL","country":"United States","canonicalUrl":"https://foursquare.com/v/boondocks/4bd7afd65cf276b024eb9b00","categoryId":"4bf58dd8d48988d116941735","category":"Bar","checkinsCount":202,"usersCount":64,"tipCount":0,"visitsCount":204,"url":"http://boondocksmobileal.com","tier":"","message":"","currency":"","rating":6.4},{"name":"Bubble Lounge","phone":"2513415556","address":"5546 Old Shell Rd Ste B","lat":30.690003560839706,"lng":-88.17046899872396,"city_fetched":"Mobile,US","state":"AL","country":"United States","canonicalUrl":"https://foursquare.com/v/bubble-lounge/4b804575f964a520e06230e3","categoryId":"4bf58dd8d48988d121941735","category":"Lounge","checkinsCount":445,"usersCount":207,"tipCount":8,"visitsCount":465,"tier":"","message":"","currency":"","rating":5.7}]