[{"name":"Dust Bowl Brewing Co. Downtown Taproom","phone":"2092502042","twitter":"dustbowlbrew","address":"200 W Main St","lat":37.493190199159336,"lng":-120.84787281308233,"city_fetched":"Modesto,US","state":"CA","country":"United States","canonicalUrl":"https://foursquare.com/v/dust-bowl-brewing-co-downtown-taproom/4e374483483bda3eb10fcf2e","categoryId":"50327c8591d4c4b30a586d5d","category":"Brewery","checkinsCount":1577,"usersCount":964,"tipCount":28,"visitsCount":2081,"url":"http://www.dustbowlbrewing.com","tier":2,"message":"Moderate","currency":"$","rating":8.2},{"name":"Camp 4 Wine Café","phone":"2095295898","address":"1508 10th St","lat":37.64579,"lng":-121.005888,"city_fetched":"Modesto,US","state":"CA","country":"United States","canonicalUrl":"https://foursquare.com/v/camp-4-wine-caf%C3%A9/4b36730af964a520b43525e3","categoryId":"4bf58dd8d48988d123941735","category":"Wine Bar","checkinsCount":731,"usersCount":385,"tipCount":23,"visitsCount":1042,"url":"http://camp4wine.com","tier":"","message":"","currency":"","rating":8.2},{"name":"Dust Bowl Brewing Co. Brewery Taproom","phone":"2092502043","twitter":"dustbowlbrew","address":"3000 Fulkerth Rd","lat":37.5062066065665,"lng":-120.88104486465454,"city_fetched":"Modesto,US","state":"CA","country":"United States","canonicalUrl":"https://foursquare.com/v/dust-bowl-brewing-co-brewery-taproom/5771be1b498e878ba8c867d9","categoryId":"50327c8591d4c4b30a586d5d","category":"Brewery","checkinsCount":42,"usersCount":68,"tipCount":2,"visitsCount":100,"url":"http://www.dustbowlbrewing.com","tier":"","message":"","currency":"","rating":8},{"name":"Crocodiles Night Club","phone":"2095441962","address":"1745 Prescott Rd","lat":37.670411450026,"lng":-121.03196183367412,"city_fetched":"Modesto,US","state":"CA","country":"United States","canonicalUrl":"https://foursquare.com/v/crocodiles-night-club/4c8c6badf87e224b47243505","categoryId":"4bf58dd8d48988d11f941735","category":"Nightclub","checkinsCount":230,"usersCount":125,"tipCount":5,"visitsCount":232,"url":"http://crocodilesnightclub.com‎","tier":"","message":"","currency":"","rating":7.8},{"name":"Tiki Cocktail Lounge","phone":"2095779969","address":"932 McHenry Ave","lat":37.656744718551636,"lng":-120.99358488,"city_fetched":"Modesto,US","state":"CA","country":"United States","canonicalUrl":"https://foursquare.com/v/tiki-cocktail-lounge/4b0e308af964a520c45523e3","categoryId":"4bf58dd8d48988d116941735","category":"Bar","checkinsCount":1051,"usersCount":341,"tipCount":8,"visitsCount":1274,"url":"http://www.tikimodesto.com","tier":"","message":"","currency":"","rating":7.7},{"name":"Speakeasy","address":"928 12th St","lat":37.641805,"lng":-120.997903,"city_fetched":"Modesto,US","state":"CA","country":"United States","canonicalUrl":"https://foursquare.com/v/speakeasy/4b4ff2e9f964a520201a27e3","categoryId":"4bf58dd8d48988d116941735","category":"Bar","checkinsCount":1179,"usersCount":337,"tipCount":8,"visitsCount":1205,"tier":"","message":"","currency":"","rating":7.7},{"name":"108 Sports Lounge","phone":"2098692456","address":"3119 Atchison St","lat":37.738365,"lng":-120.93835485,"city_fetched":"Modesto,US","state":"CA","country":"United States","canonicalUrl":"https://foursquare.com/v/108-sports-lounge/4c1472107f7f2d7f0701e168","categoryId":"4bf58dd8d48988d11d941735","category":"Sports Bar","checkinsCount":128,"usersCount":75,"tipCount":3,"visitsCount":147,"tier":"","message":"","currency":"","rating":7.6},{"name":"Xhale","address":"121 W Main St #C","lat":37.493770599365234,"lng":-120.84747314453125,"city_fetched":"Modesto,US","state":"CA","country":"United States","canonicalUrl":"https://foursquare.com/v/xhale/4f40c6dae4b0102f0de0f11c","categoryId":"4bf58dd8d48988d119941735","category":"Hookah Bar","checkinsCount":230,"usersCount":72,"tipCount":7,"visitsCount":232,"tier":"","message":"","currency":"","rating":7.6},{"name":"Staley's Club","phone":"2096346328","address":"426 E Main St","lat":37.49635408771608,"lng":-120.84356033360864,"city_fetched":"Modesto,US","state":"CA","country":"United States","canonicalUrl":"https://foursquare.com/v/staleys-club/4c1ecfe2fcf8c9b6f8e4ad0b","categoryId":"4bf58dd8d48988d118941735","category":"Dive Bar","checkinsCount":398,"usersCount":119,"tipCount":3,"visitsCount":408,"tier":"","message":"","currency":"","rating":7.5},{"name":"Minnie's","address":"107 McHenry Ave","lat":37.646119,"lng":-120.99406472,"city_fetched":"Modesto,US","state":"CA","country":"United States","canonicalUrl":"https://foursquare.com/v/minnies/4b9c7f87f964a520a16c36e3","categoryId":"4bf58dd8d48988d11e941735","category":"Cocktail Bar","checkinsCount":413,"usersCount":257,"tipCount":5,"visitsCount":495,"url":"http://minniesmodesto.58-s.com","tier":"","message":"","currency":"","rating":7.3},{"name":"The Boardroom","phone":"2094098665","address":"1528 J St","lat":37.644633533333334,"lng":-120.99456213333333,"city_fetched":"Modesto,US","state":"CA","country":"United States","canonicalUrl":"https://foursquare.com/v/the-boardroom/4d44ee91c3e5f04dcd1ba020","categoryId":"4bf58dd8d48988d121941735","category":"Lounge","checkinsCount":628,"usersCount":360,"tipCount":7,"visitsCount":740,"tier":"","message":"","currency":"","rating":6.7},{"name":"The Rusty Hook","phone":"2098251001","address":"955 E Yosemite Ave","lat":37.79810788909155,"lng":-121.20410196341754,"city_fetched":"Modesto,US","state":"CA","country":"United States","canonicalUrl":"https://foursquare.com/v/the-rusty-hook/4bd52f106798ef3b810f638d","categoryId":"4bf58dd8d48988d118941735","category":"Dive Bar","checkinsCount":655,"usersCount":173,"tipCount":3,"visitsCount":689,"tier":"","message":"","currency":"","rating":6.7},{"name":"Rivets American Grill","address":"2307 Oakdale Rd","lat":37.674618748929376,"lng":-120.95799431920003,"city_fetched":"Modesto,US","state":"CA","country":"United States","canonicalUrl":"https://foursquare.com/v/rivets-american-grill/5233c54011d2994d9e95bbf6","categoryId":"4bf58dd8d48988d116941735","category":"Bar","checkinsCount":202,"usersCount":218,"tipCount":4,"visitsCount":437,"tier":2,"message":"Moderate","currency":"$","rating":6.7},{"name":"Climax","address":"607 7th St","lat":37.634723,"lng":-120.998964,"city_fetched":"Modesto,US","state":"CA","country":"United States","canonicalUrl":"https://foursquare.com/v/climax/5042e430e4b0a1050748c266","categoryId":"4bf58dd8d48988d1d8941735","category":"Gay Bar","checkinsCount":184,"usersCount":135,"tipCount":5,"visitsCount":264,"tier":"","message":"","currency":"","rating":6.7},{"name":"Battered Beaver","address":"108 N Yosemite Ave","lat":37.76705686679232,"lng":-120.8473568937154,"city_fetched":"Modesto,US","state":"CA","country":"United States","canonicalUrl":"https://foursquare.com/v/battered-beaver/4c01fd068ef2c9b6217e16fc","categoryId":"4bf58dd8d48988d118941735","category":"Dive Bar","checkinsCount":557,"usersCount":256,"tipCount":2,"visitsCount":581,"tier":"","message":"","currency":"","rating":6.6},{"name":"Hero's","phone":"2095242337","twitter":"herosmodesto","address":"821 L St","lat":37.641746949814255,"lng":-121.00402908779675,"city_fetched":"Modesto,US","state":"CA","country":"United States","canonicalUrl":"https://foursquare.com/herosmodesto","categoryId":"50327c8591d4c4b30a586d5d","category":"Brewery","checkinsCount":571,"usersCount":323,"tipCount":6,"visitsCount":584,"url":"http://www.herosmodesto.com","tier":"","message":"","currency":"","rating":6.3},{"name":"The Tap Room","phone":"2092043060","address":"3948 Sylvan Ave Ste 301","lat":37.68802808164695,"lng":-120.92227147281193,"city_fetched":"Modesto,US","state":"CA","country":"United States","canonicalUrl":"https://foursquare.com/v/the-tap-room/529d18eb11d2e8bbf1d76f1a","categoryId":"4bf58dd8d48988d11b941735","category":"Pub","checkinsCount":114,"usersCount":147,"tipCount":3,"visitsCount":297,"tier":2,"message":"Moderate","currency":"$","rating":6}]