[{"name":"ABC Store","phone":"7048217667","address":"5880 Andrew Jackson Hwy., #200","lat":35.068176021492754,"lng":-80.64218927906097,"city_fetched":"Monroe","state":"NC","country":"United States","canonicalUrl":"https://foursquare.com/v/abc-store/4ce2dff23468236aaacf5b36","category":"Other Nightlife","checkinsCount":467,"usersCount":254,"tipCount":3,"visitsCount":582,"tier":"","message":"","currency":"","rating":8.3},{"name":"Hickory Tavern Sun Valley","address":"6455 Old Monroe Rd","lat":35.05143109281449,"lng":-80.64538112405955,"city_fetched":"Monroe","state":"NC","country":"United States","canonicalUrl":"https://foursquare.com/v/hickory-tavern-sun-valley/5238be1911d20f30dfab2486","category":"Sports Bar","checkinsCount":744,"usersCount":319,"tipCount":10,"visitsCount":785,"url":"http://www.thehickorytavern.com","tier":2,"message":"Moderate","currency":"$","rating":7.2},{"name":"Bonfire Bar & Grill","address":"6751 Old Monroe Rd","lat":35.04920469450486,"lng":-80.6457875469817,"city_fetched":"Monroe","state":"NC","country":"United States","canonicalUrl":"https://foursquare.com/v/bonfire-bar--grill/4d3f52811bd2a143de70e77c","category":"Bar","checkinsCount":2085,"usersCount":651,"tipCount":34,"visitsCount":2187,"url":"http://bonfirebargrill.com","tier":2,"message":"Moderate","currency":"$","rating":6.4},{"name":"Dakota's Sports Bar and Grill","twitter":"dakotassbg","address":"608 W Roosevelt Blvd","lat":34.98983694251916,"lng":-80.53180722611077,"city_fetched":"Monroe","state":"NC","country":"United States","canonicalUrl":"https://foursquare.com/dakotassbg","category":"American Restaurant","checkinsCount":242,"usersCount":81,"tipCount":8,"visitsCount":242,"tier":2,"message":"Moderate","currency":"$","rating":5.7}]