[{"name":"The Wine Cave","phone":"8185416690","address":"2427 Honolulu Ave","lat":34.206923,"lng":-118.231331,"neighborhood":"Montrose Verdugo City","city_fetched":"Montrose","state":"CA","country":"United States","canonicalUrl":"https://foursquare.com/v/the-wine-cave/4b8c7f91f964a520dcd332e3","category":"Wine Bar","checkinsCount":941,"usersCount":197,"tipCount":17,"visitsCount":963,"url":"http://wine-cave.com","tier":"","message":"","currency":"","rating":8.3},{"name":"Basin 141","phone":"8182364810","twitter":"basin141","address":"2265 Honolulu Ave","lat":34.205377187886945,"lng":-118.22712661702988,"neighborhood":"Montrose Verdugo City","city_fetched":"Montrose","state":"CA","country":"United States","canonicalUrl":"https://foursquare.com/v/basin-141/524f72d4498ec2e277fbe731","category":"New American Restaurant","checkinsCount":1093,"usersCount":457,"tipCount":14,"visitsCount":1335,"url":"http://www.basin141.com","tier":"","message":"","currency":"","rating":8},{"name":"Blue Moon Lounge","phone":"8185410057","address":"3509 N Verdugo Rd","lat":34.20299,"lng":-118.22684,"city_fetched":"Montrose","state":"CA","country":"United States","canonicalUrl":"https://foursquare.com/v/blue-moon-lounge/4b99e5d1f964a5203a9635e3","category":"Bar","checkinsCount":2506,"usersCount":360,"tipCount":10,"visitsCount":2618,"tier":1,"message":"Cheap","currency":"$","rating":7.3},{"name":"Montrose Bowl","phone":"8182493895","twitter":"montrosebowl","address":"2334 Honolulu Ave","lat":34.205826,"lng":-118.22961336666667,"neighborhood":"Montrose Verdugo City","city_fetched":"Montrose","state":"CA","country":"United States","canonicalUrl":"https://foursquare.com/v/montrose-bowl/4b90752cf964a5204e8b33e3","category":"Bowling Alley","checkinsCount":506,"usersCount":448,"tipCount":3,"visitsCount":509,"tier":"","message":"","currency":"","rating":7.3},{"name":"Avignone's","phone":"8182495471","address":"2321 Honolulu Ave","lat":34.20587807823299,"lng":-118.22889707666045,"neighborhood":"Montrose Verdugo City","city_fetched":"Montrose","state":"CA","country":"United States","canonicalUrl":"https://foursquare.com/v/avignones/4bfc9aa1f61dc9b650ef9dde","category":"Dive Bar","checkinsCount":291,"usersCount":151,"tipCount":5,"visitsCount":298,"tier":"","message":"","currency":"","rating":7.2},{"name":"Pepe's Mexican","phone":"8182486622","twitter":"pepesmontrose","address":"2272 Honolulu Ave","lat":34.205321,"lng":-118.227588,"neighborhood":"Montrose Verdugo City","city_fetched":"Montrose","state":"CA","country":"United States","canonicalUrl":"https://foursquare.com/pepesmontrose","category":"Mexican Restaurant","checkinsCount":1401,"usersCount":427,"tipCount":14,"visitsCount":1449,"url":"http://margaritasmexicanfood.com","tier":2,"message":"Moderate","currency":"$","rating":7.1}]