[{"name":"The Tipping Point","phone":"3342609110","twitter":"tippingpointbar","address":"5015 Hampstead High St","lat":32.312512,"lng":-86.186015,"city_fetched":"Montgomery","state":"AL","country":"United States","canonicalUrl":"https://foursquare.com/v/the-tipping-point/4bb34f2eeb3e9521b0efca0a","category":"Bar","checkinsCount":1450,"usersCount":516,"tipCount":21,"visitsCount":1818,"url":"http://tippingpointhampstead.com","tier":2,"message":"Moderate","currency":"$","rating":9},{"name":"Leroy","phone":"3343567127","twitter":"leroylounge","address":"2752 Boultier St","lat":32.35257057223207,"lng":-86.29103684434637,"neighborhood":"Old Cloverdale","city_fetched":"Montgomery","state":"AL","country":"United States","canonicalUrl":"https://foursquare.com/v/leroy/4f3c79e2e4b07254f705e1aa","category":"Bar","checkinsCount":1466,"usersCount":421,"tipCount":11,"visitsCount":1697,"url":"http://leroylounge.com","tier":2,"message":"Moderate","currency":"$","rating":8.9},{"name":"Pine Bar","phone":"3342399061","address":"505 Cloverdale Rd","lat":32.358316,"lng":-86.298359,"city_fetched":"Montgomery","state":"AL","country":"United States","canonicalUrl":"https://foursquare.com/v/pine-bar/4c0adb42009a0f474533eabf","category":"Bar","checkinsCount":705,"usersCount":269,"tipCount":5,"visitsCount":728,"url":"http://thepinebar.com","tier":"","message":"","currency":"","rating":8.1},{"name":"Capitol Oyster Bar","phone":"3342398958","twitter":"capitoloyster","address":"617 Shady St","lat":32.39228030805455,"lng":-86.31611657867238,"city_fetched":"Montgomery","state":"AL","country":"United States","canonicalUrl":"https://foursquare.com/v/capitol-oyster-bar/4e21cc03628469a5741976b9","category":"Seafood Restaurant","checkinsCount":663,"usersCount":501,"tipCount":19,"visitsCount":764,"url":"http://www.capitoloysterbar.com","tier":"","message":"","currency":"","rating":8.1},{"name":"1048 Jazz and Blues","phone":"3348341048","address":"1104 E Fairview Ave","lat":32.351796189298945,"lng":-86.2902637431956,"city_fetched":"Montgomery","state":"AL","country":"United States","canonicalUrl":"https://foursquare.com/v/1048-jazz-and-blues/4b6fc2c6f964a520cafb2ce3","category":"Music Venue","checkinsCount":891,"usersCount":336,"tipCount":6,"visitsCount":948,"tier":"","message":"","currency":"","rating":8.1},{"name":"Barra Hookah","twitter":"barrahookah","address":"1408 Madison Ave","lat":32.3803731021929,"lng":-86.28915362859586,"neighborhood":"Capitol Heights","city_fetched":"Montgomery","state":"AL","country":"United States","canonicalUrl":"https://foursquare.com/barrahookah","category":"Hookah Bar","checkinsCount":231,"usersCount":118,"tipCount":7,"visitsCount":253,"tier":"","message":"","currency":"","rating":7.9},{"name":"Railyard Brewing Co.","phone":"3342620080","twitter":"railyardbrewco","address":"12 W Jefferson St","lat":32.381066818306174,"lng":-86.3094836980167,"neighborhood":"Downtown Montgomery","city_fetched":"Montgomery","state":"AL","country":"United States","canonicalUrl":"https://foursquare.com/v/railyard-brewing-co/5058ada5e4b0b36648633a93","category":"Brewery","checkinsCount":1304,"usersCount":1037,"tipCount":27,"visitsCount":1742,"url":"http://www.railyardbrewingcompany.com","tier":2,"message":"Moderate","currency":"$","rating":7.8},{"name":"The Exchange","phone":"3344815165","address":"201 Tallapoosa St","lat":32.37979364805038,"lng":-86.31181694643969,"neighborhood":"Downtown Montgomery","city_fetched":"Montgomery","state":"AL","country":"United States","canonicalUrl":"https://foursquare.com/v/the-exchange/4c256d47f1272d7fd5e584c5","category":"Bar","checkinsCount":1246,"usersCount":551,"tipCount":17,"visitsCount":1288,"url":"http://houserestaurantmontgomery.com","tier":2,"message":"Moderate","currency":"$","rating":7.8},{"name":"Alley Bar","phone":"3343873333","address":"166 Commerce St","lat":32.379744008113676,"lng":-86.31134033203125,"neighborhood":"Downtown Montgomery","city_fetched":"Montgomery","state":"AL","country":"United States","canonicalUrl":"https://foursquare.com/v/alley-bar/4bc3e0242a89ef3b35b6f588","category":"Bar","checkinsCount":2071,"usersCount":1072,"tipCount":15,"visitsCount":2094,"url":"http://alleybarmontgomery.com","tier":"","message":"","currency":"","rating":7.8},{"name":"Bud's","phone":"3342627000","address":"1018 E Fairview Ave","lat":32.35186450310707,"lng":-86.29139542579651,"city_fetched":"Montgomery","state":"AL","country":"United States","canonicalUrl":"https://foursquare.com/v/buds/4b6fbefdf964a52070fb2ce3","category":"Bar","checkinsCount":686,"usersCount":213,"tipCount":4,"visitsCount":688,"tier":"","message":"","currency":"","rating":7.8},{"name":"Sous La Terre","phone":"3342652069","address":"82 Commerce St","lat":32.37892296752345,"lng":-86.3105636437918,"neighborhood":"Downtown Montgomery","city_fetched":"Montgomery","state":"AL","country":"United States","canonicalUrl":"https://foursquare.com/v/sous-la-terre/4c55063572cf0f47f82580d5","category":"Lounge","checkinsCount":146,"usersCount":103,"tipCount":4,"visitsCount":147,"tier":"","message":"","currency":"","rating":7.6},{"name":"El Rey Burrito Lounge","phone":"3348329688","twitter":"burritolounge","address":"1031 E Fairview Ave","lat":32.35218581,"lng":-86.291207,"neighborhood":"Old Cloverdale","city_fetched":"Montgomery","state":"AL","country":"United States","canonicalUrl":"https://foursquare.com/v/el-rey-burrito-lounge/4b6fbcc9f964a52040fb2ce3","category":"Mexican Restaurant","checkinsCount":1492,"usersCount":615,"tipCount":27,"visitsCount":1534,"url":"http://burritolounge.com","tier":2,"message":"Moderate","currency":"$","rating":7.6},{"name":"Aviator Bar","address":"166 Commerce St","lat":32.379715172383236,"lng":-86.31163861278081,"neighborhood":"Downtown Montgomery","city_fetched":"Montgomery","state":"AL","country":"United States","canonicalUrl":"https://foursquare.com/v/aviator-bar/50ca7471e4b0956d235bc5a1","category":"Bar","checkinsCount":771,"usersCount":416,"tipCount":12,"visitsCount":815,"tier":2,"message":"Moderate","currency":"$","rating":7.4},{"name":"Brunswick Zone Montgomery Lanes","phone":"3348197171","twitter":"bowlbrunswick","address":"1661 Eastern Blvd","lat":32.3546453,"lng":-86.2154411,"city_fetched":"Montgomery","state":"AL","country":"United States","canonicalUrl":"https://foursquare.com/v/brunswick-zone-montgomery-lanes/4b5274f1f964a520217e27e3","category":"Bowling Alley","checkinsCount":1324,"usersCount":616,"tipCount":14,"visitsCount":1501,"url":"https://t.co/DuAKyeYxjB","tier":"","message":"","currency":"","rating":7.4},{"name":"BLACK FINN","phone":"3345171760","address":"6854 Eastchase Pkwy","lat":32.35774187718715,"lng":-86.16689270351685,"city_fetched":"Montgomery","state":"AL","country":"United States","canonicalUrl":"https://foursquare.com/v/black-finn/54fa852b498e0ff206b733e1","category":"American Restaurant","checkinsCount":291,"usersCount":165,"tipCount":3,"visitsCount":363,"url":"http://blackfinnameripub.com/mobile/","tier":"","message":"","currency":"","rating":7.4},{"name":"The Keys Bar And Grill","phone":"3342721401","address":"1343 Dalraida Rd","lat":32.40328872681443,"lng":-86.24518544549473,"city_fetched":"Montgomery","state":"AL","country":"United States","canonicalUrl":"https://foursquare.com/v/the-keys-bar-and-grill/4ca7aca2931bb60ca9f89fe2","category":"American Restaurant","checkinsCount":278,"usersCount":106,"tipCount":7,"visitsCount":284,"tier":"","message":"","currency":"","rating":7.4},{"name":"SandBAR","phone":"3342155611","address":"355 Coosa St","lat":32.38214052823248,"lng":-86.31288528442381,"city_fetched":"Montgomery","state":"AL","country":"United States","canonicalUrl":"https://foursquare.com/v/sandbar/4f89d72fe4b018320636a8a4","category":"Bar","checkinsCount":750,"usersCount":392,"tipCount":6,"visitsCount":779,"tier":"","message":"","currency":"","rating":7.3},{"name":"50/50 Club","address":"129 Montgomery St","lat":32.377034734177116,"lng":-86.3102020131421,"neighborhood":"Downtown Montgomery","city_fetched":"Montgomery","state":"AL","country":"United States","canonicalUrl":"https://foursquare.com/v/5050-club/4fee78d0e4b0481d50fab87a","category":"Nightclub","checkinsCount":226,"usersCount":91,"tipCount":1,"visitsCount":250,"tier":"","message":"","currency":"","rating":7},{"name":"La Jolla Restaurant & Bar","phone":"3343562600","address":"8147 Vaughn Rd","lat":32.35775574500016,"lng":-86.16689270351685,"city_fetched":"Montgomery","state":"AL","country":"United States","canonicalUrl":"https://foursquare.com/v/la-jolla-restaurant--bar/4b5132c6f964a520f14627e3","category":"Bar","checkinsCount":711,"usersCount":257,"tipCount":9,"visitsCount":716,"url":"http://lajollamontgomery.com","tier":"","message":"","currency":"","rating":7},{"name":"Irish Bred Pub","phone":"3348347559","address":"78 Dexter Ave","lat":32.377296447753906,"lng":-86.30760192871094,"neighborhood":"Downtown Montgomery","city_fetched":"Montgomery","state":"AL","country":"United States","canonicalUrl":"https://foursquare.com/v/irish-bred-pub/5122b75de4b024e9b7152827","category":"Gastropub","checkinsCount":869,"usersCount":572,"tipCount":27,"visitsCount":1185,"url":"http://irishbredal.com","tier":2,"message":"Moderate","currency":"$","rating":7},{"name":"Deja Vu Billiards","phone":"3342399212","address":"121 N Burbank Dr","lat":32.38489778286899,"lng":-86.19965506308664,"city_fetched":"Montgomery","state":"AL","country":"United States","canonicalUrl":"https://foursquare.com/v/deja-vu-billiards/4b44d149f964a5201afd25e3","category":"Bar","checkinsCount":518,"usersCount":179,"tipCount":8,"visitsCount":640,"url":"http://www.dejavubilliards.com","tier":"","message":"","currency":"","rating":6.9},{"name":"Buffalo Wild Wings","twitter":"bwwings","lat":32.35941057701319,"lng":-86.17270971790845,"city_fetched":"Montgomery","state":"AL","country":"United States","canonicalUrl":"https://foursquare.com/v/buffalo-wild-wings/55aafa96498e8b05faed6471","category":"Sports Bar","checkinsCount":190,"usersCount":292,"tipCount":0,"visitsCount":570,"tier":"","message":"","currency":"","rating":6.9},{"name":"The Shack","address":"3200 Atlanta Hwy","lat":32.383624616666665,"lng":-86.263959,"city_fetched":"Montgomery","state":"AL","country":"United States","canonicalUrl":"https://foursquare.com/v/the-shack/4bd50a90637ba5932bf2f570","category":"Pub","checkinsCount":582,"usersCount":101,"tipCount":11,"visitsCount":612,"tier":"","message":"","currency":"","rating":6.8},{"name":"Head on the Door","phone":"3342701928","address":"5028 Vaughn Rd","lat":32.343194038626365,"lng":-86.22249729940508,"city_fetched":"Montgomery","state":"AL","country":"United States","canonicalUrl":"https://foursquare.com/v/head-on-the-door/4b6fc38cf964a520dbfb2ce3","category":"Music Venue","checkinsCount":795,"usersCount":133,"tipCount":6,"visitsCount":838,"tier":"","message":"","currency":"","rating":6.8},{"name":"Young Barn Pub & Oyster Bar","phone":"3348197423","address":"5331 Young Barn Rd","lat":32.34918614324952,"lng":-86.22341037885366,"city_fetched":"Montgomery","state":"AL","country":"United States","canonicalUrl":"https://foursquare.com/v/young-barn-pub--oyster-bar/4c82f0aed92ea093de065072","category":"Seafood Restaurant","checkinsCount":305,"usersCount":150,"tipCount":8,"visitsCount":336,"url":"http://youngbarn.com","tier":2,"message":"Moderate","currency":"$","rating":6.7},{"name":"Twin Peaks","lat":32.357418536107694,"lng":-86.1689294789946,"city_fetched":"Montgomery","state":"AL","country":"United States","canonicalUrl":"https://foursquare.com/v/twin-peaks/5576636c498eedcbb2310274","category":"Sports Bar","checkinsCount":209,"usersCount":158,"tipCount":1,"visitsCount":339,"tier":"","message":"","currency":"","rating":6.5},{"name":"Freeze Daiquiri Bar and Grill","phone":"3346127705","address":"115 E South Blvd","lat":32.32718080086433,"lng":-86.30411334996218,"city_fetched":"Montgomery","state":"AL","country":"United States","canonicalUrl":"https://foursquare.com/v/freeze-daiquiri-bar-and-grill/4defe887e4cdfec0ed2b0e47","category":"Nightlife Spot","checkinsCount":191,"usersCount":66,"tipCount":4,"visitsCount":204,"tier":"","message":"","currency":"","rating":6.4},{"name":"Stuckey's","phone":"3342397012","address":"5040 Vaughn Rd","lat":32.34313892169316,"lng":-86.22248241210448,"city_fetched":"Montgomery","state":"AL","country":"United States","canonicalUrl":"https://foursquare.com/v/stuckeys/4bf763b45ec320a1500b87d3","category":"Nightclub","checkinsCount":1218,"usersCount":235,"tipCount":12,"visitsCount":1240,"tier":2,"message":"Moderate","currency":"$","rating":6.2},{"name":"Blue Byrd's","phone":"3343564690","address":"6804 Atlanta Hwy","lat":32.381773579367966,"lng":-86.17741227149963,"city_fetched":"Montgomery","state":"AL","country":"United States","canonicalUrl":"https://foursquare.com/v/blue-byrds/4d8aa15af607a0933c2f0487","category":"Bar","checkinsCount":190,"usersCount":71,"tipCount":4,"visitsCount":190,"tier":"","message":"","currency":"","rating":6.2},{"name":"Santa Barbara Trading Company","phone":"3346127013","address":"2801 Vaughn Plaza Rd","lat":32.342701566989064,"lng":-86.22112764952696,"city_fetched":"Montgomery","state":"AL","country":"United States","canonicalUrl":"https://foursquare.com/v/santa-barbara-trading-company/4b8ffd08f964a5205f6e33e3","category":"Bar","checkinsCount":477,"usersCount":145,"tipCount":6,"visitsCount":481,"tier":"","message":"","currency":"","rating":6.2},{"name":"Liquids","lat":32.342727090827594,"lng":-86.22198120377715,"city_fetched":"Montgomery","state":"Alabama","country":"United States","canonicalUrl":"https://foursquare.com/v/liquids/4e7cc5c0775b68b186008f25","category":"Nightclub","checkinsCount":558,"usersCount":190,"tipCount":6,"visitsCount":563,"tier":"","message":"","currency":"","rating":5.8},{"name":"Rock Bottom","address":"2430 Eastern Blvd","lat":32.349483147310266,"lng":-86.22184225406036,"city_fetched":"Montgomery","state":"AL","country":"United States","canonicalUrl":"https://foursquare.com/v/rock-bottom/4bf06cedb315c9b659fd92ff","category":"Rock Club","checkinsCount":1628,"usersCount":610,"tipCount":18,"visitsCount":1733,"tier":"","message":"","currency":"","rating":5.8}]