[{"name":"Jacks Waterfront Bar","address":"315 Evan St.","lat":34.71994748400227,"lng":-76.7097711775461,"city_fetched":"Morehead City","state":"NC","country":"United States","canonicalUrl":"https://foursquare.com/v/jacks-waterfront-bar/4b5c80a3f964a520073329e3","category":"Bar","checkinsCount":1769,"usersCount":824,"tipCount":8,"visitsCount":1790,"url":"http://jackswaterfrontbar.com","tier":"","message":"","currency":"","rating":8.5},{"name":"Arendell Room","phone":"2522402753","twitter":"arcocktailian","address":"715 Arendell St","lat":34.721078,"lng":-76.712359,"city_fetched":"Morehead City","state":"NC","country":"United States","canonicalUrl":"https://foursquare.com/v/arendell-room/4c31501aed37a5935e426a03","category":"Cocktail Bar","checkinsCount":885,"usersCount":358,"tipCount":14,"visitsCount":947,"url":"http://www.arendellroom.com","tier":2,"message":"Moderate","currency":"$","rating":8},{"name":"Ioanni's Grill & Bar","phone":"2528083331","address":"4138 Arendell St","lat":34.728062112922565,"lng":-76.77068077992354,"city_fetched":"Morehead City","state":"NC","country":"United States","canonicalUrl":"https://foursquare.com/v/ioannis-grill--bar/4e3f398d1495bf24a5f304cc","category":"Bar","checkinsCount":761,"usersCount":382,"tipCount":11,"visitsCount":1079,"tier":1,"message":"Cheap","currency":"$","rating":7.9},{"name":"Tight Lines Pub & Brewing Co.","phone":"2527730641","address":"709 Arendell St","lat":34.7210881585602,"lng":-76.71208252735828,"city_fetched":"Morehead City","state":"NC","country":"United States","canonicalUrl":"https://foursquare.com/v/tight-lines-pub--brewing-co/5352d07b498ee6e6ce2801de","category":"Brewery","checkinsCount":401,"usersCount":272,"tipCount":13,"visitsCount":555,"url":"http://tightlinesbrewing.com","tier":"","message":"","currency":"","rating":7.5},{"name":"Sammy's","address":"109 S 6th St","lat":34.720367892700025,"lng":-76.7097711775461,"city_fetched":"Morehead City","state":"NC","country":"United States","canonicalUrl":"https://foursquare.com/v/sammys/4e2b7d4d52b1b8f19862ad69","category":"Bar","checkinsCount":779,"usersCount":544,"tipCount":15,"visitsCount":812,"tier":"","message":"","currency":"","rating":6.4}]