[{"name":"Mountain State Brewing Co.","phone":"3042411976","twitter":"mtnstatebrewing","address":"54 Clay St","lat":39.627371288347156,"lng":-79.96150723689136,"neighborhood":"First Ward","city_fetched":"Morgantown","state":"WV","country":"United States","canonicalUrl":"https://foursquare.com/v/mountain-state-brewing-co/4d790a1bc1d56ea886c0d92b","category":"Pub","checkinsCount":2817,"usersCount":1571,"tipCount":37,"visitsCount":3357,"url":"http://mountainstatebrewing.com","tier":2,"message":"Moderate","currency":"$","rating":9.1},{"name":"Apothecary Ale House & Caf√©","phone":"3042912291","address":"227 Chestnut St","lat":39.629630730019116,"lng":-79.95742321014404,"neighborhood":"Downtown Morgantown","city_fetched":"Morgantown","state":"WV","country":"United States","canonicalUrl":"https://foursquare.com/v/apothecary-ale-house--caf%C3%A9/507ce7a590e7ce9cc1879fda","category":"Beer Garden","checkinsCount":863,"usersCount":304,"tipCount":10,"visitsCount":1003,"tier":"","message":"","currency":"","rating":8.9},{"name":"Iron Horse Tavern","phone":"3042966230","twitter":"ironhorsetvrn","address":"140 High St","lat":39.628399506370776,"lng":-79.95706379413605,"neighborhood":"Downtown Morgantown","city_fetched":"Morgantown","state":"WV","country":"United States","canonicalUrl":"https://foursquare.com/v/iron-horse-tavern/538f6ad6498e76017a179beb","category":"Restaurant","checkinsCount":419,"usersCount":283,"tipCount":13,"visitsCount":578,"url":"http://ironhorsetvrn.com","tier":"","message":"","currency":"","rating":8.8},{"name":"Morgantown Brewing Company","phone":"3042926959","twitter":"mgtnbrewco","address":"1291 University Ave","lat":39.63060928199146,"lng":-79.95789606844839,"neighborhood":"Downtown Morgantown","city_fetched":"Morgantown","state":"WV","country":"United States","canonicalUrl":"https://foursquare.com/v/morgantown-brewing-company/4b4b9a71f964a520ada126e3","category":"Brewery","checkinsCount":3483,"usersCount":1660,"tipCount":53,"visitsCount":3957,"url":"http://www.morgantownbrewing.com","tier":2,"message":"Moderate","currency":"$","rating":8.7},{"name":"Texas Roadhouse","phone":"3045980109","twitter":"texasroadhouse","address":"3505 Monongahela Blvd","lat":39.65551866,"lng":-79.98756423,"city_fetched":"Morgantown","state":"WV","country":"United States","canonicalUrl":"https://foursquare.com/v/texas-roadhouse/4b6a2430f964a520eac92be3","category":"Steakhouse","checkinsCount":2428,"usersCount":1416,"tipCount":15,"visitsCount":3109,"url":"http://www.texasroadhouse.com","tier":2,"message":"Moderate","currency":"$","rating":8.7},{"name":"The Vintage Room","phone":"3042259595","address":"467 Chestnut St","lat":39.631873,"lng":-79.9552867,"neighborhood":"Downtown Morgantown","city_fetched":"Morgantown","state":"WV","country":"United States","canonicalUrl":"https://foursquare.com/v/the-vintage-room/4b5a2b61f964a520b9b128e3","category":"Lounge","checkinsCount":1790,"usersCount":605,"tipCount":15,"visitsCount":1809,"url":"http://bwvintageroom.com","tier":2,"message":"Moderate","currency":"$","rating":8.5},{"name":"The Wine Bar at Vintner Valley","phone":"3042411687","twitter":"vintnervalley","address":"510 Burroughs St","lat":39.6571691622702,"lng":-79.97066287327753,"neighborhood":"Suncrest","city_fetched":"Morgantown","state":"WV","country":"United States","canonicalUrl":"https://foursquare.com/vintnervalley","category":"Wine Bar","checkinsCount":379,"usersCount":204,"tipCount":5,"visitsCount":473,"url":"http://www.vintnervalley.com","tier":2,"message":"Moderate","currency":"$","rating":8.1},{"name":"Mario's Fishbowl","phone":"3045994309","address":"3117 University Ave","lat":39.65424579725182,"lng":-79.97065194826972,"neighborhood":"Suncrest","city_fetched":"Morgantown","state":"WV","country":"United States","canonicalUrl":"https://foursquare.com/v/marios-fishbowl/500c612ce4b03215e6d89b45","category":"Bar","checkinsCount":837,"usersCount":357,"tipCount":3,"visitsCount":1007,"url":"http://mariosfishbowl.com","tier":"","message":"","currency":"","rating":8},{"name":"Mario's Fishbowl","phone":"3042922511","address":"704 Richwood Ave","lat":39.62985383531522,"lng":-79.94429111480713,"neighborhood":"Sabraton","city_fetched":"Morgantown","state":"WV","country":"United States","canonicalUrl":"https://foursquare.com/v/marios-fishbowl/4b873184f964a520bab531e3","category":"Bar","checkinsCount":1740,"usersCount":730,"tipCount":21,"visitsCount":2085,"url":"http://mariosfishbowl.biz","tier":3,"message":"Expensive","currency":"$","rating":8},{"name":"Boston Beanery","phone":"3045991870","address":"383 Patteson Dr","lat":39.65173118514721,"lng":-79.96763706207275,"neighborhood":"Suncrest","city_fetched":"Morgantown","state":"WV","country":"United States","canonicalUrl":"https://foursquare.com/v/boston-beanery/4b75e90ff964a520042e2ee3","category":"Bar","checkinsCount":2835,"usersCount":1330,"tipCount":31,"visitsCount":3086,"url":"http://bostonbeanery.com","tier":2,"message":"Moderate","currency":"$","rating":8},{"name":"Varsity Club Sports Tavern","phone":"3045995990","address":"910 Willowdale Rd","lat":39.64987686064195,"lng":-79.95238342199765,"neighborhood":"Suncrest","city_fetched":"Morgantown","state":"WV","country":"United States","canonicalUrl":"https://foursquare.com/v/varsity-club-sports-tavern/4bc4c66d4cdfc9b606259921","category":"Bar","checkinsCount":1769,"usersCount":680,"tipCount":21,"visitsCount":2119,"url":"http://www.thevarsityclubwv.com","tier":2,"message":"Moderate","currency":"$","rating":7.9},{"name":"Gene's Beer Garden","address":"461 Wilson Ave","lat":39.62365785511986,"lng":-79.95009958746745,"city_fetched":"Morgantown","state":"WV","country":"United States","canonicalUrl":"https://foursquare.com/v/genes-beer-garden/4b5f91fff964a52036c229e3","category":"Beer Garden","checkinsCount":581,"usersCount":278,"tipCount":6,"visitsCount":837,"tier":"","message":"","currency":"","rating":7.9},{"name":"Fat Daddy's Bar and Grill","phone":"3046850161","address":"444 Chestnut St Ste B","lat":39.631703,"lng":-79.95522614999999,"neighborhood":"Downtown Morgantown","city_fetched":"Morgantown","state":"WV","country":"United States","canonicalUrl":"https://foursquare.com/v/fat-daddys-bar-and-grill/4e7e839cd22d94f974abbef7","category":"Sports Bar","checkinsCount":1484,"usersCount":527,"tipCount":13,"visitsCount":1506,"tier":"","message":"","currency":"","rating":7.8},{"name":"Crockett's Lodge","phone":"3045982337","twitter":"crockettslodge","address":"3395 University Ave","lat":39.65734765116237,"lng":-79.98303456591981,"city_fetched":"Morgantown","state":"WV","country":"United States","canonicalUrl":"https://foursquare.com/v/crocketts-lodge/4b43b192f964a520a0e625e3","category":"Bar","checkinsCount":1020,"usersCount":428,"tipCount":16,"visitsCount":1139,"url":"http://crockettslodgewv.com","tier":"","message":"","currency":"","rating":7.8},{"name":"Tin 202","address":"202 High St","lat":39.628675,"lng":-79.956607,"neighborhood":"Downtown Morgantown","city_fetched":"Morgantown","state":"WV","country":"United States","canonicalUrl":"https://foursquare.com/v/tin-202/545cfe21498e6420c65922b8","category":"Cocktail Bar","checkinsCount":268,"usersCount":137,"tipCount":2,"visitsCount":336,"tier":"","message":"","currency":"","rating":7.7},{"name":"Kegler's Sports Bar & Lounge","phone":"3045989698","twitter":"keglerslounge","address":"735 Chestnut Ridge Rd","lat":39.6581741000498,"lng":-79.96038436889648,"neighborhood":"Suncrest","city_fetched":"Morgantown","state":"WV","country":"United States","canonicalUrl":"https://foursquare.com/v/keglers-sports-bar--lounge/4b70b43ff964a520a42a2de3","category":"Sports Bar","checkinsCount":3826,"usersCount":1320,"tipCount":29,"visitsCount":4095,"url":"http://keglerssportsbar.com","tier":1,"message":"Cheap","currency":"$","rating":7.5},{"name":"Archie's","address":"1632 Deckers Creek Blvd","lat":39.624590277671814,"lng":-79.925222,"neighborhood":"Sabraton","city_fetched":"Morgantown","state":"WV","country":"United States","canonicalUrl":"https://foursquare.com/v/archies/4c509b8e5ee81b8d5ea9dcfe","category":"Bar","checkinsCount":777,"usersCount":332,"tipCount":8,"visitsCount":815,"tier":2,"message":"Moderate","currency":"$","rating":7.5},{"name":"McClafferty's Irish Pub","phone":"3042921110","address":"1301 University Ave","lat":39.630735,"lng":-79.957698,"neighborhood":"Downtown Morgantown","city_fetched":"Morgantown","state":"WV","country":"United States","canonicalUrl":"https://foursquare.com/v/mcclaffertys-irish-pub/4b4b9462f964a520e6a026e3","category":"Pub","checkinsCount":898,"usersCount":298,"tipCount":2,"visitsCount":899,"tier":"","message":"","currency":"","rating":7.4},{"name":"Schmitt's Saloon","address":"245 Cheat Rd","lat":39.64836394178003,"lng":-79.90222915971529,"neighborhood":"Mileground","city_fetched":"Morgantown","state":"WV","country":"United States","canonicalUrl":"https://foursquare.com/v/schmitts-saloon/51316ccce4b031600a9a4758","category":"Bar","checkinsCount":535,"usersCount":299,"tipCount":6,"visitsCount":630,"tier":"","message":"","currency":"","rating":7.3},{"name":"Tanner's Tavern","address":"2045 Listravia Ave","lat":39.61654822637519,"lng":-79.92094540805635,"neighborhood":"Sabraton","city_fetched":"Morgantown","state":"WV","country":"United States","canonicalUrl":"https://foursquare.com/v/tanners-tavern/4d114324c5556dcba5e3c790","category":"Bar","checkinsCount":960,"usersCount":132,"tipCount":6,"visitsCount":1002,"tier":"","message":"","currency":"","rating":7.2},{"name":"Back Door","phone":"3042925936","address":"485 High St","lat":39.63185,"lng":-79.954349,"neighborhood":"Downtown Morgantown","city_fetched":"Morgantown","state":"WV","country":"United States","canonicalUrl":"https://foursquare.com/v/back-door/4c24424d905a0f470f935f60","category":"Bar","checkinsCount":1834,"usersCount":430,"tipCount":11,"visitsCount":1893,"tier":"","message":"","currency":"","rating":7.1},{"name":"Gibbie's Pub & Eatery","phone":"3042964427","twitter":"gibbiespub","address":"368 High St","lat":39.63058056600268,"lng":-79.95521354559627,"neighborhood":"Downtown Morgantown","city_fetched":"Morgantown","state":"WV","country":"United States","canonicalUrl":"https://foursquare.com/v/gibbies-pub--eatery/4b5e6462f964a520d08c29e3","category":"Bar","checkinsCount":4314,"usersCount":1065,"tipCount":24,"visitsCount":4334,"url":"http://www.gibbies.com","tier":2,"message":"Moderate","currency":"$","rating":7.1},{"name":"Rocktop Bar & Grill","phone":"3044130226","address":"341 Chestnut St","lat":39.63095590143667,"lng":-79.95659032932781,"neighborhood":"Downtown Morgantown","city_fetched":"Morgantown","state":"WV","country":"United States","canonicalUrl":"https://foursquare.com/v/rocktop-bar--grill/4fa2fb6ee4b073637a1f391b","category":"Bar","checkinsCount":796,"usersCount":378,"tipCount":3,"visitsCount":807,"url":"http://www.rocktopnights.com","tier":"","message":"","currency":"","rating":7},{"name":"123 Pleasant Street","phone":"3042920800","address":"123 Pleasant St","lat":39.62954742699493,"lng":-79.9579343115593,"neighborhood":"Downtown Morgantown","city_fetched":"Morgantown","state":"WV","country":"United States","canonicalUrl":"https://foursquare.com/v/123-pleasant-street/4b513eccf964a5208e4827e3","category":"Rock Club","checkinsCount":1009,"usersCount":450,"tipCount":13,"visitsCount":1021,"tier":"","message":"","currency":"","rating":7}]