[{"name":"HOPS","phone":"9735409601","twitter":"hopscraftbar","address":"14 1/2 Washington St","lat":40.796792688552834,"lng":-74.48275409899475,"neighborhood":"Morristown, NJ","city_fetched":"Morristown","state":"NJ","country":"United States","canonicalUrl":"https://foursquare.com/v/hops/4d3b8b99a2e4b1f7a7f0e025","category":"Bar","checkinsCount":1071,"usersCount":646,"tipCount":10,"visitsCount":1332,"url":"http://hopscraftbar.com","tier":"","message":"","currency":"","rating":8.8},{"name":"Sushi Lounge","phone":"9735391135","twitter":"sushilounge","address":"12 Schuyler Pl","lat":40.797095660000004,"lng":-74.48290848,"city_fetched":"Morristown","state":"NJ","country":"United States","canonicalUrl":"https://foursquare.com/v/sushi-lounge/4b32ab3af964a520661125e3","category":"Sushi Restaurant","checkinsCount":2525,"usersCount":1353,"tipCount":34,"visitsCount":2606,"url":"http://sushilounge.com/home/","tier":"","message":"","currency":"","rating":8.5},{"name":"End of Elm","phone":"9739984534","twitter":"end_of_elm","address":"140 Morris St","lat":40.79648450302393,"lng":-74.47322986842937,"city_fetched":"Morristown","state":"NJ","country":"United States","canonicalUrl":"https://foursquare.com/end_of_elm","category":"Gastropub","checkinsCount":1455,"usersCount":1091,"tipCount":16,"visitsCount":2187,"url":"http://endofelm.com","tier":2,"message":"Moderate","currency":"$","rating":7.8},{"name":"George and Martha's American Grill","phone":"9732674700","twitter":"george_marthas","address":"67 Morris St","lat":40.7973329419024,"lng":-74.4776886920389,"city_fetched":"Morristown","state":"NJ","country":"United States","canonicalUrl":"https://foursquare.com/george_marthas","category":"American Restaurant","checkinsCount":4423,"usersCount":2178,"tipCount":27,"visitsCount":4508,"url":"http://www.georgeandmarthas.com","tier":2,"message":"Moderate","currency":"$","rating":7.8},{"name":"The Office Tavern Grill","phone":"9732850220","address":"3 South St","lat":40.796120964383725,"lng":-74.48093972707011,"city_fetched":"Morristown","state":"NJ","country":"United States","canonicalUrl":"https://foursquare.com/v/the-office-tavern-grill/4ade3b40f964a5201e7421e3","category":"American Restaurant","checkinsCount":5704,"usersCount":2751,"tipCount":56,"visitsCount":5826,"tier":2,"message":"Moderate","currency":"$","rating":7.7},{"name":"The Westin Governor Morris, Morristown","phone":"9735397300","twitter":"spg","address":"2 Whippany Rd","lat":40.79775481828252,"lng":-74.45872503208473,"city_fetched":"Morristown","state":"NJ","country":"United States","canonicalUrl":"https://foursquare.com/v/the-westin-governor-morris-morristown/4b56a4a8f964a520761728e3","category":"Hotel","checkinsCount":6572,"usersCount":3154,"tipCount":30,"visitsCount":7964,"url":"http://www.spg.com/foursquare/","tier":"","message":"","currency":"","rating":7.5},{"name":"Grasshopper Off The Green","phone":"9732855150","twitter":"ghoppermotown","address":"43 Morris Ave","lat":40.79726459006248,"lng":-74.47830685121626,"city_fetched":"Morristown","state":"NJ","country":"United States","canonicalUrl":"https://foursquare.com/v/grasshopper-off-the-green/4a8f1e80f964a520081420e3","category":"Sports Bar","checkinsCount":12913,"usersCount":5104,"tipCount":44,"visitsCount":13888,"url":"http://grasshoppermorristown.com","tier":2,"message":"Moderate","currency":"$","rating":7.4},{"name":"Laundromat","address":"4 Dehart St","lat":40.79539760757746,"lng":-74.48051618013821,"city_fetched":"Morristown","state":"NJ","country":"United States","canonicalUrl":"https://foursquare.com/v/laundromat/56f5dfd9498e0f359934092b","category":"Speakeasy","checkinsCount":153,"usersCount":137,"tipCount":3,"visitsCount":196,"tier":"","message":"","currency":"","rating":7.4},{"name":"The Famished Frog","phone":"9735409601","address":"18 Washington St","lat":40.79721184613557,"lng":-74.482536604295,"city_fetched":"Morristown","state":"NJ","country":"United States","canonicalUrl":"https://foursquare.com/v/the-famished-frog/4ae282e7f964a520c28e21e3","category":"Bar","checkinsCount":11759,"usersCount":4511,"tipCount":58,"visitsCount":12734,"url":"http://www.famishedfrog.com","tier":2,"message":"Moderate","currency":"$","rating":7.4},{"name":"SM23","phone":"9738712323","address":"3 Speedwell Avenue","lat":40.7997226,"lng":-74.48094309999999,"city_fetched":"Morristown","state":"NJ","country":"United States","canonicalUrl":"https://foursquare.com/v/sm23/4a99f0fdf964a520223120e3","category":"Bar","checkinsCount":759,"usersCount":422,"tipCount":14,"visitsCount":768,"url":"http://sm23morristown.com","tier":"","message":"","currency":"","rating":7.4},{"name":"Tashmoo Restaurant & Bar","phone":"9739986133","twitter":"tashmoobar","address":"8 Dehart St","lat":40.79527,"lng":-74.480843,"city_fetched":"Morristown","state":"NJ","country":"United States","canonicalUrl":"https://foursquare.com/v/tashmoo-restaurant--bar/4b4e4e1ef964a520c0e826e3","category":"Bar","checkinsCount":3134,"usersCount":1320,"tipCount":23,"visitsCount":3382,"url":"http://tashmoobar.com","tier":2,"message":"Moderate","currency":"$","rating":7.1},{"name":"Pazzo Pazzo","phone":"9738986606","address":"74 Speedwell Ave","lat":40.80019784470037,"lng":-74.48169524068429,"city_fetched":"Morristown","state":"NJ","country":"United States","canonicalUrl":"https://foursquare.com/v/pazzo-pazzo/4b50bd51f964a520333027e3","category":"Italian Restaurant","checkinsCount":2312,"usersCount":1405,"tipCount":16,"visitsCount":2340,"url":"http://www.pazzopazzo.com","tier":4,"message":"Very Expensive","currency":"$","rating":7},{"name":"Pete's Restaurant & Pub","phone":"9735395878","address":"119 Morris St","lat":40.79689264297485,"lng":-74.47568078333333,"city_fetched":"Morristown","state":"NJ","country":"United States","canonicalUrl":"https://foursquare.com/v/petes-restaurant--pub/4b7619aaf964a520af3c2ee3","category":"Bar","checkinsCount":1115,"usersCount":491,"tipCount":10,"visitsCount":1140,"url":"http://www.morristownpetes.com","tier":2,"message":"Moderate","currency":"$","rating":6.9},{"name":"Dublin Pub","phone":"9735381999","address":"4 Pine St","lat":40.794722,"lng":-74.478332,"city_fetched":"Morristown","state":"NJ","country":"United States","canonicalUrl":"https://foursquare.com/v/dublin-pub/4b32e036f964a520711525e3","category":"Pub","checkinsCount":2333,"usersCount":1511,"tipCount":24,"visitsCount":2421,"url":"http://www.dublinpubmorristown.com","tier":"","message":"","currency":"","rating":6.8},{"name":"Iron Bar","phone":"9734557111","address":"5 South St","lat":40.79602754881784,"lng":-74.480905385465,"city_fetched":"Morristown","state":"NJ","country":"United States","canonicalUrl":"https://foursquare.com/v/iron-bar/4e57b9b8b9935d203cfc9792","category":"Bar","checkinsCount":4588,"usersCount":2391,"tipCount":32,"visitsCount":4780,"url":"http://www.ironbarmorristown.com","tier":2,"message":"Moderate","currency":"$","rating":6.7},{"name":"Tavern Off The Green","phone":"9734559350","address":"127 Morris St","lat":40.796794,"lng":-74.475269,"city_fetched":"Morristown","state":"NJ","country":"United States","canonicalUrl":"https://foursquare.com/v/tavern-off-the-green/4b3821fcf964a520024c25e3","category":"Bar","checkinsCount":1461,"usersCount":595,"tipCount":12,"visitsCount":1526,"url":"http://tavernoffthegreen.com","tier":"","message":"","currency":"","rating":6.5},{"name":"Horseshoe Tavern","phone":"9739988447","twitter":"njhorseshoe","address":"36 Speedwell Avenue","lat":40.799319357526784,"lng":-74.48127741916277,"city_fetched":"Morristown","state":"NJ","country":"United States","canonicalUrl":"https://foursquare.com/v/horseshoe-tavern/56cb754e498e6017d35e00d4","category":"American Restaurant","checkinsCount":116,"usersCount":133,"tipCount":3,"visitsCount":186,"url":"http://www.njhorseshoe.com","tier":"","message":"","currency":"","rating":6.3},{"name":"Sona Thirteen","phone":"9732671575","address":"13 South St #2","lat":40.79589818452379,"lng":-74.4807118177414,"city_fetched":"Morristown","state":"NJ","country":"United States","canonicalUrl":"https://foursquare.com/v/sona-thirteen/4b53cc2cf964a520a6ab27e3","category":"Bar","checkinsCount":9874,"usersCount":3714,"tipCount":61,"visitsCount":10031,"url":"http://www.sonathirteennj.com","tier":1,"message":"Cheap","currency":"$","rating":6.2},{"name":"veronica's","address":"34 Speedwell Ave","lat":40.799314306904556,"lng":-74.48131748428324,"city_fetched":"Morristown","state":"NJ","country":"United States","canonicalUrl":"https://foursquare.com/v/veronicas/53474add498e882ad35eba62","category":"Bar","checkinsCount":132,"usersCount":99,"tipCount":2,"visitsCount":134,"tier":"","message":"","currency":"","rating":5.5}]