[{"name":"St. Brigid's Brewery Taproom","phone":"5097508357","address":"606 W Broadway Ave","lat":47.12778392607892,"lng":-119.2862069420308,"city_fetched":"Moses Lake","state":"WA","country":"United States","canonicalUrl":"https://foursquare.com/v/st-brigids-brewery-taproom/52161f2a11d24fbf709c9829","category":"Brewery","checkinsCount":52,"usersCount":43,"tipCount":4,"visitsCount":71,"url":"http://www.stbrigidsbrewery.com","tier":"","message":"","currency":"","rating":7.5},{"name":"El Rodeo Restaurant","phone":"5097650606","address":"1075 W Broadway Ave","lat":47.12241193933646,"lng":-119.29161608219147,"city_fetched":"Moses Lake","state":"WA","country":"United States","canonicalUrl":"https://foursquare.com/v/el-rodeo-restaurant/4c27b6ace19720a1e7dbf658","category":"Mexican Restaurant","checkinsCount":525,"usersCount":211,"tipCount":6,"visitsCount":605,"tier":1,"message":"Cheap","currency":"$","rating":7.4},{"name":"Sporty's Steakhouse","phone":"5097659975","address":"507 E Broadway Ave","lat":47.13351189999999,"lng":-119.2734706,"city_fetched":"Moses Lake","state":"WA","country":"United States","canonicalUrl":"https://foursquare.com/v/sportys-steakhouse/4ba6c44af964a5206a6e39e3","category":"Restaurant","checkinsCount":215,"usersCount":91,"tipCount":4,"visitsCount":218,"url":"http://www.sportyssteakhouse.com","tier":2,"message":"Moderate","currency":"$","rating":7.3},{"name":"Broadway Bar & Grill","phone":"5097645535","address":"302 W Broadway Ave","lat":47.1297651,"lng":-119.282084,"city_fetched":"Moses Lake","state":"WA","country":"United States","canonicalUrl":"https://foursquare.com/v/broadway-bar--grill/4c832d2b51ada1cd680f2410","category":"Bar","checkinsCount":190,"usersCount":60,"tipCount":5,"visitsCount":193,"tier":"","message":"","currency":"","rating":6.5}]