[{"name":"Mountain Town Station","phone":"9897752337","address":"506 W Broadway St","lat":43.60482511584293,"lng":-84.78196620941162,"city_fetched":"Mount Pleasant,US","state":"MI","country":"United States","canonicalUrl":"https://foursquare.com/v/mountain-town-station/4acd347cf964a5205fcb20e3","categoryId":"50327c8591d4c4b30a586d5d","category":"Brewery","checkinsCount":3566,"usersCount":1925,"tipCount":29,"visitsCount":4032,"url":"http://www.mountaintown.com","tier":2,"message":"Moderate","currency":"$","rating":8.9},{"name":"The Cabin","phone":"9897799167","address":"930 W Broomfield St","lat":43.58278460032184,"lng":-84.78694438934326,"city_fetched":"Mount Pleasant,US","state":"MI","country":"United States","canonicalUrl":"https://foursquare.com/v/the-cabin/4b786e7ff964a520cecd2ee3","categoryId":"4bf58dd8d48988d116941735","category":"Bar","checkinsCount":5787,"usersCount":1914,"tipCount":33,"visitsCount":6169,"tier":"","message":"","currency":"","rating":8.3},{"name":"Mountain Town Brewing Company","phone":"9894004666","address":"614 W Pickard St","lat":43.612094422942626,"lng":-84.78384643793106,"city_fetched":"Mount Pleasant,US","state":"MI","country":"United States","canonicalUrl":"https://foursquare.com/v/mountain-town-brewing-company/4c2495f1db51952159ff2b3a","categoryId":"50327c8591d4c4b30a586d5d","category":"Brewery","checkinsCount":1386,"usersCount":580,"tipCount":16,"visitsCount":1582,"url":"http://www.mtpleasantbrew.com","tier":2,"message":"Moderate","currency":"$","rating":8.3},{"name":"Hunter's Ale House","phone":"9897792626","twitter":"huntersmtp","address":"4855 E Blue Grass Rd","lat":43.57613161996115,"lng":-84.7499942779541,"city_fetched":"Mount Pleasant,US","state":"MI","country":"United States","canonicalUrl":"https://foursquare.com/v/hunters-ale-house/4b89e1e2f964a520b55332e3","categoryId":"4bf58dd8d48988d116941735","category":"Bar","checkinsCount":2952,"usersCount":1141,"tipCount":22,"visitsCount":3261,"tier":2,"message":"Moderate","currency":"$","rating":7.8},{"name":"Blue Gator Sports Pub & Grill","phone":"9897725486","twitter":"bluegatormp","address":"106 N Court St","lat":43.604739,"lng":-84.77465,"city_fetched":"Mount Pleasant,US","state":"MI","country":"United States","canonicalUrl":"https://foursquare.com/v/blue-gator-sports-pub--grill/4bbe726e4e7bd13a92079b7f","categoryId":"4bf58dd8d48988d116941735","category":"Bar","checkinsCount":2196,"usersCount":828,"tipCount":10,"visitsCount":2398,"url":"http://www.bluegatormp.com","tier":"","message":"","currency":"","rating":7.6},{"name":"Six Lounge","phone":"9893173311","address":"1901 S Mission St","lat":43.58393979318055,"lng":-84.7669522434688,"city_fetched":"Mount Pleasant,US","state":"MI","country":"United States","canonicalUrl":"https://foursquare.com/v/six-lounge/4bd64aff6798ef3b4a04658d","categoryId":"4bf58dd8d48988d119941735","category":"Hookah Bar","checkinsCount":773,"usersCount":244,"tipCount":7,"visitsCount":805,"tier":"","message":"","currency":"","rating":7.2},{"name":"Marty's Bar","phone":"9897729142","address":"123 S Main St","lat":43.60374911383762,"lng":-84.77647304534912,"city_fetched":"Mount Pleasant,US","state":"MI","country":"United States","canonicalUrl":"https://foursquare.com/v/martys-bar/4c8c217ff87e224bd73f3205","categoryId":"4bf58dd8d48988d116941735","category":"Bar","checkinsCount":1274,"usersCount":562,"tipCount":9,"visitsCount":1310,"tier":"","message":"","currency":"","rating":6.8},{"name":"O'Kelly's Sports Bar and Grill","phone":"9897753751","address":"2000 S Mission St","lat":43.58177222543494,"lng":-84.76820642152052,"city_fetched":"Mount Pleasant,US","state":"MI","country":"United States","canonicalUrl":"https://foursquare.com/v/okellys-sports-bar-and-grill/4b89e0acf964a5205e5332e3","categoryId":"4bf58dd8d48988d11d941735","category":"Sports Bar","checkinsCount":7934,"usersCount":2047,"tipCount":20,"visitsCount":8321,"url":"http://okellys.com","tier":"","message":"","currency":"","rating":6.6},{"name":"Green Spot Pub","phone":"9897739536","address":"808 N Mission St","lat":43.61113118471112,"lng":-84.76738050248615,"city_fetched":"Mount Pleasant,US","state":"MI","country":"United States","canonicalUrl":"https://foursquare.com/v/green-spot-pub/4bd3bf07caff952186b9d5f0","categoryId":"4bf58dd8d48988d116941735","category":"Bar","checkinsCount":814,"usersCount":550,"tipCount":9,"visitsCount":1006,"tier":2,"message":"Moderate","currency":"$","rating":6.5},{"name":"Blackstone Bar","phone":"9897723319","address":"212 W Michigan St","lat":43.60371803768151,"lng":-84.77851152420044,"city_fetched":"Mount Pleasant,US","state":"MI","country":"United States","canonicalUrl":"https://foursquare.com/v/blackstone-bar/4c2d12f311cb9c7428ba72b3","categoryId":"4bf58dd8d48988d116941735","category":"Bar","checkinsCount":2393,"usersCount":907,"tipCount":11,"visitsCount":2492,"tier":"","message":"","currency":"","rating":6.4},{"name":"Rubbles Bar","phone":"9897721132","twitter":"rubblesbar","address":"112 W Michigan St","lat":43.60362572766367,"lng":-84.77725506037253,"city_fetched":"Mount Pleasant,US","state":"MI","country":"United States","canonicalUrl":"https://foursquare.com/v/rubbles-bar/4ba57df6f964a520670c39e3","categoryId":"4bf58dd8d48988d116941735","category":"Bar","checkinsCount":1106,"usersCount":387,"tipCount":8,"visitsCount":1124,"tier":"","message":"","currency":"","rating":6.4},{"name":"L-1 Bar & Grille Night Club","address":"1705 S. Mission","lat":43.58565969194977,"lng":-84.76622317608692,"city_fetched":"Mount Pleasant,US","state":"MI","country":"United States","canonicalUrl":"https://foursquare.com/v/l1-bar--grille-night-club/4e8dbe0acc217a2e5c252c6e","categoryId":"4bf58dd8d48988d11f941735","category":"Nightclub","checkinsCount":1171,"usersCount":308,"tipCount":11,"visitsCount":1171,"tier":"","message":"","currency":"","rating":6.4},{"name":"Wayside Central","phone":"9897722391","twitter":"wayside_central","address":"2000 S Mission St","lat":43.5819536447525,"lng":-84.768107,"city_fetched":"Mount Pleasant,US","state":"MI","country":"United States","canonicalUrl":"https://foursquare.com/v/wayside-central/4b89e112f964a520815332e3","categoryId":"4bf58dd8d48988d11f941735","category":"Nightclub","checkinsCount":2696,"usersCount":1027,"tipCount":11,"visitsCount":2739,"tier":"","message":"","currency":"","rating":6.1}]