[{"name":"Milkhouse Brewery","address":"8253 Dollyhyde Rd","lat":39.459195,"lng":-77.224745,"city_fetched":"Mount Airy,US","state":"MD","country":"United States","canonicalUrl":"https://foursquare.com/v/milkhouse-brewery/51cf07b1498e11f85d185b76","categoryId":"50327c8591d4c4b30a586d5d","category":"Brewery","checkinsCount":309,"usersCount":299,"tipCount":8,"visitsCount":426,"url":"http://milkhousebrewery.com","tier":"","message":"","currency":"","rating":8.6},{"name":"Memories Charcoal House","phone":"3018292264","address":"403 E Ridgeville Blvd","lat":39.365628361701965,"lng":-77.16150616,"city_fetched":"Mount Airy,US","state":"MD","country":"United States","canonicalUrl":"https://foursquare.com/v/memories-charcoal-house/4afd9caaf964a520102922e3","categoryId":"4bf58dd8d48988d116941735","category":"Bar","checkinsCount":966,"usersCount":429,"tipCount":14,"visitsCount":1014,"url":"http://memoriescharcoalhouse.com","tier":"","message":"","currency":"","rating":7.6},{"name":"Red Shedman Brewery","phone":"3018315889","twitter":"redshedman","address":"13601 Glissans Mill Rd","lat":39.42290324486409,"lng":-77.19257906927392,"city_fetched":"Mount Airy,US","state":"MD","country":"United States","canonicalUrl":"https://foursquare.com/v/red-shedman-brewery/5467b007498e6c2b03999de4","categoryId":"50327c8591d4c4b30a586d5d","category":"Brewery","checkinsCount":163,"usersCount":142,"tipCount":3,"visitsCount":188,"url":"http://www.redshedman.com","tier":"","message":"","currency":"","rating":7.6},{"name":"Lu & Joe's Restaurant & Lounge","phone":"3018315577","address":"1024 Ridge Rd","lat":39.34490812101709,"lng":-77.18119472265244,"city_fetched":"Mount Airy,US","state":"MD","country":"United States","canonicalUrl":"https://foursquare.com/v/lu--joes-restaurant--lounge/4aeddcd2f964a520aecf21e3","categoryId":"4bf58dd8d48988d11d941735","category":"Sports Bar","checkinsCount":913,"usersCount":405,"tipCount":17,"visitsCount":1145,"url":"http://www.luandjoes.com","tier":2,"message":"Moderate","currency":"$","rating":7.5},{"name":"Woodbine Inn","phone":"4104895750","address":"401 Woodbine Rd","lat":39.35957769392194,"lng":-77.06290266868558,"city_fetched":"Mount Airy,US","state":"MD","country":"United States","canonicalUrl":"https://foursquare.com/v/woodbine-inn/4c53638106901b8da517ff49","categoryId":"4bf58dd8d48988d116941735","category":"Bar","checkinsCount":226,"usersCount":209,"tipCount":6,"visitsCount":340,"url":"http://www.campwoodlodging.com","tier":"","message":"","currency":"","rating":7.3},{"name":"The Greene Turtle","phone":"3018299229","address":"1604 Ridgeside Dr","lat":39.36407381206143,"lng":-77.16345727443695,"city_fetched":"Mount Airy,US","state":"MD","country":"United States","canonicalUrl":"https://foursquare.com/v/the-greene-turtle/4b4e5e2ff964a52023eb26e3","categoryId":"4bf58dd8d48988d11d941735","category":"Sports Bar","checkinsCount":1608,"usersCount":892,"tipCount":11,"visitsCount":1898,"url":"http://www.thegreeneturtle.com","tier":2,"message":"Moderate","currency":"$","rating":6.8}]