[{"name":"Savage's Ale House","phone":"7652829962","twitter":"savagesalehouse","address":"127 N High St","lat":40.194511503560385,"lng":-85.38784510691679,"city_fetched":"Muncie","state":"IN","country":"United States","canonicalUrl":"https://foursquare.com/v/savages-ale-house/4b43eba9f964a5200dee25e3","category":"Bar","checkinsCount":5290,"usersCount":1125,"tipCount":69,"visitsCount":5943,"url":"http://savagesalehouse.com","tier":1,"message":"Cheap","currency":"$","rating":8.9},{"name":"The Fickle Peach","phone":"7652825211","twitter":"theficklepeach","address":"117 E Charles St","lat":40.19107498571429,"lng":-85.38599,"city_fetched":"Muncie","state":"IN","country":"United States","canonicalUrl":"https://foursquare.com/v/the-fickle-peach/4b6b57aff964a52028022ce3","category":"Bar","checkinsCount":2509,"usersCount":778,"tipCount":14,"visitsCount":2760,"url":"http://www.ficklepeach.com","tier":1,"message":"Cheap","currency":"$","rating":8.9},{"name":"Johnny Carino's","phone":"7652843196","address":"1101 W McGalliard Rd","lat":40.218556567261075,"lng":-85.39849743650439,"city_fetched":"Muncie","state":"IN","country":"United States","canonicalUrl":"https://foursquare.com/v/johnny-carinos/4b32b633f964a5206c1225e3","category":"Italian Restaurant","checkinsCount":1827,"usersCount":1116,"tipCount":27,"visitsCount":2282,"url":"http://www.carinos.com","tier":2,"message":"Moderate","currency":"$","rating":8.8},{"name":"Scotty's Brewhouse","phone":"7657475151","twitter":"brewhouse","address":"1700 W University Ave","lat":40.19776521857841,"lng":-85.40581315755844,"city_fetched":"Muncie","state":"IN","country":"United States","canonicalUrl":"https://foursquare.com/v/scottys-brewhouse/4b17f8b9f964a5208fca23e3","category":"Sports Bar","checkinsCount":12222,"usersCount":3181,"tipCount":52,"visitsCount":13459,"url":"http://www.scottysbrewhouse.com","tier":2,"message":"Moderate","currency":"$","rating":8.7},{"name":"Heorot","phone":"7652870173","address":"219 S Walnut St","lat":40.192278284811294,"lng":-85.3867762297414,"city_fetched":"Muncie","state":"IN","country":"United States","canonicalUrl":"https://foursquare.com/v/heorot/4b0d5d30f964a520f84623e3","category":"Rock Club","checkinsCount":2622,"usersCount":957,"tipCount":26,"visitsCount":2719,"tier":"","message":"","currency":"","rating":8.5},{"name":"The Mark III Tap Room","phone":"7652821840","address":"306 S Walnut St","lat":40.193638112233046,"lng":-85.38662497183954,"city_fetched":"Muncie","state":"IN","country":"United States","canonicalUrl":"https://foursquare.com/v/the-mark-iii-tap-room/4bc31bfef8219c74d897b510","category":"Bar","checkinsCount":1061,"usersCount":184,"tipCount":15,"visitsCount":1144,"url":"http://www.markiiitaproom.com","tier":"","message":"","currency":"","rating":8.4},{"name":"Cheers!","address":"Broadway Ave","lat":40.22519436379806,"lng":-85.36932837711977,"city_fetched":"Muncie","state":"IN","country":"United States","canonicalUrl":"https://foursquare.com/v/cheers/4dbaf555cda109aa6c75123c","category":"Bar","checkinsCount":248,"usersCount":118,"tipCount":5,"visitsCount":258,"tier":"","message":"","currency":"","rating":7.7},{"name":"Muncie Liquors","lat":40.200628,"lng":-85.392421,"city_fetched":"Muncie","state":"IN","country":"United States","canonicalUrl":"https://foursquare.com/v/muncie-liquors/4cbf77fd985aa35d06364712","category":"Beer Garden","checkinsCount":371,"usersCount":151,"tipCount":1,"visitsCount":383,"tier":"","message":"","currency":"","rating":7.6},{"name":"The Chug","phone":"7652844100","address":"409 N Martin St","lat":40.19702168939635,"lng":-85.40575575423482,"city_fetched":"Muncie","state":"IN","country":"United States","canonicalUrl":"https://foursquare.com/v/the-chug/4c523322b6dabe9a3bfcf512","category":"Bar","checkinsCount":1405,"usersCount":538,"tipCount":7,"visitsCount":1504,"url":"http://thechugmuncie.com","tier":"","message":"","currency":"","rating":7.3},{"name":"Red Dog","phone":"7652860255","address":"1600 W 23rd St","lat":40.16791959,"lng":-85.403943,"city_fetched":"Muncie","state":"IN","country":"United States","canonicalUrl":"https://foursquare.com/v/red-dog/4daa109b6a2303012f058bef","category":"Bar","checkinsCount":203,"usersCount":79,"tipCount":4,"visitsCount":243,"tier":"","message":"","currency":"","rating":6.8},{"name":"Mulligan's","address":"3325 S Walnut St","lat":40.16245238333333,"lng":-85.387414,"city_fetched":"Muncie","state":"IN","country":"United States","canonicalUrl":"https://foursquare.com/v/mulligans/4c2e71363896e21ebb49e290","category":"Lounge","checkinsCount":396,"usersCount":100,"tipCount":7,"visitsCount":450,"tier":"","message":"","currency":"","rating":6.7},{"name":"The Thirsty Turtle","phone":"7652549024","address":"908 S Walnut St","lat":40.18647265,"lng":-85.386329,"city_fetched":"Muncie","state":"IN","country":"United States","canonicalUrl":"https://foursquare.com/v/the-thirsty-turtle/4c2d746de116e21ee1b98e60","category":"Bar","checkinsCount":279,"usersCount":42,"tipCount":17,"visitsCount":281,"tier":"","message":"","currency":"","rating":6.4},{"name":"Brother's Bar & Grill","lat":40.197675592859476,"lng":-85.4046267463286,"city_fetched":"Muncie","state":"IN","country":"United States","canonicalUrl":"https://foursquare.com/v/brothers-bar--grill/544af7d0498ecb0abc945a0f","category":"Sports Bar","checkinsCount":168,"usersCount":119,"tipCount":2,"visitsCount":210,"tier":"","message":"","currency":"","rating":6.4},{"name":"Brothers","lat":40.19755935668945,"lng":-85.40436553955078,"city_fetched":"Muncie","state":"IN","country":"United States","canonicalUrl":"https://foursquare.com/v/brothers/543713d3498e6e2ec8360a5b","category":"Bar","checkinsCount":98,"usersCount":53,"tipCount":4,"visitsCount":108,"tier":"","message":"","currency":"","rating":6.3},{"name":"Silo","address":"101-199 W Adams St","lat":40.19199890056205,"lng":-85.38661992990222,"city_fetched":"Muncie","state":"IN","country":"United States","canonicalUrl":"https://foursquare.com/v/silo/4ba57aa8f964a5203d0b39e3","category":"Bar","checkinsCount":1613,"usersCount":503,"tipCount":9,"visitsCount":1616,"tier":"","message":"","currency":"","rating":6.3},{"name":"Be Here Now","address":"505 N Dill St","lat":40.19792763928366,"lng":-85.4046771489681,"city_fetched":"Muncie","state":"IN","country":"United States","canonicalUrl":"https://foursquare.com/v/be-here-now/4c2aa1dfd1a10f473dcff664","category":"Music Venue","checkinsCount":1137,"usersCount":433,"tipCount":2,"visitsCount":1145,"tier":"","message":"","currency":"","rating":6},{"name":"Cleo's Bourbon Bar","lat":40.197609937473146,"lng":-85.40598760116599,"city_fetched":"Muncie","state":"IN","country":"United States","canonicalUrl":"https://foursquare.com/v/cleos-bourbon-bar/4ed41e760aafd186933d398e","category":"Bar","checkinsCount":1778,"usersCount":498,"tipCount":6,"visitsCount":1785,"tier":"","message":"","currency":"","rating":5.8}]