[{"name":"The Keg","phone":"2707620040","address":"1051 N 16th St","lat":36.62386034116458,"lng":-88.32400920594452,"city_fetched":"Murray","state":"KY","country":"United States","canonicalUrl":"https://foursquare.com/v/the-keg/4b6272bdf964a52006482ae3","category":"Bar","checkinsCount":494,"usersCount":271,"tipCount":3,"visitsCount":634,"url":"http://kegsteakhouse.com","tier":"","message":"","currency":"","rating":7.7},{"name":"Tumbleweed Tex Mex Grill","phone":"2708732300","twitter":"twtexmex","address":"807 Walmart Dr","lat":36.625352798842215,"lng":-88.31945657730103,"city_fetched":"Murray","state":"KY","country":"United States","canonicalUrl":"https://foursquare.com/v/tumbleweed-tex-mex-grill/4b59091af964a520827928e3","category":"Restaurant","checkinsCount":1136,"usersCount":436,"tipCount":5,"visitsCount":1162,"url":"http://tumbleweedrestaurants.com","tier":"","message":"","currency":"","rating":7.7},{"name":"Big Apple Cafe","phone":"2707598866","address":"1005 Arcadia Cir","lat":36.61859265154976,"lng":-88.31294235009844,"city_fetched":"Murray","state":"KY","country":"United States","canonicalUrl":"https://foursquare.com/v/big-apple-cafe/4b491761f964a520806526e3","category":"Bar","checkinsCount":1274,"usersCount":437,"tipCount":12,"visitsCount":1372,"url":"http://bigapplemurray.com","tier":"","message":"","currency":"","rating":7.4}]