[{"name":"Pigeon Hill Brewing Company","phone":"2313755184","address":"500 W Western Ave Ste 1","lat":43.23390235359219,"lng":-86.25563555400416,"city_fetched":"Muskegon","state":"MI","country":"United States","canonicalUrl":"https://foursquare.com/v/pigeon-hill-brewing-company/5228967a11d286329df205b3","category":"Brewery","checkinsCount":1574,"usersCount":742,"tipCount":12,"visitsCount":2343,"url":"http://pigeonhillbrew.com","tier":"","message":"","currency":"","rating":9.2},{"name":"Dockers","phone":"2317550400","address":"3505 Marina View Pt","lat":43.227817309571584,"lng":-86.3308748183772,"city_fetched":"Muskegon","state":"MI","country":"United States","canonicalUrl":"https://foursquare.com/v/dockers/4b520f55f964a520d56427e3","category":"Seafood Restaurant","checkinsCount":1985,"usersCount":1081,"tipCount":15,"visitsCount":2422,"url":"http://dockersfishhouse.com","tier":2,"message":"Moderate","currency":"$","rating":8.8},{"name":"Unruly Brewing Company","phone":"2312881068","address":"360 W Western Ave","lat":43.235960561000724,"lng":-86.25254899263382,"city_fetched":"Muskegon","state":"MI","country":"United States","canonicalUrl":"https://foursquare.com/v/unruly-brewing-company/50beae47e4b089ddbd6eaf91","category":"Brewery","checkinsCount":1802,"usersCount":986,"tipCount":12,"visitsCount":2745,"url":"http://unrulybrewing.com","tier":2,"message":"Moderate","currency":"$","rating":8.7},{"name":"The Deck","phone":"2317555022","address":"1601 Beach St","lat":43.22480699382097,"lng":-86.3372973276026,"city_fetched":"Muskegon","state":"MI","country":"United States","canonicalUrl":"https://foursquare.com/v/the-deck/539f982f498eab489240806d","category":"BBQ Joint","checkinsCount":361,"usersCount":309,"tipCount":13,"visitsCount":515,"url":"http://www.thedeckmkg.com","tier":"","message":"","currency":"","rating":8.5},{"name":"Northway Lanes","phone":"2317739181","address":"1751 Evanston Ave","lat":43.220945123637904,"lng":-86.20144230858993,"city_fetched":"Muskegon","state":"MI","country":"United States","canonicalUrl":"https://foursquare.com/v/northway-lanes/4bbc8ba22d9ea5936db3a0ce","category":"Bowling Alley","checkinsCount":1689,"usersCount":725,"tipCount":12,"visitsCount":2179,"url":"http://bowlnorthway.com","tier":"","message":"","currency":"","rating":7.8},{"name":"Smash Wine Bar & Bistro","phone":"2317229463","address":"415 W Western Ave","lat":43.23518815597878,"lng":-86.2535724850557,"city_fetched":"Muskegon","state":"MI","country":"United States","canonicalUrl":"https://foursquare.com/v/smash-wine-bar--bistro/524ca73c498e809e60d1fcbc","category":"Wine Bar","checkinsCount":177,"usersCount":118,"tipCount":5,"visitsCount":187,"url":"http://smashwinebar.com","tier":"","message":"","currency":"","rating":7.7},{"name":"Glenside Pub","phone":"2317598525","address":"1508 W Sherman Blvd","lat":43.205827474594116,"lng":-86.28098,"neighborhood":"Glenside","city_fetched":"Muskegon","state":"MI","country":"United States","canonicalUrl":"https://foursquare.com/v/glenside-pub/4c241c74136d20a1586ae161","category":"Pub","checkinsCount":1293,"usersCount":388,"tipCount":11,"visitsCount":1564,"url":"http://glensidepub.net","tier":"","message":"","currency":"","rating":7.7},{"name":"Skeetown Tavern","phone":"2317556818","address":"1308 W Sherman Blvd","lat":43.20577660840708,"lng":-86.27584027023768,"neighborhood":"Glenside","city_fetched":"Muskegon","state":"MI","country":"United States","canonicalUrl":"https://foursquare.com/v/skeetown-tavern/4bd3b2e3caff9521219ed5f0","category":"Bar","checkinsCount":879,"usersCount":371,"tipCount":8,"visitsCount":1081,"url":"http://www.skeetowntavern.com","tier":"","message":"","currency":"","rating":7.6},{"name":"Hennessy's Irish Pub & Restaurant","phone":"2317283333","address":"885 Jefferson St","lat":43.236373793282134,"lng":-86.248707079576,"city_fetched":"Muskegon","state":"MI","country":"United States","canonicalUrl":"https://foursquare.com/v/hennessys-irish-pub--restaurant/4d34debf306160fc0c976b88","category":"Irish Pub","checkinsCount":2298,"usersCount":909,"tipCount":36,"visitsCount":2576,"url":"http://www.hennessyspub.com","tier":1,"message":"Cheap","currency":"$","rating":7.5},{"name":"Lakeshore Tavern","phone":"2317597604","address":"1963 Lakeshore Dr","lat":43.2156818,"lng":-86.291851,"neighborhood":"Lakeside","city_fetched":"Muskegon","state":"MI","country":"United States","canonicalUrl":"https://foursquare.com/v/lakeshore-tavern/4b7dec4df964a52033da2fe3","category":"Bar","checkinsCount":1269,"usersCount":422,"tipCount":8,"visitsCount":1317,"tier":"","message":"","currency":"","rating":7.4},{"name":"Port City Tavern","address":"2037 E Laketon Ave","lat":43.21931040412802,"lng":-86.1936722995561,"city_fetched":"Muskegon","state":"MI","country":"United States","canonicalUrl":"https://foursquare.com/v/port-city-tavern/50be6947e4b014b8ff852f82","category":"American Restaurant","checkinsCount":189,"usersCount":108,"tipCount":5,"visitsCount":208,"tier":"","message":"","currency":"","rating":7.3},{"name":"Mike's Inn","address":"555 W Western Ave","lat":43.23305141,"lng":-86.256648,"city_fetched":"Muskegon","state":"MI","country":"United States","canonicalUrl":"https://foursquare.com/v/mikes-inn/4bd3c17341b9ef3ba40201e6","category":"Bar","checkinsCount":708,"usersCount":396,"tipCount":5,"visitsCount":904,"tier":"","message":"","currency":"","rating":7.3},{"name":"Nauty's","phone":"2317551304","address":"1300 W Sherman Blvd","lat":43.20602752745916,"lng":-86.27473975428416,"neighborhood":"Glenside","city_fetched":"Muskegon","state":"MI","country":"United States","canonicalUrl":"https://foursquare.com/v/nautys/4b85e1b7f964a520ae7731e3","category":"Bar","checkinsCount":796,"usersCount":255,"tipCount":5,"visitsCount":938,"tier":"","message":"","currency":"","rating":7.2},{"name":"Boar's Belly","phone":"2317222627","address":"333 W Western Ave","lat":43.23585897672662,"lng":-86.25132086705374,"city_fetched":"Muskegon","state":"MI","country":"United States","canonicalUrl":"https://foursquare.com/v/boars-belly/54650986498e515461a8bb1d","category":"Sports Bar","checkinsCount":125,"usersCount":162,"tipCount":4,"visitsCount":223,"tier":"","message":"","currency":"","rating":6.9},{"name":"Marine Tap Room","phone":"2317555581","address":"1983 Lakeshore Dr","lat":43.215589384742096,"lng":-86.29233523126135,"neighborhood":"Lakeside","city_fetched":"Muskegon","state":"MI","country":"United States","canonicalUrl":"https://foursquare.com/v/marine-tap-room/4c2d49903a4d0f47ffb5e386","category":"Cocktail Bar","checkinsCount":1492,"usersCount":478,"tipCount":17,"visitsCount":1770,"tier":"","message":"","currency":"","rating":6.9},{"name":"Mi Bar","lat":43.20575210396757,"lng":-86.30295894793196,"city_fetched":"Muskegon","state":"MI","country":"United States","canonicalUrl":"https://foursquare.com/v/mi-bar/4ba58b48f964a520001139e3","category":"Bar","checkinsCount":618,"usersCount":295,"tipCount":2,"visitsCount":739,"tier":"","message":"","currency":"","rating":6.8},{"name":"DJ's Pub & Grill","phone":"2317552791","address":"2064 Henry St","lat":43.21502,"lng":-86.26256121666667,"city_fetched":"Muskegon","state":"MI","country":"United States","canonicalUrl":"https://foursquare.com/v/djs-pub--grill/4bc88a566501c9b6fe494029","category":"Bar","checkinsCount":986,"usersCount":250,"tipCount":7,"visitsCount":1064,"tier":"","message":"","currency":"","rating":6.5},{"name":"Canary Inn Bar & Grille","phone":"2317442381","address":"506 Center St","lat":43.262962000000016,"lng":-86.26230353855874,"city_fetched":"Muskegon","state":"MI","country":"United States","canonicalUrl":"https://foursquare.com/v/canary-inn-bar--grille/4bb6b7e7ef159c747c7476f7","category":"Bar","checkinsCount":766,"usersCount":226,"tipCount":4,"visitsCount":845,"tier":"","message":"","currency":"","rating":6},{"name":"Tipsy Toad Taven","phone":"2317257181","address":"609 W Western Ave.","lat":43.2322633266449,"lng":-86.257979,"city_fetched":"Muskegon","state":"MI","country":"United States","canonicalUrl":"https://foursquare.com/v/tipsy-toad-taven/4b92d41ef964a5208a1f34e3","category":"Bar","checkinsCount":721,"usersCount":381,"tipCount":10,"visitsCount":747,"tier":"","message":"","currency":"","rating":6},{"name":"Racquets","phone":"2317264007","address":"446 W Western Ave","lat":43.23474705506446,"lng":-86.25434118640712,"city_fetched":"Muskegon","state":"MI","country":"United States","canonicalUrl":"https://foursquare.com/v/racquets/4b6a28f4f964a520deca2be3","category":"American Restaurant","checkinsCount":1952,"usersCount":724,"tipCount":9,"visitsCount":2205,"url":"http://www.latenitedwight.com","tier":"","message":"","currency":"","rating":5.2}]