[{"name":"Atlas Tap House","phone":"8439459122","address":"1004 Chester St","lat":33.694522070622185,"lng":-78.87959989608102,"city_fetched":"Myrtle Beach,US","state":"SC","country":"United States","canonicalUrl":"https://foursquare.com/v/atlas-tap-house/532df700498e05c8e7f4b4a5","categoryId":"4bf58dd8d48988d11b941735","category":"Pub","checkinsCount":757,"usersCount":362,"tipCount":12,"visitsCount":973,"url":"http://www.atlastaphouse.com","tier":"","message":"","currency":"","rating":8.8},{"name":"Gordon Biersch","phone":"8438390249","twitter":"gbmbsc","address":"3060 Howard Ave","lat":33.66862649883429,"lng":-78.93937317667415,"city_fetched":"Myrtle Beach,US","state":"SC","country":"United States","canonicalUrl":"https://foursquare.com/v/gordon-biersch/4b589661f964a520cb5f28e3","categoryId":"50327c8591d4c4b30a586d5d","category":"Brewery","checkinsCount":7653,"usersCount":2993,"tipCount":61,"visitsCount":8949,"url":"http://gordonbiersch.com","tier":2,"message":"Moderate","currency":"$","rating":8.7},{"name":"Bimini's Oyster Bar and Seafood Cafe","phone":"8434495549","twitter":"biminismb","address":"930 Lake Arrowhead Rd","lat":33.77753442208337,"lng":-78.79095852355498,"city_fetched":"Myrtle Beach,US","state":"SC","country":"United States","canonicalUrl":"https://foursquare.com/biminismb","categoryId":"4bf58dd8d48988d116941735","category":"Bar","checkinsCount":2476,"usersCount":1900,"tipCount":74,"visitsCount":2926,"url":"http://www.biminisoysterbar.com","tier":2,"message":"Moderate","currency":"$","rating":8.7},{"name":"New South Brewing Company","phone":"8439162337","address":"1109 Campbell St.","lat":33.69796753379045,"lng":-78.88964295687667,"city_fetched":"Myrtle Beach,US","state":"SC","country":"United States","canonicalUrl":"https://foursquare.com/v/new-south-brewing-company/4e136e6c18a84f0f03263b4f","categoryId":"50327c8591d4c4b30a586d5d","category":"Brewery","checkinsCount":416,"usersCount":374,"tipCount":12,"visitsCount":540,"url":"http://newsouthbrewing.com","tier":"","message":"","currency":"","rating":8.7},{"name":"Handley's Pub & Grub","phone":"8439034904","twitter":"handleyspub","address":"3873 Renee Dr","lat":33.76023073336022,"lng":-78.96396916765732,"city_fetched":"Myrtle Beach,US","state":"SC","country":"United States","canonicalUrl":"https://foursquare.com/v/handleys-pub--grub/4bda2cebc79cc92886e77de9","categoryId":"4bf58dd8d48988d116941735","category":"Bar","checkinsCount":3410,"usersCount":910,"tipCount":28,"visitsCount":3688,"url":"http://handleyspub.com","tier":2,"message":"Moderate","currency":"$","rating":8.6},{"name":"Bumstead's Pub","phone":"8434456592","address":"400 Mr Joe White Ave","lat":33.6953488310987,"lng":-78.87982099825442,"city_fetched":"Myrtle Beach,US","state":"SC","country":"United States","canonicalUrl":"https://foursquare.com/v/bumsteads-pub/4b9c2a7af964a520cd5036e3","categoryId":"4bf58dd8d48988d11b941735","category":"Pub","checkinsCount":2127,"usersCount":704,"tipCount":21,"visitsCount":2333,"url":"http://www.bumsteadspub.com","tier":2,"message":"Moderate","currency":"$","rating":8.5},{"name":"Anchor Cafe","lat":33.764325,"lng":-78.81776944,"city_fetched":"Myrtle Beach,US","state":"SC","country":"United States","canonicalUrl":"https://foursquare.com/v/anchor-cafe/4bbe89e4b083a593443fa2e9","categoryId":"4bf58dd8d48988d1d5941735","category":"Hotel Bar","checkinsCount":460,"usersCount":287,"tipCount":4,"visitsCount":546,"tier":"","message":"","currency":"","rating":8.4},{"name":"2nd Ave Pier","phone":"8434457437","twitter":"2ndavepiermb","address":"101 2nd Ave N","lat":33.684073995937865,"lng":-78.88614983559482,"city_fetched":"Myrtle Beach,US","state":"SC","country":"United States","canonicalUrl":"https://foursquare.com/v/2nd-ave-pier/4bd3172777b29c741ce18f82","categoryId":"4bf58dd8d48988d116941735","category":"Bar","checkinsCount":2505,"usersCount":2122,"tipCount":37,"visitsCount":2948,"url":"http://secondavenuepier.com","tier":"","message":"","currency":"","rating":8.4},{"name":"Celebrity Square","address":"Broadway at the Beach","lat":33.71703106488959,"lng":-78.8823194180096,"city_fetched":"Myrtle Beach,US","state":"SC","country":"United States","canonicalUrl":"https://foursquare.com/v/celebrity-square/4da1f65863b5a35d48c2f319","categoryId":"4bf58dd8d48988d11f941735","category":"Nightclub","checkinsCount":5141,"usersCount":1974,"tipCount":10,"visitsCount":5153,"tier":"","message":"","currency":"","rating":8.3},{"name":"8th Ave Tiki Bar And Grill","phone":"8437122340","twitter":"8thavetikibar","address":"708 N Ocean Blvd","lat":33.69073632471368,"lng":-78.88094308406446,"city_fetched":"Myrtle Beach,US","state":"SC","country":"United States","canonicalUrl":"https://foursquare.com/v/8th-ave-tiki-bar-and-grill/50787037e4b03bba5fc0d0ab","categoryId":"52e81612bcbc57f1066b7a0d","category":"Beach Bar","checkinsCount":709,"usersCount":619,"tipCount":27,"visitsCount":837,"url":"http://www.8thavetikibar.com","tier":2,"message":"Moderate","currency":"$","rating":8.2},{"name":"Backyard Bar & Grill","lat":33.779646490638804,"lng":-78.79243570548148,"city_fetched":"Myrtle Beach,US","state":"SC","country":"United States","canonicalUrl":"https://foursquare.com/v/backyard-bar--grill/4b8d9ceef964a520410433e3","categoryId":"4bf58dd8d48988d11d941735","category":"Sports Bar","checkinsCount":568,"usersCount":319,"tipCount":9,"visitsCount":622,"tier":"","message":"","currency":"","rating":8.2},{"name":"The Bowery","phone":"8436263445","twitter":"thebowery","address":"110 9th Ave N","lat":33.69202205892936,"lng":-78.87945413589478,"city_fetched":"Myrtle Beach,US","state":"SC","country":"United States","canonicalUrl":"https://foursquare.com/v/the-bowery/4bb7d63b98c7ef3bb5733002","categoryId":"4bf58dd8d48988d116941735","category":"Bar","checkinsCount":1581,"usersCount":1154,"tipCount":17,"visitsCount":1587,"url":"http://www.thebowery.com","tier":"","message":"","currency":"","rating":8.1},{"name":"The Boathouse","phone":"8439032628","address":"201 Hard Rock Pkwy","lat":33.71310860862078,"lng":-78.9250590062788,"city_fetched":"Myrtle Beach,US","state":"SC","country":"United States","canonicalUrl":"https://foursquare.com/v/the-boathouse/4bb26c432397b713cefd36b3","categoryId":"4bf58dd8d48988d116941735","category":"Bar","checkinsCount":3153,"usersCount":1560,"tipCount":24,"visitsCount":3781,"url":"http://boathousemb.com","tier":1,"message":"Cheap","currency":"$","rating":8.1},{"name":"Wet Willie's","phone":"8434485653","address":"1306 Celebrity Cir #161","lat":33.71702741666667,"lng":-78.88203446,"city_fetched":"Myrtle Beach,US","state":"SC","country":"United States","canonicalUrl":"https://foursquare.com/v/wet-willies/4c7883d7566db60ce922420e","categoryId":"4bf58dd8d48988d116941735","category":"Bar","checkinsCount":3617,"usersCount":2383,"tipCount":43,"visitsCount":3675,"url":"http://www.wetwillies.com","tier":2,"message":"Moderate","currency":"$","rating":8.1},{"name":"Ocean Annie's Beach Bar","phone":"8882664375","address":"9550 Shore Dr","lat":33.75918124330665,"lng":-78.78952558060621,"city_fetched":"Myrtle Beach,US","state":"SC","country":"United States","canonicalUrl":"https://foursquare.com/v/ocean-annies-beach-bar/4bfd9b27bf6576b0d685adb8","categoryId":"4bf58dd8d48988d116941735","category":"Bar","checkinsCount":2067,"usersCount":1357,"tipCount":23,"visitsCount":2481,"url":"http://www.oceanannies.com","tier":"","message":"","currency":"","rating":8.1},{"name":"pine lakes Tavern","phone":"8434494758","address":"5201 N Kings Hwy","lat":33.7261857419201,"lng":-78.84410651369701,"city_fetched":"Myrtle Beach,US","state":"SC","country":"United States","canonicalUrl":"https://foursquare.com/v/pine-lakes-tavern/4fa30225e4b065011b7b3fb9","categoryId":"4bf58dd8d48988d11b941735","category":"Pub","checkinsCount":433,"usersCount":228,"tipCount":5,"visitsCount":589,"url":"http://pinelakestavern.com","tier":"","message":"","currency":"","rating":8},{"name":"Liberty Taproom & Grill","phone":"8438394677","address":"7651 N Kings Hwy","lat":33.747894124738075,"lng":-78.81839364767075,"city_fetched":"Myrtle Beach,US","state":"SC","country":"United States","canonicalUrl":"https://foursquare.com/v/liberty-taproom--grill/4bec8fb1b68520a132561287","categoryId":"50327c8591d4c4b30a586d5d","category":"Brewery","checkinsCount":2905,"usersCount":1843,"tipCount":34,"visitsCount":3464,"url":"http://libertytaproom.com","tier":2,"message":"Moderate","currency":"$","rating":8},{"name":"Putters Pub","lat":33.80332325469543,"lng":-78.75420996453315,"city_fetched":"Myrtle Beach,US","state":"SC","country":"United States","canonicalUrl":"https://foursquare.com/v/putters-pub/5070a90fe4b05fb6c3941883","categoryId":"4bf58dd8d48988d11b941735","category":"Pub","checkinsCount":222,"usersCount":167,"tipCount":0,"visitsCount":405,"tier":"","message":"","currency":"","rating":8},{"name":"Fat Tuesday","phone":"8434443255","twitter":"fat_tues_day","address":"1322 Celebrity Cir","lat":33.71716280896188,"lng":-78.88164507207604,"city_fetched":"Myrtle Beach,US","state":"SC","country":"United States","canonicalUrl":"https://foursquare.com/v/fat-tuesday/4bca2d4bfb84c9b6969c1c3e","categoryId":"4bf58dd8d48988d116941735","category":"Bar","checkinsCount":4070,"usersCount":2628,"tipCount":41,"visitsCount":4081,"url":"http://t.co/s0aDVvUW9U","tier":1,"message":"Cheap","currency":"$","rating":7.9},{"name":"Bummz Beach Cafe","phone":"8439169111","address":"2002 N Ocean Blvd","lat":33.69994498707286,"lng":-78.87088254393942,"city_fetched":"Myrtle Beach,US","state":"SC","country":"United States","canonicalUrl":"https://foursquare.com/v/bummz-beach-cafe/4bb662a42f70c9b644558530","categoryId":"4bf58dd8d48988d116941735","category":"Bar","checkinsCount":2329,"usersCount":1635,"tipCount":29,"visitsCount":2674,"url":"http://www.bummz.com","tier":2,"message":"Moderate","currency":"$","rating":7.9},{"name":"Liberty Brewery & Grill","phone":"8436264677","address":"1321 Celebrity Cir","lat":33.71604052669202,"lng":-78.88271570205688,"city_fetched":"Myrtle Beach,US","state":"SC","country":"United States","canonicalUrl":"https://foursquare.com/v/liberty-brewery--grill/4af5fa02f964a520b6ff21e3","categoryId":"50327c8591d4c4b30a586d5d","category":"Brewery","checkinsCount":4907,"usersCount":3672,"tipCount":67,"visitsCount":5137,"url":"http://libertysteakhouseandbrewery.com","tier":2,"message":"Moderate","currency":"$","rating":7.9},{"name":"St. Clements Bar & Grill","address":"7000 N Ocean Blvd","lat":33.73913867013967,"lng":-78.8197844633019,"city_fetched":"Myrtle Beach,US","state":"SC","country":"United States","canonicalUrl":"https://foursquare.com/v/st-clements-bar--grill/4bd87132dc4b95214f267988","categoryId":"4bf58dd8d48988d116941735","category":"Bar","checkinsCount":172,"usersCount":86,"tipCount":7,"visitsCount":173,"tier":"","message":"","currency":"","rating":7.8},{"name":"palmetto moonshine","lat":33.64589560112568,"lng":-78.9424335165045,"city_fetched":"Myrtle Beach,US","state":"South Carolina","country":"United States","canonicalUrl":"https://foursquare.com/v/palmetto-moonshine/5376a896498e24ca1f81ee38","categoryId":"4bf58dd8d48988d11b941735","category":"Pub","checkinsCount":62,"usersCount":120,"tipCount":2,"visitsCount":131,"tier":"","message":"","currency":"","rating":7.7},{"name":"Sandals Lounge","lat":33.759713,"lng":-78.789427,"city_fetched":"Myrtle Beach,US","state":"SC","country":"United States","canonicalUrl":"https://foursquare.com/v/sandals-lounge/4c80691cd4e23704ead45488","categoryId":"4bf58dd8d48988d1d5941735","category":"Hotel Bar","checkinsCount":321,"usersCount":179,"tipCount":2,"visitsCount":328,"tier":"","message":"","currency":"","rating":7.7},{"name":"Broadway Louie's","phone":"8434456885","address":"1318 Celebrity Cir","lat":33.71783819061178,"lng":-78.88118076561008,"city_fetched":"Myrtle Beach,US","state":"SC","country":"United States","canonicalUrl":"https://foursquare.com/v/broadway-louies/4b2e7b70f964a520f5e024e3","categoryId":"4bf58dd8d48988d120941735","category":"Karaoke Bar","checkinsCount":5476,"usersCount":1911,"tipCount":28,"visitsCount":5524,"url":"http://celebrationsnitelife.com","tier":1,"message":"Cheap","currency":"$","rating":7.6},{"name":"Beef'O'Brady's","phone":"8432367761","twitter":"beefs_mb","address":"3689 Renee Dr","lat":33.76051028059913,"lng":-78.96733247236251,"city_fetched":"Myrtle Beach,US","state":"SC","country":"United States","canonicalUrl":"https://foursquare.com/v/beefobradys/4b70aac8f964a5208b282de3","categoryId":"4bf58dd8d48988d11b941735","category":"Pub","checkinsCount":1337,"usersCount":423,"tipCount":5,"visitsCount":1419,"url":"http://www.beefobradys.com/mybeefs/myrtlebeach.aspx","tier":2,"message":"Moderate","currency":"$","rating":7.6},{"name":"The Grumpy Monk","phone":"8432365888","address":"4545 Highway 501","lat":33.75149816451915,"lng":-78.9626105582146,"city_fetched":"Myrtle Beach,US","state":"SC","country":"United States","canonicalUrl":"https://foursquare.com/v/the-grumpy-monk/54f3c775498eb6208a562368","categoryId":"4bf58dd8d48988d117941735","category":"Beer Garden","checkinsCount":252,"usersCount":305,"tipCount":7,"visitsCount":541,"tier":"","message":"","currency":"","rating":7.6},{"name":"Sand Dollar Pool Bar at the Marriott Grande Dunes","address":"8420 Costa Verda Dr","lat":33.74831587912874,"lng":-78.80686334381114,"city_fetched":"Myrtle Beach,US","state":"SC","country":"United States","canonicalUrl":"https://foursquare.com/v/sand-dollar-pool-bar-at-the-marriott-grande-dunes/4e346099ae60d86c3ab450db","categoryId":"4bf58dd8d48988d116941735","category":"Bar","checkinsCount":307,"usersCount":117,"tipCount":5,"visitsCount":312,"tier":"","message":"","currency":"","rating":7.5},{"name":"The Quarterdeck Oceanfront Beach Bar & Grill","address":"5905 S Kings Hwy","lat":33.626729508875684,"lng":-78.95201861858368,"city_fetched":"Myrtle Beach,US","state":"SC","country":"United States","canonicalUrl":"https://foursquare.com/v/the-quarterdeck-oceanfront-beach-bar--grill/4c0161a20bce20a132a2f6c6","categoryId":"4bf58dd8d48988d116941735","category":"Bar","checkinsCount":644,"usersCount":458,"tipCount":7,"visitsCount":808,"tier":"","message":"","currency":"","rating":7.4},{"name":"Waterway House","address":"9814 N Kings Hwy","lat":33.781833689157,"lng":-78.78763340008923,"city_fetched":"Myrtle Beach,US","state":"SC","country":"United States","canonicalUrl":"https://foursquare.com/v/waterway-house/4beeeff2e8c3c928be639992","categoryId":"4bf58dd8d48988d116941735","category":"Bar","checkinsCount":288,"usersCount":147,"tipCount":7,"visitsCount":335,"url":"http://thewaterwayhousemb.com","tier":"","message":"","currency":"","rating":7.4},{"name":"Pulse Ultra Lounge","phone":"8433150019","twitter":"clubpulsemb","address":"2701 S Kings Hwy","lat":33.666027960204374,"lng":-78.91660809516907,"city_fetched":"Myrtle Beach,US","state":"SC","country":"United States","canonicalUrl":"https://foursquare.com/v/pulse-ultra-lounge/500deeede4b04d4cc219edb1","categoryId":"4bf58dd8d48988d1d8941735","category":"Gay Bar","checkinsCount":892,"usersCount":480,"tipCount":16,"visitsCount":1190,"tier":"","message":"","currency":"","rating":7.4},{"name":"The Barrel Bar & Grill","address":"2303 S Kings Hwy","lat":33.669939521159954,"lng":-78.91135608770702,"city_fetched":"Myrtle Beach,US","state":"SC","country":"United States","canonicalUrl":"https://foursquare.com/v/the-barrel-bar--grill/4bf744c4508c0f47ef753d31","categoryId":"4bf58dd8d48988d116941735","category":"Bar","checkinsCount":251,"usersCount":131,"tipCount":6,"visitsCount":263,"tier":"","message":"","currency":"","rating":7.3},{"name":"Vintage Twelve","phone":"8434977300","twitter":"vintagetwelve","address":"9800 Queensway Blvd","lat":33.76676193977984,"lng":-78.77833795102862,"city_fetched":"Myrtle Beach,US","state":"SC","country":"United States","canonicalUrl":"https://foursquare.com/vintagetwelve","categoryId":"4bf58dd8d48988d121941735","category":"Lounge","checkinsCount":143,"usersCount":68,"tipCount":3,"visitsCount":149,"url":"http://www.vintagetwelve.com","tier":"","message":"","currency":"","rating":7.3},{"name":"Jimmagan's Pub","phone":"8434975450","address":"6003 N Kings Hwy","lat":33.735136260015935,"lng":-78.8334059715271,"city_fetched":"Myrtle Beach,US","state":"SC","country":"United States","canonicalUrl":"https://foursquare.com/v/jimmagans-pub/4c8d29d5509e3704a6d23955","categoryId":"4bf58dd8d48988d116941735","category":"Bar","checkinsCount":1196,"usersCount":351,"tipCount":17,"visitsCount":1454,"tier":"","message":"","currency":"","rating":7.3},{"name":"Pier View Bar & Lounge","address":"101 2nd Ave N","lat":33.683988,"lng":-78.886152,"city_fetched":"Myrtle Beach,US","state":"SC","country":"United States","canonicalUrl":"https://foursquare.com/v/pier-view-bar--lounge/4c6d57cf65eda09370494ed0","categoryId":"4bf58dd8d48988d116941735","category":"Bar","checkinsCount":638,"usersCount":496,"tipCount":10,"visitsCount":639,"tier":"","message":"","currency":"","rating":7.3},{"name":"Coastal Ale House","phone":"8433470500","address":"115 Waccamaw Medical Park Court","lat":33.788359,"lng":-78.99701255,"city_fetched":"Myrtle Beach,US","state":"SC","country":"United States","canonicalUrl":"https://foursquare.com/v/coastal-ale-house/4b73840af964a52028b22de3","categoryId":"4bf58dd8d48988d11d941735","category":"Sports Bar","checkinsCount":1079,"usersCount":589,"tipCount":16,"visitsCount":1490,"url":"http://www.coastalalehouse.com","tier":2,"message":"Moderate","currency":"$","rating":7.3},{"name":"Duffy's Tavern","phone":"8436263445","address":"110 9th Ave N","lat":33.69199527874065,"lng":-78.87960433959961,"city_fetched":"Myrtle Beach,US","state":"SC","country":"United States","canonicalUrl":"https://foursquare.com/v/duffys-tavern/4c312924ed37a593c9fe6903","categoryId":"4bf58dd8d48988d116941735","category":"Bar","checkinsCount":635,"usersCount":398,"tipCount":8,"visitsCount":639,"tier":"","message":"","currency":"","rating":7.2},{"name":"Thee Dollhouse","phone":"8434493655","twitter":"theedollhousesc","address":"3102 Highway 17 S","lat":33.805967199804655,"lng":-78.71936342211453,"city_fetched":"Myrtle Beach,US","state":"SC","country":"United States","canonicalUrl":"https://foursquare.com/v/thee-dollhouse/4c51314b3940be9a355c7208","categoryId":"4bf58dd8d48988d1d6941735","category":"Strip Club","checkinsCount":746,"usersCount":492,"tipCount":5,"visitsCount":977,"url":"http://theedollhousesc.com/drupal/","tier":"","message":"","currency":"","rating":7.2},{"name":"Coastal Wine Boutique","address":"21st Avenue North","lat":33.70116698631113,"lng":-78.87071670217928,"city_fetched":"Myrtle Beach,US","state":"SC","country":"United States","canonicalUrl":"https://foursquare.com/v/coastal-wine-boutique/50134891e4b0260c419c2a97","categoryId":"4bf58dd8d48988d123941735","category":"Wine Bar","checkinsCount":155,"usersCount":122,"tipCount":5,"visitsCount":157,"tier":"","message":"","currency":"","rating":7.2},{"name":"Carolina Tavern","phone":"8439470708","address":"852 Mall Dr","lat":33.58076282,"lng":-79.022515,"city_fetched":"Myrtle Beach,US","state":"SC","country":"United States","canonicalUrl":"https://foursquare.com/v/carolina-tavern/4e03c49162842f8f47403f2c","categoryId":"4bf58dd8d48988d11b941735","category":"Pub","checkinsCount":529,"usersCount":307,"tipCount":7,"visitsCount":628,"url":"http://thecarolinatavern.com","tier":"","message":"","currency":"","rating":7.2},{"name":"Wet Whistle","phone":"8434495000","twitter":"hiltonhotels","address":"10000 Beach Club Dr","lat":33.76878995013632,"lng":-78.77465272704563,"city_fetched":"Myrtle Beach,US","state":"SC","country":"United States","canonicalUrl":"https://foursquare.com/v/wet-whistle/50ca02c0245f2d4aa8c2b422","categoryId":"4bf58dd8d48988d1d5941735","category":"Hotel Bar","checkinsCount":380,"usersCount":255,"tipCount":5,"visitsCount":382,"url":"http://www.hilton.com","tier":"","message":"","currency":"","rating":7.2},{"name":"Hurricane Maggie's","phone":"8434975000","address":"7710 N King's Hwy","lat":33.74764433860779,"lng":-78.8173770904541,"city_fetched":"Myrtle Beach,US","state":"SC","country":"United States","canonicalUrl":"https://foursquare.com/v/hurricane-maggies/50c93b3e45b0b53b3dc612dd","categoryId":"4bf58dd8d48988d11b941735","category":"Pub","checkinsCount":224,"usersCount":154,"tipCount":7,"visitsCount":234,"url":"http://hurricanemaggies.com","tier":"","message":"","currency":"","rating":7.1},{"name":"Molly Darcy's Irish Pub","address":"1701 S Ocean Blvd","lat":33.80712449318869,"lng":-78.70072560412609,"city_fetched":"Myrtle Beach,US","state":"SC","country":"United States","canonicalUrl":"https://foursquare.com/v/molly-darcys-irish-pub/5141224be4b0cec51a1d3924","categoryId":"4bf58dd8d48988d11b941735","category":"Pub","checkinsCount":905,"usersCount":876,"tipCount":21,"visitsCount":1290,"tier":"","message":"","currency":"","rating":7.1},{"name":"Sound Hole","phone":"8437121218","address":"1004 Chester St","lat":33.694510158483645,"lng":-78.8794782896722,"city_fetched":"Myrtle Beach,US","state":"SC","country":"United States","canonicalUrl":"https://foursquare.com/v/sound-hole/4ea5fd5d30f8a6425ee8f659","categoryId":"4bf58dd8d48988d116941735","category":"Bar","checkinsCount":496,"usersCount":100,"tipCount":6,"visitsCount":496,"tier":"","message":"","currency":"","rating":7.1},{"name":"Donny's Saloon","phone":"8434446113","twitter":"doghousedonnys","address":"1213 3rd Ave S","lat":33.697959,"lng":-78.89960193,"city_fetched":"Myrtle Beach,US","state":"SC","country":"United States","canonicalUrl":"https://foursquare.com/v/donnys-saloon/4c23157f11de20a174e285ce","categoryId":"4bf58dd8d48988d116941735","category":"Bar","checkinsCount":516,"usersCount":122,"tipCount":15,"visitsCount":534,"url":"http://www.donnyssaloon.com","tier":"","message":"","currency":"","rating":7.1},{"name":"Harry The Hat's","phone":"8434499019","address":"351 Lake Arrowhead Rd","lat":33.76525549320631,"lng":-78.78755040888434,"city_fetched":"Myrtle Beach,US","state":"SC","country":"United States","canonicalUrl":"https://foursquare.com/v/harry-the-hats/4bb678fbf562ef3bc2383097","categoryId":"4bf58dd8d48988d11d941735","category":"Sports Bar","checkinsCount":362,"usersCount":217,"tipCount":4,"visitsCount":424,"tier":"","message":"","currency":"","rating":7},{"name":"Flip Flops Bar & Grill","lat":33.76206263,"lng":-78.787297,"city_fetched":"Myrtle Beach,US","state":"SC","country":"United States","canonicalUrl":"https://foursquare.com/v/flip-flops-bar--grill/4bf5f4be94b2a593fbc0acee","categoryId":"4bf58dd8d48988d116941735","category":"Bar","checkinsCount":1019,"usersCount":567,"tipCount":8,"visitsCount":1219,"tier":1,"message":"Cheap","currency":"$","rating":7},{"name":"Island Bar & Grill","phone":"8436503157","address":"2272 Glenns Bay Rd","lat":33.62143021455097,"lng":-79.00178717454541,"city_fetched":"Myrtle Beach,US","state":"SC","country":"United States","canonicalUrl":"https://foursquare.com/v/island-bar--grill/4ba4c704f964a520e6b338e3","categoryId":"4bf58dd8d48988d11d941735","category":"Sports Bar","checkinsCount":1200,"usersCount":370,"tipCount":13,"visitsCount":1241,"url":"http://www.islandbarandgrill.com","tier":"","message":"","currency":"","rating":7},{"name":"Ailsa Pub","address":"4585 Girvan Dr","lat":33.748031866666665,"lng":-78.999735,"city_fetched":"Myrtle Beach,US","state":"SC","country":"United States","canonicalUrl":"https://foursquare.com/v/ailsa-pub/4bff3cc1c30a2d7f3ac2101d","categoryId":"4bf58dd8d48988d116941735","category":"Bar","checkinsCount":190,"usersCount":166,"tipCount":1,"visitsCount":280,"tier":"","message":"","currency":"","rating":7},{"name":"Tavern in the Forest","phone":"8432365007","address":"4999 Carolina Forest Blvd","lat":33.753166,"lng":-78.865966,"city_fetched":"Myrtle Beach,US","state":"SC","country":"United States","canonicalUrl":"https://foursquare.com/v/tavern-in-the-forest/4ba16085f964a52093b137e3","categoryId":"4bf58dd8d48988d116941735","category":"Bar","checkinsCount":1351,"usersCount":554,"tipCount":11,"visitsCount":1466,"tier":"","message":"","currency":"","rating":7},{"name":"Drifters","phone":"8436264464","address":"2905 N Kings Hwy","lat":33.70967621879403,"lng":-78.86396117529026,"city_fetched":"Myrtle Beach,US","state":"SC","country":"United States","canonicalUrl":"https://foursquare.com/v/drifters/4d732a9e0d0ca1434467b583","categoryId":"4bf58dd8d48988d118941735","category":"Dive Bar","checkinsCount":489,"usersCount":155,"tipCount":6,"visitsCount":512,"tier":"","message":"","currency":"","rating":6.9},{"name":"Ole Shillelagh Sports and Raw Bar","phone":"8434486021","address":"405 S Kings Hwy","lat":33.68274210080226,"lng":-78.89375495196005,"city_fetched":"Myrtle Beach,US","state":"SC","country":"United States","canonicalUrl":"https://foursquare.com/v/ole-shillelagh-sports-and-raw-bar/4bca4734cc8cd13a266bbdcf","categoryId":"4bf58dd8d48988d11d941735","category":"Sports Bar","checkinsCount":433,"usersCount":257,"tipCount":13,"visitsCount":441,"tier":"","message":"","currency":"","rating":6.9},{"name":"The Tavrne","phone":"8438399798","address":"531 Broadway St","lat":33.69286230490293,"lng":-78.88847675466404,"city_fetched":"Myrtle Beach,US","state":"SC","country":"United States","canonicalUrl":"https://foursquare.com/v/the-tavrne/4bbe728cba9776b082c1fdc8","categoryId":"4bf58dd8d48988d116941735","category":"Bar","checkinsCount":347,"usersCount":131,"tipCount":5,"visitsCount":361,"tier":"","message":"","currency":"","rating":6.8},{"name":"Magoo's Sports & Spirits","phone":"8432363303","address":"3308 Waccamaw Blvd","lat":33.7196775,"lng":-78.9281223,"city_fetched":"Myrtle Beach,US","state":"SC","country":"United States","canonicalUrl":"https://foursquare.com/v/magoos-sports--spirits/4bafb67af964a5201b1a3ce3","categoryId":"4bf58dd8d48988d11d941735","category":"Sports Bar","checkinsCount":2423,"usersCount":915,"tipCount":12,"visitsCount":2983,"url":"http://www.magoosofmyrtlebeach.com","tier":"","message":"","currency":"","rating":6.8},{"name":"Remedies","address":"Frontage Rd","lat":33.67810263770444,"lng":-78.96454905612202,"city_fetched":"Myrtle Beach,US","state":"SC","country":"United States","canonicalUrl":"https://foursquare.com/v/remedies/4c37ef833849c92828bcbeb1","categoryId":"4bf58dd8d48988d116941735","category":"Bar","checkinsCount":996,"usersCount":442,"tipCount":4,"visitsCount":1172,"tier":"","message":"","currency":"","rating":6.7},{"name":"Eighty Eight's Piano Bar","phone":"8434490481","address":"9636 N Kings Hwy","lat":33.77561246102114,"lng":-78.79240804310203,"city_fetched":"Myrtle Beach,US","state":"SC","country":"United States","canonicalUrl":"https://foursquare.com/v/eighty-eights-piano-bar/4dc3587eae608779d107325b","categoryId":"4bf58dd8d48988d116941735","category":"Bar","checkinsCount":208,"usersCount":63,"tipCount":2,"visitsCount":211,"url":"http://www.rossismyrtlebeach.com","tier":2,"message":"Moderate","currency":"$","rating":6.7},{"name":"Mako's Oceanfront Bar and Grill at the Reef","phone":"8438086256","twitter":"makosoceanfront","address":"2101 S Ocean Blvd","lat":33.66860032081604,"lng":-78.90598118305206,"city_fetched":"Myrtle Beach,US","state":"SC","country":"United States","canonicalUrl":"https://foursquare.com/v/makos-oceanfront-bar-and-grill-at-the-reef/4b77101df964a5206d792ee3","categoryId":"4bf58dd8d48988d1d5941735","category":"Hotel Bar","checkinsCount":501,"usersCount":302,"tipCount":15,"visitsCount":550,"tier":2,"message":"Moderate","currency":"$","rating":6.7},{"name":"Sharkey's Beach Bar","address":"600 N Ocean Blvd","lat":33.68898562,"lng":-78.88248752,"city_fetched":"Myrtle Beach,US","state":"SC","country":"United States","canonicalUrl":"https://foursquare.com/v/sharkeys-beach-bar/4bbe23085ce0d13abeabdf57","categoryId":"4bf58dd8d48988d116941735","category":"Bar","checkinsCount":1238,"usersCount":907,"tipCount":15,"visitsCount":1414,"tier":"","message":"","currency":"","rating":6.7},{"name":"Klockers Tavern","lat":33.67796596256914,"lng":-78.9647423515045,"city_fetched":"Myrtle Beach,US","state":"SC","country":"United States","canonicalUrl":"https://foursquare.com/v/klockers-tavern/51f85f3b498e0220a2830da9","categoryId":"4bf58dd8d48988d116941735","category":"Bar","checkinsCount":148,"usersCount":60,"tipCount":2,"visitsCount":153,"tier":"","message":"","currency":"","rating":6.7},{"name":"Chuck & Duck's","address":"Broadway At The Beach","lat":33.717338054693684,"lng":-78.88192697135274,"city_fetched":"Myrtle Beach,US","state":"SC","country":"United States","canonicalUrl":"https://foursquare.com/v/chuck--ducks/5196707b498e054ccb2e0b3d","categoryId":"4bf58dd8d48988d11d941735","category":"Sports Bar","checkinsCount":693,"usersCount":322,"tipCount":15,"visitsCount":706,"tier":"","message":"","currency":"","rating":6.7},{"name":"Original Shuckers Raw Bar","phone":"8436269535","address":"1320 Celebrity Cir","lat":33.717663548496105,"lng":-78.88049535679026,"city_fetched":"Myrtle Beach,US","state":"SC","country":"United States","canonicalUrl":"https://foursquare.com/v/original-shuckers-raw-bar/4c6decb410faa143308aef68","categoryId":"4bf58dd8d48988d116941735","category":"Bar","checkinsCount":948,"usersCount":620,"tipCount":9,"visitsCount":958,"url":"http://theoriginalshuckersrawbar.com","tier":"","message":"","currency":"","rating":6.6},{"name":"Se√±or Frog's","phone":"8434445506","twitter":"senorfrogs","address":"1325 Celebrity Cir","lat":33.71703368648636,"lng":-78.88173351115246,"city_fetched":"Myrtle Beach,US","state":"SC","country":"United States","canonicalUrl":"https://foursquare.com/v/se%C3%B1or-frogs/4c05db2491d776b0eb17f8f9","categoryId":"4bf58dd8d48988d116941735","category":"Bar","checkinsCount":6901,"usersCount":5605,"tipCount":85,"visitsCount":6979,"url":"http://www.senorfrogs.com","tier":2,"message":"Moderate","currency":"$","rating":6.6},{"name":"BARnacles","phone":"8433157100","address":"3200 S Ocean Blvd","lat":33.657155,"lng":-78.918743,"city_fetched":"Myrtle Beach,US","state":"SC","country":"United States","canonicalUrl":"https://foursquare.com/v/barnacles/4dee9b632271bb6ae5a64063","categoryId":"4bf58dd8d48988d116941735","category":"Bar","checkinsCount":517,"usersCount":298,"tipCount":7,"visitsCount":528,"tier":"","message":"","currency":"","rating":6.6},{"name":"Borgata","phone":"8432131761","address":"813 Surfside Dr","lat":33.63078078687282,"lng":-78.9815796575863,"city_fetched":"Myrtle Beach,US","state":"SC","country":"United States","canonicalUrl":"https://foursquare.com/v/borgata/4bb7ba6698c7ef3ba1443002","categoryId":"4bf58dd8d48988d11b941735","category":"Pub","checkinsCount":576,"usersCount":198,"tipCount":7,"visitsCount":583,"url":"http://www.borgatabar.com","tier":"","message":"","currency":"","rating":6.6},{"name":"Wyndham Seawatch Tiki Bar","twitter":"clubwyndham","address":"151 Seawatch Dr","lat":33.77068758,"lng":-78.77116828333334,"city_fetched":"Myrtle Beach,US","state":"SC","country":"United States","canonicalUrl":"https://foursquare.com/v/wyndham-seawatch-tiki-bar/4c8bbe7d8018a1cdf2e4e5d2","categoryId":"4bf58dd8d48988d116941735","category":"Bar","checkinsCount":185,"usersCount":91,"tipCount":2,"visitsCount":185,"url":"http://www.clubwyndham.com","tier":"","message":"","currency":"","rating":6.6},{"name":"Moe Moon's","phone":"8434484926","address":"918 N Ocean Blvd","lat":33.693082178302014,"lng":-78.87799689034834,"city_fetched":"Myrtle Beach,US","state":"SC","country":"United States","canonicalUrl":"https://foursquare.com/v/moe-moons/4fb3da61e4b0791d426c5511","categoryId":"4bf58dd8d48988d116941735","category":"Bar","checkinsCount":1087,"usersCount":963,"tipCount":13,"visitsCount":1118,"tier":"","message":"","currency":"","rating":6.5},{"name":"Club Boca","address":"1320 Celebrity Beach Circle","lat":33.71716329678677,"lng":-78.88108127108003,"city_fetched":"Myrtle Beach,US","state":"SC","country":"United States","canonicalUrl":"https://foursquare.com/v/club-boca/4be4e7b2cf200f4728b5123c","categoryId":"4bf58dd8d48988d11f941735","category":"Nightclub","checkinsCount":831,"usersCount":583,"tipCount":3,"visitsCount":832,"tier":"","message":"","currency":"","rating":6.5},{"name":"Derriere's Gentlemen's Club","phone":"8439466615","address":"804 Seaboard St","lat":33.70868664423533,"lng":-78.9026927947998,"city_fetched":"Myrtle Beach,US","state":"SC","country":"United States","canonicalUrl":"https://foursquare.com/v/derrieres-gentlemens-club/4bd0e21c77b29c7457bb8b82","categoryId":"4bf58dd8d48988d1d6941735","category":"Strip Club","checkinsCount":183,"usersCount":184,"tipCount":8,"visitsCount":222,"url":"http://derrieresclub.com","tier":"","message":"","currency":"","rating":6.5},{"name":"Marvin's","phone":"8434484926","address":"918 N Ocean Blvd","lat":33.69299315729084,"lng":-78.87791950319873,"city_fetched":"Myrtle Beach,US","state":"SC","country":"United States","canonicalUrl":"https://foursquare.com/v/marvins/4c434e713735be9a6a411ba4","categoryId":"4bf58dd8d48988d116941735","category":"Bar","checkinsCount":551,"usersCount":353,"tipCount":18,"visitsCount":551,"url":"http://www.marvinsfoodandgames.com","tier":"","message":"","currency":"","rating":6.4},{"name":"Good Time Charley's","phone":"8437121990","twitter":"gt_charleys","address":"1302 Celebrity Cir","lat":33.7170047363529,"lng":-78.88152346821511,"city_fetched":"Myrtle Beach,US","state":"SC","country":"United States","canonicalUrl":"https://foursquare.com/v/good-time-charleys/4d6ffad90d996dcbe13cbf8e","categoryId":"4bf58dd8d48988d116941735","category":"Bar","checkinsCount":1162,"usersCount":999,"tipCount":21,"visitsCount":1168,"url":"http://goodtimecharleys-hub.com","tier":1,"message":"Cheap","currency":"$","rating":6.4},{"name":"Parrott Bar & Grill","phone":"8436269486","address":"1005 Withers Dr","lat":33.69409765526707,"lng":-78.87922954881873,"city_fetched":"Myrtle Beach,US","state":"SC","country":"United States","canonicalUrl":"https://foursquare.com/v/parrott-bar--grill/4c2ad06aae6820a189f41643","categoryId":"4bf58dd8d48988d116941735","category":"Bar","checkinsCount":299,"usersCount":156,"tipCount":5,"visitsCount":300,"tier":"","message":"","currency":"","rating":6.3},{"name":"Compass Cove Tiki Bar","lat":33.66594487460477,"lng":-78.90907944806938,"city_fetched":"Myrtle Beach,US","state":"SC","country":"United States","canonicalUrl":"https://foursquare.com/v/compass-cove-tiki-bar/4e3dda81e4cdab9b9349c0fe","categoryId":"4bf58dd8d48988d116941735","category":"Bar","checkinsCount":148,"usersCount":102,"tipCount":6,"visitsCount":148,"tier":"","message":"","currency":"","rating":6.3},{"name":"Masters Gentlemans Club","phone":"8439160972","address":"1901 Mister Joe White Ave","lat":33.707911640609936,"lng":-78.89678356859031,"city_fetched":"Myrtle Beach,US","state":"SC","country":"United States","canonicalUrl":"https://foursquare.com/v/masters-gentlemans-club/4b9ae006f964a52077de35e3","categoryId":"4bf58dd8d48988d1d6941735","category":"Strip Club","checkinsCount":703,"usersCount":798,"tipCount":16,"visitsCount":1270,"tier":"","message":"","currency":"","rating":6.3},{"name":"Club There","phone":"8436666660","address":"8th n street","lat":33.69374783333333,"lng":-78.884724,"city_fetched":"Myrtle Beach,US","state":"SC","country":"United States","canonicalUrl":"https://foursquare.com/v/club-there/4c4158863735be9a735f18a4","categoryId":"4bf58dd8d48988d11f941735","category":"Nightclub","checkinsCount":498,"usersCount":267,"tipCount":8,"visitsCount":523,"tier":2,"message":"Moderate","currency":"$","rating":5.9},{"name":"Malibu's Surf Bar","phone":"8434443500","address":"1322 Celebrity Cir","lat":33.71748656850248,"lng":-78.88106468864848,"city_fetched":"Myrtle Beach,US","state":"SC","country":"United States","canonicalUrl":"https://foursquare.com/v/malibus-surf-bar/4bf769088d30d13a4313ff17","categoryId":"4bf58dd8d48988d11f941735","category":"Nightclub","checkinsCount":1958,"usersCount":1324,"tipCount":14,"visitsCount":1965,"tier":"","message":"","currency":"","rating":5.9},{"name":"Revolutions","phone":"8434448032","address":"1320 Celebrity Cir","lat":33.717641010448084,"lng":-78.88091544663787,"city_fetched":"Myrtle Beach,US","state":"SC","country":"United States","canonicalUrl":"https://foursquare.com/v/revolutions/4bcfc8ed462cb713d276d707","categoryId":"4bf58dd8d48988d11f941735","category":"Nightclub","checkinsCount":1268,"usersCount":909,"tipCount":12,"visitsCount":1281,"tier":"","message":"","currency":"","rating":5.8},{"name":"2001 Night Club","phone":"8434499434","address":"920 Lake Arrowhead Rd","lat":33.77795407770007,"lng":-78.7905048527515,"city_fetched":"Myrtle Beach,US","state":"SC","country":"United States","canonicalUrl":"https://foursquare.com/v/2001-night-club/4b9bacbef964a520391936e3","categoryId":"4bf58dd8d48988d11f941735","category":"Nightclub","checkinsCount":423,"usersCount":308,"tipCount":6,"visitsCount":467,"url":"http://www.2001nightclub.com","tier":"","message":"","currency":"","rating":5.8},{"name":"Sharkey's","phone":"8433144110","address":"1325 Celebrity Cir","lat":33.71734432693552,"lng":-78.88195460849292,"city_fetched":"Myrtle Beach,US","state":"SC","country":"United States","canonicalUrl":"https://foursquare.com/v/sharkeys/4c5b96b92815c9287cfbaf67","categoryId":"4bf58dd8d48988d116941735","category":"Bar","checkinsCount":447,"usersCount":358,"tipCount":12,"visitsCount":447,"tier":"","message":"","currency":"","rating":5.5},{"name":"The RED PARROT Ocean Bar & Grill","address":"2008 S Ocean Blvd.","lat":33.700186014175415,"lng":-78.8702459,"city_fetched":"Myrtle Beach,US","state":"SC","country":"United States","canonicalUrl":"https://foursquare.com/v/the-red-parrot-ocean-bar--grill/4c9a7578eaa5a1434f64cce4","categoryId":"4bf58dd8d48988d1d5941735","category":"Hotel Bar","checkinsCount":228,"usersCount":165,"tipCount":2,"visitsCount":228,"tier":"","message":"","currency":"","rating":5.4}]