[{"name":"The Liberty Bell","phone":"9366226425","twitter":"libertybellbar","address":"422 E Main St","lat":31.60226,"lng":-94.652624,"city_fetched":"Nacogdoches,US","state":"TX","country":"United States","canonicalUrl":"https://foursquare.com/libertybellbar","categoryId":"4bf58dd8d48988d123941735","category":"Wine Bar","checkinsCount":196,"usersCount":175,"tipCount":5,"visitsCount":346,"url":"http://www.libertybellbar.com","tier":"","message":"","currency":"","rating":8.5},{"name":"Frog's Restaurant","phone":"9365689999","twitter":"bullfrogsanextx","address":"1507 North St","lat":31.61671211211891,"lng":-94.65373557399145,"city_fetched":"Nacogdoches,US","state":"TX","country":"United States","canonicalUrl":"https://foursquare.com/v/frogs-restaurant/4c263dd05c5ca593c4c345fe","categoryId":"4bf58dd8d48988d11d941735","category":"Sports Bar","checkinsCount":724,"usersCount":281,"tipCount":12,"visitsCount":780,"url":"http://bullfrogsnac.com","tier":"","message":"","currency":"","rating":6.8},{"name":"Flashback Cafe","phone":"9364629550","address":"109 Wettermark St","lat":31.62389947623622,"lng":-94.65179806867351,"city_fetched":"Nacogdoches,US","state":"TX","country":"United States","canonicalUrl":"https://foursquare.com/v/flashback-cafe/4baee01cf964a520ddde3be3","categoryId":"4bf58dd8d48988d116941735","category":"Bar","checkinsCount":1322,"usersCount":375,"tipCount":10,"visitsCount":1430,"url":"http://flashbackcafe.com","tier":"","message":"","currency":"","rating":6.6}]