[{"name":"Carneros Bistro & Wine Bar","phone":"7079312042","twitter":"carnerosbistro","address":"1325 Broadway","lat":38.277433,"lng":-122.460508,"city_fetched":"Napa,US","state":"CA","country":"United States","canonicalUrl":"https://foursquare.com/v/carneros-bistro--wine-bar/4b650d22f964a52083e12ae3","categoryId":"4bf58dd8d48988d123941735","category":"Wine Bar","checkinsCount":1324,"usersCount":952,"tipCount":18,"visitsCount":1473,"url":"http://thelodgeatsonoma.com","tier":2,"message":"Moderate","currency":"$","rating":8.8},{"name":"1313 Main - Restaurant and Wine Bar","phone":"7072581313","twitter":"1313main","address":"1313 Main St","lat":38.301506524885816,"lng":-122.28756592963781,"neighborhood":"Central Napa","city_fetched":"Napa,US","state":"CA","country":"United States","canonicalUrl":"https://foursquare.com/1313main","categoryId":"4bf58dd8d48988d123941735","category":"Wine Bar","checkinsCount":1890,"usersCount":1136,"tipCount":36,"visitsCount":2075,"url":"http://1313main.com","tier":3,"message":"Expensive","currency":"$","rating":8.8},{"name":"Robert Sinskey Vineyards","phone":"7079449090","address":"6320 Silverado Trl","lat":38.42509827382204,"lng":-122.33705957539377,"city_fetched":"Napa,US","state":"CA","country":"United States","canonicalUrl":"https://foursquare.com/v/robert-sinskey-vineyards/4a218e0df964a520117d1fe3","categoryId":"4bf58dd8d48988d123941735","category":"Wine Bar","checkinsCount":2711,"usersCount":2587,"tipCount":27,"visitsCount":3186,"url":"http://www.robertsinskey.com","tier":"","message":"","currency":"","rating":8.8},{"name":"Oxbow Wine Merchant & Wine Bar","phone":"7072575200","twitter":"oxbowwine","address":"610 1st St","lat":38.301782,"lng":-122.28180170059204,"neighborhood":"Central Napa","city_fetched":"Napa,US","state":"CA","country":"United States","canonicalUrl":"https://foursquare.com/v/oxbow-wine-merchant--wine-bar/4b59130bf964a520507b28e3","categoryId":"4bf58dd8d48988d123941735","category":"Wine Bar","checkinsCount":934,"usersCount":547,"tipCount":9,"visitsCount":945,"tier":"","message":"","currency":"","rating":8.6},{"name":"Cadet Wine & Beer Bar","phone":"7072244400","twitter":"cadetwinebar","address":"930 Franklin St","lat":38.297469325496024,"lng":-122.28796462836999,"neighborhood":"Central Napa","city_fetched":"Napa,US","state":"CA","country":"United States","canonicalUrl":"https://foursquare.com/v/cadet-wine--beer-bar/53154470498eead764aca1d9","categoryId":"4bf58dd8d48988d123941735","category":"Wine Bar","checkinsCount":328,"usersCount":259,"tipCount":8,"visitsCount":386,"url":"http://www.cadetbeerandwinebar.com","tier":"","message":"","currency":"","rating":8.4},{"name":"Carpe Diem Wine Bar","phone":"7072240800","twitter":"carpediemnapa","address":"1001 2nd St","lat":38.29839552051261,"lng":-122.28526230769023,"neighborhood":"Central Napa","city_fetched":"Napa,US","state":"CA","country":"United States","canonicalUrl":"https://foursquare.com/v/carpe-diem-wine-bar/4c16ce8096040f47077873a5","categoryId":"4bf58dd8d48988d123941735","category":"Wine Bar","checkinsCount":3443,"usersCount":1901,"tipCount":68,"visitsCount":3458,"url":"http://www.carpediemwinebar.com","tier":2,"message":"Moderate","currency":"$","rating":8.4},{"name":"38ยบ North Lounge","phone":"7079389000","twitter":"fairmontsonoma","address":"100 Boyes Blvd","lat":38.312653274227166,"lng":-122.48296386378895,"neighborhood":"Boyes Hot Springs","city_fetched":"Napa,US","state":"CA","country":"United States","canonicalUrl":"https://foursquare.com/v/38%C2%BA-north-lounge/4cded84fdb125481a04d33ce","categoryId":"4bf58dd8d48988d1d5941735","category":"Hotel Bar","checkinsCount":485,"usersCount":198,"tipCount":4,"visitsCount":487,"url":"http://www.fairmont.com/sonoma/dining/38-north/","tier":"","message":"","currency":"","rating":7.9},{"name":"HopMonk Tavern","phone":"7079359100","twitter":"hopmonkson","address":"691 Broadway","lat":38.28859569831362,"lng":-122.45876284312834,"city_fetched":"Napa,US","state":"CA","country":"United States","canonicalUrl":"https://foursquare.com/v/hopmonk-tavern/4ced8d185de16ea8c9cab696","categoryId":"50327c8591d4c4b30a586d5d","category":"Brewery","checkinsCount":3656,"usersCount":2755,"tipCount":36,"visitsCount":4458,"url":"http://www.hopmonk.com","tier":2,"message":"Moderate","currency":"$","rating":7.9},{"name":"Olde Sonoma Public House","phone":"7073641930","address":"18615 Highway 12","lat":38.308364331100265,"lng":-122.47804451226006,"city_fetched":"Napa,US","state":"CA","country":"United States","canonicalUrl":"https://foursquare.com/v/olde-sonoma-public-house/4c1c45ebb9f876b0a4c47b46","categoryId":"4bf58dd8d48988d117941735","category":"Beer Garden","checkinsCount":905,"usersCount":288,"tipCount":9,"visitsCount":996,"url":"http://oldesonomapub.com","tier":"","message":"","currency":"","rating":7.6},{"name":"Silenus Vinters","phone":"7072993930","address":"5225 Solano Ave","lat":38.364138,"lng":-122.338795,"city_fetched":"Napa,US","state":"CA","country":"United States","canonicalUrl":"https://foursquare.com/v/silenus-vinters/4bb23da9a32876b0b15400fe","categoryId":"4bf58dd8d48988d123941735","category":"Wine Bar","checkinsCount":495,"usersCount":548,"tipCount":5,"visitsCount":594,"url":"http://www.silenusvintners.com","tier":"","message":"","currency":"","rating":7.5},{"name":"Siena Restaurant at The Meritage Resort","phone":"7072511950","twitter":"meritageresort","address":"875 Bordeaux Way","lat":38.24591795646372,"lng":-122.27326162405075,"city_fetched":"Napa,US","state":"CA","country":"United States","canonicalUrl":"https://foursquare.com/v/siena-restaurant-at-the-meritage-resort/4b778bf8f964a520f3a02ee3","categoryId":"4bf58dd8d48988d1d5941735","category":"Hotel Bar","checkinsCount":859,"usersCount":619,"tipCount":12,"visitsCount":865,"url":"http://meritagecollection.com/meritageresort/","tier":"","message":"","currency":"","rating":7.5},{"name":"Wines By Mark Herold","phone":"7072563111","twitter":"markheroldwines","address":"710 First St","lat":38.300967414431675,"lng":-122.28231071914398,"neighborhood":"Central Napa","city_fetched":"Napa,US","state":"CA","country":"United States","canonicalUrl":"https://foursquare.com/markheroldwines","categoryId":"4bf58dd8d48988d123941735","category":"Wine Bar","checkinsCount":263,"usersCount":237,"tipCount":4,"visitsCount":269,"url":"http://markheroldwines.com","tier":"","message":"","currency":"","rating":7.5},{"name":"Twenty Rows Tasting Room","lat":38.30454308963699,"lng":-122.28691250348265,"neighborhood":"Central Napa","city_fetched":"Napa,US","state":"CA","country":"United States","canonicalUrl":"https://foursquare.com/v/twenty-rows-tasting-room/4c4271c1520fa593e251cbac","categoryId":"4bf58dd8d48988d123941735","category":"Wine Bar","checkinsCount":303,"usersCount":289,"tipCount":5,"visitsCount":340,"tier":"","message":"","currency":"","rating":7.4},{"name":"Mercantile Social","phone":"7076871234","address":"1450 1st St","lat":38.297488816561255,"lng":-122.28927700113579,"neighborhood":"Central Napa","city_fetched":"Napa,US","state":"CA","country":"United States","canonicalUrl":"https://foursquare.com/v/mercantile-social/505be4f1e4b0d44483890136","categoryId":"4bf58dd8d48988d1d5941735","category":"Hotel Bar","checkinsCount":198,"usersCount":142,"tipCount":4,"visitsCount":198,"url":"http://andaznapa.com","tier":"","message":"","currency":"","rating":7.4},{"name":"Napa Smith Brewery","phone":"7072547167","twitter":"napa_smith","address":"1 Executive Way","lat":38.224740442941375,"lng":-122.25707766524894,"city_fetched":"Napa,US","state":"CA","country":"United States","canonicalUrl":"https://foursquare.com/v/napa-smith-brewery/4bd619b17b1876b0cdfe8b86","categoryId":"50327c8591d4c4b30a586d5d","category":"Brewery","checkinsCount":1702,"usersCount":1384,"tipCount":21,"visitsCount":2072,"url":"http://www.napasmithbrewery.com","tier":1,"message":"Cheap","currency":"$","rating":7.3},{"name":"Carneros Brewing Company","phone":"7079381880","twitter":"carnerosbrewing","address":"22985 Burndale Rd","lat":38.2458383084073,"lng":-122.42270521543897,"city_fetched":"Napa,US","state":"CA","country":"United States","canonicalUrl":"https://foursquare.com/v/carneros-brewing-company/50469a4fe4b05a8c8975d7ff","categoryId":"50327c8591d4c4b30a586d5d","category":"Brewery","checkinsCount":605,"usersCount":568,"tipCount":13,"visitsCount":719,"url":"http://www.carnerosbrewing.com","tier":"","message":"","currency":"","rating":7.2},{"name":"Thompson's Corner","address":"2147 Cordelia Rd","lat":38.21109820347456,"lng":-122.13341280367848,"city_fetched":"Napa,US","state":"CA","country":"United States","canonicalUrl":"https://foursquare.com/v/thompsons-corner/4ad17dd9f964a5208ede20e3","categoryId":"4bf58dd8d48988d118941735","category":"Dive Bar","checkinsCount":360,"usersCount":231,"tipCount":4,"visitsCount":488,"tier":"","message":"","currency":"","rating":7.1},{"name":"Capp Heritage Vineyards","address":"1245 1st St","lat":38.298011063560345,"lng":-122.2876600669733,"neighborhood":"Central Napa","city_fetched":"Napa,US","state":"CA","country":"United States","canonicalUrl":"https://foursquare.com/v/capp-heritage-vineyards/532d08e2498efdf20a1a9db7","categoryId":"4bf58dd8d48988d123941735","category":"Wine Bar","checkinsCount":97,"usersCount":108,"tipCount":1,"visitsCount":109,"tier":"","message":"","currency":"","rating":6.9},{"name":"Robert Craig Winery","phone":"7072659631","address":"625 Imperial Way Ste 1","lat":38.30645877159243,"lng":-122.28261529586075,"neighborhood":"Central Napa","city_fetched":"Napa,US","state":"CA","country":"United States","canonicalUrl":"https://foursquare.com/v/robert-craig-winery/4bae8d44f964a520cfbf3be3","categoryId":"4bf58dd8d48988d123941735","category":"Wine Bar","checkinsCount":183,"usersCount":174,"tipCount":2,"visitsCount":258,"url":"http://robertcraigwine.ewinerysolutions.com","tier":"","message":"","currency":"","rating":6.8},{"name":"PureCru","address":"1463 1st St","lat":38.29729037480236,"lng":-122.28893368155504,"neighborhood":"Central Napa","city_fetched":"Napa,US","state":"CA","country":"United States","canonicalUrl":"https://foursquare.com/v/purecru/513bfed5e4b0809a25824ae7","categoryId":"4bf58dd8d48988d123941735","category":"Wine Bar","checkinsCount":103,"usersCount":97,"tipCount":2,"visitsCount":103,"url":"http://www.purecruwines.com","tier":"","message":"","currency":"","rating":6.8},{"name":"Pancha's","phone":"7079442125","address":"6764 Washington St","lat":38.40646930846039,"lng":-122.36671699580056,"city_fetched":"Napa,US","state":"CA","country":"United States","canonicalUrl":"https://foursquare.com/v/panchas/4ae191b7f964a5204a8621e3","categoryId":"4bf58dd8d48988d118941735","category":"Dive Bar","checkinsCount":1477,"usersCount":610,"tipCount":13,"visitsCount":1483,"tier":"","message":"","currency":"","rating":6.8},{"name":"BANK Cafe and Bar","phone":"7072575151","address":"1314 McKinstry St","lat":38.30398879058982,"lng":-122.28366192556713,"neighborhood":"Central Napa","city_fetched":"Napa,US","state":"CA","country":"United States","canonicalUrl":"https://foursquare.com/v/bank-cafe-and-bar/4be79b27947820a10403b4db","categoryId":"4bf58dd8d48988d1d5941735","category":"Hotel Bar","checkinsCount":883,"usersCount":527,"tipCount":13,"visitsCount":902,"url":"http://bankcafenapa.com","tier":2,"message":"Moderate","currency":"$","rating":6.8},{"name":"Stones Sports Bar","phone":"7072551633","address":"1679 W Imola Ave","lat":38.281047422688154,"lng":-122.2928707153538,"neighborhood":"Central Napa","city_fetched":"Napa,US","state":"CA","country":"United States","canonicalUrl":"https://foursquare.com/v/stones-sports-bar/4e4f5752d164978659c955c7","categoryId":"4bf58dd8d48988d116941735","category":"Bar","checkinsCount":814,"usersCount":151,"tipCount":3,"visitsCount":848,"tier":"","message":"","currency":"","rating":6.7},{"name":"Crush Ultra Lounge","phone":"7072513066","twitter":"meritageresort","address":"875 Bordeaux Way","lat":38.24640431553509,"lng":-122.27444171905518,"city_fetched":"Napa,US","state":"CA","country":"United States","canonicalUrl":"https://foursquare.com/v/crush-ultra-lounge/4fb6f080e4b07c52a6487bb4","categoryId":"4bf58dd8d48988d116941735","category":"Bar","checkinsCount":641,"usersCount":466,"tipCount":5,"visitsCount":655,"url":"http://goo.gl/IxpkfE","tier":"","message":"","currency":"","rating":6.7},{"name":"Town Square","address":"482 1st St E","lat":38.29214614088981,"lng":-122.45692736130256,"city_fetched":"Napa,US","state":"CA","country":"United States","canonicalUrl":"https://foursquare.com/v/town-square/4b774abbf964a520668f2ee3","categoryId":"4bf58dd8d48988d118941735","category":"Dive Bar","checkinsCount":1952,"usersCount":1151,"tipCount":9,"visitsCount":1963,"tier":"","message":"","currency":"","rating":6.5},{"name":"Henry's","address":"823 Main St","lat":38.298149436106755,"lng":-122.28478607192831,"neighborhood":"Central Napa","city_fetched":"Napa,US","state":"CA","country":"United States","canonicalUrl":"https://foursquare.com/v/henrys/4c550b21479fc9283a702494","categoryId":"4bf58dd8d48988d118941735","category":"Dive Bar","checkinsCount":1079,"usersCount":524,"tipCount":11,"visitsCount":1081,"tier":"","message":"","currency":"","rating":6.2},{"name":"John Anthony","address":"1440 1st St","lat":38.2975234366405,"lng":-122.28901147842407,"neighborhood":"Central Napa","city_fetched":"Napa,US","state":"CA","country":"United States","canonicalUrl":"https://foursquare.com/v/john-anthony/4c2d53b44e132d7ffe599cdf","categoryId":"4bf58dd8d48988d123941735","category":"Wine Bar","checkinsCount":853,"usersCount":576,"tipCount":9,"visitsCount":860,"url":"http://johnanthonyvineyards.com","tier":"","message":"","currency":"","rating":6.2},{"name":"Empire","address":"1400 1st St","lat":38.29771720262508,"lng":-122.28901674284562,"neighborhood":"Central Napa","city_fetched":"Napa,US","state":"CA","country":"United States","canonicalUrl":"https://foursquare.com/v/empire/5197161e498eaee011bde3cc","categoryId":"4bf58dd8d48988d121941735","category":"Lounge","checkinsCount":250,"usersCount":172,"tipCount":3,"visitsCount":252,"tier":"","message":"","currency":"","rating":6.1},{"name":"Green Door","phone":"7072559663","address":"2955 Solano Ave","lat":38.31337693333333,"lng":-122.307144,"city_fetched":"Napa,US","state":"CA","country":"United States","canonicalUrl":"https://foursquare.com/v/green-door/4be7a925d837c9b63e7aa406","categoryId":"4bf58dd8d48988d118941735","category":"Dive Bar","checkinsCount":979,"usersCount":220,"tipCount":2,"visitsCount":1023,"tier":"","message":"","currency":"","rating":5.9},{"name":"Vermeil Wines","phone":"7072549881","address":"1018 1st St","lat":38.299158,"lng":-122.286012,"neighborhood":"Central Napa","city_fetched":"Napa,US","state":"CA","country":"United States","canonicalUrl":"https://foursquare.com/v/vermeil-wines/51e863ce498eb34c4b12a795","categoryId":"4bf58dd8d48988d123941735","category":"Wine Bar","checkinsCount":147,"usersCount":136,"tipCount":5,"visitsCount":147,"url":"http://www.vermeilwines.com","tier":"","message":"","currency":"","rating":5.9}]