[{"name":"Riptide Brewing Company","phone":"+2392286533","twitter":"riptidebrews","address":"987 3rd Ave N","lat":26.150833,"lng":-81.795034,"neighborhood":"Old Naples","city_fetched":"Naples,US","state":"FL","country":"United States","canonicalUrl":"https://foursquare.com/v/riptide-brewing-company/5658f53a498e0aff3360b779","categoryId":"50327c8591d4c4b30a586d5d","category":"Brewery","checkinsCount":140,"usersCount":193,"tipCount":6,"visitsCount":348,"url":"http://riptidebrewingcompany.com","tier":"","message":"","currency":"","rating":9},{"name":"BURN by Rocky Patel","phone":"2396539013","twitter":"burnnaplesfl","address":"The Marcato: 9110 Strada Place Suite 6160","lat":26.253076355471457,"lng":-81.79917812347412,"neighborhood":"Mercato","city_fetched":"Naples,US","state":"FL","country":"United States","canonicalUrl":"https://foursquare.com/v/burn-by-rocky-patel/4c4cbdea50710f4758469332","categoryId":"4bf58dd8d48988d121941735","category":"Lounge","checkinsCount":2429,"usersCount":1181,"tipCount":31,"visitsCount":2491,"url":"http://burnbyrockypatel.com","tier":2,"message":"Moderate","currency":"$","rating":8.5},{"name":"Jack's Bait Shack","phone":"2395943460","address":"975 Imperial Golf Course Blvd","lat":26.290470815570746,"lng":-81.80073523549935,"neighborhood":"North Naples","city_fetched":"Naples,US","state":"FL","country":"United States","canonicalUrl":"https://foursquare.com/v/jacks-bait-shack/4c54e40906901b8d5111804c","categoryId":"4bf58dd8d48988d116941735","category":"Bar","checkinsCount":4515,"usersCount":724,"tipCount":36,"visitsCount":5003,"url":"http://www.jacksbaitshack.com","tier":"","message":"","currency":"","rating":8.5},{"name":"The Pub Naples","phone":"2395942748","twitter":"pubnaples","address":"9118 Strada Pl #8160","lat":26.252532702960963,"lng":-81.79733276367188,"neighborhood":"Mercato","city_fetched":"Naples,US","state":"FL","country":"United States","canonicalUrl":"https://foursquare.com/v/the-pub-naples/4bc8cfad0687ef3b8da5d8cc","categoryId":"4bf58dd8d48988d11b941735","category":"Pub","checkinsCount":6342,"usersCount":2504,"tipCount":52,"visitsCount":6484,"url":"http://www.experiencethepub.com","tier":2,"message":"Moderate","currency":"$","rating":8.3},{"name":"Miller's Naples Ale House","phone":"2395910125","address":"6320 Hollywood Blvd","lat":26.21897962116696,"lng":-81.77141501083122,"neighborhood":"North Naples","city_fetched":"Naples,US","state":"FL","country":"United States","canonicalUrl":"https://foursquare.com/v/millers-naples-ale-house/4b5b7261f964a520c3fe28e3","categoryId":"4bf58dd8d48988d11d941735","category":"Sports Bar","checkinsCount":3092,"usersCount":1840,"tipCount":40,"visitsCount":4050,"url":"http://www.millersalehouse.com","tier":2,"message":"Moderate","currency":"$","rating":8.2},{"name":"Naples Flatbread & Wine bar","phone":"2394318259","twitter":"naplesflatbread","address":"9118 Strada Pl #8170","lat":26.25268803529698,"lng":-81.79732377684616,"neighborhood":"Mercato","city_fetched":"Naples,US","state":"FL","country":"United States","canonicalUrl":"https://foursquare.com/v/naples-flatbread--wine-bar/4fba5063e4b05cad1cd85afb","categoryId":"4bf58dd8d48988d123941735","category":"Wine Bar","checkinsCount":550,"usersCount":303,"tipCount":3,"visitsCount":563,"url":"http://www.naplesflatbread.com","tier":"","message":"","currency":"","rating":8.1},{"name":"South Street Grill","phone":"2394359333","address":"1410 Pine Ridge Rd","lat":26.21098919426728,"lng":-81.79286568501128,"neighborhood":"Goodlette Corners","city_fetched":"Naples,US","state":"FL","country":"United States","canonicalUrl":"https://foursquare.com/v/south-street-grill/4b71f7d2f964a52052672de3","categoryId":"4bf58dd8d48988d116941735","category":"Bar","checkinsCount":3218,"usersCount":1353,"tipCount":38,"visitsCount":3796,"url":"http://www.southstreetnaples.com","tier":2,"message":"Moderate","currency":"$","rating":8.1},{"name":"Naples Beach Brewery","phone":"2393048795","twitter":"naplesbeachbrew","address":"4110 Enterprise Ave Ste 217","lat":26.15935453955289,"lng":-81.758216827524,"city_fetched":"Naples,US","state":"FL","country":"United States","canonicalUrl":"https://foursquare.com/v/naples-beach-brewery/4fd8cb4e4fc654f005353262","categoryId":"50327c8591d4c4b30a586d5d","category":"Brewery","checkinsCount":177,"usersCount":232,"tipCount":5,"visitsCount":352,"url":"http://naplesbeachbrewery.com","tier":"","message":"","currency":"","rating":8.1},{"name":"Jack's River Bar","phone":"2392131441","twitter":"jacksriverbar","address":"475 North Rd","lat":26.152265490760428,"lng":-81.78420066833496,"city_fetched":"Naples,US","state":"FL","country":"United States","canonicalUrl":"https://foursquare.com/v/jacks-river-bar/4cc31643c844721ef6bee001","categoryId":"4bf58dd8d48988d116941735","category":"Bar","checkinsCount":214,"usersCount":115,"tipCount":6,"visitsCount":214,"url":"http://jacksriverbarnaples.com","tier":"","message":"","currency":"","rating":8},{"name":"Blue Monkey","phone":"2395972583","address":"7550 Mission Hills Dr","lat":26.24691337,"lng":-81.690113,"city_fetched":"Naples,US","state":"FL","country":"United States","canonicalUrl":"https://foursquare.com/v/blue-monkey/4b71ccf4f964a5202b5d2de3","categoryId":"4bf58dd8d48988d116941735","category":"Bar","checkinsCount":695,"usersCount":451,"tipCount":13,"visitsCount":1089,"url":"http://bluemonkeybar.com","tier":2,"message":"Moderate","currency":"$","rating":8},{"name":"Blue Martini","phone":"2395912583","twitter":"bmnaples","address":"9114 Strada Pl #12105","lat":26.25304267795621,"lng":-81.79945707321167,"neighborhood":"Mercato","city_fetched":"Naples,US","state":"FL","country":"United States","canonicalUrl":"https://foursquare.com/v/blue-martini/4bcfd6afa8b3a5930e0c635f","categoryId":"4bf58dd8d48988d11e941735","category":"Cocktail Bar","checkinsCount":4013,"usersCount":2364,"tipCount":37,"visitsCount":4224,"url":"http://bluemartinilounge.com","tier":2,"message":"Moderate","currency":"$","rating":7.7},{"name":"North Naples Country Club","phone":"2395979892","address":"874 101st Ave N","lat":26.26309347290881,"lng":-81.80157339434153,"neighborhood":"North Naples","city_fetched":"Naples,US","state":"FL","country":"United States","canonicalUrl":"https://foursquare.com/v/north-naples-country-club/4bba1c613db7b71396e8229a","categoryId":"4bf58dd8d48988d118941735","category":"Dive Bar","checkinsCount":1410,"usersCount":349,"tipCount":7,"visitsCount":1554,"url":"http://northnaplescountryclub.com","tier":"","message":"","currency":"","rating":7.7},{"name":"Avenue Wine Cafe","phone":"2394039463","address":"483 5th Ave S","lat":26.141379,"lng":-81.80072153333333,"neighborhood":"Old Naples","city_fetched":"Naples,US","state":"FL","country":"United States","canonicalUrl":"https://foursquare.com/v/avenue-wine-cafe/4b36516ef964a520c23225e3","categoryId":"4bf58dd8d48988d123941735","category":"Wine Bar","checkinsCount":1275,"usersCount":500,"tipCount":9,"visitsCount":1295,"tier":"","message":"","currency":"","rating":7.7},{"name":"Osetra","phone":"2397767938","twitter":"osetranaples","address":"469 5th Ave S","lat":26.14139542963478,"lng":-81.8007619286037,"neighborhood":"Old Naples","city_fetched":"Naples,US","state":"FL","country":"United States","canonicalUrl":"https://foursquare.com/v/osetra/4e61cd2ea80951b3183afad5","categoryId":"4bf58dd8d48988d123941735","category":"Wine Bar","checkinsCount":248,"usersCount":156,"tipCount":7,"visitsCount":249,"url":"http://osetranaples.com","tier":"","message":"","currency":"","rating":7.6},{"name":"Old Naples Pub","phone":"2396498200","address":"255 13th Ave S","lat":26.131267721409735,"lng":-81.8021072484852,"neighborhood":"Old Naples","city_fetched":"Naples,US","state":"FL","country":"United States","canonicalUrl":"https://foursquare.com/v/old-naples-pub/4ba00992f964a520795437e3","categoryId":"4bf58dd8d48988d11b941735","category":"Pub","checkinsCount":978,"usersCount":874,"tipCount":24,"visitsCount":1167,"url":"http://www.naplespubs.com","tier":"","message":"","currency":"","rating":7.6},{"name":"Wine Loft","address":"The Mercato Strada","lat":26.253023713654343,"lng":-81.79772952984614,"neighborhood":"Mercato","city_fetched":"Naples,US","state":"FL","country":"United States","canonicalUrl":"https://foursquare.com/v/wine-loft/50c8d5d0e4b008492842bc8a","categoryId":"4bf58dd8d48988d123941735","category":"Wine Bar","checkinsCount":531,"usersCount":332,"tipCount":11,"visitsCount":545,"tier":"","message":"","currency":"","rating":7.4},{"name":"Pelican Larry’s Raw Bar & Grill - Pine Ridge Rd","phone":"2396490800","twitter":"pelicanlarryspr","address":"1046 Pine Ridge Rd","lat":26.21090551373069,"lng":-81.79881864522831,"city_fetched":"Naples,US","state":"FL","country":"United States","canonicalUrl":"https://foursquare.com/v/pelican-larrys-raw-bar--grill--pine-ridge-rd/4b72108af964a520dd6c2de3","categoryId":"4bf58dd8d48988d11d941735","category":"Sports Bar","checkinsCount":1751,"usersCount":1113,"tipCount":18,"visitsCount":2356,"url":"http://pelicanlarryspineridge-hub.com","tier":"","message":"","currency":"","rating":7.4},{"name":"The Brass Tap","address":"895 Wiggins Pass Rd #1","lat":26.294840969165584,"lng":-81.80295606857504,"neighborhood":"North Naples","city_fetched":"Naples,US","state":"FL","country":"United States","canonicalUrl":"https://foursquare.com/v/the-brass-tap/54dcf304498e3ef9552210c6","categoryId":"4bf58dd8d48988d116941735","category":"Bar","checkinsCount":175,"usersCount":162,"tipCount":1,"visitsCount":356,"tier":"","message":"","currency":"","rating":7.4},{"name":"Rusty's Raw Bar","phone":"2392639464","address":"2700 Immokalee Rd Ste 13","lat":26.27105260176679,"lng":-81.76634646192754,"neighborhood":"North Naples","city_fetched":"Naples,US","state":"FL","country":"United States","canonicalUrl":"https://foursquare.com/v/rustys-raw-bar/51e570a6498ed9d31bb43b32","categoryId":"4bf58dd8d48988d11b941735","category":"Pub","checkinsCount":394,"usersCount":202,"tipCount":4,"visitsCount":550,"url":"http://www.rustysrawbarandgrill.com","tier":"","message":"","currency":"","rating":7.4},{"name":"Sunset Beach Bar","phone":"2394354347","address":"851 Gulf Shore Blvd N","lat":26.157031589785,"lng":-81.80945802495899,"city_fetched":"Naples,US","state":"FL","country":"United States","canonicalUrl":"https://foursquare.com/v/sunset-beach-bar/4da23ab19aa4721edecb0b1a","categoryId":"52e81612bcbc57f1066b7a0d","category":"Beach Bar","checkinsCount":548,"usersCount":327,"tipCount":4,"visitsCount":559,"tier":"","message":"","currency":"","rating":7.3},{"name":"Foxboro Sports Tavern","phone":"2395302337","address":"4420 Thomasson Dr","lat":26.10593019183693,"lng":-81.74905522466165,"neighborhood":"East Naples","city_fetched":"Naples,US","state":"FL","country":"United States","canonicalUrl":"https://foursquare.com/v/foxboro-sports-tavern/4ba14cb8f964a52069aa37e3","categoryId":"50327c8591d4c4b30a586d5d","category":"Brewery","checkinsCount":928,"usersCount":654,"tipCount":14,"visitsCount":1245,"url":"http://www.foxborotavern.com","tier":"","message":"","currency":"","rating":7.3},{"name":"Stevie Tomato's Sports Page","phone":"2393524233","address":"15215 Collier Blvd #301","lat":26.269258,"lng":-81.69087,"city_fetched":"Naples,US","state":"FL","country":"United States","canonicalUrl":"https://foursquare.com/v/stevie-tomatos-sports-page/4bbe74e082a2ef3ba4712bd2","categoryId":"4bf58dd8d48988d11d941735","category":"Sports Bar","checkinsCount":1210,"usersCount":641,"tipCount":14,"visitsCount":1655,"url":"http://stevietomatossportspage.com","tier":"","message":"","currency":"","rating":7.3},{"name":"Naples Flatbread & Wine Bar","twitter":"naplesflatbread","address":"6434 Naples Blvd","lat":26.218684315681458,"lng":-81.76917159999999,"neighborhood":"North Naples","city_fetched":"Naples,US","state":"FL","country":"United States","canonicalUrl":"https://foursquare.com/v/naples-flatbread--wine-bar/4b6fc700f964a52042fc2ce3","categoryId":"4bf58dd8d48988d123941735","category":"Wine Bar","checkinsCount":668,"usersCount":366,"tipCount":11,"visitsCount":854,"url":"http://naplesflatbread.com","tier":"","message":"","currency":"","rating":7.2},{"name":"Bokamper's Sports Bar & Grill","phone":"2394317611","address":"8990 Fontana del Sol Way","lat":26.244388,"lng":-81.773322,"neighborhood":"Pelican Marsh","city_fetched":"Naples,US","state":"FL","country":"United States","canonicalUrl":"https://foursquare.com/v/bokampers-sports-bar--grill/4c4daed051c2c928d007359d","categoryId":"4bf58dd8d48988d11d941735","category":"Sports Bar","checkinsCount":3272,"usersCount":1651,"tipCount":54,"visitsCount":4099,"url":"http://www.bokampers.com","tier":2,"message":"Moderate","currency":"$","rating":7.2},{"name":"Taps Bar & Lounge","lat":26.253599011592673,"lng":-81.79931514834774,"neighborhood":"Mercato","city_fetched":"Naples,US","state":"FL","country":"United States","canonicalUrl":"https://foursquare.com/v/taps-bar--lounge/51b4aabf498ebe9d4c745a3a","categoryId":"4bf58dd8d48988d116941735","category":"Bar","checkinsCount":488,"usersCount":350,"tipCount":11,"visitsCount":503,"tier":"","message":"","currency":"","rating":7.1},{"name":"Boston Beer Garden","phone":"2395962337","address":"2396 Immokalee Rd","lat":26.27071075084043,"lng":-81.77197578773003,"neighborhood":"North Naples","city_fetched":"Naples,US","state":"FL","country":"United States","canonicalUrl":"https://foursquare.com/v/boston-beer-garden/4b6cae81f964a520cc4b2ce3","categoryId":"4bf58dd8d48988d11d941735","category":"Sports Bar","checkinsCount":2086,"usersCount":973,"tipCount":32,"visitsCount":2463,"url":"http://www.bostonbeergardennaples.com","tier":"","message":"","currency":"","rating":7.1},{"name":"The Village Pub at Venetian Village","phone":"2392622707","address":"4360 Gulf Shore Blvd N","lat":26.197145434109206,"lng":-81.81112879584735,"neighborhood":"Park Shore","city_fetched":"Naples,US","state":"FL","country":"United States","canonicalUrl":"https://foursquare.com/v/the-village-pub-at-venetian-village/4b76e467f964a520cd672ee3","categoryId":"4bf58dd8d48988d11b941735","category":"Pub","checkinsCount":725,"usersCount":602,"tipCount":15,"visitsCount":832,"url":"http://naplespubs.com/village_pub","tier":"","message":"","currency":"","rating":7},{"name":"Sushi Bar","phone":"2395986644","address":"280 Vanderbilt Beach Rd","lat":26.251565611774357,"lng":-81.82196919852312,"neighborhood":"North Naples","city_fetched":"Naples,US","state":"FL","country":"United States","canonicalUrl":"https://foursquare.com/v/sushi-bar/4c42766dda3dc92878a3cab9","categoryId":"4bf58dd8d48988d11e941735","category":"Cocktail Bar","checkinsCount":281,"usersCount":213,"tipCount":5,"visitsCount":287,"url":"http://www.ritzcarlton.com/en/Properties/Naples/Dining/Dusk/Default.htm#","tier":"","message":"","currency":"","rating":6.9},{"name":"Zookies","phone":"2395667513","address":"7740 Preserve Ln","lat":26.273637060894593,"lng":-81.71124458312988,"neighborhood":"Olde Cypress","city_fetched":"Naples,US","state":"FL","country":"United States","canonicalUrl":"https://foursquare.com/v/zookies/4b75db97f964a520e3292ee3","categoryId":"4bf58dd8d48988d116941735","category":"Bar","checkinsCount":638,"usersCount":394,"tipCount":13,"visitsCount":899,"url":"http://zookiespub.com","tier":2,"message":"Moderate","currency":"$","rating":6.9},{"name":"Bambusa Bar & Grill","phone":"2396495657","address":"600 Goodlette Rd N #211","lat":26.154547333717346,"lng":-81.79063156666666,"neighborhood":"Old Naples","city_fetched":"Naples,US","state":"FL","country":"United States","canonicalUrl":"https://foursquare.com/v/bambusa-bar--grill/4c280ff53492a59357eab628","categoryId":"4bf58dd8d48988d1d8941735","category":"Gay Bar","checkinsCount":487,"usersCount":362,"tipCount":6,"visitsCount":716,"url":"http://www.bambusaonline.com","tier":"","message":"","currency":"","rating":6.9},{"name":"Aura Lounge at Naples Grande","address":"Waldorf Astoria Naples 475 Seagate Drive","lat":26.212059043668763,"lng":-81.81053629040075,"neighborhood":"North Naples","city_fetched":"Naples,US","state":"FL","country":"United States","canonicalUrl":"https://foursquare.com/v/aura-lounge-at-naples-grande/4bba83c5935e95216a462890","categoryId":"4bf58dd8d48988d1d5941735","category":"Hotel Bar","checkinsCount":492,"usersCount":323,"tipCount":12,"visitsCount":512,"url":"http://www.waldorfastorianaples.com/Resort-Activities/Dining/Aura","tier":"","message":"","currency":"","rating":6.8},{"name":"Parrot Bar & Grill","address":"1100 6th Ave S #6","lat":26.140587188303627,"lng":-81.79194733785936,"neighborhood":"Old Naples","city_fetched":"Naples,US","state":"FL","country":"United States","canonicalUrl":"https://foursquare.com/v/parrot-bar--grill/4db1b9f36a231f2e4a705a32","categoryId":"4bf58dd8d48988d116941735","category":"Bar","checkinsCount":607,"usersCount":526,"tipCount":8,"visitsCount":1112,"url":"http://theparrotbarandgrill.com","tier":"","message":"","currency":"","rating":6.6},{"name":"Pelican Larry’s Raw Bar & Grill - Immokalee Rd","phone":"2393301300","twitter":"pelicanlarrysir","address":"8855 Immokalee Rd Ste 16","lat":26.274493549395377,"lng":-81.68619681629443,"neighborhood":"Heritage Bay","city_fetched":"Naples,US","state":"FL","country":"United States","canonicalUrl":"https://foursquare.com/v/pelican-larrys-raw-bar--grill--immokalee-rd/5633c9c2498e22d07bf28154","categoryId":"4bf58dd8d48988d11d941735","category":"Sports Bar","checkinsCount":49,"usersCount":159,"tipCount":1,"visitsCount":275,"url":"http://pelicanlarrysimmokalee-hub.com","tier":"","message":"","currency":"","rating":6.6},{"name":"Shane's Cabana Bar","phone":"2397326633","address":"495 Bayfront Pl","lat":26.14303029222918,"lng":-81.7896514197349,"neighborhood":"Old Naples","city_fetched":"Naples,US","state":"FL","country":"United States","canonicalUrl":"https://foursquare.com/v/shanes-cabana-bar/4bd36253a8b3a5936fde695f","categoryId":"4bf58dd8d48988d118941735","category":"Dive Bar","checkinsCount":598,"usersCount":376,"tipCount":5,"visitsCount":611,"tier":"","message":"","currency":"","rating":6.3},{"name":"The English Pub","address":"5047 U.S. 41 E.","lat":26.10686210389466,"lng":-81.74631453557802,"neighborhood":"East Naples","city_fetched":"Naples,US","state":"FL","country":"United States","canonicalUrl":"https://foursquare.com/v/the-english-pub/4ebc54f7be7bf3d84ec4d251","categoryId":"4bf58dd8d48988d11b941735","category":"Pub","checkinsCount":452,"usersCount":161,"tipCount":9,"visitsCount":513,"url":"http://thenaplesenglishpub.com","tier":"","message":"","currency":"","rating":6.2},{"name":"Paddy Murphy's Irish Pub","phone":"2396495140","twitter":"paddymurphys239","address":"457 5th Ave S","lat":26.141442935297455,"lng":-81.80096479587951,"neighborhood":"Old Naples","city_fetched":"Naples,US","state":"FL","country":"United States","canonicalUrl":"https://foursquare.com/v/paddy-murphys-irish-pub/4b356ad0f964a520fb2c25e3","categoryId":"4bf58dd8d48988d11b941735","category":"Pub","checkinsCount":1758,"usersCount":980,"tipCount":11,"visitsCount":1769,"url":"http://www.paddymurphys.com","tier":2,"message":"Moderate","currency":"$","rating":6.1},{"name":"Mulligan's Sports Grille","phone":"2392611001","address":"2041 Tamiami Trl N","lat":26.171236554081975,"lng":-81.80051101303934,"neighborhood":"Moorings","city_fetched":"Naples,US","state":"FL","country":"United States","canonicalUrl":"https://foursquare.com/v/mulligans-sports-grille/4bc12158abf49521afa0c093","categoryId":"4bf58dd8d48988d11d941735","category":"Sports Bar","checkinsCount":438,"usersCount":230,"tipCount":4,"visitsCount":457,"url":"http://mulliganssportsgrillenaples.com","tier":"","message":"","currency":"","rating":6},{"name":"Rod and Gun Club","phone":"2396952101","address":"200 Riverside Dr","lat":25.858197153932984,"lng":-81.38722070180849,"neighborhood":"Everglades City","city_fetched":"Naples,US","state":"FL","country":"United States","canonicalUrl":"https://foursquare.com/v/rod-and-gun-club/4ba54407f964a520acf338e3","categoryId":"4bf58dd8d48988d121941735","category":"Lounge","checkinsCount":198,"usersCount":179,"tipCount":8,"visitsCount":202,"url":"http://www.evergladesrodandgun.com","tier":"","message":"","currency":"","rating":5.7}]