[{"name":"Tennessee Brew Works","phone":"6154360050","twitter":"tnbrewworks","address":"809 Ewing Ave","lat":36.15044827810225,"lng":-86.7758383784141,"city_fetched":"Nashville,US","state":"TN","country":"United States","canonicalUrl":"https://foursquare.com/tnbrewworks","categoryId":"50327c8591d4c4b30a586d5d","category":"Brewery","checkinsCount":1500,"usersCount":1331,"tipCount":10,"visitsCount":2106,"url":"http://www.tnbrew.com","tier":1,"message":"Cheap","currency":"$","rating":9.3},{"name":"The Filling Station","phone":"6158180012","twitter":"_fillingstation","address":"1118 Halcyon Ave","lat":36.122764911325014,"lng":-86.7896661209943,"neighborhood":"Sunnyside","city_fetched":"Nashville,US","state":"TN","country":"United States","canonicalUrl":"https://foursquare.com/_fillingstation","categoryId":"4bf58dd8d48988d117941735","category":"Beer Garden","checkinsCount":863,"usersCount":458,"tipCount":14,"visitsCount":874,"url":"http://brewstogo.com","tier":"","message":"","currency":"","rating":9.3},{"name":"Flying Saucer","phone":"6152593039","twitter":"flyingsaucernas","address":"111 10th Ave S","lat":36.15673530779004,"lng":-86.78386509418488,"city_fetched":"Nashville,US","state":"TN","country":"United States","canonicalUrl":"https://foursquare.com/v/flying-saucer/4b06b040f964a520a6ee22e3","categoryId":"4bf58dd8d48988d116941735","category":"Bar","checkinsCount":25086,"usersCount":9333,"tipCount":147,"visitsCount":26946,"url":"http://www.beerknurd.com","tier":2,"message":"Moderate","currency":"$","rating":9.2},{"name":"The Pharmacy","phone":"6157129527","twitter":"thepharmacy1","address":"731 McFerrin Ave","lat":36.184959543602076,"lng":-86.75429894275644,"neighborhood":"Greenwood","city_fetched":"Nashville,US","state":"TN","country":"United States","canonicalUrl":"https://foursquare.com/v/the-pharmacy/4ed82d9e6c2547bc5ffc0a21","categoryId":"4bf58dd8d48988d117941735","category":"Beer Garden","checkinsCount":14089,"usersCount":9555,"tipCount":254,"visitsCount":16186,"url":"http://thepharmacynashville.com","tier":2,"message":"Moderate","currency":"$","rating":9.1},{"name":"Acme Feed & Seed","phone":"6159150888","twitter":"acmenashville","address":"101 Broadway","lat":36.16188993114299,"lng":-86.7744151447486,"city_fetched":"Nashville,US","state":"TN","country":"United States","canonicalUrl":"https://foursquare.com/v/acme-feed--seed/53b605bc498e876802858496","categoryId":"4bf58dd8d48988d116941735","category":"Bar","checkinsCount":6366,"usersCount":6696,"tipCount":74,"visitsCount":9464,"url":"http://theacmenashville.com","tier":2,"message":"Moderate","currency":"$","rating":9.1},{"name":"Patterson House","phone":"6152447989","address":"1711 Division St","lat":36.15118324756622,"lng":-86.794453,"city_fetched":"Nashville,US","state":"TN","country":"United States","canonicalUrl":"https://foursquare.com/v/patterson-house/4afe0a01f964a5204d2d22e3","categoryId":"4bf58dd8d48988d1d4941735","category":"Speakeasy","checkinsCount":8534,"usersCount":6087,"tipCount":169,"visitsCount":9603,"url":"http://www.thepattersonnashville.com","tier":3,"message":"Expensive","currency":"$","rating":9.1},{"name":"McNamara's Irish Pub","phone":"6158857262","address":"2470 Old Lebanon Rd","lat":36.16878395721578,"lng":-86.66466236114502,"city_fetched":"Nashville,US","state":"TN","country":"United States","canonicalUrl":"https://foursquare.com/v/mcnamaras-irish-pub/4b7c34c3f964a5206f842fe3","categoryId":"4bf58dd8d48988d11b941735","category":"Pub","checkinsCount":5178,"usersCount":2691,"tipCount":102,"visitsCount":5913,"url":"http://www.mcnamarasirishpub.com","tier":2,"message":"Moderate","currency":"$","rating":9},{"name":"City House","phone":"6157365838","twitter":"cityhouse","address":"1222 4th Ave N","lat":36.17683581015708,"lng":-86.78737485351488,"city_fetched":"Nashville,US","state":"TN","country":"United States","canonicalUrl":"https://foursquare.com/v/city-house/4b074609f964a5201dfb22e3","categoryId":"4bf58dd8d48988d116941735","category":"Bar","checkinsCount":3653,"usersCount":2602,"tipCount":73,"visitsCount":4015,"url":"http://cityhousenashville.com","tier":2,"message":"Moderate","currency":"$","rating":9},{"name":"Yazoo Brewing Company","phone":"6158914649","twitter":"yazootaproom","address":"910 Division St","lat":36.15092068419767,"lng":-86.78199706609368,"city_fetched":"Nashville,US","state":"TN","country":"United States","canonicalUrl":"https://foursquare.com/v/yazoo-brewing-company/4b09f68ef964a520792023e3","categoryId":"50327c8591d4c4b30a586d5d","category":"Brewery","checkinsCount":9452,"usersCount":5255,"tipCount":67,"visitsCount":10496,"url":"http://yazoobrew.com","tier":2,"message":"Moderate","currency":"$","rating":9},{"name":"3rd & Lindsley Bar and Grill","phone":"6152599891","twitter":"3rdandlindsley","address":"816 3rd Ave S","lat":36.15210071877887,"lng":-86.7699122428894,"city_fetched":"Nashville,US","state":"TN","country":"United States","canonicalUrl":"https://foursquare.com/v/3rd--lindsley-bar-and-grill/4b058668f964a520cb6022e3","categoryId":"4bf58dd8d48988d116941735","category":"Bar","checkinsCount":6751,"usersCount":4290,"tipCount":46,"visitsCount":7944,"url":"http://www.3rdandlindsley.com","tier":2,"message":"Moderate","currency":"$","rating":8.9},{"name":"Skull's Rainbow Room","phone":"6152519076","address":"222 Printers Aly","lat":36.16450359285114,"lng":-86.77885647792154,"city_fetched":"Nashville,US","state":"TN","country":"United States","canonicalUrl":"https://foursquare.com/v/skulls-rainbow-room/4bda37cd63c5c9b6a1572368","categoryId":"4bf58dd8d48988d11e941735","category":"Cocktail Bar","checkinsCount":588,"usersCount":519,"tipCount":10,"visitsCount":693,"tier":"","message":"","currency":"","rating":8.9},{"name":"Hops & Crafts","phone":"6154568797","address":"319 12th Ave S","lat":36.15277311176079,"lng":-86.78512273189888,"city_fetched":"Nashville,US","state":"TN","country":"United States","canonicalUrl":"https://foursquare.com/v/hops--crafts/51d446bd454ac6162516ef21","categoryId":"4bf58dd8d48988d11b941735","category":"Pub","checkinsCount":1531,"usersCount":821,"tipCount":13,"visitsCount":1870,"url":"http://hopscrafts.com","tier":2,"message":"Moderate","currency":"$","rating":8.9},{"name":"Jackalope Brewing Company","phone":"6158734315","twitter":"jackalopebrew","address":"701 Eighth Ave. S","lat":36.150350765337556,"lng":-86.77931070327759,"city_fetched":"Nashville,US","state":"TN","country":"United States","canonicalUrl":"https://foursquare.com/v/jackalope-brewing-company/4daa0ac66a2303012f04f1e5","categoryId":"50327c8591d4c4b30a586d5d","category":"Brewery","checkinsCount":3804,"usersCount":2432,"tipCount":30,"visitsCount":4180,"url":"http://jackalopebrew.com","tier":1,"message":"Cheap","currency":"$","rating":8.9},{"name":"Robert's Western World","phone":"6152449552","twitter":"robertswworld","address":"416 Broadway","lat":36.160780603631665,"lng":-86.77799105644226,"city_fetched":"Nashville,US","state":"TN","country":"United States","canonicalUrl":"https://foursquare.com/v/roberts-western-world/4b058669f964a520ed6022e3","categoryId":"4bf58dd8d48988d116941735","category":"Bar","checkinsCount":13153,"usersCount":9372,"tipCount":115,"visitsCount":13225,"url":"http://robertswesternworld.com","tier":1,"message":"Cheap","currency":"$","rating":8.8},{"name":"Village Pub & Beer Garden","phone":"6159425880","address":"1308 McGavock Pike","lat":36.20443249423272,"lng":-86.72481654887586,"neighborhood":"Inglewood","city_fetched":"Nashville,US","state":"TN","country":"United States","canonicalUrl":"https://foursquare.com/v/village-pub--beer-garden/4bcb54af0687ef3b3f7dddcc","categoryId":"4bf58dd8d48988d117941735","category":"Beer Garden","checkinsCount":6086,"usersCount":1773,"tipCount":47,"visitsCount":6223,"url":"http://riversidevillagepub.com","tier":2,"message":"Moderate","currency":"$","rating":8.8},{"name":"TailGate Beer","address":"7300 Charlotte Pike","lat":36.11985417024014,"lng":-86.91904288770775,"city_fetched":"Nashville,US","state":"TN","country":"United States","canonicalUrl":"https://foursquare.com/v/tailgate-beer/54519bbe498e019be8ea0bab","categoryId":"50327c8591d4c4b30a586d5d","category":"Brewery","checkinsCount":755,"usersCount":402,"tipCount":5,"visitsCount":1072,"url":"http://tailgatebeer.com","tier":"","message":"","currency":"","rating":8.8},{"name":"Black Abbey Brewing Company","phone":"6157550070","address":"2954 Sidco","lat":36.10591901267135,"lng":-86.75573258226925,"city_fetched":"Nashville,US","state":"TN","country":"United States","canonicalUrl":"https://foursquare.com/v/black-abbey-brewing-company/523df67e11d2fad2cf9eff9f","categoryId":"50327c8591d4c4b30a586d5d","category":"Brewery","checkinsCount":1093,"usersCount":723,"tipCount":8,"visitsCount":1510,"url":"http://blackabbeybrewing.com","tier":"","message":"","currency":"","rating":8.7},{"name":"George Jones Rooftop Bar","lat":36.16309634636488,"lng":-86.7751660283742,"city_fetched":"Nashville,US","state":"TN","country":"United States","canonicalUrl":"https://foursquare.com/v/george-jones-rooftop-bar/5565028a498e8dbbbf5ac301","categoryId":"4bf58dd8d48988d116941735","category":"Bar","checkinsCount":590,"usersCount":725,"tipCount":10,"visitsCount":841,"tier":"","message":"","currency":"","rating":8.7},{"name":"Tavern","phone":"6153208580","twitter":"tavernnashville","address":"1904 Broadway","lat":36.150880849499245,"lng":-86.79697096321257,"city_fetched":"Nashville,US","state":"TN","country":"United States","canonicalUrl":"https://foursquare.com/v/tavern/4d437e5d0349224b6b23f04e","categoryId":"4bf58dd8d48988d11e941735","category":"Cocktail Bar","checkinsCount":13202,"usersCount":6914,"tipCount":154,"visitsCount":13841,"url":"http://mstreetnashville.com","tier":2,"message":"Moderate","currency":"$","rating":8.7},{"name":"Holland House Bar & Refuge","phone":"6152624190","twitter":"thehollandhouse","address":"935 W Eastland Ave","lat":36.184465,"lng":-86.75420635,"neighborhood":"Greenwood","city_fetched":"Nashville,US","state":"TN","country":"United States","canonicalUrl":"https://foursquare.com/v/holland-house-bar--refuge/4b819288f964a520dfaf30e3","categoryId":"4bf58dd8d48988d11e941735","category":"Cocktail Bar","checkinsCount":4754,"usersCount":2751,"tipCount":74,"visitsCount":4950,"url":"http://www.hollandhousebarandrefuge.com","tier":2,"message":"Moderate","currency":"$","rating":8.7},{"name":"Rumours East","phone":"6152625346","twitter":"rumourseast","address":"1112 Woodland St","lat":36.176974,"lng":-86.748647,"neighborhood":"East End","city_fetched":"Nashville,US","state":"TN","country":"United States","canonicalUrl":"https://foursquare.com/v/rumours-east/4b17185ef964a5203ac223e3","categoryId":"4bf58dd8d48988d123941735","category":"Wine Bar","checkinsCount":1535,"usersCount":1014,"tipCount":19,"visitsCount":1615,"url":"http://www.rumourswinebar.com","tier":3,"message":"Expensive","currency":"$","rating":8.7},{"name":"12 South Taproom & Grill","phone":"6154637552","address":"2318 12th Ave S","lat":36.12652274796387,"lng":-86.78899886792148,"neighborhood":"Sunnyside","city_fetched":"Nashville,US","state":"TN","country":"United States","canonicalUrl":"https://foursquare.com/v/12-south-taproom--grill/4b05866af964a5201a6122e3","categoryId":"4bf58dd8d48988d11b941735","category":"Pub","checkinsCount":9588,"usersCount":3911,"tipCount":88,"visitsCount":9913,"url":"http://12southtaproom.com","tier":2,"message":"Moderate","currency":"$","rating":8.6},{"name":"Whiskey Kitchen","phone":"6152543029","twitter":"whiskeykitchen","address":"118 12th Ave S","lat":36.1555062487697,"lng":-86.78651621375666,"city_fetched":"Nashville,US","state":"TN","country":"United States","canonicalUrl":"https://foursquare.com/v/whiskey-kitchen/4b05ed7af964a520f9e522e3","categoryId":"4bf58dd8d48988d122941735","category":"Whisky Bar","checkinsCount":13655,"usersCount":8642,"tipCount":146,"visitsCount":14802,"url":"http://mstreetnashville.com","tier":2,"message":"Moderate","currency":"$","rating":8.6},{"name":"M.L.Rose Craft Beer & Burgers","phone":"6157128160","twitter":"_mlrose","address":"2535 Franklin Pike","lat":36.12275359391141,"lng":-86.77593162330835,"neighborhood":"Melrose","city_fetched":"Nashville,US","state":"TN","country":"United States","canonicalUrl":"https://foursquare.com/v/mlrose-craft-beer--burgers/4b0cb0e5f964a5200f4123e3","categoryId":"4bf58dd8d48988d116941735","category":"Bar","checkinsCount":14635,"usersCount":4663,"tipCount":103,"visitsCount":16660,"url":"http://www.mlrose.com","tier":2,"message":"Moderate","currency":"$","rating":8.6},{"name":"5 Spot","phone":"6156509333","address":"1006 Forrest Ave","lat":36.17852528196553,"lng":-86.75042004966355,"neighborhood":"Lockeland Springs","city_fetched":"Nashville,US","state":"TN","country":"United States","canonicalUrl":"https://foursquare.com/v/5-spot/4b135005f964a520509623e3","categoryId":"4bf58dd8d48988d116941735","category":"Bar","checkinsCount":6013,"usersCount":2753,"tipCount":20,"visitsCount":6586,"url":"http://the5spotlive.com","tier":1,"message":"Cheap","currency":"$","rating":8.6},{"name":"Greenhouse Bar","phone":"6153853357","address":"2211 Bandywood Dr","lat":36.104436831172286,"lng":-86.81762855929742,"neighborhood":"Green Hills","city_fetched":"Nashville,US","state":"TN","country":"United States","canonicalUrl":"https://foursquare.com/v/greenhouse-bar/4b058669f964a520ff6022e3","categoryId":"4bf58dd8d48988d116941735","category":"Bar","checkinsCount":5093,"usersCount":2018,"tipCount":24,"visitsCount":5531,"url":"http://www.thefoodco.com","tier":2,"message":"Moderate","currency":"$","rating":8.5},{"name":"Play","phone":"6153229627","twitter":"playdancebar","address":"1519 Church St","lat":36.156876665415744,"lng":-86.79352227225371,"city_fetched":"Nashville,US","state":"TN","country":"United States","canonicalUrl":"https://foursquare.com/v/play/4b3304def964a520141725e3","categoryId":"4bf58dd8d48988d1d8941735","category":"Gay Bar","checkinsCount":7497,"usersCount":2956,"tipCount":28,"visitsCount":7789,"url":"http://playdancebar.com","tier":3,"message":"Expensive","currency":"$","rating":8.5},{"name":"M.L.Rose Craft Beer & Burgers","phone":"6157502920","twitter":"_mlrose","address":"4408 Charlotte Ave","lat":36.15250762369792,"lng":-86.84062996805613,"city_fetched":"Nashville,US","state":"TN","country":"United States","canonicalUrl":"https://foursquare.com/v/mlrose-craft-beer--burgers/509867dae4b091809a006e25","categoryId":"4bf58dd8d48988d116941735","category":"Bar","checkinsCount":4532,"usersCount":2437,"tipCount":50,"visitsCount":6172,"url":"http://www.mlrose.com","tier":2,"message":"Moderate","currency":"$","rating":8.5},{"name":"Yellow Porch","phone":"6153860260","address":"734 Thompson Ln","lat":36.11269998816524,"lng":-86.7675170302391,"city_fetched":"Nashville,US","state":"TN","country":"United States","canonicalUrl":"https://foursquare.com/v/yellow-porch/4b058669f964a520046122e3","categoryId":"4bf58dd8d48988d123941735","category":"Wine Bar","checkinsCount":1701,"usersCount":1077,"tipCount":32,"visitsCount":1802,"url":"http://www.theyellowporch.com","tier":"","message":"","currency":"","rating":8.5},{"name":"Mickey's Tavern","phone":"6158525228","twitter":"mickeyseast","address":"2907 Gallatin Pike","lat":36.202894622599594,"lng":-86.73916460757978,"city_fetched":"Nashville,US","state":"TN","country":"United States","canonicalUrl":"https://foursquare.com/v/mickeys-tavern/5246413311d24dc9faa9291b","categoryId":"4bf58dd8d48988d118941735","category":"Dive Bar","checkinsCount":927,"usersCount":395,"tipCount":10,"visitsCount":1109,"url":"http://www.mickeystavernnashville.com","tier":"","message":"","currency":"","rating":8.4},{"name":"Czann's Brewing Company","twitter":"czanns","address":"505 Lea Ave","lat":36.15343707771491,"lng":-86.77421392560437,"city_fetched":"Nashville,US","state":"TN","country":"United States","canonicalUrl":"https://foursquare.com/v/czanns-brewing-company/53a36002498e7989b0a00540","categoryId":"50327c8591d4c4b30a586d5d","category":"Brewery","checkinsCount":381,"usersCount":250,"tipCount":2,"visitsCount":537,"url":"http://nashvillebreweries.com","tier":"","message":"","currency":"","rating":8.4},{"name":"3 Crow Bar","phone":"6152623345","twitter":"3crowbar","address":"1024 Woodland St","lat":36.17726218154399,"lng":-86.7500959763056,"neighborhood":"East End","city_fetched":"Nashville,US","state":"TN","country":"United States","canonicalUrl":"https://foursquare.com/v/3-crow-bar/4b05c53ff964a520e2e222e3","categoryId":"4bf58dd8d48988d116941735","category":"Bar","checkinsCount":17837,"usersCount":4898,"tipCount":83,"visitsCount":18878,"url":"http://3crowbar.com","tier":2,"message":"Moderate","currency":"$","rating":8.4},{"name":"Tribe","phone":"6153292912","twitter":"tribenashville","address":"1517 Church St","lat":36.15680818248808,"lng":-86.79343396686097,"city_fetched":"Nashville,US","state":"TN","country":"United States","canonicalUrl":"https://foursquare.com/v/tribe/4b16da95f964a52069be23e3","categoryId":"4bf58dd8d48988d1d8941735","category":"Gay Bar","checkinsCount":10913,"usersCount":2762,"tipCount":34,"visitsCount":11843,"url":"http://www.tribenashville.comâ€Ž","tier":2,"message":"Moderate","currency":"$","rating":8.4},{"name":"Pedal Tavern","phone":"6153905038","address":"1447-1503 Demonbreun St","lat":36.15320338997912,"lng":-86.78974952698599,"city_fetched":"Nashville,US","state":"TN","country":"United States","canonicalUrl":"https://foursquare.com/v/pedal-tavern/4dc5f929d4c0ad9c0f97023a","categoryId":"4bf58dd8d48988d11a941735","category":"Other Nightlife","checkinsCount":560,"usersCount":581,"tipCount":8,"visitsCount":616,"url":"http://nashvillepedaltavern.com","tier":"","message":"","currency":"","rating":8.4},{"name":"Smith & Lentz","address":"903 Main St","lat":36.17628388382952,"lng":-86.75658194473843,"city_fetched":"Nashville,US","state":"TN","country":"United States","canonicalUrl":"https://foursquare.com/v/smith--lentz/5632985d498e6c1e0ddbdd4f","categoryId":"50327c8591d4c4b30a586d5d","category":"Brewery","checkinsCount":273,"usersCount":218,"tipCount":3,"visitsCount":358,"tier":"","message":"","currency":"","rating":8.4},{"name":"Corner Pub in The Woods","phone":"6158669919","address":"8058 Highway 100","lat":36.0466721,"lng":-86.95341934999999,"city_fetched":"Nashville,US","state":"TN","country":"United States","canonicalUrl":"https://foursquare.com/v/corner-pub-in-the-woods/4b6b66b0f964a52041062ce3","categoryId":"4bf58dd8d48988d11b941735","category":"Pub","checkinsCount":2681,"usersCount":900,"tipCount":31,"visitsCount":3079,"url":"http://cornerpubtn.com","tier":"","message":"","currency":"","rating":8.4},{"name":"The Vine - East Nashville Restaurant & Wine Bar","phone":"6157305355","twitter":"thevineeastnash","address":"501 Main St","lat":36.1729585424461,"lng":-86.76523447036743,"city_fetched":"Nashville,US","state":"TN","country":"United States","canonicalUrl":"https://foursquare.com/v/the-vine--east-nashville-restaurant--wine-bar/5446dcd6498e6bbbd281e70c","categoryId":"4bf58dd8d48988d123941735","category":"Wine Bar","checkinsCount":265,"usersCount":310,"tipCount":3,"visitsCount":523,"url":"http://v-thevine.com","tier":2,"message":"Moderate","currency":"$","rating":8.3},{"name":"sprocket rocket","lat":36.15482729899776,"lng":-86.77442986806804,"city_fetched":"Nashville,US","state":"TN","country":"United States","canonicalUrl":"https://foursquare.com/v/sprocket-rocket/53b61881498eeed934a8e509","categoryId":"4bf58dd8d48988d11f941735","category":"Nightclub","checkinsCount":138,"usersCount":161,"tipCount":1,"visitsCount":161,"tier":"","message":"","currency":"","rating":8.3},{"name":"Honky Tonk Central","phone":"6157429095","twitter":"honkytonkcentra","address":"329 Broadway","lat":36.16090742908692,"lng":-86.77696221289906,"city_fetched":"Nashville,US","state":"TN","country":"United States","canonicalUrl":"https://foursquare.com/honkytonkcentra","categoryId":"4bf58dd8d48988d116941735","category":"Bar","checkinsCount":18540,"usersCount":14296,"tipCount":92,"visitsCount":19392,"url":"http://honkytonkcentral.com","tier":1,"message":"Cheap","currency":"$","rating":8.3},{"name":"Southern Grist Brewing Company","address":"1201 Porter Rd","lat":36.188967,"lng":-86.728787,"city_fetched":"Nashville,US","state":"TN","country":"United States","canonicalUrl":"https://foursquare.com/v/southern-grist-brewing-company/56369348498ec77283f6c1c7","categoryId":"50327c8591d4c4b30a586d5d","category":"Brewery","checkinsCount":289,"usersCount":190,"tipCount":2,"visitsCount":398,"tier":"","message":"","currency":"","rating":8.3},{"name":"Sam's at Black Jack Cove","phone":"6153570532","address":"2001 Lakeshore Dr","lat":36.251897187861054,"lng":-86.6390090710492,"neighborhood":"Old Hickory Village","city_fetched":"Nashville,US","state":"TN","country":"United States","canonicalUrl":"https://foursquare.com/v/sams-at-black-jack-cove/534c7a4a498e79e86392e0a0","categoryId":"4bf58dd8d48988d11d941735","category":"Sports Bar","checkinsCount":450,"usersCount":356,"tipCount":13,"visitsCount":724,"url":"http://www.samssportsgrill.com/location-the-cove.php","tier":2,"message":"Moderate","currency":"$","rating":8.3},{"name":"The Flipside","phone":"6152929299","twitter":"theflipside12s","address":"2403 12th Ave S","lat":36.12601950651757,"lng":-86.78950912109327,"neighborhood":"Bellmont-Hillsboro","city_fetched":"Nashville,US","state":"TN","country":"United States","canonicalUrl":"https://foursquare.com/v/the-flipside/53bde138498e08299c896e45","categoryId":"4bf58dd8d48988d118941735","category":"Dive Bar","checkinsCount":781,"usersCount":646,"tipCount":13,"visitsCount":853,"url":"http://www.theflipside12south.com","tier":"","message":"","currency":"","rating":8.2},{"name":"Broadway Brewhouse & Mojo","phone":"6153400089","address":"1900 Broadway","lat":36.15103082614039,"lng":-86.79679870605469,"city_fetched":"Nashville,US","state":"TN","country":"United States","canonicalUrl":"https://foursquare.com/v/broadway-brewhouse--mojo/4b058668f964a520c86022e3","categoryId":"4bf58dd8d48988d116941735","category":"Bar","checkinsCount":11056,"usersCount":4668,"tipCount":61,"visitsCount":11145,"url":"http://broadwaybrewhouse.net","tier":2,"message":"Moderate","currency":"$","rating":8.2},{"name":"Santa's Pub","phone":"6155931872","address":"2225 Bransford Ave","lat":36.12735103837062,"lng":-86.76714619022721,"city_fetched":"Nashville,US","state":"TN","country":"United States","canonicalUrl":"https://foursquare.com/v/santas-pub/4e6ad66e483bf2d9e66aeca6","categoryId":"4bf58dd8d48988d116941735","category":"Bar","checkinsCount":3259,"usersCount":2125,"tipCount":42,"visitsCount":3979,"url":"http://santaspub.com","tier":1,"message":"Cheap","currency":"$","rating":8.2},{"name":"Whiskey Rhythm Saloon","lat":36.15066146850586,"lng":-86.795166015625,"city_fetched":"Nashville,US","state":"TN","country":"United States","canonicalUrl":"https://foursquare.com/v/whiskey-rhythm-saloon/55132540498e498a5fb98e36","categoryId":"4bf58dd8d48988d116941735","category":"Bar","checkinsCount":326,"usersCount":290,"tipCount":7,"visitsCount":415,"tier":"","message":"","currency":"","rating":8.2},{"name":"Wilhagan's","phone":"6153609175","address":"314 Wilhagan Rd","lat":36.13487165645568,"lng":-86.71811509067867,"city_fetched":"Nashville,US","state":"TN","country":"United States","canonicalUrl":"https://foursquare.com/v/wilhagans/4b3a6f1bf964a5203c6725e3","categoryId":"4bf58dd8d48988d116941735","category":"Bar","checkinsCount":1644,"usersCount":353,"tipCount":8,"visitsCount":1912,"tier":"","message":"","currency":"","rating":8.2},{"name":"The Hop Stop","phone":"6157396547","twitter":"thehopstop36","address":"2909 Gallatin Pike","lat":36.2030219,"lng":-86.7391107,"city_fetched":"Nashville,US","state":"TN","country":"United States","canonicalUrl":"https://foursquare.com/v/the-hop-stop/52c07c42498e60a2278c77c0","categoryId":"4bf58dd8d48988d116941735","category":"Bar","checkinsCount":1115,"usersCount":495,"tipCount":20,"visitsCount":1380,"tier":2,"message":"Moderate","currency":"$","rating":8.2},{"name":"Bar No. 308","phone":"6156507344","address":"407 Gallatin Ave","lat":36.18105132979358,"lng":-86.74930051440808,"neighborhood":"Lockeland Springs","city_fetched":"Nashville,US","state":"TN","country":"United States","canonicalUrl":"https://foursquare.com/v/bar-no-308/4cfdfa2720fe3704909c62f8","categoryId":"4bf58dd8d48988d11e941735","category":"Cocktail Bar","checkinsCount":6213,"usersCount":2636,"tipCount":61,"visitsCount":6774,"url":"http://bar308.com","tier":2,"message":"Moderate","currency":"$","rating":8.2},{"name":"Nashville Palace","lat":36.21759199463813,"lng":-86.69826081925856,"city_fetched":"Nashville,US","state":"TN","country":"United States","canonicalUrl":"https://foursquare.com/v/nashville-palace/52abaca811d24165f2a6abd0","categoryId":"4bf58dd8d48988d116941735","category":"Bar","checkinsCount":593,"usersCount":490,"tipCount":10,"visitsCount":754,"tier":"","message":"","currency":"","rating":8.2},{"name":"Clyde's on Church","address":"1700 Church St","lat":36.15577421169435,"lng":-86.79614192608759,"city_fetched":"Nashville,US","state":"TN","country":"United States","canonicalUrl":"https://foursquare.com/v/clydes-on-church/56d4a579cd1080b2a65912a6","categoryId":"4bf58dd8d48988d116941735","category":"Bar","checkinsCount":527,"usersCount":613,"tipCount":2,"visitsCount":914,"tier":"","message":"","currency":"","rating":8.1},{"name":"Bearded Iris Brewing","twitter":"beardedirisbrew","address":"101 Van Buren St","lat":36.1810090194557,"lng":-86.78613840747093,"city_fetched":"Nashville,US","state":"TN","country":"United States","canonicalUrl":"https://foursquare.com/v/bearded-iris-brewing/56b4ee06498e7c1997b2cded","categoryId":"50327c8591d4c4b30a586d5d","category":"Brewery","checkinsCount":149,"usersCount":188,"tipCount":3,"visitsCount":238,"tier":"","message":"","currency":"","rating":8.1},{"name":"McCabe Pub","phone":"6152699406","address":"4410 Murphy Rd","lat":36.141210505691,"lng":-86.84005163476934,"neighborhood":"Sylvan Park","city_fetched":"Nashville,US","state":"TN","country":"United States","canonicalUrl":"https://foursquare.com/v/mccabe-pub/4b05866df964a520b26122e3","categoryId":"4bf58dd8d48988d11b941735","category":"Pub","checkinsCount":1472,"usersCount":709,"tipCount":16,"visitsCount":1517,"url":"http://mccabepub.com","tier":2,"message":"Moderate","currency":"$","rating":8.1},{"name":"Old Glory","address":"1200 Villa Pl #103","lat":36.14299108213091,"lng":-86.7915500803505,"neighborhood":"Edgehill","city_fetched":"Nashville,US","state":"TN","country":"United States","canonicalUrl":"https://foursquare.com/v/old-glory/56d8e6ed498e9bfed2bdbf03","categoryId":"4bf58dd8d48988d1d4941735","category":"Speakeasy","checkinsCount":294,"usersCount":232,"tipCount":2,"visitsCount":316,"tier":"","message":"","currency":"","rating":8.1},{"name":"Paradise Park","phone":"6152488458","address":"411 Broadway","lat":36.16084852926859,"lng":-86.77769833498957,"city_fetched":"Nashville,US","state":"TN","country":"United States","canonicalUrl":"https://foursquare.com/v/paradise-park/4b0c2316f964a520983723e3","categoryId":"4bf58dd8d48988d118941735","category":"Dive Bar","checkinsCount":11778,"usersCount":6928,"tipCount":68,"visitsCount":11842,"url":"http://paradiseparkonline.com","tier":2,"message":"Moderate","currency":"$","rating":8},{"name":"Beyond the Edge","phone":"6152263343","address":"112 S 11th St","lat":36.17665745608738,"lng":-86.75028747445864,"neighborhood":"East End","city_fetched":"Nashville,US","state":"TN","country":"United States","canonicalUrl":"https://foursquare.com/v/beyond-the-edge/4b0728fcf964a52074f822e3","categoryId":"4bf58dd8d48988d11d941735","category":"Sports Bar","checkinsCount":10771,"usersCount":2724,"tipCount":43,"visitsCount":11033,"url":"http://www.beyondtheedge.net","tier":1,"message":"Cheap","currency":"$","rating":8},{"name":"Crazytown","lat":36.16152,"lng":-86.77649,"city_fetched":"Nashville,US","state":"TN","country":"United States","canonicalUrl":"https://foursquare.com/v/crazytown/5733d232498e2d526f78c839","categoryId":"4bf58dd8d48988d11e941735","category":"Cocktail Bar","checkinsCount":392,"usersCount":314,"tipCount":3,"visitsCount":406,"tier":"","message":"","currency":"","rating":8},{"name":"Broadway Brewhouse","phone":"6152712838","address":"317 Broadway","lat":36.1611012722427,"lng":-86.77666285340466,"city_fetched":"Nashville,US","state":"TN","country":"United States","canonicalUrl":"https://foursquare.com/v/broadway-brewhouse/4b18040af964a52082cb23e3","categoryId":"4bf58dd8d48988d116941735","category":"Bar","checkinsCount":12973,"usersCount":8118,"tipCount":74,"visitsCount":13240,"url":"http://broadwaybrewhouse.net","tier":2,"message":"Moderate","currency":"$","rating":8},{"name":"Tin Roof","phone":"6154731076","address":"1516 Demonbreun St","lat":36.15312681892284,"lng":-86.7899703068631,"city_fetched":"Nashville,US","state":"TN","country":"United States","canonicalUrl":"https://foursquare.com/v/tin-roof/4b05aa9cf964a52093e022e3","categoryId":"4bf58dd8d48988d116941735","category":"Bar","checkinsCount":11890,"usersCount":5934,"tipCount":64,"visitsCount":12727,"url":"http://tinroofbars.com","tier":2,"message":"Moderate","currency":"$","rating":8},{"name":"Layla's","phone":"6157262799","twitter":"laylasnashville","address":"418 Broadway","lat":36.16084211194245,"lng":-86.77816453990063,"city_fetched":"Nashville,US","state":"TN","country":"United States","canonicalUrl":"https://foursquare.com/v/laylas/4b197e7ef964a5205cde23e3","categoryId":"4bf58dd8d48988d116941735","category":"Bar","checkinsCount":4884,"usersCount":3853,"tipCount":26,"visitsCount":4889,"url":"http://laylasbluegrassinn.com","tier":1,"message":"Cheap","currency":"$","rating":8},{"name":"Swingin' Doors","phone":"6157365050","twitter":"swingdoornash","address":"111 4th Ave","lat":36.160437798869054,"lng":-86.77698675048106,"city_fetched":"Nashville,US","state":"TN","country":"United States","canonicalUrl":"https://foursquare.com/swingdoornash","categoryId":"4bf58dd8d48988d116941735","category":"Bar","checkinsCount":2982,"usersCount":2231,"tipCount":21,"visitsCount":3145,"tier":2,"message":"Moderate","currency":"$","rating":8},{"name":"Twin Kegs","phone":"6158323167","twitter":"twinkegs","address":"413 East Thompson Lane","lat":36.11074251791096,"lng":-86.74693369319438,"neighborhood":"Woodbine","city_fetched":"Nashville,US","state":"TN","country":"United States","canonicalUrl":"https://foursquare.com/v/twin-kegs/4b058669f964a520fb6022e3","categoryId":"4bf58dd8d48988d116941735","category":"Bar","checkinsCount":2025,"usersCount":606,"tipCount":14,"visitsCount":2103,"url":"http://www.twinkegs.com","tier":"","message":"","currency":"","rating":8},{"name":"Belcourt Taps","phone":"6159153622","twitter":"belcourttaps","address":"2117 Belcourt Ave","lat":36.13673098149532,"lng":-86.80229187011719,"neighborhood":"Hillsboro West End","city_fetched":"Nashville,US","state":"TN","country":"United States","canonicalUrl":"https://foursquare.com/belcourttaps","categoryId":"4bf58dd8d48988d116941735","category":"Bar","checkinsCount":3357,"usersCount":1600,"tipCount":38,"visitsCount":3420,"url":"http://belcourttaps.com","tier":1,"message":"Cheap","currency":"$","rating":7.9},{"name":"Red Door Saloon","phone":"6153206525","address":"1816 Division St","lat":36.150619983673096,"lng":-86.795813,"city_fetched":"Nashville,US","state":"TN","country":"United States","canonicalUrl":"https://foursquare.com/v/red-door-saloon/4b074a6df964a52065fb22e3","categoryId":"4bf58dd8d48988d116941735","category":"Bar","checkinsCount":11974,"usersCount":5041,"tipCount":54,"visitsCount":12909,"url":"http://thereddoorsaloon.com","tier":1,"message":"Cheap","currency":"$","rating":7.9},{"name":"WKND Bar & Lounge","phone":"6157396345","twitter":"wkndnashville","address":"1703 Church Street","lat":36.15565647367926,"lng":-86.7961075869674,"city_fetched":"Nashville,US","state":"TN","country":"United States","canonicalUrl":"https://foursquare.com/wkndnashville","categoryId":"4bf58dd8d48988d121941735","category":"Lounge","checkinsCount":715,"usersCount":400,"tipCount":8,"visitsCount":788,"url":"http://wkndnashville.com","tier":"","message":"","currency":"","rating":7.9},{"name":"Whiskey Bent Saloon","phone":"6154012580","twitter":"whiskeybentnash","address":"306 Broadway","lat":36.16140427092947,"lng":-86.7764139175415,"city_fetched":"Nashville,US","state":"TN","country":"United States","canonicalUrl":"https://foursquare.com/v/whiskey-bent-saloon/4c084907bbc676b09d5d46d5","categoryId":"4bf58dd8d48988d116941735","category":"Bar","checkinsCount":7956,"usersCount":5879,"tipCount":42,"visitsCount":8077,"url":"http://www.whiskeybentsaloon.com","tier":1,"message":"Cheap","currency":"$","rating":7.9},{"name":"Mason Bar","phone":"6153211990","twitter":"masonsnashville","address":"2100 West End Ave","lat":36.15049577455914,"lng":-86.8021263743349,"city_fetched":"Nashville,US","state":"TN","country":"United States","canonicalUrl":"https://foursquare.com/v/mason-bar/51916ac8498e63957d8e59c5","categoryId":"4bf58dd8d48988d1d5941735","category":"Hotel Bar","checkinsCount":265,"usersCount":206,"tipCount":4,"visitsCount":267,"url":"http://masons-nashville.com/mason-bar-nashville.html","tier":"","message":"","currency":"","rating":7.9},{"name":"Blackstone Restaurant & Brewery","phone":"6153279969","address":"1918 West End Ave","lat":36.151974729393764,"lng":-86.79876143902642,"city_fetched":"Nashville,US","state":"TN","country":"United States","canonicalUrl":"https://foursquare.com/v/blackstone-restaurant--brewery/4b058668f964a520db6022e3","categoryId":"50327c8591d4c4b30a586d5d","category":"Brewery","checkinsCount":6122,"usersCount":4347,"tipCount":65,"visitsCount":6608,"url":"http://www.blackstonebrewery.com","tier":2,"message":"Moderate","currency":"$","rating":7.8},{"name":"Harp & Fiddle","phone":"6152521991","address":"1538 Demonbreun St","lat":36.152428,"lng":-86.79140210151672,"city_fetched":"Nashville,US","state":"TN","country":"United States","canonicalUrl":"https://foursquare.com/v/harp--fiddle/4b08b3e4f964a520111123e3","categoryId":"4bf58dd8d48988d11b941735","category":"Pub","checkinsCount":9040,"usersCount":4580,"tipCount":52,"visitsCount":9926,"url":"http://harpandfiddlenashville.com","tier":1,"message":"Cheap","currency":"$","rating":7.8},{"name":"JB's Pour House","phone":"6157505925","twitter":"jbspourhouse","address":"4770 Lebanon Pike","lat":36.215544589584994,"lng":-86.59060361548981,"city_fetched":"Nashville,US","state":"TN","country":"United States","canonicalUrl":"https://foursquare.com/jbspourhouse","categoryId":"4bf58dd8d48988d11d941735","category":"Sports Bar","checkinsCount":1601,"usersCount":839,"tipCount":31,"visitsCount":2203,"url":"http://www.jbspourhouse.com","tier":2,"message":"Moderate","currency":"$","rating":7.8},{"name":"Douglas Corner Cafe","phone":"6152981688","address":"2106 8th Ave S","lat":36.131879371068486,"lng":-86.77894971704613,"city_fetched":"Nashville,US","state":"TN","country":"United States","canonicalUrl":"https://foursquare.com/v/douglas-corner-cafe/4b05866af964a520326122e3","categoryId":"4bf58dd8d48988d118941735","category":"Dive Bar","checkinsCount":927,"usersCount":613,"tipCount":5,"visitsCount":932,"url":"http://douglascorner.com","tier":1,"message":"Cheap","currency":"$","rating":7.8},{"name":"Stirrup Nashville","phone":"6157820043","address":"1529 4th Ave S","lat":36.13707346752081,"lng":-86.7613979925094,"neighborhood":"South Nashville","city_fetched":"Nashville,US","state":"TN","country":"United States","canonicalUrl":"https://foursquare.com/v/stirrup-nashville/4b143c94f964a520c09f23e3","categoryId":"4bf58dd8d48988d1d8941735","category":"Gay Bar","checkinsCount":5593,"usersCount":656,"tipCount":19,"visitsCount":6242,"url":"http://www.stirrupnashville.com","tier":1,"message":"Cheap","currency":"$","rating":7.8},{"name":"The Gold Rush","phone":"6153211160","twitter":"the_gold_rush","address":"2205 Elliston Pl","lat":36.15155465029238,"lng":-86.80382346921823,"city_fetched":"Nashville,US","state":"TN","country":"United States","canonicalUrl":"https://foursquare.com/v/the-gold-rush/4b0cadb1f964a520e64023e3","categoryId":"4bf58dd8d48988d116941735","category":"Bar","checkinsCount":6051,"usersCount":1680,"tipCount":47,"visitsCount":6151,"url":"http://www.goldrushnashville.com","tier":1,"message":"Cheap","currency":"$","rating":7.8},{"name":"Corner Pub","phone":"6152989698","address":"4109 Hillsboro Circle","lat":36.101960358252065,"lng":-86.81799888610838,"neighborhood":"Green Hills","city_fetched":"Nashville,US","state":"TN","country":"United States","canonicalUrl":"https://foursquare.com/v/corner-pub/4bd64b317b1876b05c6b8c86","categoryId":"4bf58dd8d48988d11b941735","category":"Pub","checkinsCount":2771,"usersCount":1079,"tipCount":23,"visitsCount":3057,"url":"http://cornerpubtn.com","tier":2,"message":"Moderate","currency":"$","rating":7.8},{"name":"Sambuca","phone":"6152482888","twitter":"sambucanash","address":"601 12th Ave S","lat":36.151685809340854,"lng":-86.78433765415376,"city_fetched":"Nashville,US","state":"TN","country":"United States","canonicalUrl":"https://foursquare.com/v/sambuca/4b05866af964a520226122e3","categoryId":"4bf58dd8d48988d11a941735","category":"Other Nightlife","checkinsCount":6075,"usersCount":3604,"tipCount":56,"visitsCount":6145,"url":"http://www.sambucarestaurant.com","tier":3,"message":"Expensive","currency":"$","rating":7.8},{"name":"The Filling Station East","lat":36.175903185337596,"lng":-86.75654266818688,"neighborhood":"Historic Edgefield","city_fetched":"Nashville,US","state":"TN","country":"United States","canonicalUrl":"https://foursquare.com/v/the-filling-station-east/5154853be4b0d3f3aebe4d77","categoryId":"4bf58dd8d48988d117941735","category":"Beer Garden","checkinsCount":353,"usersCount":152,"tipCount":5,"visitsCount":375,"tier":"","message":"","currency":"","rating":7.7},{"name":"Up","lat":36.15050087084634,"lng":-86.7816143177339,"city_fetched":"Nashville,US","state":"TN","country":"United States","canonicalUrl":"https://foursquare.com/v/up/548d00bd498e27d8479ee0a9","categoryId":"4bf58dd8d48988d121941735","category":"Lounge","checkinsCount":259,"usersCount":166,"tipCount":8,"visitsCount":268,"tier":"","message":"","currency":"","rating":7.7},{"name":"The Falls Signature Bar and Lounge","phone":"6158891000","address":"2800 Opryland Dr","lat":36.212528102270184,"lng":-86.6960334777832,"city_fetched":"Nashville,US","state":"TN","country":"United States","canonicalUrl":"https://foursquare.com/v/the-falls-signature-bar-and-lounge/4d41e319aed776eb0b496897","categoryId":"4bf58dd8d48988d121941735","category":"Lounge","checkinsCount":1400,"usersCount":986,"tipCount":13,"visitsCount":1402,"tier":"","message":"","currency":"","rating":7.7},{"name":"Beer Sellar","phone":"6152549464","address":"107 Church St","lat":36.16469371147079,"lng":-86.77682970974291,"city_fetched":"Nashville,US","state":"TN","country":"United States","canonicalUrl":"https://foursquare.com/v/beer-sellar/4b058668f964a520ce6022e3","categoryId":"4bf58dd8d48988d117941735","category":"Beer Garden","checkinsCount":3845,"usersCount":2299,"tipCount":35,"visitsCount":3925,"url":"http://www.originalbeersellar.com","tier":2,"message":"Moderate","currency":"$","rating":7.7},{"name":"The Picnic Tap","phone":"6158232545","address":"900 Rosa L Parks Blvd","lat":36.17055576544323,"lng":-86.78877808364302,"city_fetched":"Nashville,US","state":"TN","country":"United States","canonicalUrl":"https://foursquare.com/v/the-picnic-tap/542f1c0a498e491cefbb3fad","categoryId":"4bf58dd8d48988d116941735","category":"Bar","checkinsCount":135,"usersCount":92,"tipCount":4,"visitsCount":135,"tier":"","message":"","currency":"","rating":7.7},{"name":"bar luca","address":"1100 Stratton Ave","lat":36.182506,"lng":-86.748408,"neighborhood":"Lockeland Springs","city_fetched":"Nashville,US","state":"TN","country":"United States","canonicalUrl":"https://foursquare.com/v/bar-luca/565e4b91498e9a3cdd7184fe","categoryId":"4bf58dd8d48988d116941735","category":"Bar","checkinsCount":129,"usersCount":95,"tipCount":2,"visitsCount":141,"tier":"","message":"","currency":"","rating":7.7},{"name":"Lipstick Lounge","phone":"6152266343","address":"1400 Woodland St","lat":36.177005816666664,"lng":-86.74576101,"neighborhood":"Lockeland Springs","city_fetched":"Nashville,US","state":"TN","country":"United States","canonicalUrl":"https://foursquare.com/v/lipstick-lounge/4b19f532f964a5208be623e3","categoryId":"4bf58dd8d48988d1d8941735","category":"Gay Bar","checkinsCount":3160,"usersCount":1106,"tipCount":20,"visitsCount":3364,"url":"http://thelipsticklounge.com","tier":1,"message":"Cheap","currency":"$","rating":7.7},{"name":"Broadway Brewhouse West","phone":"6153565005","address":"7108 Charlotte Pike","lat":36.12751,"lng":-86.9082498550415,"city_fetched":"Nashville,US","state":"TN","country":"United States","canonicalUrl":"https://foursquare.com/v/broadway-brewhouse-west/4b23f2e0f964a520925d24e3","categoryId":"4bf58dd8d48988d116941735","category":"Bar","checkinsCount":2001,"usersCount":742,"tipCount":20,"visitsCount":2188,"url":"http://broadwaybrewhouse.net","tier":1,"message":"Cheap","currency":"$","rating":7.7},{"name":"The Villager","address":"1719 21st Ave S","lat":36.136779633154894,"lng":-86.80101293023284,"neighborhood":"Hillsboro West End","city_fetched":"Nashville,US","state":"TN","country":"United States","canonicalUrl":"https://foursquare.com/v/the-villager/4b089c45f964a520650f23e3","categoryId":"4bf58dd8d48988d116941735","category":"Bar","checkinsCount":3054,"usersCount":849,"tipCount":15,"visitsCount":3081,"tier":"","message":"","currency":"","rating":7.7},{"name":"Bar Sovereign","address":"514 5th Ave S","lat":36.15493924817516,"lng":-86.77446422246277,"city_fetched":"Nashville,US","state":"TN","country":"United States","canonicalUrl":"https://foursquare.com/v/bar-sovereign/5688c2fa498e6916022f5f09","categoryId":"4bf58dd8d48988d11e941735","category":"Cocktail Bar","checkinsCount":119,"usersCount":153,"tipCount":5,"visitsCount":208,"tier":"","message":"","currency":"","rating":7.7},{"name":"Brewhouse 100","phone":"6156732981","address":"8098 Highway 100","lat":36.0457733,"lng":-86.95502595,"city_fetched":"Nashville,US","state":"TN","country":"United States","canonicalUrl":"https://foursquare.com/v/brewhouse-100/4cacfc522776b60c354b560d","categoryId":"50327c8591d4c4b30a586d5d","category":"Brewery","checkinsCount":1616,"usersCount":727,"tipCount":21,"visitsCount":1912,"url":"http://broadwaybrewhouse.net","tier":2,"message":"Moderate","currency":"$","rating":7.6},{"name":"Red Door East","phone":"6152267660","address":"1010 Forrest Ave","lat":36.178324016666664,"lng":-86.75005395,"neighborhood":"Lockeland Springs","city_fetched":"Nashville,US","state":"TN","country":"United States","canonicalUrl":"https://foursquare.com/v/red-door-east/4b05c4f2f964a520dde222e3","categoryId":"4bf58dd8d48988d116941735","category":"Bar","checkinsCount":9640,"usersCount":2996,"tipCount":35,"visitsCount":10148,"url":"http://thereddoorsaloon.com","tier":2,"message":"Moderate","currency":"$","rating":7.6},{"name":"Blue Gene's","phone":"6153293508","address":"1715 Church St","lat":36.15534838987548,"lng":-86.7963528658662,"city_fetched":"Nashville,US","state":"TN","country":"United States","canonicalUrl":"https://foursquare.com/v/blue-genes/4b4abc23f964a520b38d26e3","categoryId":"4bf58dd8d48988d1d8941735","category":"Gay Bar","checkinsCount":4114,"usersCount":618,"tipCount":13,"visitsCount":4308,"tier":1,"message":"Cheap","currency":"$","rating":7.6},{"name":"Neighbors","address":"4425A Murphy Rd","lat":36.140824713952476,"lng":-86.83996831499914,"neighborhood":"Sylvan Park","city_fetched":"Nashville,US","state":"TN","country":"United States","canonicalUrl":"https://foursquare.com/v/neighbors/4dd6f4b3d1647fcf3e3f01ed","categoryId":"4bf58dd8d48988d116941735","category":"Bar","checkinsCount":2913,"usersCount":1127,"tipCount":21,"visitsCount":3242,"url":"http://neighborssylvanpark.com","tier":2,"message":"Moderate","currency":"$","rating":7.6},{"name":"Roadside Bar & Grill","phone":"6159533880","lat":36.202688,"lng":-86.621815,"city_fetched":"Nashville,US","state":"TN","country":"United States","canonicalUrl":"https://foursquare.com/v/roadside-bar--grill/4eb76fd829c212fb6d412971","categoryId":"4bf58dd8d48988d116941735","category":"Bar","checkinsCount":489,"usersCount":181,"tipCount":4,"visitsCount":625,"tier":"","message":"","currency":"","rating":7.6},{"name":"Dave & Buster's","phone":"6159703800","twitter":"daveandbusters","address":"540 Opry Mills Dr","lat":36.20632485456853,"lng":-86.69432832697348,"city_fetched":"Nashville,US","state":"TN","country":"United States","canonicalUrl":"https://foursquare.com/v/dave--busters/4ec1aa9f6c25dfd9827cc217","categoryId":"4bf58dd8d48988d11d941735","category":"Sports Bar","checkinsCount":11521,"usersCount":6118,"tipCount":67,"visitsCount":12074,"url":"http://www.daveandbusters.com","tier":2,"message":"Moderate","currency":"$","rating":7.6},{"name":"Broadway Street Nashville","lat":36.16079107400764,"lng":-86.77789953976094,"city_fetched":"Nashville,US","state":"TN","country":"United States","canonicalUrl":"https://foursquare.com/v/broadway-street-nashville/520c455211d2769b01e8e80d","categoryId":"4bf58dd8d48988d11a941735","category":"Other Nightlife","checkinsCount":599,"usersCount":502,"tipCount":2,"visitsCount":601,"tier":"","message":"","currency":"","rating":7.6},{"name":"Crows Nest","phone":"6157830720","twitter":"crowsnestnash","address":"2221 Bandywood Dr","lat":36.10475957393646,"lng":-86.8187552690506,"neighborhood":"Green Hills","city_fetched":"Nashville,US","state":"TN","country":"United States","canonicalUrl":"https://foursquare.com/v/crows-nest/4b073853f964a520f4f922e3","categoryId":"4bf58dd8d48988d116941735","category":"Bar","checkinsCount":5343,"usersCount":2554,"tipCount":39,"visitsCount":5809,"url":"http://www.crowsnestnashville.com","tier":1,"message":"Cheap","currency":"$","rating":7.5},{"name":"Oak Bar","phone":"6152443121","address":"231 6th Ave N","lat":36.163760725984865,"lng":-86.78236018355506,"city_fetched":"Nashville,US","state":"TN","country":"United States","canonicalUrl":"https://foursquare.com/v/oak-bar/4b05866af964a520256122e3","categoryId":"4bf58dd8d48988d116941735","category":"Bar","checkinsCount":1346,"usersCount":900,"tipCount":16,"visitsCount":1353,"tier":"","message":"","currency":"","rating":7.5},{"name":"Tavern '96","phone":"6152558989","twitter":"tavern96","address":"Bridgestone Arena","lat":36.15834338528413,"lng":-86.77755111146023,"city_fetched":"Nashville,US","state":"TN","country":"United States","canonicalUrl":"https://foursquare.com/v/tavern-96/52ec4f1a498e6cd6f3f7b0db","categoryId":"4bf58dd8d48988d116941735","category":"Bar","checkinsCount":1018,"usersCount":432,"tipCount":9,"visitsCount":1092,"url":"http://bridgestonearena.com","tier":"","message":"","currency":"","rating":7.5},{"name":"Salsa Puerto Rican and Latin Cuisine","phone":"6154019316","twitter":"salsanashville","address":"818 Palmer Pl","lat":36.1539331,"lng":-86.78101649999999,"city_fetched":"Nashville,US","state":"TN","country":"United States","canonicalUrl":"https://foursquare.com/v/salsa-puerto-rican-and-latin-cuisine/50db9ae5e4b01d388bb7e141","categoryId":"4bf58dd8d48988d116941735","category":"Bar","checkinsCount":448,"usersCount":418,"tipCount":15,"visitsCount":587,"url":"http://www.salsarestaurantnashville.com","tier":"","message":"","currency":"","rating":7.5},{"name":"Fat Bottom Brewery","phone":"6156785715","twitter":"fatbottombrews","address":"900 Main St","lat":36.17575448557342,"lng":-86.756788146116,"neighborhood":"Historic Edgefield","city_fetched":"Nashville,US","state":"TN","country":"United States","canonicalUrl":"https://foursquare.com/v/fat-bottom-brewery/4efe1d579adffb90cb5e2070","categoryId":"50327c8591d4c4b30a586d5d","category":"Brewery","checkinsCount":1898,"usersCount":1296,"tipCount":21,"visitsCount":2006,"url":"http://fatbottombrewing.com","tier":2,"message":"Moderate","currency":"$","rating":7.5},{"name":"Bobby's Idle Hour Tavern","twitter":"bobbysidlehour","address":"16th Ave S","lat":36.144653,"lng":-86.792828,"neighborhood":"Edgehill","city_fetched":"Nashville,US","state":"TN","country":"United States","canonicalUrl":"https://foursquare.com/bobbysidlehour","categoryId":"4bf58dd8d48988d118941735","category":"Dive Bar","checkinsCount":454,"usersCount":327,"tipCount":5,"visitsCount":559,"url":"http://bobbysidlehour.com","tier":"","message":"","currency":"","rating":7.5},{"name":"Music City Bar and Grill","phone":"6158832367","twitter":"musiccitybar","address":"2416 Music Valley Dr #161","lat":36.218872389384906,"lng":-86.6980248786071,"city_fetched":"Nashville,US","state":"TN","country":"United States","canonicalUrl":"https://foursquare.com/musiccitybar","categoryId":"4bf58dd8d48988d116941735","category":"Bar","checkinsCount":1297,"usersCount":635,"tipCount":12,"visitsCount":1378,"url":"http://musiccitybar.com","tier":"","message":"","currency":"","rating":7.5},{"name":"The Alley Pub","phone":"6156623990","address":"7040 Highway 70 S","lat":36.07635761398949,"lng":-86.91995790092818,"city_fetched":"Nashville,US","state":"TN","country":"United States","canonicalUrl":"https://foursquare.com/v/the-alley-pub/4b20431ef964a520942f24e3","categoryId":"4bf58dd8d48988d116941735","category":"Bar","checkinsCount":1966,"usersCount":473,"tipCount":21,"visitsCount":2055,"url":"http://alleypubnashville.com","tier":"","message":"","currency":"","rating":7.4},{"name":"Melrose Billiards","address":"2600 Franklin Pike","lat":36.12212,"lng":-86.775451,"city_fetched":"Nashville,US","state":"TN","country":"United States","canonicalUrl":"https://foursquare.com/v/melrose-billiards/4b058669f964a520fe6022e3","categoryId":"4bf58dd8d48988d116941735","category":"Bar","checkinsCount":2081,"usersCount":851,"tipCount":15,"visitsCount":2124,"tier":"","message":"","currency":"","rating":7.4},{"name":"Trax","phone":"6157428856","address":"1501 2nd Ave. S","lat":36.13933891945452,"lng":-86.76123599250482,"neighborhood":"South Nashville","city_fetched":"Nashville,US","state":"TN","country":"United States","canonicalUrl":"https://foursquare.com/v/trax/4b6dc211f964a520068d2ce3","categoryId":"4bf58dd8d48988d1d8941735","category":"Gay Bar","checkinsCount":1778,"usersCount":338,"tipCount":5,"visitsCount":2271,"tier":1,"message":"Cheap","currency":"$","rating":7.4},{"name":"Losers Bar","phone":"6153273113","address":"1911 Division St","lat":36.149762660118476,"lng":-86.79675021506081,"city_fetched":"Nashville,US","state":"TN","country":"United States","canonicalUrl":"https://foursquare.com/v/losers-bar/4b9002a7f964a520eb6f33e3","categoryId":"4bf58dd8d48988d116941735","category":"Bar","checkinsCount":8279,"usersCount":4121,"tipCount":22,"visitsCount":8472,"url":"http://losersbarnashville.com","tier":1,"message":"Cheap","currency":"$","rating":7.4},{"name":"Nashville Crossroads","phone":"6153138012","twitter":"xroadsbar","address":"419 Broadway","lat":36.1606717245599,"lng":-86.77790444718401,"city_fetched":"Nashville,US","state":"TN","country":"United States","canonicalUrl":"https://foursquare.com/v/nashville-crossroads/4b06a474f964a52016ee22e3","categoryId":"4bf58dd8d48988d116941735","category":"Bar","checkinsCount":3272,"usersCount":2214,"tipCount":18,"visitsCount":3288,"url":"http://nashvillecrossroadsbar.com","tier":2,"message":"Moderate","currency":"$","rating":7.4},{"name":"Ernest Tubb Texas Troubadour Theater","phone":"6158892474","address":"2416 Music Valley Dr","lat":36.160487553138815,"lng":-86.77797315105529,"city_fetched":"Nashville,US","state":"TN","country":"United States","canonicalUrl":"https://foursquare.com/v/ernest-tubb-texas-troubadour-theater/4c37edc518e72d7f2b9317f5","categoryId":"4bf58dd8d48988d120941735","category":"Karaoke Bar","checkinsCount":1089,"usersCount":667,"tipCount":8,"visitsCount":1091,"url":"http://troubadourskaraoke.com","tier":"","message":"","currency":"","rating":7.4},{"name":"Rock Bottom Restaurant & Brewery","phone":"6152514677","twitter":"rockbottom","address":"111 Broadway","lat":36.16183848056865,"lng":-86.77500407405998,"city_fetched":"Nashville,US","state":"TN","country":"United States","canonicalUrl":"https://foursquare.com/v/rock-bottom-restaurant--brewery/51634f81e4b0d9e6122bba97","categoryId":"50327c8591d4c4b30a586d5d","category":"Brewery","checkinsCount":5843,"usersCount":5047,"tipCount":68,"visitsCount":6444,"url":"http://www.rockbottom.com/locations/nashville?action=view","tier":2,"message":"Moderate","currency":"$","rating":7.4},{"name":"Tarboosh Hookah Bar","phone":"6153205909","address":"120 21st Ave N","lat":36.15132532151587,"lng":-86.80168001874414,"city_fetched":"Nashville,US","state":"TN","country":"United States","canonicalUrl":"https://foursquare.com/v/tarboosh-hookah-bar/4bf76ae0b182c9b6b5d2755a","categoryId":"4bf58dd8d48988d119941735","category":"Hookah Bar","checkinsCount":1480,"usersCount":664,"tipCount":13,"visitsCount":1502,"tier":"","message":"","currency":"","rating":7.4},{"name":"The Crying Wolf","phone":"8009383425","address":"823 Woodland St","lat":36.175026722476574,"lng":-86.75710235606533,"neighborhood":"Historic Edgefield","city_fetched":"Nashville,US","state":"TN","country":"United States","canonicalUrl":"https://foursquare.com/v/the-crying-wolf/520302a7498ec73f65532463","categoryId":"4bf58dd8d48988d116941735","category":"Bar","checkinsCount":1269,"usersCount":1006,"tipCount":11,"visitsCount":1797,"url":"http://www.thecryingwolf.com","tier":"","message":"","currency":"","rating":7.4},{"name":"Jonny's Sports Bar","phone":"6158332799","address":"5805 Nolensville Pike","lat":36.044467533029525,"lng":-86.71398272301072,"city_fetched":"Nashville,US","state":"TN","country":"United States","canonicalUrl":"https://foursquare.com/v/jonnys-sports-bar/4b4e921ff964a520bef126e3","categoryId":"4bf58dd8d48988d11d941735","category":"Sports Bar","checkinsCount":4321,"usersCount":906,"tipCount":15,"visitsCount":4797,"url":"http://www.jsbtn.com","tier":1,"message":"Cheap","currency":"$","rating":7.4},{"name":"Edgefield Sports Bar And Grill","phone":"6152286422","address":"921 Woodland St","lat":36.17562,"lng":-86.755226,"neighborhood":"Historic Edgefield","city_fetched":"Nashville,US","state":"TN","country":"United States","canonicalUrl":"https://foursquare.com/v/edgefield-sports-bar-and-grill/4cf16d191c158cfa26f1d0b5","categoryId":"4bf58dd8d48988d11d941735","category":"Sports Bar","checkinsCount":3084,"usersCount":991,"tipCount":32,"visitsCount":3552,"tier":2,"message":"Moderate","currency":"$","rating":7.4},{"name":"Little Harpeth Brewing","twitter":"lhbrew","address":"30 Oldham St","lat":36.17428901621021,"lng":-86.77633404659686,"city_fetched":"Nashville,US","state":"TN","country":"United States","canonicalUrl":"https://foursquare.com/v/little-harpeth-brewing/51d6214d498e0485c53c4c0a","categoryId":"50327c8591d4c4b30a586d5d","category":"Brewery","checkinsCount":204,"usersCount":156,"tipCount":1,"visitsCount":231,"url":"http://littleharpethbrewing.com","tier":"","message":"","currency":"","rating":7.3},{"name":"Dino's","phone":"6152278998","address":"411 Gallatin Ave","lat":36.181127429008484,"lng":-86.74931824207306,"neighborhood":"Lockeland Springs","city_fetched":"Nashville,US","state":"TN","country":"United States","canonicalUrl":"https://foursquare.com/v/dinos/4b9b0eb1f964a52062ef35e3","categoryId":"4bf58dd8d48988d116941735","category":"Bar","checkinsCount":1246,"usersCount":575,"tipCount":14,"visitsCount":1319,"tier":"","message":"","currency":"","rating":7.3},{"name":"Corner Pub Midtown","phone":"6153279250","address":"2000 Broadway","lat":36.14968,"lng":-86.79824709892273,"city_fetched":"Nashville,US","state":"TN","country":"United States","canonicalUrl":"https://foursquare.com/v/corner-pub-midtown/4ae8d73ef964a520c5b221e3","categoryId":"4bf58dd8d48988d116941735","category":"Bar","checkinsCount":6747,"usersCount":2449,"tipCount":36,"visitsCount":7006,"url":"http://cornerpubnashville.com","tier":1,"message":"Cheap","currency":"$","rating":7.3},{"name":"The Tin Dog","address":"1401 4th Ave S","lat":36.139922,"lng":-86.76366,"neighborhood":"South Nashville","city_fetched":"Nashville,US","state":"TN","country":"United States","canonicalUrl":"https://foursquare.com/v/the-tin-dog/535349cb498e943253b108d7","categoryId":"4bf58dd8d48988d118941735","category":"Dive Bar","checkinsCount":140,"usersCount":159,"tipCount":3,"visitsCount":295,"tier":"","message":"","currency":"","rating":7.3},{"name":"Sportsman's Grill","phone":"6153566206","address":"5405 Harding Pike","lat":36.0997070632326,"lng":-86.87111992970597,"neighborhood":"West Meade","city_fetched":"Nashville,US","state":"TN","country":"United States","canonicalUrl":"https://foursquare.com/v/sportsmans-grill/4b058669f964a520026122e3","categoryId":"4bf58dd8d48988d11d941735","category":"Sports Bar","checkinsCount":1549,"usersCount":579,"tipCount":12,"visitsCount":1721,"url":"http://sportsmansgrille.com","tier":"","message":"","currency":"","rating":7.3},{"name":"Sports Page","phone":"6152519503","address":"419 Union St","lat":36.164637299996485,"lng":-86.78051501512527,"city_fetched":"Nashville,US","state":"TN","country":"United States","canonicalUrl":"https://foursquare.com/v/sports-page/4bee205ba40fc928cb1d830c","categoryId":"4bf58dd8d48988d11e941735","category":"Cocktail Bar","checkinsCount":256,"usersCount":176,"tipCount":5,"visitsCount":256,"url":"http://sportspageonunion.com","tier":"","message":"","currency":"","rating":7.3},{"name":"Rumours Wine Bar","lat":36.15107714809283,"lng":-86.78330722042577,"city_fetched":"Nashville,US","state":"TN","country":"United States","canonicalUrl":"https://foursquare.com/v/rumours-wine-bar/51202ac7e4b0c66bd388daa1","categoryId":"4bf58dd8d48988d123941735","category":"Wine Bar","checkinsCount":412,"usersCount":273,"tipCount":10,"visitsCount":421,"tier":"","message":"","currency":"","rating":7.3},{"name":"SOUTH","phone":"6157241770","twitter":"southnashville","address":"1524 Demonbreun St","lat":36.152908,"lng":-86.790483,"city_fetched":"Nashville,US","state":"TN","country":"United States","canonicalUrl":"https://foursquare.com/v/south/5025ac71e4b0f23b010dac9d","categoryId":"4bf58dd8d48988d116941735","category":"Bar","checkinsCount":3443,"usersCount":1820,"tipCount":20,"visitsCount":3556,"url":"http://www.south-nashville.com","tier":2,"message":"Moderate","currency":"$","rating":7.3},{"name":"Canvas Lounge","phone":"6153208656","twitter":"canvasnashville","address":"1707 Church St.","lat":36.15557536666666,"lng":-86.79623695,"city_fetched":"Nashville,US","state":"TN","country":"United States","canonicalUrl":"https://foursquare.com/v/canvas-lounge/4ce3775331292c0fc878beb6","categoryId":"4bf58dd8d48988d1d8941735","category":"Gay Bar","checkinsCount":4164,"usersCount":1129,"tipCount":18,"visitsCount":4656,"url":"http://www.canvaslounge.net","tier":2,"message":"Moderate","currency":"$","rating":7.2},{"name":"Duke's","address":"1000 Main St","lat":36.177906,"lng":-86.751056,"neighborhood":"Lockeland Springs","city_fetched":"Nashville,US","state":"TN","country":"United States","canonicalUrl":"https://foursquare.com/v/dukes/5545b1fc498e5a61fae22d26","categoryId":"4bf58dd8d48988d116941735","category":"Bar","checkinsCount":301,"usersCount":160,"tipCount":2,"visitsCount":329,"tier":"","message":"","currency":"","rating":7.2},{"name":"Scoreboard Bar & Grill","phone":"6158833866","address":"2408 Music Valley Dr","lat":36.21823921030898,"lng":-86.69800030139066,"city_fetched":"Nashville,US","state":"TN","country":"United States","canonicalUrl":"https://foursquare.com/v/scoreboard-bar--grill/4b058668f964a520d16022e3","categoryId":"4bf58dd8d48988d11d941735","category":"Sports Bar","checkinsCount":2498,"usersCount":1467,"tipCount":28,"visitsCount":2925,"url":"http://scoreboardbar.net","tier":"","message":"","currency":"","rating":7.2},{"name":"Riverfront Tavern","phone":"6152524849","address":"101 Church St","lat":36.164869,"lng":-86.77624434,"city_fetched":"Nashville,US","state":"TN","country":"United States","canonicalUrl":"https://foursquare.com/v/riverfront-tavern/4b07f765f964a520b00123e3","categoryId":"4bf58dd8d48988d11b941735","category":"Pub","checkinsCount":4314,"usersCount":1657,"tipCount":32,"visitsCount":4659,"url":"http://riverfronttavern.com","tier":2,"message":"Moderate","currency":"$","rating":7.2},{"name":"Sam's Sports Grill","phone":"6153833601","twitter":"samssportsgrill","address":"1803 21st Ave S","lat":36.13637274342476,"lng":-86.80121403876119,"neighborhood":"Hillsboro West End","city_fetched":"Nashville,US","state":"TN","country":"United States","canonicalUrl":"https://foursquare.com/v/sams-sports-grill/4b081e40f964a520290423e3","categoryId":"4bf58dd8d48988d11d941735","category":"Sports Bar","checkinsCount":11115,"usersCount":3925,"tipCount":72,"visitsCount":11318,"url":"http://www.samssportsgrill.com","tier":2,"message":"Moderate","currency":"$","rating":7.2},{"name":"Purple Heys","address":"1401 4th Ave S","lat":36.1370558494944,"lng":-86.76157471917423,"neighborhood":"South Nashville","city_fetched":"Nashville,US","state":"TN","country":"United States","canonicalUrl":"https://foursquare.com/v/purple-heys/4b5b9031f964a520650729e3","categoryId":"4bf58dd8d48988d1d8941735","category":"Gay Bar","checkinsCount":925,"usersCount":144,"tipCount":3,"visitsCount":932,"tier":"","message":"","currency":"","rating":7.2},{"name":"William Collier's","address":"1402 Clinton St","lat":36.164046,"lng":-86.796938,"city_fetched":"Nashville,US","state":"TN","country":"United States","canonicalUrl":"https://foursquare.com/v/william-colliers/51cf73c5498e6033140d9152","categoryId":"4bf58dd8d48988d116941735","category":"Bar","checkinsCount":584,"usersCount":353,"tipCount":9,"visitsCount":621,"tier":2,"message":"Moderate","currency":"$","rating":7.2},{"name":"Lonnie's Western Room","phone":"6152511122","address":"308 Church St","lat":36.164236697470095,"lng":-86.77860260009766,"city_fetched":"Nashville,US","state":"TN","country":"United States","canonicalUrl":"https://foursquare.com/v/lonnies-western-room/4b058668f964a520d36022e3","categoryId":"4bf58dd8d48988d120941735","category":"Karaoke Bar","checkinsCount":2804,"usersCount":1822,"tipCount":27,"visitsCount":2883,"url":"http://lonnieswesternroom.com","tier":"","message":"","currency":"","rating":7.2},{"name":"Aladdin's Hookah Lounge & Bar","phone":"6153293558","address":"Elliston Place","lat":36.151427244307044,"lng":-86.80418642402746,"city_fetched":"Nashville,US","state":"TN","country":"United States","canonicalUrl":"https://foursquare.com/v/aladdins-hookah-lounge--bar/4b5b670df964a5203cfb28e3","categoryId":"4bf58dd8d48988d119941735","category":"Hookah Bar","checkinsCount":3300,"usersCount":819,"tipCount":34,"visitsCount":3355,"url":"http://aladdinshookahloungeandbar.com","tier":1,"message":"Cheap","currency":"$","rating":7.2},{"name":"PatrÃ³n Platinum Club","phone":"6157702477","address":"501 Broadway","lat":36.15903021049105,"lng":-86.77775722427685,"city_fetched":"Nashville,US","state":"TN","country":"United States","canonicalUrl":"https://foursquare.com/v/patr%C3%B3n-platinum-club/4b93ee94f964a520be5a34e3","categoryId":"4bf58dd8d48988d11e941735","category":"Cocktail Bar","checkinsCount":2754,"usersCount":770,"tipCount":7,"visitsCount":2765,"url":"http://www.bridgestonearena.com","tier":"","message":"","currency":"","rating":7.2},{"name":"Citizen","address":"300 12th Ave S","lat":36.156001291782154,"lng":-86.78686948451725,"city_fetched":"Nashville,US","state":"TN","country":"United States","canonicalUrl":"https://foursquare.com/v/citizen/4ce20d96825e721e0f2b7f45","categoryId":"4bf58dd8d48988d11f941735","category":"Nightclub","checkinsCount":838,"usersCount":482,"tipCount":5,"visitsCount":839,"url":"http://citizennashville.com","tier":"","message":"","currency":"","rating":7.2},{"name":"The End","phone":"6153214457","address":"2219 Elliston Pl","lat":36.15114366666667,"lng":-86.803827,"city_fetched":"Nashville,US","state":"TN","country":"United States","canonicalUrl":"https://foursquare.com/v/the-end/4b058669f964a520ee6022e3","categoryId":"4bf58dd8d48988d116941735","category":"Bar","checkinsCount":2041,"usersCount":1187,"tipCount":13,"visitsCount":2085,"url":"http://www.myspace.com/theendnashville","tier":"","message":"","currency":"","rating":7.1},{"name":"Germantown Pub","lat":36.17555,"lng":-86.792751,"city_fetched":"Nashville,US","state":"TN","country":"United States","canonicalUrl":"https://foursquare.com/v/germantown-pub/5584b7cb498e9629e3e9b2f9","categoryId":"4bf58dd8d48988d11b941735","category":"Pub","checkinsCount":155,"usersCount":132,"tipCount":4,"visitsCount":268,"tier":"","message":"","currency":"","rating":7.1},{"name":"Dawg House Saloon","phone":"6158647393","address":"1522 Demonbreun St","lat":36.15305945695202,"lng":-86.79024995993808,"city_fetched":"Nashville,US","state":"TN","country":"United States","canonicalUrl":"https://foursquare.com/v/dawg-house-saloon/528e95e111d26887573bfc26","categoryId":"4bf58dd8d48988d116941735","category":"Bar","checkinsCount":894,"usersCount":552,"tipCount":7,"visitsCount":948,"tier":"","message":"","currency":"","rating":7.1},{"name":"ReBar","phone":"6158911133","address":"1919 Division St","lat":36.14946101666666,"lng":-86.7972653,"city_fetched":"Nashville,US","state":"TN","country":"United States","canonicalUrl":"https://foursquare.com/v/rebar/4b08829ef964a520690d23e3","categoryId":"4bf58dd8d48988d116941735","category":"Bar","checkinsCount":9009,"usersCount":4439,"tipCount":33,"visitsCount":9787,"url":"http://rebarnashville.com","tier":2,"message":"Moderate","currency":"$","rating":7.1},{"name":"Two Bits","phone":"6157503536","address":"1520 Demonbreun St","lat":36.153026,"lng":-86.790277,"city_fetched":"Nashville,US","state":"TN","country":"United States","canonicalUrl":"https://foursquare.com/v/two-bits/52cb373a498ee18284a7e8d2","categoryId":"4bf58dd8d48988d116941735","category":"Bar","checkinsCount":1646,"usersCount":1094,"tipCount":28,"visitsCount":1734,"url":"http://twobitsnashville.com","tier":2,"message":"Moderate","currency":"$","rating":7.1},{"name":"Larry's Restaurant & Lounge","phone":"6153603981","address":"2572 Murfreesboro Pike, Nashville, TN 37217-3504","lat":36.075606433754736,"lng":-86.63937324912246,"city_fetched":"Nashville,US","state":"TN","country":"United States","canonicalUrl":"https://foursquare.com/v/larrys-restaurant--lounge/4b5105a1f964a5200b3e27e3","categoryId":"4bf58dd8d48988d120941735","category":"Karaoke Bar","checkinsCount":1207,"usersCount":296,"tipCount":13,"visitsCount":1354,"url":"http://larrysbuffet.com","tier":"","message":"","currency":"","rating":7.1},{"name":"Throwdown Rock Bar","address":"128-A 2nd Ave N","lat":36.16268883760295,"lng":-86.77593653092943,"city_fetched":"Nashville,US","state":"TN","country":"United States","canonicalUrl":"https://foursquare.com/v/throwdown-rock-bar/4ed045db490168f8cfb383fa","categoryId":"4bf58dd8d48988d11b941735","category":"Pub","checkinsCount":1273,"usersCount":615,"tipCount":13,"visitsCount":1274,"url":"http://throwdownsaloon.com","tier":"","message":"","currency":"","rating":7.1},{"name":"The Wheel","phone":"6157421675","address":"421 Broadway","lat":36.160635628954,"lng":-86.77797805847095,"city_fetched":"Nashville,US","state":"TN","country":"United States","canonicalUrl":"https://foursquare.com/v/the-wheel/4b5e7edaf964a520da9029e3","categoryId":"4bf58dd8d48988d116941735","category":"Bar","checkinsCount":3708,"usersCount":2419,"tipCount":29,"visitsCount":3716,"tier":2,"message":"Moderate","currency":"$","rating":7},{"name":"Winner's Bar & Grill","phone":"6153400004","twitter":"winnersnash","address":"1913 Division St","lat":36.14964765947973,"lng":-86.79689247509546,"city_fetched":"Nashville,US","state":"TN","country":"United States","canonicalUrl":"https://foursquare.com/v/winners-bar--grill/4ba28371f964a520d8ff37e3","categoryId":"4bf58dd8d48988d116941735","category":"Bar","checkinsCount":7094,"usersCount":3003,"tipCount":38,"visitsCount":7139,"url":"https://winnersbarandgrillnashville.com","tier":2,"message":"Moderate","currency":"$","rating":7},{"name":"Embers Ski Lodge","phone":"6158665652","twitter":"embersskilodge","address":"2410 12th Ave S","lat":36.12602565089348,"lng":-86.78925399517523,"neighborhood":"Sunnyside","city_fetched":"Nashville,US","state":"TN","country":"United States","canonicalUrl":"https://foursquare.com/v/embers-ski-lodge/55383766498efc2186681dfe","categoryId":"4bf58dd8d48988d116941735","category":"Bar","checkinsCount":353,"usersCount":275,"tipCount":5,"visitsCount":400,"url":"http://www.embersskilodge.com","tier":3,"message":"Expensive","currency":"$","rating":7},{"name":"Hillwood Pub","lat":36.14101604780551,"lng":-86.88262890623234,"neighborhood":"Whitebridge","city_fetched":"Nashville,US","state":"TN","country":"United States","canonicalUrl":"https://foursquare.com/v/hillwood-pub/540a4e37498e84756f63dfd3","categoryId":"4bf58dd8d48988d116941735","category":"Bar","checkinsCount":415,"usersCount":130,"tipCount":4,"visitsCount":544,"tier":"","message":"","currency":"","rating":7},{"name":"Piranha's","address":"174 3rd Ave South","lat":36.163942284198725,"lng":-86.77735481272987,"city_fetched":"Nashville,US","state":"TN","country":"United States","canonicalUrl":"https://foursquare.com/v/piranhas/55a053c8498e818b3ba648bc","categoryId":"4bf58dd8d48988d116941735","category":"Bar","checkinsCount":178,"usersCount":323,"tipCount":1,"visitsCount":426,"tier":"","message":"","currency":"","rating":7},{"name":"Three Stones Pub","phone":"6154695900","address":"8321 Sawyer Brown Rd","lat":36.071033,"lng":-86.94768113333333,"neighborhood":"River Plantation","city_fetched":"Nashville,US","state":"TN","country":"United States","canonicalUrl":"https://foursquare.com/v/three-stones-pub/4b159ef9f964a52043b123e3","categoryId":"4bf58dd8d48988d11b941735","category":"Pub","checkinsCount":727,"usersCount":228,"tipCount":10,"visitsCount":819,"url":"http://www.threestonespub.com","tier":"","message":"","currency":"","rating":7},{"name":"Barlines","phone":"6157613644","address":"301 5th Ave S","lat":36.157395633525915,"lng":-86.7765499796757,"city_fetched":"Nashville,US","state":"TN","country":"United States","canonicalUrl":"https://foursquare.com/v/barlines/524b3e4011d222e1503c6a98","categoryId":"4bf58dd8d48988d116941735","category":"Bar","checkinsCount":2434,"usersCount":1709,"tipCount":28,"visitsCount":2598,"url":"http://barlinesnashville.com","tier":2,"message":"Moderate","currency":"$","rating":6.9},{"name":"Dick's Last Resort","phone":"6158008894","twitter":"dicksez","address":"154 2nd Ave N","lat":36.16344064789273,"lng":-86.77628987834935,"city_fetched":"Nashville,US","state":"TN","country":"United States","canonicalUrl":"https://foursquare.com/v/dicks-last-resort/4dd06bc9ae603b786d607096","categoryId":"4bf58dd8d48988d116941735","category":"Bar","checkinsCount":4990,"usersCount":2589,"tipCount":35,"visitsCount":5008,"url":"http://www.dickslastresort.com","tier":2,"message":"Moderate","currency":"$","rating":6.9},{"name":"Full Moon Saloon","phone":"6152593765","address":"423 Broadway","lat":36.1606494,"lng":-86.778029,"city_fetched":"Nashville,US","state":"TN","country":"United States","canonicalUrl":"https://foursquare.com/v/full-moon-saloon/4b5d0f4df964a520d25029e3","categoryId":"4bf58dd8d48988d116941735","category":"Bar","checkinsCount":2390,"usersCount":1754,"tipCount":17,"visitsCount":2393,"url":"http://www.fullmoonsaloonnashville.com","tier":"","message":"","currency":"","rating":6.9},{"name":"Silver Dollar Saloon","phone":"6158913468","twitter":"silverdollartn","address":"110 2nd Avenue North","lat":36.16216978093428,"lng":-86.77521510533296,"city_fetched":"Nashville,US","state":"TN","country":"United States","canonicalUrl":"https://foursquare.com/v/silver-dollar-saloon/4faa8e3fe4b0f8dd98658642","categoryId":"4bf58dd8d48988d116941735","category":"Bar","checkinsCount":2331,"usersCount":1862,"tipCount":9,"visitsCount":2338,"url":"http://www.silverdollarsaloon.com","tier":"","message":"","currency":"","rating":6.9},{"name":"Bootleggers Inn","phone":"6154573983","address":"207 Broadway","lat":36.16168,"lng":-86.775377,"city_fetched":"Nashville,US","state":"TN","country":"United States","canonicalUrl":"https://foursquare.com/v/bootleggers-inn/4e94f4d54690753431d14da5","categoryId":"4bf58dd8d48988d116941735","category":"Bar","checkinsCount":2920,"usersCount":2279,"tipCount":24,"visitsCount":2975,"url":"http://www.bootleggersnashville.com","tier":2,"message":"Moderate","currency":"$","rating":6.9},{"name":"Cowboy Kewl","address":"308 Church St","lat":36.16411,"lng":-86.77810907363892,"city_fetched":"Nashville,US","state":"TN","country":"United States","canonicalUrl":"https://foursquare.com/v/cowboy-kewl/4e179998fa76194645893e71","categoryId":"4bf58dd8d48988d116941735","category":"Bar","checkinsCount":236,"usersCount":148,"tipCount":4,"visitsCount":236,"tier":"","message":"","currency":"","rating":6.9},{"name":"Big Shotz","phone":"6152449011","twitter":"bigshotz_nash","address":"115 2nd Ave N","lat":36.162303,"lng":-86.77568,"city_fetched":"Nashville,US","state":"TN","country":"United States","canonicalUrl":"https://foursquare.com/v/big-shotz/4b32d0e1f964a5206a1425e3","categoryId":"4bf58dd8d48988d122941735","category":"Whisky Bar","checkinsCount":3766,"usersCount":2610,"tipCount":27,"visitsCount":3781,"url":"http://www.bigshotznashville.com","tier":"","message":"","currency":"","rating":6.8},{"name":"Jack Daniel's Saloon","phone":"6154585225","address":"2800 Opryland Dr","lat":36.21213344266389,"lng":-86.69347788408206,"city_fetched":"Nashville,US","state":"TN","country":"United States","canonicalUrl":"https://foursquare.com/v/jack-daniels-saloon/4b6a2382f964a520b5c92be3","categoryId":"4bf58dd8d48988d1d5941735","category":"Hotel Bar","checkinsCount":2607,"usersCount":2194,"tipCount":30,"visitsCount":2633,"tier":2,"message":"Moderate","currency":"$","rating":6.8},{"name":"The Rusty Nail","lat":36.186141647611386,"lng":-86.60841343626198,"city_fetched":"Nashville,US","state":"TN","country":"United States","canonicalUrl":"https://foursquare.com/v/the-rusty-nail/4b88b118f964a520fc0832e3","categoryId":"4bf58dd8d48988d116941735","category":"Bar","checkinsCount":2431,"usersCount":763,"tipCount":10,"visitsCount":2672,"tier":"","message":"","currency":"","rating":6.7},{"name":"Jed's Sports Bar & Grille","phone":"6153204399","twitter":"jedsnashville","address":"114 28th Ave N","lat":36.1460322,"lng":-86.81280526666667,"city_fetched":"Nashville,US","state":"TN","country":"United States","canonicalUrl":"https://foursquare.com/v/jeds-sports-bar--grille/4e4f0631d22daf51d270c365","categoryId":"4bf58dd8d48988d116941735","category":"Bar","checkinsCount":4283,"usersCount":1861,"tipCount":32,"visitsCount":4773,"url":"http://www.jedsnashville.com/Jeds_Nashville/Home.html","tier":2,"message":"Moderate","currency":"$","rating":6.7},{"name":"The Pavilion Kitchen and Bar","phone":"6154572781","address":"1530 Demonbreun St","lat":36.15282125280786,"lng":-86.79084360412828,"city_fetched":"Nashville,US","state":"TN","country":"United States","canonicalUrl":"https://foursquare.com/v/the-pavilion-kitchen-and-bar/52005272498e9178a5166ff2","categoryId":"4bf58dd8d48988d11e941735","category":"Cocktail Bar","checkinsCount":242,"usersCount":191,"tipCount":5,"visitsCount":247,"url":"http://pavilionnashville.com","tier":"","message":"","currency":"","rating":6.7},{"name":"Benchmark Sports Bar & Grill","phone":"6152510096","twitter":"benchmark2ndave","address":"117 2nd Ave N","lat":36.16247300892749,"lng":-86.77562734983738,"city_fetched":"Nashville,US","state":"TN","country":"United States","canonicalUrl":"https://foursquare.com/v/benchmark-sports-bar--grill/4e46b56d1f6e29f10da9780f","categoryId":"4bf58dd8d48988d11d941735","category":"Sports Bar","checkinsCount":3094,"usersCount":2043,"tipCount":22,"visitsCount":3108,"url":"http://benchmarknashville.com","tier":"","message":"","currency":"","rating":6.7},{"name":"Rumours Wine & Art Bar","phone":"6152929400","address":"2304 12th Ave S","lat":36.12726331,"lng":-86.789043,"neighborhood":"Sunnyside","city_fetched":"Nashville,US","state":"TN","country":"United States","canonicalUrl":"https://foursquare.com/v/rumours-wine--art-bar/4b08b48cf964a5201b1123e3","categoryId":"4bf58dd8d48988d123941735","category":"Wine Bar","checkinsCount":760,"usersCount":280,"tipCount":8,"visitsCount":760,"url":"http://rumourswinebar.com","tier":"","message":"","currency":"","rating":6.7},{"name":"Findley's Irish Pub","address":"2800 Opryland Dr","lat":36.21223268875907,"lng":-86.69342380918036,"city_fetched":"Nashville,US","state":"TN","country":"United States","canonicalUrl":"https://foursquare.com/v/findleys-irish-pub/4d68172aa88a6ea8d05deb72","categoryId":"4bf58dd8d48988d11b941735","category":"Pub","checkinsCount":739,"usersCount":655,"tipCount":14,"visitsCount":744,"tier":"","message":"","currency":"","rating":6.6},{"name":"Fran's Eastside Tavern","phone":"6152269697","address":"2109 Greenwood Ave.","lat":36.18865455141079,"lng":-86.72867059707642,"city_fetched":"Nashville,US","state":"TN","country":"United States","canonicalUrl":"https://foursquare.com/v/frans-eastside-tavern/4b7786e0f964a520eb9f2ee3","categoryId":"4bf58dd8d48988d118941735","category":"Dive Bar","checkinsCount":407,"usersCount":268,"tipCount":6,"visitsCount":443,"tier":"","message":"","currency":"","rating":6.6},{"name":"WannaB's Karaoke Nashville","twitter":"wannabsnash","address":"305 Broadway","lat":36.161410579650834,"lng":-86.77619663413991,"city_fetched":"Nashville,US","state":"TN","country":"United States","canonicalUrl":"https://foursquare.com/v/wannabs-karaoke-nashville/4b4da5f7f964a52028d526e3","categoryId":"4bf58dd8d48988d120941735","category":"Karaoke Bar","checkinsCount":3018,"usersCount":2042,"tipCount":14,"visitsCount":3023,"tier":"","message":"","currency":"","rating":6.6},{"name":"Bailey's","phone":"6152545452","twitter":"baileysgrille","address":"408 Broadway","lat":36.1609707,"lng":-86.77762725,"city_fetched":"Nashville,US","state":"TN","country":"United States","canonicalUrl":"https://foursquare.com/v/baileys/4b06a4b6f964a5201cee22e3","categoryId":"4bf58dd8d48988d11d941735","category":"Sports Bar","checkinsCount":9024,"usersCount":5658,"tipCount":59,"visitsCount":9090,"url":"http://t.co/IGrH8HORCs","tier":2,"message":"Moderate","currency":"$","rating":6.6},{"name":"Springwater Supper Club & Lounge","phone":"6153200345","twitter":"springwaternash","address":"115 27th Ave N","lat":36.14637394,"lng":-86.81229696666666,"city_fetched":"Nashville,US","state":"TN","country":"United States","canonicalUrl":"https://foursquare.com/v/springwater-supper-club--lounge/4b058669f964a520f16022e3","categoryId":"4bf58dd8d48988d118941735","category":"Dive Bar","checkinsCount":1711,"usersCount":744,"tipCount":13,"visitsCount":1738,"url":"http://www.springwatersupperclub.com","tier":"","message":"","currency":"","rating":6.6},{"name":"H. Cue's Upstairs Pool Room","phone":"6153290690","address":"1602 21st Ave S","lat":36.138648,"lng":-86.800375,"city_fetched":"Nashville,US","state":"TN","country":"United States","canonicalUrl":"https://foursquare.com/v/h-cues-upstairs-pool-room/4b1380b2f964a5206c9723e3","categoryId":"4bf58dd8d48988d118941735","category":"Dive Bar","checkinsCount":980,"usersCount":265,"tipCount":9,"visitsCount":982,"url":"http://www.hcues.com","tier":"","message":"","currency":"","rating":6.6},{"name":"Pour House","phone":"6157365727","address":"730 8th Ave S","lat":36.1495124639025,"lng":-86.77879758996151,"city_fetched":"Nashville,US","state":"TN","country":"United States","canonicalUrl":"https://foursquare.com/v/pour-house/507449e0e4b0d20e60c89ef9","categoryId":"4bf58dd8d48988d116941735","category":"Bar","checkinsCount":2895,"usersCount":1947,"tipCount":47,"visitsCount":3107,"url":"http://pourhousenashville.com","tier":2,"message":"Moderate","currency":"$","rating":6.5},{"name":"Joe's Place","phone":"6153839115","address":"2227 Bandywood Dr","lat":36.104730246204156,"lng":-86.81912407982279,"neighborhood":"Green Hills","city_fetched":"Nashville,US","state":"TN","country":"United States","canonicalUrl":"https://foursquare.com/v/joes-place/4b442c03f964a52054f225e3","categoryId":"4bf58dd8d48988d11d941735","category":"Sports Bar","checkinsCount":2290,"usersCount":409,"tipCount":6,"visitsCount":2320,"tier":"","message":"","currency":"","rating":6.5},{"name":"The Corner Bar","phone":"6153204979","address":"2200 Elliston Pl","lat":36.151783,"lng":-86.803637,"city_fetched":"Nashville,US","state":"TN","country":"United States","canonicalUrl":"https://foursquare.com/v/the-corner-bar/4b108982f964a520667223e3","categoryId":"4bf58dd8d48988d116941735","category":"Bar","checkinsCount":3220,"usersCount":763,"tipCount":15,"visitsCount":3306,"tier":"","message":"","currency":"","rating":6.5},{"name":"Fuse Sports Club","address":"2800 Opryland Dr","lat":36.21249607356794,"lng":-86.69314360191761,"city_fetched":"Nashville,US","state":"TN","country":"United States","canonicalUrl":"https://foursquare.com/v/fuse-sports-club/4e0e34c622711665f61299e7","categoryId":"4bf58dd8d48988d11d941735","category":"Sports Bar","checkinsCount":2885,"usersCount":2475,"tipCount":37,"visitsCount":3157,"tier":"","message":"","currency":"","rating":6.4},{"name":"Shooters","address":"5851 Old Hickory Blvd","lat":36.16757209236565,"lng":-86.60050914991828,"city_fetched":"Nashville,US","state":"TN","country":"United States","canonicalUrl":"https://foursquare.com/v/shooters/4bb5374946d4a593afc1c4c0","categoryId":"4bf58dd8d48988d11d941735","category":"Sports Bar","checkinsCount":1007,"usersCount":389,"tipCount":8,"visitsCount":1239,"tier":"","message":"","currency":"","rating":6.4},{"name":"Doc Holliday's","phone":"6157126163","twitter":"docsnashville","address":"112 2nd Ave N","lat":36.16226271100959,"lng":-86.77545558171724,"city_fetched":"Nashville,US","state":"TN","country":"United States","canonicalUrl":"https://foursquare.com/v/doc-hollidays/4b258b99f964a520947324e3","categoryId":"4bf58dd8d48988d122941735","category":"Whisky Bar","checkinsCount":5703,"usersCount":1497,"tipCount":32,"visitsCount":5717,"url":"http://dochollidaysnashville.com/index.cfm","tier":"","message":"","currency":"","rating":6.4},{"name":"fooBAR.","phone":"6152267305","address":"2511 Gallatin Ave","lat":36.19557349147547,"lng":-86.74307877021616,"city_fetched":"Nashville,US","state":"TN","country":"United States","canonicalUrl":"https://foursquare.com/v/foobar/4b0d895ef964a5207d4a23e3","categoryId":"4bf58dd8d48988d116941735","category":"Bar","checkinsCount":4073,"usersCount":1319,"tipCount":27,"visitsCount":4645,"url":"http://www.thefooabarnashville.com","tier":2,"message":"Moderate","currency":"$","rating":6.4},{"name":"DJ's Pub & Grub","phone":"6159150440","address":"3736 Annex Ave","lat":36.14103915120599,"lng":-86.88253096904238,"neighborhood":"Whitebridge","city_fetched":"Nashville,US","state":"TN","country":"United States","canonicalUrl":"https://foursquare.com/v/djs-pub--grub/4c69e35a1a6620a139df648c","categoryId":"4bf58dd8d48988d11b941735","category":"Pub","checkinsCount":634,"usersCount":180,"tipCount":8,"visitsCount":637,"tier":"","message":"","currency":"","rating":6.4},{"name":"wxyz Bar Aloft","lat":36.152937458840164,"lng":-86.79573476067546,"city_fetched":"Nashville,US","state":"TN","country":"United States","canonicalUrl":"https://foursquare.com/v/wxyz-bar-aloft/50761f32e4b013a8f741078c","categoryId":"4bf58dd8d48988d1d5941735","category":"Hotel Bar","checkinsCount":153,"usersCount":64,"tipCount":4,"visitsCount":153,"tier":"","message":"","currency":"","rating":6.3},{"name":"ibiza salsa club","phone":"6153310382","address":"15128 Old Hickory Blvd","lat":36.045761704444885,"lng":-86.7161500453949,"city_fetched":"Nashville,US","state":"TN","country":"United States","canonicalUrl":"https://foursquare.com/v/ibiza-salsa-club/4bb3da5142959c741a8b222c","categoryId":"4bf58dd8d48988d11f941735","category":"Nightclub","checkinsCount":288,"usersCount":188,"tipCount":5,"visitsCount":323,"tier":"","message":"","currency":"","rating":6.3},{"name":"WKND Lounge","phone":"6157396345","address":"1703 Church St","lat":36.15567210671831,"lng":-86.79608796460212,"city_fetched":"Nashville,US","state":"TN","country":"United States","canonicalUrl":"https://foursquare.com/v/wknd-lounge/51fde3dc498e84266efd0987","categoryId":"4bf58dd8d48988d121941735","category":"Lounge","checkinsCount":225,"usersCount":152,"tipCount":5,"visitsCount":244,"tier":"","message":"","currency":"","rating":6.3},{"name":"Ms. Kelli's","phone":"6152554423","address":"207 Printers Aly","lat":36.164233,"lng":-86.77845392,"city_fetched":"Nashville,US","state":"TN","country":"United States","canonicalUrl":"https://foursquare.com/v/ms-kellis/4b5a9848f964a520f9cc28e3","categoryId":"4bf58dd8d48988d120941735","category":"Karaoke Bar","checkinsCount":1951,"usersCount":1203,"tipCount":34,"visitsCount":1993,"tier":"","message":"","currency":"","rating":6.3},{"name":"The Bridge","phone":"6152558400","address":"611 Commerce St","lat":36.16112314143115,"lng":-86.78097149001026,"city_fetched":"Nashville,US","state":"TN","country":"United States","canonicalUrl":"https://foursquare.com/v/the-bridge/4bba58f398c7ef3b88fd3202","categoryId":"4bf58dd8d48988d1d5941735","category":"Hotel Bar","checkinsCount":2412,"usersCount":978,"tipCount":8,"visitsCount":2424,"tier":2,"message":"Moderate","currency":"$","rating":6.3},{"name":"Yazoo Nashville Airport","address":"Concourse C","lat":36.129008420363036,"lng":-86.67057429483802,"city_fetched":"Nashville,US","state":"TN","country":"United States","canonicalUrl":"https://foursquare.com/v/yazoo-nashville-airport/52641f3511d2566dc201c9dd","categoryId":"4bf58dd8d48988d117941735","category":"Beer Garden","checkinsCount":340,"usersCount":289,"tipCount":5,"visitsCount":341,"url":"http://yazoobrew.com","tier":"","message":"","currency":"","rating":6.2},{"name":"Betty's Bar & Grill","phone":"6152977257","address":"407 49th Ave N","lat":36.15248,"lng":-86.84613276371968,"city_fetched":"Nashville,US","state":"TN","country":"United States","canonicalUrl":"https://foursquare.com/v/bettys-bar--grill/4b316f39f964a520eb0625e3","categoryId":"4bf58dd8d48988d118941735","category":"Dive Bar","checkinsCount":236,"usersCount":148,"tipCount":6,"visitsCount":237,"tier":"","message":"","currency":"","rating":6.2},{"name":"Smokin Thighs","phone":"6156012582","twitter":"smokinthighs","address":"611 Wedgewood Ave","lat":36.133126368227586,"lng":-86.77006244659424,"neighborhood":"Wedgewood Houston","city_fetched":"Nashville,US","state":"TN","country":"United States","canonicalUrl":"https://foursquare.com/v/smokin-thighs/50ba45ede4b0fb1ae3819a6c","categoryId":"4bf58dd8d48988d11d941735","category":"Sports Bar","checkinsCount":103,"usersCount":70,"tipCount":2,"visitsCount":103,"url":"http://www.smokinthighs.com","tier":"","message":"","currency":"","rating":6.1},{"name":"J C's Bullseye Sports Bar","phone":"6158855424","address":"3248 Blackwood Dr","lat":36.15209625870402,"lng":-86.62756561972482,"city_fetched":"Nashville,US","state":"TN","country":"United States","canonicalUrl":"https://foursquare.com/v/j-cs-bullseye-sports-bar/4b91ea4bf964a52035df33e3","categoryId":"4bf58dd8d48988d11d941735","category":"Sports Bar","checkinsCount":1249,"usersCount":367,"tipCount":9,"visitsCount":1417,"url":"http://www.jcsbullseye.com","tier":"","message":"","currency":"","rating":6.1},{"name":"Deja Vu Showgirls","phone":"6152481911","address":"1214 Demonbreun St","lat":36.15412784374999,"lng":-86.78752899169922,"city_fetched":"Nashville,US","state":"TN","country":"United States","canonicalUrl":"https://foursquare.com/v/deja-vu-showgirls/4b781fb5f964a520feb62ee3","categoryId":"4bf58dd8d48988d1d6941735","category":"Strip Club","checkinsCount":1923,"usersCount":927,"tipCount":12,"visitsCount":2113,"url":"http://dejavu-tacoma.com","tier":"","message":"","currency":"","rating":6},{"name":"TNT's Billiards Bar & Grill","phone":"6153155400","address":"4523 Nolensville Pike","lat":36.07073846444202,"lng":-86.72387820340727,"city_fetched":"Nashville,US","state":"TN","country":"United States","canonicalUrl":"https://foursquare.com/v/tnts-billiards-bar--grill/500e303fe4b03fb3d33c29ef","categoryId":"4bf58dd8d48988d118941735","category":"Dive Bar","checkinsCount":951,"usersCount":245,"tipCount":7,"visitsCount":1306,"url":"http://tntsbilliards.com","tier":1,"message":"Cheap","currency":"$","rating":5.9},{"name":"Wild Beaver Saloon","phone":"6152550030","address":"212 Commerce St","lat":36.163076021294415,"lng":-86.77684307098389,"city_fetched":"Nashville,US","state":"TN","country":"United States","canonicalUrl":"https://foursquare.com/v/wild-beaver-saloon/4b143d31f964a520d19f23e3","categoryId":"4bf58dd8d48988d120941735","category":"Karaoke Bar","checkinsCount":3249,"usersCount":2220,"tipCount":48,"visitsCount":3372,"tier":1,"message":"Cheap","currency":"$","rating":5.9},{"name":"Coyote Ugly Saloon","phone":"6152548459","twitter":"coyotelil","address":"154 2nd Ave N","lat":36.16340952057514,"lng":-86.7762162645146,"city_fetched":"Nashville,US","state":"TN","country":"United States","canonicalUrl":"https://foursquare.com/v/coyote-ugly-saloon/4b3fad2cf964a520ecab25e3","categoryId":"4bf58dd8d48988d116941735","category":"Bar","checkinsCount":4863,"usersCount":4212,"tipCount":37,"visitsCount":4918,"url":"http://www.coyoteuglysaloon.com","tier":"","message":"","currency":"","rating":5.9},{"name":"The Other Place Sports Bar & Grill","phone":"6154458122","address":"6900 Lenox Village Dr Ste 17","lat":36.02461930703852,"lng":-86.71225793380042,"neighborhood":"Lennox Village","city_fetched":"Nashville,US","state":"TN","country":"United States","canonicalUrl":"https://foursquare.com/v/the-other-place-sports-bar--grill/4ddfe89118388714bb743b5b","categoryId":"4bf58dd8d48988d11d941735","category":"Sports Bar","checkinsCount":1635,"usersCount":513,"tipCount":16,"visitsCount":1650,"url":"http://www.theotherplacetn.com","tier":"","message":"","currency":"","rating":5.8},{"name":"Agenda","twitter":"agendanashville","address":"901 9th Ave S","lat":36.15136429253705,"lng":-86.78081446210282,"city_fetched":"Nashville,US","state":"TN","country":"United States","canonicalUrl":"https://foursquare.com/v/agenda/5359a1f0498e5063a545a950","categoryId":"4bf58dd8d48988d11f941735","category":"Nightclub","checkinsCount":158,"usersCount":110,"tipCount":3,"visitsCount":173,"tier":"","message":"","currency":"","rating":5.8},{"name":"Blue Bar","phone":"6153278001","address":"1911 Broadway","lat":36.15000939811745,"lng":-86.79700530172403,"city_fetched":"Nashville,US","state":"TN","country":"United States","canonicalUrl":"https://foursquare.com/v/blue-bar/4b5a70eef964a52051c528e3","categoryId":"4bf58dd8d48988d116941735","category":"Bar","checkinsCount":2493,"usersCount":1354,"tipCount":12,"visitsCount":2522,"tier":"","message":"","currency":"","rating":5.8},{"name":"Pink Slip Bar","phone":"6153615900","twitter":"hotel_preston","address":"733 Briley Pkwy","lat":36.14201814160079,"lng":-86.70110676399271,"city_fetched":"Nashville,US","state":"TN","country":"United States","canonicalUrl":"https://foursquare.com/v/pink-slip-bar/4ba24e3ff964a52097eb37e3","categoryId":"4bf58dd8d48988d116941735","category":"Bar","checkinsCount":404,"usersCount":267,"tipCount":8,"visitsCount":404,"tier":"","message":"","currency":"","rating":5.6},{"name":"The Thirsty Turtle","phone":"6158669260","address":"1307 Bell Rd","lat":36.04696159343366,"lng":-86.6743119768036,"city_fetched":"Nashville,US","state":"TN","country":"United States","canonicalUrl":"https://foursquare.com/v/the-thirsty-turtle/4de2bd65c65b7a3e21227543","categoryId":"4bf58dd8d48988d11d941735","category":"Sports Bar","checkinsCount":1607,"usersCount":767,"tipCount":33,"visitsCount":1773,"url":"http://thethirstyturtlesportsgrill.com","tier":2,"message":"Moderate","currency":"$","rating":5.5}]