[{"name":"Under-The-Hill Saloon","phone":"6014468023","address":"25 Silver St","lat":31.559652,"lng":-91.410881,"city_fetched":"Natchez,US","state":"MS","country":"United States","canonicalUrl":"https://foursquare.com/v/underthehill-saloon/4c4f04f41b8e1b8df0261f28","categoryId":"4bf58dd8d48988d116941735","category":"Bar","checkinsCount":526,"usersCount":271,"tipCount":12,"visitsCount":559,"url":"http://underthehillsaloon.com","tier":"","message":"","currency":"","rating":7.2},{"name":"Bowie's Tavern","phone":"6014456627","address":"100 Main St","lat":31.561832806528745,"lng":-91.40615698588182,"city_fetched":"Natchez,US","state":"MS","country":"United States","canonicalUrl":"https://foursquare.com/v/bowies-tavern/4bb7db63cf2fc9b68aeb9e02","categoryId":"4bf58dd8d48988d116941735","category":"Bar","checkinsCount":693,"usersCount":297,"tipCount":13,"visitsCount":745,"url":"http://bowiestavern.com","tier":"","message":"","currency":"","rating":7.1},{"name":"Andrew's Tavern","phone":"6014450702","address":"325 Main St","lat":31.560462346897047,"lng":-91.40354007452247,"city_fetched":"Natchez,US","state":"MS","country":"United States","canonicalUrl":"https://foursquare.com/v/andrews-tavern/4c4f04921b8e1b8df5841e28","categoryId":"4bf58dd8d48988d118941735","category":"Dive Bar","checkinsCount":614,"usersCount":105,"tipCount":5,"visitsCount":621,"tier":2,"message":"Moderate","currency":"$","rating":6.9},{"name":"Peacock Lounge","phone":"6014456000","address":"110 N Pearl St","lat":31.560429,"lng":-91.403122,"city_fetched":"Natchez,US","state":"MS","country":"United States","canonicalUrl":"https://foursquare.com/v/peacock-lounge/4ec701406da1d1092e0c1218","categoryId":"4bf58dd8d48988d1d5941735","category":"Hotel Bar","checkinsCount":252,"usersCount":52,"tipCount":4,"visitsCount":254,"tier":"","message":"","currency":"","rating":6.2}]