[{"name":"Pioneer Pub","phone":"3183524884","address":"Front St","lat":31.763572096824646,"lng":-93.0860997,"city_fetched":"Natchitoches","state":"LA","country":"United States","canonicalUrl":"https://foursquare.com/v/pioneer-pub/4bbe965398f49521918ed163","category":"Pub","checkinsCount":1037,"usersCount":344,"tipCount":22,"visitsCount":1168,"url":"http://pioneerpubtime.com","tier":2,"message":"Moderate","currency":"$","rating":8},{"name":"French Market Express","phone":"3183579002","address":"5109 University Pkwy","lat":31.728893308227565,"lng":-93.15299411923917,"city_fetched":"Natchitoches","state":"LA","country":"United States","canonicalUrl":"https://foursquare.com/v/french-market-express/4c5f3119832fa593a9fbecd3","category":"Gastropub","checkinsCount":865,"usersCount":724,"tipCount":15,"visitsCount":1162,"url":"http://frenchmarketexpress.com","tier":2,"message":"Moderate","currency":"$","rating":7.7},{"name":"Maggio's Package Liquor","address":"230 South Dr","lat":31.74583628440368,"lng":-93.08249848395903,"city_fetched":"Natchitoches","state":"LA","country":"United States","canonicalUrl":"https://foursquare.com/v/maggios-package-liquor/4d8bd04a364f2d43433c369d","category":"Bar","checkinsCount":458,"usersCount":102,"tipCount":7,"visitsCount":500,"tier":"","message":"","currency":"","rating":6.8},{"name":"Papa's Bar & Grill","phone":"3183565850","address":"604 Front St","lat":31.761029362678528,"lng":-93.086248,"city_fetched":"Natchitoches","state":"LA","country":"United States","canonicalUrl":"https://foursquare.com/v/papas-bar--grill/4c410ed4e26920a1adf65de7","category":"Seafood Restaurant","checkinsCount":281,"usersCount":174,"tipCount":6,"visitsCount":281,"url":"http://www.papasbarandgrill.com","tier":2,"message":"Moderate","currency":"$","rating":6.7}]