[{"name":"Bear Town Market & Beer Garden","phone":"2526370022","twitter":"beartownmarket","address":"402 S Front St","lat":35.105162433333334,"lng":-77.04062628333334,"neighborhood":"Downtown New Bern","city_fetched":"New Bern,US","state":"NC","country":"United States","canonicalUrl":"https://foursquare.com/beartownmarket","categoryId":"4bf58dd8d48988d116941735","category":"Bar","checkinsCount":1135,"usersCount":262,"tipCount":12,"visitsCount":1192,"url":"http://www.beartownmarket.tumblr.com","tier":1,"message":"Cheap","currency":"$","rating":8.1},{"name":"Brewery99","phone":"2522596393","twitter":"brewery99","address":"417f","lat":35.10791758926664,"lng":-77.04067376856038,"neighborhood":"Downtown New Bern","city_fetched":"New Bern,US","state":"NC","country":"United States","canonicalUrl":"https://foursquare.com/v/brewery99/517d7acbe4b019c9419be304","categoryId":"50327c8591d4c4b30a586d5d","category":"Brewery","checkinsCount":60,"usersCount":32,"tipCount":2,"visitsCount":64,"tier":"","message":"","currency":"","rating":7.9},{"name":"Beer Army Outpost","phone":"2526335060","twitter":"beerarmy","address":"1244 US Highway 70 E","lat":35.07676132940459,"lng":-77.02855127896346,"city_fetched":"New Bern,US","state":"NC","country":"United States","canonicalUrl":"https://foursquare.com/v/beer-army-outpost/4f8f2265e4b007514d904f2e","categoryId":"4bf58dd8d48988d117941735","category":"Beer Garden","checkinsCount":1212,"usersCount":209,"tipCount":7,"visitsCount":1370,"url":"http://beerarmy.com","tier":"","message":"","currency":"","rating":7.8},{"name":"Beer Army Burger Company","lat":35.106659344881585,"lng":-77.03895892616424,"neighborhood":"Downtown New Bern","city_fetched":"New Bern,US","state":"NC","country":"United States","canonicalUrl":"https://foursquare.com/v/beer-army-burger-company/556b5c12498e32061efd1291","categoryId":"4bf58dd8d48988d117941735","category":"Beer Garden","checkinsCount":275,"usersCount":174,"tipCount":3,"visitsCount":428,"tier":"","message":"","currency":"","rating":7.8},{"name":"Miller's Landing","lat":34.94686336,"lng":-76.88690339,"city_fetched":"New Bern,US","state":"NC","country":"United States","canonicalUrl":"https://foursquare.com/v/millers-landing/4d02406ce117f04d1c4f23bf","categoryId":"4bf58dd8d48988d116941735","category":"Bar","checkinsCount":192,"usersCount":128,"tipCount":4,"visitsCount":260,"tier":"","message":"","currency":"","rating":7.4},{"name":"Thirsty Bruin Craft Beer and Wine","address":"224 Middle St","lat":35.10574219251057,"lng":-77.04012277267307,"neighborhood":"Downtown New Bern","city_fetched":"New Bern,US","state":"NC","country":"United States","canonicalUrl":"https://foursquare.com/v/thirsty-bruin-craft-beer-and-wine/5480caf4498e5261376f3d5b","categoryId":"4bf58dd8d48988d116941735","category":"Bar","checkinsCount":112,"usersCount":60,"tipCount":4,"visitsCount":126,"tier":"","message":"","currency":"","rating":6.6},{"name":"Bambooz","address":"Bridgepointe Hotel and Marina, 101 Howell Rd, New Bern, NC 28562","lat":35.09884123246839,"lng":-77.03855972985293,"city_fetched":"New Bern,US","state":"NC","country":"United States","canonicalUrl":"https://foursquare.com/v/bambooz/4f2363a7e4b0d609c57b17cd","categoryId":"4bf58dd8d48988d1d5941735","category":"Hotel Bar","checkinsCount":131,"usersCount":67,"tipCount":2,"visitsCount":136,"tier":"","message":"","currency":"","rating":6.1},{"name":"Harvey Mansion Bar","address":"221 S Front St","lat":35.10445822829034,"lng":-77.03774446568505,"neighborhood":"New Bern Riverfront","city_fetched":"New Bern,US","state":"NC","country":"United States","canonicalUrl":"https://foursquare.com/v/harvey-mansion-bar/4bb65aa11344b7137b609d04","categoryId":"4bf58dd8d48988d116941735","category":"Bar","checkinsCount":511,"usersCount":317,"tipCount":9,"visitsCount":639,"tier":"","message":"","currency":"","rating":6.1},{"name":"Prohibition","address":"243 Craven St","lat":35.106311747282575,"lng":-77.03859346480347,"neighborhood":"Downtown New Bern","city_fetched":"New Bern,US","state":"NC","country":"United States","canonicalUrl":"https://foursquare.com/v/prohibition/53409b2e498ee11e9e5d8b5b","categoryId":"4bf58dd8d48988d121941735","category":"Lounge","checkinsCount":141,"usersCount":80,"tipCount":6,"visitsCount":149,"tier":"","message":"","currency":"","rating":5.6}]