[{"name":"School House Winery","phone":"3306029463","address":"455 Schneiders Crossing Rd NW","lat":40.56185007763976,"lng":-81.46341142670039,"city_fetched":"New Philadelphia,US","state":"OH","country":"United States","canonicalUrl":"https://foursquare.com/v/school-house-winery/4bdb58793904a593abee499e","categoryId":"4bf58dd8d48988d123941735","category":"Wine Bar","checkinsCount":230,"usersCount":186,"tipCount":10,"visitsCount":297,"url":"http://www.schoolhousewine.com","tier":"","message":"","currency":"","rating":8.3},{"name":"Swiss Heritage Winery","phone":"3303434108","address":"6011 Old Route 39 NW","lat":40.510785383333335,"lng":-81.57335873333334,"city_fetched":"New Philadelphia,US","state":"OH","country":"United States","canonicalUrl":"https://foursquare.com/v/swiss-heritage-winery/4c0167691b2eb713335d9992","categoryId":"4bf58dd8d48988d123941735","category":"Wine Bar","checkinsCount":210,"usersCount":180,"tipCount":4,"visitsCount":220,"tier":"","message":"","currency":"","rating":8.1},{"name":"Broadway Brewhouse","phone":"3303439231","address":"127 S Broadway St","lat":40.48906161809932,"lng":-81.4456958624747,"city_fetched":"New Philadelphia,US","state":"OH","country":"United States","canonicalUrl":"https://foursquare.com/v/broadway-brewhouse/4b2bb412f964a5206cb924e3","categoryId":"4bf58dd8d48988d116941735","category":"Bar","checkinsCount":1262,"usersCount":447,"tipCount":16,"visitsCount":1430,"url":"http://www.broadwaybrewhouse.com","tier":"","message":"","currency":"","rating":7.6},{"name":"Krocker's  Bar & Grill","lat":40.51999893665327,"lng":-81.47953579525871,"city_fetched":"New Philadelphia,US","state":"OH","country":"United States","canonicalUrl":"https://foursquare.com/v/krockers--bar--grill/4c44e5ed2d3ec9b601902fae","categoryId":"4bf58dd8d48988d116941735","category":"Bar","checkinsCount":399,"usersCount":150,"tipCount":3,"visitsCount":418,"tier":"","message":"","currency":"","rating":7.5},{"name":"Silver Moon Winery","phone":"3306026040","address":"4915 Old Route 39 NW","lat":40.512549033333336,"lng":-81.55126718333334,"city_fetched":"New Philadelphia,US","state":"OH","country":"United States","canonicalUrl":"https://foursquare.com/v/silver-moon-winery/4c01728a1b2eb713c45e9992","categoryId":"4bf58dd8d48988d123941735","category":"Wine Bar","checkinsCount":159,"usersCount":168,"tipCount":0,"visitsCount":204,"tier":"","message":"","currency":"","rating":7.2},{"name":"Martini 97","phone":"3303659179","twitter":"97_martini","address":"232 N Tuscarawas Ave","lat":40.51985753638159,"lng":-81.47940175250064,"city_fetched":"New Philadelphia,US","state":"OH","country":"United States","canonicalUrl":"https://foursquare.com/v/martini-97/4fa347a6e4b02e6a53c8a9b6","categoryId":"4bf58dd8d48988d11e941735","category":"Cocktail Bar","checkinsCount":233,"usersCount":114,"tipCount":0,"visitsCount":247,"url":"http://www.reverbnation.com/venue/martini97","tier":"","message":"","currency":"","rating":6.8}]