[{"name":"August Schell Brewing Company","phone":"5073545528","address":"1860 Schells Rd","lat":44.289072711555455,"lng":-94.44954852370564,"city_fetched":"New Ulm","state":"MN","country":"United States","canonicalUrl":"https://foursquare.com/v/august-schell-brewing-company/4b5206a6f964a520366227e3","category":"Brewery","checkinsCount":1504,"usersCount":1206,"tipCount":13,"visitsCount":1762,"url":"http://www.schellsbrewery.com","tier":"","message":"","currency":"","rating":9},{"name":"Turner Hall","phone":"5073544916","twitter":"nuturnerhall","address":"102 S State St","lat":44.310310132899986,"lng":-94.4607842954525,"city_fetched":"New Ulm","state":"MN","country":"United States","canonicalUrl":"https://foursquare.com/v/turner-hall/4be6e7ef2457a593ee41ad15","category":"German Restaurant","checkinsCount":294,"usersCount":195,"tipCount":9,"visitsCount":348,"url":"http://www.newulmturnerhall.org","tier":2,"message":"Moderate","currency":"$","rating":7.9},{"name":"B & L Bar","address":"15 N Minnesota St","lat":44.313816027065386,"lng":-94.45957765692359,"city_fetched":"New Ulm","state":"MN","country":"United States","canonicalUrl":"https://foursquare.com/v/b--l-bar/4c2eadcded37a593c91e6603","category":"Bar","checkinsCount":565,"usersCount":270,"tipCount":2,"visitsCount":671,"tier":"","message":"","currency":"","rating":7.6},{"name":"Lamplighter Bar & Grill","phone":"5073542185","address":"214 N Minnesota St","lat":44.31599104507852,"lng":-94.46126695845551,"city_fetched":"New Ulm","state":"MN","country":"United States","canonicalUrl":"https://foursquare.com/v/lamplighter-bar--grill/4b64c066f964a52049cd2ae3","category":"Burger Joint","checkinsCount":704,"usersCount":392,"tipCount":9,"visitsCount":749,"url":"http://thelamplighterbar.com","tier":2,"message":"Moderate","currency":"$","rating":7.5},{"name":"Rodney's Tavern","address":"6 Minnesota St.","lat":44.312899633671954,"lng":-94.45886374189405,"city_fetched":"New Ulm","state":"MN","country":"United States","canonicalUrl":"https://foursquare.com/v/rodneys-tavern/4c319d5b16adc92896e4c09c","category":"Bar","checkinsCount":615,"usersCount":213,"tipCount":3,"visitsCount":730,"tier":"","message":"","currency":"","rating":7.3}]