[{"name":"Jessop's Tavern","phone":"3023226111","address":"114 Delaware St","lat":39.659113100140274,"lng":-75.56324915295191,"neighborhood":"New Castle Historic District","city_fetched":"New Castle","state":"DE","country":"United States","canonicalUrl":"https://foursquare.com/v/jessops-tavern/4b3bdf59f964a520267d25e3","category":"American Restaurant","checkinsCount":789,"usersCount":595,"tipCount":16,"visitsCount":894,"url":"http://www.jessops-tavern.com","tier":3,"message":"Expensive","currency":"$","rating":8.7},{"name":"Porto-Fino Pizza & Restaurant","phone":"3023223330","twitter":"intent","address":"730 Ferry Cut Off St","lat":39.66386396665001,"lng":-75.56797345093825,"city_fetched":"New Castle","state":"DE","country":"United States","canonicalUrl":"https://foursquare.com/v/portofino-pizza--restaurant/4d3b77c997e0a1cd07a0783e","category":"Italian Restaurant","checkinsCount":535,"usersCount":249,"tipCount":9,"visitsCount":666,"tier":2,"message":"Moderate","currency":"$","rating":7.6},{"name":"TGI Fridays","phone":"3023256620","twitter":"tgifridays","address":"128 N DuPont Hwy","lat":39.66995869,"lng":-75.59917503,"city_fetched":"New Castle","state":"DE","country":"United States","canonicalUrl":"https://foursquare.com/v/tgi-fridays/4b441465f964a5202ff125e3","category":"American Restaurant","checkinsCount":2056,"usersCount":1348,"tipCount":20,"visitsCount":2508,"url":"http://tgifridays.com","tier":2,"message":"Moderate","currency":"$","rating":6.3}]