[{"name":"New England Brewing Company","phone":"2033872222","twitter":"newenglandbrew","address":"175 Amity Rd","lat":41.33920683813231,"lng":-72.97987026531405,"city_fetched":"New Haven","state":"CT","country":"United States","canonicalUrl":"https://foursquare.com/v/new-england-brewing-company/4bc93038937ca593957ea592","category":"Brewery","checkinsCount":2028,"usersCount":1064,"tipCount":14,"visitsCount":2752,"url":"http://newenglandbrewing.com","tier":"","message":"","currency":"","rating":9.1},{"name":"BAR","phone":"2034958924","address":"254 Crown St","lat":41.306228338312636,"lng":-72.93036062302272,"neighborhood":"Downtown New Haven","city_fetched":"New Haven","state":"CT","country":"United States","canonicalUrl":"https://foursquare.com/v/bar/4b284c8bf964a520309224e3","category":"Pizza Place","checkinsCount":12772,"usersCount":7469,"tipCount":154,"visitsCount":14137,"url":"http://barnightclub.com","tier":2,"message":"Moderate","currency":"$","rating":9.1},{"name":"Barcelona Restaurant & Wine Bar","phone":"2038483000","address":"155 Temple St","lat":41.30560959524401,"lng":-72.92761087417603,"neighborhood":"Downtown New Haven","city_fetched":"New Haven","state":"CT","country":"United States","canonicalUrl":"https://foursquare.com/v/barcelona-restaurant--wine-bar/4b3d61a5f964a5205b9325e3","category":"Spanish Restaurant","checkinsCount":4228,"usersCount":2466,"tipCount":57,"visitsCount":4418,"url":"http://www.barcelonawinebar.com","tier":2,"message":"Moderate","currency":"$","rating":9},{"name":"Goodfellas Restaurant","phone":"2037858722","twitter":"cafegoodfellas","address":"702 State St","lat":41.31095340858644,"lng":-72.91719860882526,"neighborhood":"Downtown New Haven","city_fetched":"New Haven","state":"CT","country":"United States","canonicalUrl":"https://foursquare.com/v/goodfellas-restaurant/4b05867bf964a520a66322e3","category":"Italian Restaurant","checkinsCount":1150,"usersCount":1047,"tipCount":17,"visitsCount":1590,"url":"http://cafegoodfellas.com","tier":3,"message":"Expensive","currency":"$","rating":8.9},{"name":"Mamoun's Falafel Restaurant","phone":"2035628444","twitter":"mamounsfalafel","address":"85 Howe St","lat":41.31032952740953,"lng":-72.93464013995239,"neighborhood":"Dwight","city_fetched":"New Haven","state":"CT","country":"United States","canonicalUrl":"https://foursquare.com/v/mamouns-falafel-restaurant/4ae51b9bf964a52056a021e3","category":"Middle Eastern Restaurant","checkinsCount":3901,"usersCount":2278,"tipCount":62,"visitsCount":4858,"url":"http://mamouns.com","tier":1,"message":"Cheap","currency":"$","rating":8.8},{"name":"Prime 16","phone":"2037821616","twitter":"prime16newhaven","address":"172 Temple St","lat":41.30617375755215,"lng":-72.92738556861877,"neighborhood":"Downtown New Haven","city_fetched":"New Haven","state":"CT","country":"United States","canonicalUrl":"https://foursquare.com/v/prime-16/4b074d7ef964a52098fb22e3","category":"American Restaurant","checkinsCount":7144,"usersCount":3524,"tipCount":108,"visitsCount":7631,"url":"http://www.prime16.com","tier":2,"message":"Moderate","currency":"$","rating":8.8},{"name":"116 Crown","phone":"2037773116","twitter":"116crown","address":"116 Crown St","lat":41.30452641535615,"lng":-72.92616177705426,"neighborhood":"Downtown New Haven","city_fetched":"New Haven","state":"CT","country":"United States","canonicalUrl":"https://foursquare.com/v/116-crown/4b188536f964a520cad323e3","category":"Cocktail Bar","checkinsCount":2697,"usersCount":1336,"tipCount":35,"visitsCount":2917,"url":"http://116crown.com","tier":3,"message":"Expensive","currency":"$","rating":8.7},{"name":"Rudy's Bar","phone":"2038651242","address":"1227 Chapel St","lat":41.30931799191039,"lng":-72.93525726071651,"neighborhood":"Dwight","city_fetched":"New Haven","state":"CT","country":"United States","canonicalUrl":"https://foursquare.com/v/rudys-bar/4b05ade6f964a520e0e022e3","category":"Bar","checkinsCount":4491,"usersCount":1919,"tipCount":37,"visitsCount":5078,"url":"http://rudysnewhaven.com","tier":2,"message":"Moderate","currency":"$","rating":8.5},{"name":"Elm City Social","phone":"4754417436","address":"266 College St","lat":41.306982463994125,"lng":-72.92899946676553,"neighborhood":"Downtown New Haven","city_fetched":"New Haven","state":"CT","country":"United States","canonicalUrl":"https://foursquare.com/v/elm-city-social/55c6a0ba498eb5cf90f9c06a","category":"Cocktail Bar","checkinsCount":349,"usersCount":237,"tipCount":5,"visitsCount":363,"tier":"","message":"","currency":"","rating":8.5},{"name":"The Cask Republic","phone":"4752388335","twitter":"thecaskrepublic","address":"179 Crown St","lat":41.305216508692496,"lng":-72.92736722253812,"neighborhood":"Downtown New Haven","city_fetched":"New Haven","state":"CT","country":"United States","canonicalUrl":"https://foursquare.com/v/the-cask-republic/4d27bb1cb818a35dd1648e8a","category":"Bar","checkinsCount":6738,"usersCount":3336,"tipCount":40,"visitsCount":7480,"url":"http://thecaskrepublic.com","tier":3,"message":"Expensive","currency":"$","rating":8.3},{"name":"The Owl Shop","phone":"2036243250","twitter":"theowlshop","address":"268 College St","lat":41.307029,"lng":-72.92897318333333,"neighborhood":"Downtown New Haven","city_fetched":"New Haven","state":"CT","country":"United States","canonicalUrl":"https://foursquare.com/v/the-owl-shop/4b05867bf964a520bc6322e3","category":"Smoke Shop","checkinsCount":3429,"usersCount":1449,"tipCount":32,"visitsCount":3473,"url":"http://www.owlshopcigars.com","tier":"","message":"","currency":"","rating":8.3},{"name":"Geronimo Southwest Grill","phone":"2037777700","twitter":"geronimotequila","address":"271 Crown St","lat":41.306549187066274,"lng":-72.93072974880425,"neighborhood":"Downtown New Haven","city_fetched":"New Haven","state":"CT","country":"United States","canonicalUrl":"https://foursquare.com/v/geronimo-southwest-grill/4b0878aff964a520920c23e3","category":"Mexican Restaurant","checkinsCount":5006,"usersCount":2795,"tipCount":66,"visitsCount":5187,"url":"http://geronimobarandgrill.com","tier":2,"message":"Moderate","currency":"$","rating":8.2},{"name":"Diesel Lounge","phone":"2037769899","address":"944 State St","lat":41.315069301010716,"lng":-72.91069231488602,"neighborhood":"East Rock","city_fetched":"New Haven","state":"CT","country":"United States","canonicalUrl":"https://foursquare.com/v/diesel-lounge/4be370d263609c7418e71bff","category":"Lounge","checkinsCount":562,"usersCount":255,"tipCount":2,"visitsCount":579,"url":"http://diesellounge.com","tier":2,"message":"Moderate","currency":"$","rating":8.1},{"name":"Anna Liffey's","phone":"2037731776","twitter":"annaliffeys","address":"17 Whitney Ave","lat":41.310772435954725,"lng":-72.92249349402452,"neighborhood":"Downtown New Haven","city_fetched":"New Haven","state":"CT","country":"United States","canonicalUrl":"https://foursquare.com/v/anna-liffeys/4ab45ab0f964a520fc7020e3","category":"Pub","checkinsCount":5967,"usersCount":1883,"tipCount":40,"visitsCount":6281,"url":"http://annaliffeys.com","tier":1,"message":"Cheap","currency":"$","rating":8},{"name":"ZINC Modern American Food","phone":"2036240507","twitter":"kitchenzinc","address":"964 Chapel St","lat":41.306932543491456,"lng":-72.9279497562117,"neighborhood":"Downtown New Haven","city_fetched":"New Haven","state":"CT","country":"United States","canonicalUrl":"https://foursquare.com/v/zinc-modern-american-food/4b058677f964a520466322e3","category":"American Restaurant","checkinsCount":1108,"usersCount":744,"tipCount":18,"visitsCount":1116,"url":"http://zincfood.com","tier":2,"message":"Moderate","currency":"$","rating":8},{"name":"Skappo Wine Bar","phone":"2037731394","address":"59 Crown St","lat":41.304074,"lng":-72.92511,"neighborhood":"Downtown New Haven","city_fetched":"New Haven","state":"CT","country":"United States","canonicalUrl":"https://foursquare.com/v/skappo-wine-bar/4b787e29f964a5200fd22ee3","category":"Wine Bar","checkinsCount":224,"usersCount":175,"tipCount":9,"visitsCount":224,"url":"http://skappo.com","tier":"","message":"","currency":"","rating":8},{"name":"Archie Moore's","phone":"2037739870","address":"188 Willow St","lat":41.321377,"lng":-72.910417,"neighborhood":"East Rock","city_fetched":"New Haven","state":"CT","country":"United States","canonicalUrl":"https://foursquare.com/v/archie-moores/4bd907b267b49c74af7f2214","category":"Burger Joint","checkinsCount":2537,"usersCount":1309,"tipCount":31,"visitsCount":3134,"url":"http://www.archiemoores.com/original/locations.htm","tier":2,"message":"Moderate","currency":"$","rating":8},{"name":"Playwright Irish Pub","phone":"2032872401","address":"1232 Whitney Ave","lat":41.34585531085705,"lng":-72.91288417124908,"city_fetched":"New Haven","state":"CT","country":"United States","canonicalUrl":"https://foursquare.com/v/playwright-irish-pub/4b2197c8f964a5208d3e24e3","category":"Pub","checkinsCount":1927,"usersCount":857,"tipCount":21,"visitsCount":2221,"url":"http://playwrightirishpub.com","tier":2,"message":"Moderate","currency":"$","rating":7.9},{"name":"No Worries Brewing","twitter":"noworriesbrew","address":"2520 State St","lat":41.349849,"lng":-72.89287,"city_fetched":"New Haven","state":"CT","country":"United States","canonicalUrl":"https://foursquare.com/v/no-worries-brewing/56478569498ef53f70f9b5a0","category":"Brewery","checkinsCount":118,"usersCount":133,"tipCount":4,"visitsCount":208,"tier":"","message":"","currency":"","rating":7.9},{"name":"Ordinary","phone":"2039070238","address":"990 Chapel St","lat":41.307179112597716,"lng":-72.92864187357908,"neighborhood":"Downtown New Haven","city_fetched":"New Haven","state":"CT","country":"United States","canonicalUrl":"https://foursquare.com/v/ordinary/515f2508498eedc7c5f3492f","category":"Bar","checkinsCount":1953,"usersCount":900,"tipCount":20,"visitsCount":2201,"url":"http://ordinarynewhaven.com","tier":3,"message":"Expensive","currency":"$","rating":7.9},{"name":"John Davenport's","phone":"2037726664","twitter":"omnihotels","address":"155 Temple St","lat":41.305757830342294,"lng":-72.92698078852455,"neighborhood":"Downtown New Haven","city_fetched":"New Haven","state":"CT","country":"United States","canonicalUrl":"https://foursquare.com/v/john-davenports/4bd24770046076b02abb7371","category":"American Restaurant","checkinsCount":516,"usersCount":362,"tipCount":4,"visitsCount":519,"url":"http://omnihotels.com","tier":3,"message":"Expensive","currency":"$","rating":7.9},{"name":"Christopher Martins Restaurant & Pub","phone":"2037768835","address":"860 State St","lat":41.313495,"lng":-72.913357,"neighborhood":"East Rock","city_fetched":"New Haven","state":"CT","country":"United States","canonicalUrl":"https://foursquare.com/v/christopher-martins-restaurant--pub/4b09b58ef964a5202a1c23e3","category":"Bar","checkinsCount":1675,"usersCount":769,"tipCount":14,"visitsCount":1730,"url":"http://www.christophermartins.com","tier":"","message":"","currency":"","rating":7.9},{"name":"Mediterranea Cafe","phone":"2036240589","address":"140 Orange St","lat":41.30583389799591,"lng":-72.92394120364929,"neighborhood":"Downtown New Haven","city_fetched":"New Haven","state":"CT","country":"United States","canonicalUrl":"https://foursquare.com/v/mediterranea-cafe/4b624c08f964a520ee402ae3","category":"Hookah Bar","checkinsCount":802,"usersCount":369,"tipCount":13,"visitsCount":807,"url":"http://mediterraneanewhaven.com","tier":"","message":"","currency":"","rating":7.8},{"name":"Toad's Place","phone":"2035625694","address":"300 York St","lat":41.31157694352273,"lng":-72.92964544019506,"neighborhood":"Downtown New Haven","city_fetched":"New Haven","state":"CT","country":"United States","canonicalUrl":"https://foursquare.com/v/toads-place/4b058678f964a5204c6322e3","category":"Rock Club","checkinsCount":5945,"usersCount":3661,"tipCount":32,"visitsCount":6309,"url":"http://www.toadsplace.com","tier":"","message":"","currency":"","rating":7.8},{"name":"Barracuda Bistro & Bar","phone":"2036915696","address":"1180 Chapel St","lat":41.30904097356582,"lng":-72.93361352429862,"neighborhood":"Dwight","city_fetched":"New Haven","state":"CT","country":"United States","canonicalUrl":"https://foursquare.com/v/barracuda-bistro--bar/548f9645498ea579baca0673","category":"Bar","checkinsCount":146,"usersCount":107,"tipCount":3,"visitsCount":162,"tier":"","message":"","currency":"","rating":7.7},{"name":"Gryphon's Pub (GPSCY)","phone":"2034322638","address":"204 York St","lat":41.309241356190476,"lng":-72.93195824143021,"neighborhood":"Downtown New Haven","city_fetched":"New Haven","state":"CT","country":"United States","canonicalUrl":"https://foursquare.com/v/gryphons-pub-gpscy/4b247416f964a520b26724e3","category":"Pub","checkinsCount":2351,"usersCount":892,"tipCount":7,"visitsCount":2745,"url":"http://www.gpscy.net","tier":1,"message":"Cheap","currency":"$","rating":7.5},{"name":"Zafra Cuban Restaurant & Rum Bar","phone":"2038595342","address":"259 Orange St","lat":41.307883237474165,"lng":-72.92237813829851,"neighborhood":"Downtown New Haven","city_fetched":"New Haven","state":"CT","country":"United States","canonicalUrl":"https://foursquare.com/v/zafra-cuban-restaurant--rum-bar/4da341027aee54816c45e6fe","category":"Cuban Restaurant","checkinsCount":729,"usersCount":420,"tipCount":22,"visitsCount":754,"url":"http://www.zafrarumbar.com","tier":2,"message":"Moderate","currency":"$","rating":7.5},{"name":"Z's Corner Cafe","phone":"2039317788","address":"373-409 Campbell Ave","lat":41.269589271912814,"lng":-72.94870086823337,"city_fetched":"New Haven","state":"CT","country":"United States","canonicalUrl":"https://foursquare.com/v/zs-corner-cafe/4c6ea55910faa1436343f168","category":"Bar","checkinsCount":670,"usersCount":182,"tipCount":6,"visitsCount":712,"tier":"","message":"","currency":"","rating":7.5},{"name":"New West Cafe","phone":"2033875939","address":"879 Whalley Ave","lat":41.326819,"lng":-72.959668,"neighborhood":"Westville","city_fetched":"New Haven","state":"CT","country":"United States","canonicalUrl":"https://foursquare.com/v/new-west-cafe/4bfa040fbc86952109d57a6b","category":"Bar","checkinsCount":1215,"usersCount":321,"tipCount":5,"visitsCount":1269,"tier":2,"message":"Moderate","currency":"$","rating":7.5},{"name":"Three Sheets","address":"372 Elm St","lat":41.31182789924074,"lng":-72.9332674730815,"neighborhood":"Dwight","city_fetched":"New Haven","state":"CT","country":"United States","canonicalUrl":"https://foursquare.com/v/three-sheets/52b3593711d24c47e9dcd21d","category":"Dive Bar","checkinsCount":387,"usersCount":250,"tipCount":6,"visitsCount":475,"tier":"","message":"","currency":"","rating":7.4},{"name":"Stella Blues","phone":"2037529764","address":"204 Crown St","lat":41.3054102,"lng":-72.9284719,"neighborhood":"Downtown New Haven","city_fetched":"New Haven","state":"CT","country":"United States","canonicalUrl":"https://foursquare.com/v/stella-blues/4b2153d4f964a520373a24e3","category":"Rock Club","checkinsCount":2081,"usersCount":848,"tipCount":12,"visitsCount":2109,"url":"http://stellabluesbar.com","tier":"","message":"","currency":"","rating":7.4},{"name":"Christy's Irish Pub","phone":"2036240811","address":"261 Orange St","lat":41.30791520882063,"lng":-72.92213607133615,"neighborhood":"Downtown New Haven","city_fetched":"New Haven","state":"CT","country":"United States","canonicalUrl":"https://foursquare.com/v/christys-irish-pub/4b1934c1f964a52030d923e3","category":"Pub","checkinsCount":2142,"usersCount":723,"tipCount":19,"visitsCount":2316,"tier":2,"message":"Moderate","currency":"$","rating":7.4},{"name":"744","address":"744 Post Road","lat":41.28775005923548,"lng":-72.97252376911516,"city_fetched":"New Haven","state":"CT","country":"United States","canonicalUrl":"https://foursquare.com/v/744/4c0eabdf7189c928a3e0d8b6","category":"Bar","checkinsCount":729,"usersCount":347,"tipCount":5,"visitsCount":899,"url":"http://744west.com","tier":"","message":"","currency":"","rating":7.3},{"name":"Woodbridge Social","address":"12 Selden St","lat":41.33953157625313,"lng":-72.9822402400056,"city_fetched":"New Haven","state":"CT","country":"United States","canonicalUrl":"https://foursquare.com/v/woodbridge-social/52f7d9f411d2b87ba6cabf9f","category":"Bar","checkinsCount":368,"usersCount":284,"tipCount":5,"visitsCount":677,"url":"http://woodbridgesocial.com","tier":"","message":"","currency":"","rating":7.3},{"name":"August","address":"3 Edwards St","lat":41.31573,"lng":-72.909778,"neighborhood":"East Rock","city_fetched":"New Haven","state":"CT","country":"United States","canonicalUrl":"https://foursquare.com/v/august/536eda7b498e3f089fe35f4e","category":"Wine Bar","checkinsCount":81,"usersCount":57,"tipCount":3,"visitsCount":87,"tier":"","message":"","currency":"","rating":7.3},{"name":"Box 63 American Bar & Grill","phone":"2038217772","twitter":"box63restaurant","address":"338 Elm St","lat":41.31128323385729,"lng":-72.93207943439484,"neighborhood":"Dwight","city_fetched":"New Haven","state":"CT","country":"United States","canonicalUrl":"https://foursquare.com/v/box-63-american-bar--grill/4dadb5bb043718a63e381058","category":"American Restaurant","checkinsCount":2081,"usersCount":1207,"tipCount":31,"visitsCount":2155,"url":"http://www.box63.com","tier":2,"message":"Moderate","currency":"$","rating":7.2},{"name":"Club Vandome","phone":"2037892066","twitter":"clubvandome","address":"102 Hamilton St","lat":41.305970953771705,"lng":-72.91310912379322,"neighborhood":"Wooster Square - Mill River","city_fetched":"New Haven","state":"CT","country":"United States","canonicalUrl":"https://foursquare.com/v/club-vandome/4bbffb42920eb713246a182c","category":"Nightclub","checkinsCount":710,"usersCount":425,"tipCount":7,"visitsCount":925,"url":"http://www.clubvandome.com","tier":1,"message":"Cheap","currency":"$","rating":7.2},{"name":"Firehouse 12","phone":"2037850468","twitter":"firehouse12","address":"45 Crown St","lat":41.303973,"lng":-72.924817,"neighborhood":"Downtown New Haven","city_fetched":"New Haven","state":"CT","country":"United States","canonicalUrl":"https://foursquare.com/v/firehouse-12/4b3bdb22f964a520ba7c25e3","category":"Cocktail Bar","checkinsCount":1376,"usersCount":617,"tipCount":12,"visitsCount":1405,"url":"http://www.firehouse12.com","tier":2,"message":"Moderate","currency":"$","rating":7.2},{"name":"Cafe Nine","phone":"2037898281","twitter":"cafenine","address":"250 State St","lat":41.30344385264726,"lng":-72.92403348763065,"neighborhood":"Downtown New Haven","city_fetched":"New Haven","state":"CT","country":"United States","canonicalUrl":"https://foursquare.com/v/cafe-nine/4b058678f964a5204f6322e3","category":"Beer Garden","checkinsCount":1579,"usersCount":798,"tipCount":14,"visitsCount":1866,"url":"http://cafenine.com","tier":"","message":"","currency":"","rating":7.1},{"name":"Kelly's Restaurant & Bar","phone":"2037761111","twitter":"kellysoncrown","address":"196 Crown St","lat":41.30542240171419,"lng":-72.92820930045976,"neighborhood":"Downtown New Haven","city_fetched":"New Haven","state":"CT","country":"United States","canonicalUrl":"https://foursquare.com/v/kellys-restaurant--bar/4b9d11b0f964a520d58c36e3","category":"Bar","checkinsCount":2435,"usersCount":1268,"tipCount":20,"visitsCount":2490,"url":"http://www.kellysnewhaven.com","tier":2,"message":"Moderate","currency":"$","rating":7.1},{"name":"Randall's Bar","phone":"2039321806","address":"236 Platt Ave","lat":41.26009880652402,"lng":-72.96401792493793,"city_fetched":"New Haven","state":"CT","country":"United States","canonicalUrl":"https://foursquare.com/v/randalls-bar/4c20194a920076b02fd4c5e9","category":"Bar","checkinsCount":1137,"usersCount":226,"tipCount":4,"visitsCount":1190,"tier":"","message":"","currency":"","rating":7},{"name":"Overshores Brewing Co.","phone":"2039096224","twitter":"overshores","address":"250 Bradley Street","lat":41.28855530389577,"lng":-72.87416612209499,"city_fetched":"New Haven","state":"CT","country":"United States","canonicalUrl":"https://foursquare.com/v/overshores-brewing-co/5134baefe4b02bbf5e9c8740","category":"Brewery","checkinsCount":162,"usersCount":185,"tipCount":1,"visitsCount":235,"url":"http://overshores.com","tier":"","message":"","currency":"","rating":7},{"name":"Heirloom","phone":"2035033919","address":"1157 Chapel St","lat":41.3087352,"lng":-72.9327711,"neighborhood":"Downtown New Haven","city_fetched":"New Haven","state":"CT","country":"United States","canonicalUrl":"https://foursquare.com/v/heirloom/4b5a75cff964a5207ec628e3","category":"American Restaurant","checkinsCount":1425,"usersCount":816,"tipCount":18,"visitsCount":1504,"url":"http://studyatyale.com","tier":3,"message":"Expensive","currency":"$","rating":6.8}]