[{"name":"Bacchanal Wine","phone":"5049489111","twitter":"bacchanalwine","address":"600 Poland Ave","lat":29.959868891766586,"lng":-90.03338915766287,"neighborhood":"Bywater","city_fetched":"New Orleans","state":"LA","country":"United States","canonicalUrl":"https://foursquare.com/bacchanalwine","category":"Wine Bar","checkinsCount":6133,"usersCount":5331,"tipCount":120,"visitsCount":7813,"url":"http://www.bacchanalwine.com","tier":2,"message":"Moderate","currency":"$","rating":9.6},{"name":"House of Blues New Orleans","phone":"5043104999","twitter":"hobnola","address":"225 Decatur St","lat":29.953300892336703,"lng":-90.06617114199199,"neighborhood":"French Quarter","city_fetched":"New Orleans","state":"LA","country":"United States","canonicalUrl":"https://foursquare.com/hobnola","category":"Music Venue","checkinsCount":14612,"usersCount":10739,"tipCount":88,"visitsCount":15907,"url":"http://www.houseofblues.com/neworleans","tier":"","message":"","currency":"","rating":9.5},{"name":"Parkway Bakery & Tavern","phone":"5044823047","twitter":"parkwaypoorboys","address":"538 Hagan Ave","lat":29.97365288609981,"lng":-90.09030818478249,"neighborhood":"Bayou St. John","city_fetched":"New Orleans","state":"LA","country":"United States","canonicalUrl":"https://foursquare.com/parkwaypoorboys","category":"Sandwich Place","checkinsCount":9823,"usersCount":7223,"tipCount":155,"visitsCount":11752,"url":"http://bit.ly/ParkwayPoorboys_Instagram","tier":2,"message":"Moderate","currency":"$","rating":9.5},{"name":"Vincent's Italian Cuisine","phone":"5048669313","twitter":"vincentsnola","address":"7839 Saint Charles Ave","lat":29.94185579425668,"lng":-90.13228519626844,"neighborhood":"East Carrollton","city_fetched":"New Orleans","state":"LA","country":"United States","canonicalUrl":"https://foursquare.com/vincentsnola","category":"Italian Restaurant","checkinsCount":1431,"usersCount":1107,"tipCount":22,"visitsCount":1796,"url":"http://www.vincentsitaliancuisine.com","tier":2,"message":"Moderate","currency":"$","rating":9.4},{"name":"Tipitina's","phone":"5048958477","twitter":"tipitinas","address":"501 Napoleon Ave","lat":29.91734044090494,"lng":-90.10079741477966,"neighborhood":"Central City - Garden","city_fetched":"New Orleans","state":"LA","country":"United States","canonicalUrl":"https://foursquare.com/v/tipitinas/4ae27ec1f964a520a68e21e3","category":"Music Venue","checkinsCount":6227,"usersCount":3992,"tipCount":42,"visitsCount":7256,"url":"http://www.tipitinas.com","tier":"","message":"","currency":"","rating":9.3},{"name":"Beachbum Berry's Latitude 29","phone":"5046093811","twitter":"latitude29_nola","address":"321 N Peters St","lat":29.9536290156477,"lng":-90.06505819244414,"neighborhood":"French Quarter","city_fetched":"New Orleans","state":"LA","country":"United States","canonicalUrl":"https://foursquare.com/v/beachbum-berrys-latitude-29/54414ad0498e3ab129b744a3","category":"Cocktail Bar","checkinsCount":1194,"usersCount":775,"tipCount":31,"visitsCount":1392,"url":"http://latitude29nola.com","tier":"","message":"","currency":"","rating":9.3},{"name":"Avenue Pub","phone":"5045869243","twitter":"avenuepubnola","address":"1732 Saint Charles Ave","lat":29.93693652128023,"lng":-90.07688283920288,"neighborhood":"Central City - Garden","city_fetched":"New Orleans","state":"LA","country":"United States","canonicalUrl":"https://foursquare.com/v/avenue-pub/41326e00f964a52041181fe3","category":"Pub","checkinsCount":11974,"usersCount":5146,"tipCount":118,"visitsCount":13921,"url":"http://www.theavenuepub.com","tier":2,"message":"Moderate","currency":"$","rating":9.2},{"name":"The Delachaise","phone":"5048950858","address":"3442 Saint Charles Ave","lat":29.92748997201208,"lng":-90.09256839752197,"neighborhood":"Touro","city_fetched":"New Orleans","state":"LA","country":"United States","canonicalUrl":"https://foursquare.com/v/the-delachaise/4ad4c04bf964a520d2f220e3","category":"Winery","checkinsCount":5484,"usersCount":2889,"tipCount":48,"visitsCount":6411,"url":"http://www.thedelachaise.com","tier":"","message":"","currency":"","rating":9.2},{"name":"La Petite Grocery","phone":"5048913377","twitter":"lapetitegrocery","address":"4238 Magazine St","lat":29.920891,"lng":-90.100124,"neighborhood":"Central City - Garden","city_fetched":"New Orleans","state":"LA","country":"United States","canonicalUrl":"https://foursquare.com/v/la-petite-grocery/4af468cdf964a52021f221e3","category":"Restaurant","checkinsCount":2590,"usersCount":2311,"tipCount":61,"visitsCount":3285,"url":"http://www.lapetitegrocery.com","tier":3,"message":"Expensive","currency":"$","rating":9.2},{"name":"Acme Oyster House","phone":"5045225973","twitter":"acmeoyster","address":"724 Iberville St","lat":29.954524652898396,"lng":-90.06886698548414,"neighborhood":"Central Business District","city_fetched":"New Orleans","state":"LA","country":"United States","canonicalUrl":"https://foursquare.com/v/acme-oyster-house/4ad4c04df964a52070f320e3","category":"Cajun / Creole Restaurant","checkinsCount":20217,"usersCount":18095,"tipCount":428,"visitsCount":21035,"url":"http://www.acmeoysterhouse.com","tier":2,"message":"Moderate","currency":"$","rating":9.2},{"name":"Three Muses","phone":"5042988746","twitter":"threemusesnola","address":"536 Frenchmen St","lat":29.96334093,"lng":-90.057785,"neighborhood":"Marigny","city_fetched":"New Orleans","state":"LA","country":"United States","canonicalUrl":"https://foursquare.com/v/three-muses/4ae335a8f964a520b19121e3","category":"Cocktail Bar","checkinsCount":5013,"usersCount":4112,"tipCount":143,"visitsCount":5067,"url":"http://www.thethreemuses.com","tier":2,"message":"Moderate","currency":"$","rating":9.2},{"name":"The Spotted Cat Music Club","phone":"2063373273","address":"623 Frenchmen St","lat":29.964061421503214,"lng":-90.05775184153417,"neighborhood":"Marigny","city_fetched":"New Orleans","state":"LA","country":"United States","canonicalUrl":"https://foursquare.com/v/the-spotted-cat-music-club/41326e00f964a520521a1fe3","category":"Jazz Club","checkinsCount":13704,"usersCount":10956,"tipCount":150,"visitsCount":14014,"url":"http://www.spottedcatmusicclub.com","tier":"","message":"","currency":"","rating":9.2},{"name":"NOLA Brewing","phone":"5046137727","twitter":"nolabrewing","address":"3001 Tchoupitoulas St","lat":29.91982025670262,"lng":-90.0814546542328,"neighborhood":"Irish Channel","city_fetched":"New Orleans","state":"LA","country":"United States","canonicalUrl":"https://foursquare.com/v/nola-brewing/4bc780e48b7c9c74b89436cf","category":"Brewery","checkinsCount":2082,"usersCount":1518,"tipCount":36,"visitsCount":2288,"url":"http://nolabrewing.com","tier":1,"message":"Cheap","currency":"$","rating":9.1},{"name":"Herbsaint","phone":"5045244114","twitter":"herbsaintdining","address":"701 Saint Charles Ave","lat":29.947265333536926,"lng":-90.07143259048462,"neighborhood":"Central Business District","city_fetched":"New Orleans","state":"LA","country":"United States","canonicalUrl":"https://foursquare.com/v/herbsaint/4ad4c04bf964a520d4f220e3","category":"New American Restaurant","checkinsCount":3796,"usersCount":3437,"tipCount":86,"visitsCount":4452,"url":"http://herbsaint.com","tier":3,"message":"Expensive","currency":"$","rating":9.1},{"name":"NOLA","phone":"5045226652","twitter":"nolarestaurant","address":"534 Saint Louis St","lat":29.95570127111705,"lng":-90.06514941660286,"neighborhood":"French Quarter","city_fetched":"New Orleans","state":"LA","country":"United States","canonicalUrl":"https://foursquare.com/v/nola/4ad4c04ff964a52016f420e3","category":"Seafood Restaurant","checkinsCount":7681,"usersCount":6909,"tipCount":121,"visitsCount":7801,"url":"http://www.emerilsrestaurants.com/nola-restaurant","tier":3,"message":"Expensive","currency":"$","rating":9.1},{"name":"The Country Club","phone":"5049450742","twitter":"countryclubnola","address":"634 Louisa St","lat":29.962988193553734,"lng":-90.04419180522328,"neighborhood":"Bywater","city_fetched":"New Orleans","state":"LA","country":"United States","canonicalUrl":"https://foursquare.com/countryclubnola","category":"Bar","checkinsCount":5703,"usersCount":3043,"tipCount":44,"visitsCount":6824,"url":"http://www.thecountryclubneworleans.com","tier":2,"message":"Moderate","currency":"$","rating":9.1},{"name":"d.b.a.","address":"618 Frenchmen St","lat":29.963955579361734,"lng":-90.0578498840332,"neighborhood":"Marigny","city_fetched":"New Orleans","state":"LA","country":"United States","canonicalUrl":"https://foursquare.com/v/dba/4ada6d8cf964a520822221e3","category":"Jazz Club","checkinsCount":11617,"usersCount":8299,"tipCount":132,"visitsCount":11790,"url":"http://dbabars.com/dbano","tier":"","message":"","currency":"","rating":9.1},{"name":"Sylvain","phone":"5042658123","twitter":"sylvainnola","address":"625 Chartres St","lat":29.957181080295378,"lng":-90.0642280625626,"neighborhood":"French Quarter","city_fetched":"New Orleans","state":"LA","country":"United States","canonicalUrl":"https://foursquare.com/v/sylvain/4c8192c474d7b60cdb5978d8","category":"Gastropub","checkinsCount":5971,"usersCount":4038,"tipCount":127,"visitsCount":6218,"url":"http://www.sylvainnola.com","tier":3,"message":"Expensive","currency":"$","rating":9.1},{"name":"Mr. B's Bistro","phone":"5045232078","address":"201 Royal St","lat":29.954180740760073,"lng":-90.06821011277472,"neighborhood":"French Quarter","city_fetched":"New Orleans","state":"LA","country":"United States","canonicalUrl":"https://foursquare.com/v/mr-bs-bistro/4ad4c050f964a5209ff420e3","category":"French Restaurant","checkinsCount":7408,"usersCount":6185,"tipCount":170,"visitsCount":7461,"url":"http://www.mrbsbistro.com","tier":3,"message":"Expensive","currency":"$","rating":9.1},{"name":"BMC Jazz Club","phone":"5045997770","address":"1331 Decatur St","lat":29.961955093766957,"lng":-90.0581896361129,"neighborhood":"French Quarter","city_fetched":"New Orleans","state":"LA","country":"United States","canonicalUrl":"https://foursquare.com/v/bmc-jazz-club/4bbfe134f8219c7403dcb010","category":"Bar","checkinsCount":4115,"usersCount":3488,"tipCount":29,"visitsCount":4529,"tier":1,"message":"Cheap","currency":"$","rating":9.1},{"name":"Twelve Mile Limit","phone":"5044888114","address":"500 S Telemachus St","lat":29.96818927853324,"lng":-90.09989619255066,"neighborhood":"Mid-City","city_fetched":"New Orleans","state":"LA","country":"United States","canonicalUrl":"https://foursquare.com/v/twelve-mile-limit/4cccad7f97d0224bbacc61b8","category":"Cocktail Bar","checkinsCount":2885,"usersCount":1290,"tipCount":30,"visitsCount":3404,"tier":2,"message":"Moderate","currency":"$","rating":9},{"name":"Maison","phone":"5043715543","twitter":"themaison508","address":"508 Frenchmen St","lat":29.962768369148616,"lng":-90.05770167789105,"neighborhood":"Marigny","city_fetched":"New Orleans","state":"LA","country":"United States","canonicalUrl":"https://foursquare.com/themaison508","category":"Jazz Club","checkinsCount":12676,"usersCount":9009,"tipCount":76,"visitsCount":13080,"url":"http://maisonfrenchmen.com","tier":"","message":"","currency":"","rating":9},{"name":"Chickie Wah Wah","phone":"5043044714","twitter":"tlnola","address":"2828 Canal St","lat":29.966735,"lng":-90.08955562,"neighborhood":"Mid-City","city_fetched":"New Orleans","state":"LA","country":"United States","canonicalUrl":"https://foursquare.com/v/chickie-wah-wah/4ad4c051f964a520d3f420e3","category":"Bar","checkinsCount":1216,"usersCount":984,"tipCount":21,"visitsCount":1482,"url":"http://chickiewahwah.com","tier":2,"message":"Moderate","currency":"$","rating":9},{"name":"Domilise's Po-Boys","phone":"5048999126","address":"5240 Annunciation St","lat":29.917493106320542,"lng":-90.11234132547857,"neighborhood":"Uptown - Carrollton","city_fetched":"New Orleans","state":"LA","country":"United States","canonicalUrl":"https://foursquare.com/v/domilises-poboys/4ad4c04cf964a52037f320e3","category":"Sandwich Place","checkinsCount":2177,"usersCount":2060,"tipCount":44,"visitsCount":2565,"tier":1,"message":"Cheap","currency":"$","rating":9},{"name":"Sazerac Bar","phone":"5046481200","address":"130 Roosevelt Way","lat":29.954153711062645,"lng":-90.0718080997467,"neighborhood":"Central Business District","city_fetched":"New Orleans","state":"LA","country":"United States","canonicalUrl":"https://foursquare.com/v/sazerac-bar/4af4aeccf964a5200bf521e3","category":"Cocktail Bar","checkinsCount":6350,"usersCount":4960,"tipCount":90,"visitsCount":6469,"url":"http://www.therooseveltneworleans.com","tier":3,"message":"Expensive","currency":"$","rating":9},{"name":"Handsome Willy's Bar and Lounge","phone":"5045250377","twitter":"handsome_willys","address":"218 S Robertson St","lat":29.957043956897184,"lng":-90.07777236856386,"neighborhood":"Central Business District","city_fetched":"New Orleans","state":"LA","country":"United States","canonicalUrl":"https://foursquare.com/handsome_willys","category":"Dive Bar","checkinsCount":1948,"usersCount":699,"tipCount":26,"visitsCount":2176,"url":"http://www.handsomewillys.com","tier":1,"message":"Cheap","currency":"$","rating":9},{"name":"NOLA Brewing Tap Room","phone":"5048969996","address":"3000 Tchoupitoulas","lat":29.91977488673808,"lng":-90.0815869858121,"neighborhood":"Irish Channel","city_fetched":"New Orleans","state":"LA","country":"United States","canonicalUrl":"https://foursquare.com/v/nola-brewing-tap-room/52c7162b498eb43cd34db1a1","category":"Bar","checkinsCount":1581,"usersCount":1413,"tipCount":31,"visitsCount":2156,"url":"http://nolabrewing.com","tier":"","message":"","currency":"","rating":9},{"name":"Good Friends Bar & Queenshead Pub","phone":"5045667191","twitter":"goodfriendsnola","address":"740 Dauphine St","lat":29.960031807375056,"lng":-90.06578799178423,"neighborhood":"French Quarter","city_fetched":"New Orleans","state":"LA","country":"United States","canonicalUrl":"https://foursquare.com/v/good-friends-bar--queenshead-pub/41326e00f964a52034191fe3","category":"Gay Bar","checkinsCount":8558,"usersCount":4018,"tipCount":35,"visitsCount":10471,"url":"http://www.goodfriendsbar.com","tier":1,"message":"Cheap","currency":"$","rating":9},{"name":"Orleans Grapevine Wine Bar and Bistro","phone":"5045231930","address":"720 Orleans Ave","lat":29.958722230213063,"lng":-90.06493047898614,"neighborhood":"French Quarter","city_fetched":"New Orleans","state":"LA","country":"United States","canonicalUrl":"https://foursquare.com/v/orleans-grapevine-wine-bar-and-bistro/4cf30792cc61a35d873e1e9e","category":"Wine Bar","checkinsCount":1531,"usersCount":1155,"tipCount":36,"visitsCount":1547,"url":"http://orleansgrapevine.com","tier":2,"message":"Moderate","currency":"$","rating":9},{"name":"Cane & Table","phone":"5045811112","twitter":"caneandtable","address":"1113 Decatur St","lat":29.96017018804497,"lng":-90.05982684969524,"neighborhood":"French Quarter","city_fetched":"New Orleans","state":"LA","country":"United States","canonicalUrl":"https://foursquare.com/v/cane--table/51e0b508498efd15100db1c8","category":"Caribbean Restaurant","checkinsCount":2200,"usersCount":1468,"tipCount":62,"visitsCount":2350,"url":"http://www.caneandtablenola.com","tier":3,"message":"Expensive","currency":"$","rating":8.9},{"name":"St Roch Market","address":"2381 Saint Claude Ave","lat":29.96923562991067,"lng":-90.05212480190987,"neighborhood":"St. Roch","city_fetched":"New Orleans","state":"LA","country":"United States","canonicalUrl":"https://foursquare.com/v/st-roch-market/4d2b738b849f3704c3999141","category":"Market","checkinsCount":1532,"usersCount":1743,"tipCount":28,"visitsCount":2966,"url":"http://strochmarket.com","tier":"","message":"","currency":"","rating":8.9},{"name":"The Bulldog","phone":"5044884191","address":"5135 Canal Blvd","lat":29.98377480075551,"lng":-90.11024415493011,"neighborhood":"Mid-City","city_fetched":"New Orleans","state":"LA","country":"United States","canonicalUrl":"https://foursquare.com/v/the-bulldog/4ade348df964a520e87321e3","category":"Pub","checkinsCount":7289,"usersCount":3107,"tipCount":32,"visitsCount":8470,"url":"http://bulldog-midcity.draftfreak.com","tier":2,"message":"Moderate","currency":"$","rating":8.9},{"name":"Parasol's","phone":"5043021543","address":"2533 Constance St","lat":29.92641213814177,"lng":-90.0801724304585,"neighborhood":"Irish Channel","city_fetched":"New Orleans","state":"LA","country":"United States","canonicalUrl":"https://foursquare.com/v/parasols/4d2a22f877a2a1cd7e0572b7","category":"Bar","checkinsCount":3294,"usersCount":2087,"tipCount":49,"visitsCount":3893,"url":"http://www.parasolsbarandrestaurant.com","tier":1,"message":"Cheap","currency":"$","rating":8.9},{"name":"Bar Tonique","phone":"5043246045","twitter":"bartonique","address":"820 N Rampart St","lat":29.961662771716743,"lng":-90.06738903769124,"neighborhood":"French Quarter","city_fetched":"New Orleans","state":"LA","country":"United States","canonicalUrl":"https://foursquare.com/v/bar-tonique/4adba848f964a520d42921e3","category":"Cocktail Bar","checkinsCount":5441,"usersCount":3346,"tipCount":94,"visitsCount":6033,"url":"http://bartonique.com","tier":2,"message":"Moderate","currency":"$","rating":8.9},{"name":"Erin Rose","phone":"5045238619","address":"811 Conti St","lat":29.9564,"lng":-90.06795349,"neighborhood":"French Quarter","city_fetched":"New Orleans","state":"LA","country":"United States","canonicalUrl":"https://foursquare.com/v/erin-rose/4ad4c04df964a5206df320e3","category":"Bar","checkinsCount":8171,"usersCount":4396,"tipCount":107,"visitsCount":8564,"url":"http://www.erinrosebar.com","tier":1,"message":"Cheap","currency":"$","rating":8.9},{"name":"The Carousel Bar & Lounge","phone":"5045233341","address":"214 Royal St","lat":29.95420365021243,"lng":-90.06809151195546,"neighborhood":"French Quarter","city_fetched":"New Orleans","state":"LA","country":"United States","canonicalUrl":"https://foursquare.com/v/the-carousel-bar--lounge/4ae22264f964a5200a8b21e3","category":"Hotel Bar","checkinsCount":18886,"usersCount":14710,"tipCount":217,"visitsCount":20137,"url":"http://hotelmonteleone.com","tier":2,"message":"Moderate","currency":"$","rating":8.9},{"name":"Bayou Beer Garden","phone":"5043029357","address":"326 N Jefferson Davis Pkwy","lat":29.971811477116983,"lng":-90.09148120232626,"neighborhood":"Mid-City","city_fetched":"New Orleans","state":"LA","country":"United States","canonicalUrl":"https://foursquare.com/v/bayou-beer-garden/4aededc0f964a52058d021e3","category":"Beer Garden","checkinsCount":5885,"usersCount":2746,"tipCount":57,"visitsCount":7210,"url":"http://bayoubeergarden.com","tier":1,"message":"Cheap","currency":"$","rating":8.9},{"name":"The Rusty Nail","phone":"5045255515","twitter":"rustynailnola","address":"1100 Constance St","lat":29.940678300468562,"lng":-90.06925016642093,"neighborhood":"Lower Garden District","city_fetched":"New Orleans","state":"LA","country":"United States","canonicalUrl":"https://foursquare.com/rustynailnola","category":"Bar","checkinsCount":12250,"usersCount":3382,"tipCount":50,"visitsCount":13730,"url":"http://therustynail.biz","tier":2,"message":"Moderate","currency":"$","rating":8.9},{"name":"Cure","phone":"5043022357","twitter":"curenola","address":"4905 Freret St","lat":29.9350189257289,"lng":-90.10742247104645,"neighborhood":"Freret","city_fetched":"New Orleans","state":"LA","country":"United States","canonicalUrl":"https://foursquare.com/v/cure/4ad4c04df964a52051f320e3","category":"Cocktail Bar","checkinsCount":5576,"usersCount":3075,"tipCount":88,"visitsCount":6196,"url":"http://www.curenola.com","tier":3,"message":"Expensive","currency":"$","rating":8.9},{"name":"Arnaud's French 75 Bar","phone":"5045235433","address":"813 Bienville St","lat":29.955716336942896,"lng":-90.06878031413586,"neighborhood":"French Quarter","city_fetched":"New Orleans","state":"LA","country":"United States","canonicalUrl":"https://foursquare.com/v/arnauds-french-75-bar/4fb8345fe4b0189bef59dc13","category":"Cocktail Bar","checkinsCount":2990,"usersCount":2485,"tipCount":63,"visitsCount":3058,"url":"http://arnaudsrestaurant.com","tier":"","message":"","currency":"","rating":8.9},{"name":"The Bulldog","phone":"5048911516","address":"3236 Magazine St","lat":29.923521415847226,"lng":-90.08732787702147,"neighborhood":"Irish Channel","city_fetched":"New Orleans","state":"LA","country":"United States","canonicalUrl":"https://foursquare.com/v/the-bulldog/41326e00f964a520a11a1fe3","category":"Bar","checkinsCount":12638,"usersCount":6557,"tipCount":94,"visitsCount":13459,"url":"http://bulldog.draftfreak.com","tier":2,"message":"Moderate","currency":"$","rating":8.9},{"name":"The Howlin' Wolf","phone":"5045229653","twitter":"howlinwolfnola","address":"907 S Peters St","lat":29.94277508159194,"lng":-90.06600379943848,"neighborhood":"Lower Garden District","city_fetched":"New Orleans","state":"LA","country":"United States","canonicalUrl":"https://foursquare.com/v/the-howlin-wolf/4ad4c04bf964a520c1f220e3","category":"Music Venue","checkinsCount":4420,"usersCount":3135,"tipCount":23,"visitsCount":4537,"url":"http://www.thehowlinwolf.com","tier":"","message":"","currency":"","rating":8.9},{"name":"Port of Call","phone":"5045230120","address":"838 Esplanade Ave","lat":29.964550821361073,"lng":-90.06176058468508,"neighborhood":"Marigny","city_fetched":"New Orleans","state":"LA","country":"United States","canonicalUrl":"https://foursquare.com/v/port-of-call/453732bff964a520b53b1fe3","category":"Burger Joint","checkinsCount":10484,"usersCount":9129,"tipCount":199,"visitsCount":12812,"url":"http://portofcallnola.com","tier":2,"message":"Moderate","currency":"$","rating":8.9},{"name":"The Court of Two Sisters","phone":"5045227261","address":"613 Royal St","lat":29.95787193514905,"lng":-90.06561756134033,"neighborhood":"French Quarter","city_fetched":"New Orleans","state":"LA","country":"United States","canonicalUrl":"https://foursquare.com/v/the-court-of-two-sisters/4ad4c050f964a520baf420e3","category":"Breakfast Spot","checkinsCount":8661,"usersCount":8080,"tipCount":188,"visitsCount":8952,"url":"http://www.courtoftwosisters.com","tier":2,"message":"Moderate","currency":"$","rating":8.8},{"name":"Venezia Restaurant","phone":"5044887991","address":"134 N Carrollton Ave","lat":29.97507440523211,"lng":-90.09961115121968,"neighborhood":"Mid-City","city_fetched":"New Orleans","state":"LA","country":"United States","canonicalUrl":"https://foursquare.com/v/venezia-restaurant/4ad4c04df964a5205bf320e3","category":"Italian Restaurant","checkinsCount":997,"usersCount":625,"tipCount":14,"visitsCount":1017,"url":"http://www.venezianeworleans.com","tier":2,"message":"Moderate","currency":"$","rating":8.8},{"name":"Clancy's","phone":"5048951111","address":"6100 Annunciation St","lat":29.919106,"lng":-90.125083,"neighborhood":"Audubon","city_fetched":"New Orleans","state":"LA","country":"United States","canonicalUrl":"https://foursquare.com/v/clancys/4ad4c04df964a5205ef320e3","category":"Cajun / Creole Restaurant","checkinsCount":1274,"usersCount":1101,"tipCount":35,"visitsCount":1605,"url":"http://clancysneworleans.com","tier":3,"message":"Expensive","currency":"$","rating":8.8},{"name":"Lafitte's Blacksmith Shop","phone":"5045939761","address":"941 Bourbon St","lat":29.96103797001573,"lng":-90.06360775744824,"neighborhood":"French Quarter","city_fetched":"New Orleans","state":"LA","country":"United States","canonicalUrl":"https://foursquare.com/v/lafittes-blacksmith-shop/41326e00f964a52080191fe3","category":"Dive Bar","checkinsCount":30815,"usersCount":27338,"tipCount":325,"visitsCount":38743,"url":"http://www.lafittesblacksmithshop.com","tier":1,"message":"Cheap","currency":"$","rating":8.8},{"name":"Courtyard Brewery","twitter":"courtyardbrew","address":"1020 Erato St","lat":29.93899476500272,"lng":-90.07054571124068,"neighborhood":"Lower Garden District","city_fetched":"New Orleans","state":"LA","country":"United States","canonicalUrl":"https://foursquare.com/v/courtyard-brewery/538e7c48498ece9c7e089dcc","category":"Brewery","checkinsCount":1072,"usersCount":611,"tipCount":15,"visitsCount":1347,"url":"http://www.courtyardbrewing.com","tier":"","message":"","currency":"","rating":8.8},{"name":"Finn McCool's Irish Pub","phone":"5044869080","twitter":"finnmccoolspub","address":"3701 Banks St","lat":29.96953,"lng":-90.099166,"neighborhood":"Mid-City","city_fetched":"New Orleans","state":"LA","country":"United States","canonicalUrl":"https://foursquare.com/finnmccoolspub","category":"Pub","checkinsCount":6363,"usersCount":2504,"tipCount":54,"visitsCount":7444,"url":"http://finnmccools.com","tier":2,"message":"Moderate","currency":"$","rating":8.8},{"name":"Catahoula Hotel & Bar","address":"914 Union St","lat":29.951773974668164,"lng":-90.0732135772705,"neighborhood":"Central Business District","city_fetched":"New Orleans","state":"LA","country":"United States","canonicalUrl":"https://foursquare.com/v/catahoula-hotel--bar/5150d865e4b0f967e1aa73db","category":"Speakeasy","checkinsCount":153,"usersCount":184,"tipCount":3,"visitsCount":262,"tier":"","message":"","currency":"","rating":8.8},{"name":"Emeril's","phone":"5045289393","twitter":"emerils","address":"800 Tchoupitoulas St","lat":29.9447087967228,"lng":-90.06742000579834,"neighborhood":"Lower Garden District","city_fetched":"New Orleans","state":"LA","country":"United States","canonicalUrl":"https://foursquare.com/v/emerils/4ad4c04af964a520a9f220e3","category":"Cajun / Creole Restaurant","checkinsCount":5772,"usersCount":5851,"tipCount":97,"visitsCount":6959,"url":"http://www.emerils.com","tier":3,"message":"Expensive","currency":"$","rating":8.8},{"name":"Blue Nile","phone":"5049482583","twitter":"bluenilelive","address":"532 Frenchmen St","lat":29.963163647248255,"lng":-90.0577928845637,"neighborhood":"Marigny","city_fetched":"New Orleans","state":"LA","country":"United States","canonicalUrl":"https://foursquare.com/v/blue-nile/41326e00f964a52062181fe3","category":"Rock Club","checkinsCount":8522,"usersCount":6122,"tipCount":58,"visitsCount":8739,"url":"http://www.bluenilelive.com","tier":"","message":"","currency":"","rating":8.8},{"name":"The Polo Club Lounge","phone":"5045221994","address":"300 Gravier St","lat":29.94984486045479,"lng":-90.06652236637521,"neighborhood":"Central Business District","city_fetched":"New Orleans","state":"LA","country":"United States","canonicalUrl":"https://foursquare.com/v/the-polo-club-lounge/4ad4c04cf964a52006f320e3","category":"Hotel Bar","checkinsCount":757,"usersCount":514,"tipCount":10,"visitsCount":762,"url":"http://www.grillroomneworleans.com/new-orleans-polo-club-lounge","tier":"","message":"","currency":"","rating":8.7},{"name":"The Black Penny","address":"700 N Rampart St","lat":29.96049921686188,"lng":-90.06837889149534,"neighborhood":"French Quarter","city_fetched":"New Orleans","state":"LA","country":"United States","canonicalUrl":"https://foursquare.com/v/the-black-penny/54dec661498edc3a983897c1","category":"Bar","checkinsCount":418,"usersCount":390,"tipCount":3,"visitsCount":578,"tier":"","message":"","currency":"","rating":8.7},{"name":"Pat O'Brien's","phone":"5045254823","twitter":"patobriensbar","address":"718 Saint Peter St","lat":29.958076433439143,"lng":-90.06549954414368,"neighborhood":"French Quarter","city_fetched":"New Orleans","state":"LA","country":"United States","canonicalUrl":"https://foursquare.com/v/pat-obriens/4aed03f5f964a520bccc21e3","category":"Bar","checkinsCount":55342,"usersCount":41357,"tipCount":464,"visitsCount":57431,"url":"http://www.patobriens.com","tier":2,"message":"Moderate","currency":"$","rating":8.7},{"name":"Pal's Lounge","phone":"5044887257","twitter":"palslounge","address":"949 N Rendon St","lat":29.976812,"lng":-90.086324,"neighborhood":"Bayou St. John","city_fetched":"New Orleans","state":"LA","country":"United States","canonicalUrl":"https://foursquare.com/v/pals-lounge/4af54ec2f964a520c7f821e3","category":"Lounge","checkinsCount":2667,"usersCount":1078,"tipCount":26,"visitsCount":3155,"tier":1,"message":"Cheap","currency":"$","rating":8.7},{"name":"Maple Leaf Bar","phone":"5048669359","address":"8316 Oak St","lat":29.948943315613274,"lng":-90.13203978538513,"neighborhood":"Uptown - Carrollton","city_fetched":"New Orleans","state":"LA","country":"United States","canonicalUrl":"https://foursquare.com/v/maple-leaf-bar/4ad4c04bf964a520c2f220e3","category":"Bar","checkinsCount":4986,"usersCount":3482,"tipCount":61,"visitsCount":5221,"url":"http://www.mapleleafbar.com","tier":1,"message":"Cheap","currency":"$","rating":8.7},{"name":"Dooky Chase Restaurant","phone":"5048210600","address":"2301 Orleans Ave","lat":29.968136,"lng":-90.07842325,"neighborhood":"Treme - Lafitte","city_fetched":"New Orleans","state":"LA","country":"United States","canonicalUrl":"https://foursquare.com/v/dooky-chase-restaurant/4b3e1975f964a520629825e3","category":"Southern / Soul Food Restaurant","checkinsCount":1206,"usersCount":1326,"tipCount":52,"visitsCount":1631,"url":"http://dookychaserestaurant.com","tier":2,"message":"Moderate","currency":"$","rating":8.7},{"name":"Cellar Door","phone":"5043835583","twitter":"cellardoornola","address":"916 Lafayette St","lat":29.94876239591993,"lng":-90.07406762438843,"neighborhood":"Central Business District","city_fetched":"New Orleans","state":"LA","country":"United States","canonicalUrl":"https://foursquare.com/v/cellar-door/53b054c0498e59958f2bd9ef","category":"Cocktail Bar","checkinsCount":455,"usersCount":457,"tipCount":10,"visitsCount":617,"url":"http://cellardoornola.com","tier":"","message":"","currency":"","rating":8.7},{"name":"New Orleans Original Daiquiris","phone":"5049437060","twitter":"fat_tues_day","address":"4450 Chef Menteur Hwy","lat":30.004269660657034,"lng":-90.03822490302545,"city_fetched":"New Orleans","state":"LA","country":"United States","canonicalUrl":"https://foursquare.com/v/new-orleans-original-daiquiris/4d784213d7edb60c8694f21a","category":"Bar","checkinsCount":492,"usersCount":430,"tipCount":10,"visitsCount":738,"url":"http://t.co/s0aDVvUW9U","tier":2,"message":"Moderate","currency":"$","rating":8.7},{"name":"Mid-City Yacht Club","phone":"5044832517","address":"440 S Saint Patrick St","lat":29.975213159682173,"lng":-90.10989359073032,"neighborhood":"Mid-City","city_fetched":"New Orleans","state":"LA","country":"United States","canonicalUrl":"https://foursquare.com/v/midcity-yacht-club/4ad4c04cf964a5201ff320e3","category":"Bar","checkinsCount":3051,"usersCount":959,"tipCount":16,"visitsCount":3307,"url":"http://midcityyachtclub.com","tier":1,"message":"Cheap","currency":"$","rating":8.7},{"name":"Brigtsen's Restaurant","phone":"5048617610","address":"723 Dante St","lat":29.945687746759827,"lng":-90.13471150582384,"neighborhood":"Uptown - Carrollton","city_fetched":"New Orleans","state":"LA","country":"United States","canonicalUrl":"https://foursquare.com/v/brigtsens-restaurant/4ad4c04af964a520b2f220e3","category":"Cajun / Creole Restaurant","checkinsCount":479,"usersCount":458,"tipCount":22,"visitsCount":508,"url":"http://brigtsens.com","tier":4,"message":"Very Expensive","currency":"$","rating":8.7},{"name":"Snug Harbor Jazz Bistro","phone":"5049490696","address":"626 Frenchmen St","lat":29.964140467311893,"lng":-90.05791601391576,"neighborhood":"Marigny","city_fetched":"New Orleans","state":"LA","country":"United States","canonicalUrl":"https://foursquare.com/v/snug-harbor-jazz-bistro/41326e00f964a5204a1a1fe3","category":"Jazz Club","checkinsCount":4431,"usersCount":3628,"tipCount":54,"visitsCount":4501,"url":"http://www.snugjazz.com","tier":"","message":"","currency":"","rating":8.7},{"name":"Tujague's Restaurant","phone":"5045258676","twitter":"tujagues","address":"823 Decatur St","lat":29.95805178738744,"lng":-90.06172409821728,"neighborhood":"French Quarter","city_fetched":"New Orleans","state":"LA","country":"United States","canonicalUrl":"https://foursquare.com/tujagues","category":"Cajun / Creole Restaurant","checkinsCount":2739,"usersCount":2571,"tipCount":45,"visitsCount":2959,"url":"http://www.tujagues.com","tier":2,"message":"Moderate","currency":"$","rating":8.7},{"name":"Cafe Degas","phone":"5049455635","twitter":"cafedegas","address":"3127 Esplanade Ave","lat":29.98033009681502,"lng":-90.08424740352193,"neighborhood":"Fairgrounds","city_fetched":"New Orleans","state":"LA","country":"United States","canonicalUrl":"https://foursquare.com/v/cafe-degas/4ad4c04df964a5205cf320e3","category":"French Restaurant","checkinsCount":1277,"usersCount":854,"tipCount":30,"visitsCount":1304,"url":"http://www.cafedegas.com","tier":2,"message":"Moderate","currency":"$","rating":8.7},{"name":"The Crown & Anchor","phone":"5042271007","address":"200 Pelican Ave","lat":29.9513174,"lng":-90.0542152,"neighborhood":"Algiers Point","city_fetched":"New Orleans","state":"LA","country":"United States","canonicalUrl":"https://foursquare.com/v/the-crown--anchor/4ad4c04cf964a52025f320e3","category":"Bar","checkinsCount":1174,"usersCount":769,"tipCount":13,"visitsCount":1555,"url":"http://crownanchorpub.com","tier":"","message":"","currency":"","rating":8.7},{"name":"Le Bon Temps Roulé","phone":"5048973448","address":"4801 Magazine St","lat":29.92050290107727,"lng":-90.106234,"neighborhood":"Uptown","city_fetched":"New Orleans","state":"LA","country":"United States","canonicalUrl":"https://foursquare.com/v/le-bon-temps-roul%C3%A9/4b1def72f964a520661624e3","category":"Bar","checkinsCount":4792,"usersCount":2362,"tipCount":26,"visitsCount":5230,"tier":1,"message":"Cheap","currency":"$","rating":8.7},{"name":"Dmac's Bar & Grill","phone":"5043045757","twitter":"dmacsnola","address":"542 S Jefferson Davis Pkwy","lat":29.9655456515765,"lng":-90.09750203820218,"neighborhood":"Mid-City","city_fetched":"New Orleans","state":"LA","country":"United States","canonicalUrl":"https://foursquare.com/dmacsnola","category":"Pub","checkinsCount":524,"usersCount":297,"tipCount":9,"visitsCount":763,"url":"http://dmacsbarandgrill.com","tier":"","message":"","currency":"","rating":8.7},{"name":"One Eyed Jacks","phone":"5045698361","address":"615 Toulouse St","lat":29.956853742274244,"lng":-90.06491679542656,"neighborhood":"French Quarter","city_fetched":"New Orleans","state":"LA","country":"United States","canonicalUrl":"https://foursquare.com/v/one-eyed-jacks/41d34500f964a520a91e1fe3","category":"Rock Club","checkinsCount":5160,"usersCount":3254,"tipCount":30,"visitsCount":5490,"url":"http://www.oneeyedjacks.net","tier":"","message":"","currency":"","rating":8.7},{"name":"Cafe Lafitte In Exile","phone":"5045228397","twitter":"cafelafitte","address":"901 Bourbon St","lat":29.960311,"lng":-90.06414506,"neighborhood":"French Quarter","city_fetched":"New Orleans","state":"LA","country":"United States","canonicalUrl":"https://foursquare.com/cafelafitte","category":"Gay Bar","checkinsCount":7034,"usersCount":3151,"tipCount":32,"visitsCount":7257,"url":"http://www.lafittes.com","tier":1,"message":"Cheap","currency":"$","rating":8.6},{"name":"Bourbon Pub & Parade","phone":"5045292107","address":"801 Bourbon St","lat":29.959507008206625,"lng":-90.064883976284,"neighborhood":"French Quarter","city_fetched":"New Orleans","state":"LA","country":"United States","canonicalUrl":"https://foursquare.com/v/bourbon-pub--parade/4511f814f964a5209d391fe3","category":"Gay Bar","checkinsCount":21821,"usersCount":6638,"tipCount":60,"visitsCount":22410,"url":"http://bourbonpub.com","tier":1,"message":"Cheap","currency":"$","rating":8.6},{"name":"Superior Seafood & Oyster Bar","phone":"5042933474","twitter":"superiornola","address":"4338 Saint Charles Ave","lat":29.92645952552989,"lng":-90.10170211761182,"neighborhood":"Touro","city_fetched":"New Orleans","state":"LA","country":"United States","canonicalUrl":"https://foursquare.com/v/superior-seafood--oyster-bar/4f035cd5e5faf2869f18c881","category":"Seafood Restaurant","checkinsCount":4503,"usersCount":3508,"tipCount":78,"visitsCount":5589,"url":"http://www.superiorseafoodnola.com","tier":2,"message":"Moderate","currency":"$","rating":8.6},{"name":"21st Amendment","phone":"5043787330","address":"725 Iberville St","lat":29.954474072971166,"lng":-90.06883049226101,"neighborhood":"Central Business District","city_fetched":"New Orleans","state":"LA","country":"United States","canonicalUrl":"https://foursquare.com/v/21st-amendment/5109da33e4b0a0b6cb70dcd3","category":"Cocktail Bar","checkinsCount":901,"usersCount":768,"tipCount":13,"visitsCount":906,"url":"http://www.21stamendmentnola.com","tier":"","message":"","currency":"","rating":8.6},{"name":"Chophouse New Orleans","phone":"5045227902","twitter":"322magazine","address":"322 Magazine St","lat":29.949878035148803,"lng":-90.06801396546402,"neighborhood":"Central Business District","city_fetched":"New Orleans","state":"LA","country":"United States","canonicalUrl":"https://foursquare.com/v/chophouse-new-orleans/4df7cabda809df9984e7c71e","category":"Steakhouse","checkinsCount":1071,"usersCount":814,"tipCount":12,"visitsCount":1109,"url":"http://chophousenola.com","tier":3,"message":"Expensive","currency":"$","rating":8.6},{"name":"Liuzza's Restaurant & Bar","phone":"5044829120","address":"3636 Bienville St","lat":29.973459075762854,"lng":-90.09532570838928,"neighborhood":"Mid-City","city_fetched":"New Orleans","state":"LA","country":"United States","canonicalUrl":"https://foursquare.com/v/liuzzas-restaurant--bar/4ad4c04cf964a520ecf220e3","category":"Cajun / Creole Restaurant","checkinsCount":1214,"usersCount":1092,"tipCount":28,"visitsCount":1487,"url":"http://liuzzas.com","tier":2,"message":"Moderate","currency":"$","rating":8.6},{"name":"Galatoire's","phone":"5045252021","twitter":"galatoires33","address":"209 Bourbon St","lat":29.954920064229306,"lng":-90.06893084870805,"neighborhood":"French Quarter","city_fetched":"New Orleans","state":"LA","country":"United States","canonicalUrl":"https://foursquare.com/v/galatoires/4ad4c050f964a5209cf420e3","category":"Cajun / Creole Restaurant","checkinsCount":4075,"usersCount":3214,"tipCount":80,"visitsCount":4093,"url":"http://www.galatoires.com","tier":3,"message":"Expensive","currency":"$","rating":8.6},{"name":"Irvin Mayfield’s Jazz Playhouse","phone":"5045532299","address":"300 Bourbon St","lat":29.95565453077871,"lng":-90.06810519664668,"neighborhood":"French Quarter","city_fetched":"New Orleans","state":"LA","country":"United States","canonicalUrl":"https://foursquare.com/v/irvin-mayfields-jazz-playhouse/4ad4c04df964a52059f320e3","category":"Jazz Club","checkinsCount":3107,"usersCount":2246,"tipCount":43,"visitsCount":3166,"url":"http://www.sonesta.com/RoyalNewOrleans","tier":"","message":"","currency":"","rating":8.6},{"name":"Felipe's Mexican Taqueria","phone":"5042888226","twitter":"felipesnola","address":"6215 S Miro St","lat":29.9467020203362,"lng":-90.11294871658208,"neighborhood":"Marleyville - Fontainbleau","city_fetched":"New Orleans","state":"LA","country":"United States","canonicalUrl":"https://foursquare.com/v/felipes-mexican-taqueria/4ad4c04cf964a52004f320e3","category":"Mexican Restaurant","checkinsCount":7847,"usersCount":2400,"tipCount":45,"visitsCount":9014,"url":"http://felipesneworleans.com","tier":2,"message":"Moderate","currency":"$","rating":8.6},{"name":"Cooter Brown's Tavern & Oyster Bar","phone":"5048669104","twitter":"cooterbrowns504","address":"509 S Carrollton Ave","lat":29.942553927357668,"lng":-90.13445561664008,"neighborhood":"Black Pearl","city_fetched":"New Orleans","state":"LA","country":"United States","canonicalUrl":"https://foursquare.com/v/cooter-browns-tavern--oyster-bar/4ad4c04af964a520aaf220e3","category":"Bar","checkinsCount":6478,"usersCount":4025,"tipCount":85,"visitsCount":7194,"url":"http://cooterbrowns-hub.com","tier":2,"message":"Moderate","currency":"$","rating":8.6},{"name":"Tchoup Yard","lat":29.921557208215237,"lng":-90.07639901655182,"neighborhood":"Irish Channel","city_fetched":"New Orleans","state":"LA","country":"United States","canonicalUrl":"https://foursquare.com/v/tchoup-yard/576f003e498ea16637a2dad5","category":"Bar","checkinsCount":110,"usersCount":174,"tipCount":2,"visitsCount":252,"tier":"","message":"","currency":"","rating":8.6},{"name":"Lost Love Lounge","phone":"5049492009","address":"2529 Dauphine St","lat":29.96597035,"lng":-90.05112074,"neighborhood":"Marigny","city_fetched":"New Orleans","state":"LA","country":"United States","canonicalUrl":"https://foursquare.com/v/lost-love-lounge/4bd8f0102e6f0f47e24b0908","category":"Bar","checkinsCount":2856,"usersCount":1255,"tipCount":41,"visitsCount":3169,"url":"http://lostlovelounge.com","tier":2,"message":"Moderate","currency":"$","rating":8.6},{"name":"Red Dog Diner","address":"3122 Magazine St","lat":29.924307422902572,"lng":-90.086018075164,"neighborhood":"Irish Channel","city_fetched":"New Orleans","state":"LA","country":"United States","canonicalUrl":"https://foursquare.com/v/red-dog-diner/5617f08d498ee8f022be0cdc","category":"Gastropub","checkinsCount":237,"usersCount":168,"tipCount":2,"visitsCount":253,"tier":"","message":"","currency":"","rating":8.6},{"name":"Yo Mama's Bar & Grill","phone":"5045221125","address":"727 Saint Peter St","lat":29.958355041617512,"lng":-90.06531362063491,"neighborhood":"French Quarter","city_fetched":"New Orleans","state":"LA","country":"United States","canonicalUrl":"https://foursquare.com/v/yo-mamas-bar--grill/4ad4c04cf964a52029f320e3","category":"Bar","checkinsCount":6938,"usersCount":4989,"tipCount":140,"visitsCount":6954,"url":"http://www.yomamasbarandgrill.com","tier":2,"message":"Moderate","currency":"$","rating":8.6},{"name":"Bayou Wine Garden","lat":29.971642120624118,"lng":-90.09129406483328,"neighborhood":"Mid-City","city_fetched":"New Orleans","state":"LA","country":"United States","canonicalUrl":"https://foursquare.com/v/bayou-wine-garden/5683027b498e8e714dc98f9b","category":"Wine Bar","checkinsCount":295,"usersCount":207,"tipCount":0,"visitsCount":363,"tier":"","message":"","currency":"","rating":8.6},{"name":"Fritzel's European Jazz Pub","address":"733 Bourbon St","lat":29.959207724703365,"lng":-90.06514029417724,"neighborhood":"French Quarter","city_fetched":"New Orleans","state":"LA","country":"United States","canonicalUrl":"https://foursquare.com/v/fritzels-european-jazz-pub/41326e00f964a520a31a1fe3","category":"Jazz Club","checkinsCount":4630,"usersCount":3814,"tipCount":74,"visitsCount":4713,"tier":"","message":"","currency":"","rating":8.5},{"name":"Superior Grill","phone":"5048994200","address":"3636 Saint Charles Ave","lat":29.926932076887468,"lng":-90.0944995880127,"neighborhood":"Touro","city_fetched":"New Orleans","state":"LA","country":"United States","canonicalUrl":"https://foursquare.com/v/superior-grill/4ad4c04df964a52082f320e3","category":"Mexican Restaurant","checkinsCount":11186,"usersCount":5368,"tipCount":71,"visitsCount":12944,"url":"http://neworleans.superiorgrill.com","tier":2,"message":"Moderate","currency":"$","rating":8.5},{"name":"Meauxbar","phone":"5045699979","twitter":"matthew_guidry","address":"942 N Rampart St","lat":29.962813716666666,"lng":-90.066208,"neighborhood":"French Quarter","city_fetched":"New Orleans","state":"LA","country":"United States","canonicalUrl":"https://foursquare.com/v/meauxbar/4ad4c04cf964a520f0f220e3","category":"Wine Bar","checkinsCount":756,"usersCount":784,"tipCount":20,"visitsCount":1100,"url":"http://www.meauxbar.com","tier":"","message":"","currency":"","rating":8.5},{"name":"Daiquiris & Company","phone":"5042869514","twitter":"daiqandco","address":"6301 Elysian Fields Ave","lat":30.023332807974285,"lng":-90.06073897669961,"neighborhood":"Gentilly","city_fetched":"New Orleans","state":"LA","country":"United States","canonicalUrl":"https://foursquare.com/v/daiquiris--company/4ba80419f964a5208ec639e3","category":"Bar","checkinsCount":825,"usersCount":482,"tipCount":14,"visitsCount":1035,"url":"http://www.daiquirisandcompany.com/home.php","tier":1,"message":"Cheap","currency":"$","rating":8.5},{"name":"Kingfish","phone":"5045985005","twitter":"kingfishnola","address":"337 Chartres St","lat":29.955036801874968,"lng":-90.06610035896301,"neighborhood":"French Quarter","city_fetched":"New Orleans","state":"LA","country":"United States","canonicalUrl":"https://foursquare.com/v/kingfish/515afa93183fa0d231a9f47d","category":"Cajun / Creole Restaurant","checkinsCount":3310,"usersCount":3525,"tipCount":82,"visitsCount":4759,"url":"http://www.kingfishneworleans.com","tier":2,"message":"Moderate","currency":"$","rating":8.5},{"name":"Capdeville","phone":"5043715161","twitter":"mayorcapdeville","address":"520 Capdeville St","lat":29.947323435882595,"lng":-90.06926268339157,"neighborhood":"Central Business District","city_fetched":"New Orleans","state":"LA","country":"United States","canonicalUrl":"https://foursquare.com/v/capdeville/4b4660ecf964a520291f26e3","category":"New American Restaurant","checkinsCount":6545,"usersCount":2545,"tipCount":78,"visitsCount":6969,"url":"http://www.capdevillenola.com","tier":2,"message":"Moderate","currency":"$","rating":8.5},{"name":"Saint Lawrence","phone":"5045254111","twitter":"stlawrencenola","address":"219 N Peters St","lat":29.95275351316532,"lng":-90.06542765162598,"neighborhood":"French Quarter","city_fetched":"New Orleans","state":"LA","country":"United States","canonicalUrl":"https://foursquare.com/v/saint-lawrence/4fdbfefce4b0d263e7561328","category":"New American Restaurant","checkinsCount":2423,"usersCount":2003,"tipCount":39,"visitsCount":2919,"url":"http://www.saintlawrencenola.com","tier":2,"message":"Moderate","currency":"$","rating":8.5},{"name":"JW Marriott New Orleans","phone":"5045256500","address":"614 Canal St","lat":29.952147268207085,"lng":-90.06916349420773,"neighborhood":"Central Business District","city_fetched":"New Orleans","state":"LA","country":"United States","canonicalUrl":"https://foursquare.com/v/jw-marriott-new-orleans/4ad4c04af964a52080f220e3","category":"Hotel","checkinsCount":9325,"usersCount":4838,"tipCount":60,"visitsCount":10389,"url":"http://www.marriott.com/hotels/travel/msyjw-jw-marriott-new-orleans/","tier":"","message":"","currency":"","rating":8.5},{"name":"Arnaud's Restaurant","phone":"8662308895","address":"813 Bienville St","lat":29.955659899169383,"lng":-90.06862065690119,"neighborhood":"French Quarter","city_fetched":"New Orleans","state":"LA","country":"United States","canonicalUrl":"https://foursquare.com/v/arnauds-restaurant/4ad4c050f964a5209af420e3","category":"Cajun / Creole Restaurant","checkinsCount":4727,"usersCount":4036,"tipCount":86,"visitsCount":4743,"url":"http://www.arnauds.com","tier":3,"message":"Expensive","currency":"$","rating":8.5},{"name":"Parlay's Dream Lounge","phone":"5043046338","twitter":"parlaysbarnola","address":"870 Harrison Ave","lat":30.004108034005753,"lng":-90.10435796989805,"neighborhood":"Lakeview","city_fetched":"New Orleans","state":"LA","country":"United States","canonicalUrl":"https://foursquare.com/parlaysbarnola","category":"Bar","checkinsCount":4677,"usersCount":908,"tipCount":18,"visitsCount":4992,"url":"http://parlaysbar.net","tier":3,"message":"Expensive","currency":"$","rating":8.5},{"name":"Barrel Proof","twitter":"barrelproofnola","address":"1201 Magazine St","lat":29.93931067497135,"lng":-90.07122999551042,"neighborhood":"Lower Garden District","city_fetched":"New Orleans","state":"LA","country":"United States","canonicalUrl":"https://foursquare.com/v/barrel-proof/537598fc498eaf6424d618e2","category":"Bar","checkinsCount":1299,"usersCount":741,"tipCount":18,"visitsCount":1541,"url":"http://barrelproofnola.com","tier":"","message":"","currency":"","rating":8.5},{"name":"Rawhide","phone":"5045258106","twitter":"rawhide2010nola","address":"740 Burgundy St","lat":29.960635564632675,"lng":-90.06670938326693,"neighborhood":"French Quarter","city_fetched":"New Orleans","state":"LA","country":"United States","canonicalUrl":"https://foursquare.com/v/rawhide/41326e00f964a520121a1fe3","category":"Gay Bar","checkinsCount":1678,"usersCount":1568,"tipCount":20,"visitsCount":2821,"url":"http://www.rawhide2010.com","tier":1,"message":"Cheap","currency":"$","rating":8.5},{"name":"Café Adelaide & the Swizzle Stick Bar","phone":"5045953305","address":"300 Poydras St","lat":29.94837856857404,"lng":-90.06599575281143,"neighborhood":"Central Business District","city_fetched":"New Orleans","state":"LA","country":"United States","canonicalUrl":"https://foursquare.com/v/caf%C3%A9-adelaide--the-swizzle-stick-bar/4ad4c04cf964a520f4f220e3","category":"Cocktail Bar","checkinsCount":4249,"usersCount":2992,"tipCount":80,"visitsCount":4384,"url":"http://www.cafeadelaide.com","tier":3,"message":"Expensive","currency":"$","rating":8.4},{"name":"Funky Pirate","phone":"5045231960","address":"727 Bourbon St","lat":29.95916779,"lng":-90.0651564,"neighborhood":"French Quarter","city_fetched":"New Orleans","state":"LA","country":"United States","canonicalUrl":"https://foursquare.com/v/funky-pirate/41326e00f964a52022191fe3","category":"Bar","checkinsCount":2491,"usersCount":2005,"tipCount":25,"visitsCount":2501,"url":"http://www.tropicalisle.com","tier":1,"message":"Cheap","currency":"$","rating":8.4},{"name":"Molly's at the Market","phone":"5045255169","twitter":"mollysdecatur","address":"1107 Decatur St","lat":29.96002896739593,"lng":-90.05988157670407,"neighborhood":"French Quarter","city_fetched":"New Orleans","state":"LA","country":"United States","canonicalUrl":"https://foursquare.com/v/mollys-at-the-market/4ad4c04bf964a520ddf220e3","category":"Bar","checkinsCount":8274,"usersCount":4142,"tipCount":95,"visitsCount":8515,"url":"http://www.mollysatthemarket.net","tier":1,"message":"Cheap","currency":"$","rating":8.4},{"name":"Old Point Bar","phone":"5043640950","address":"545 Patterson Dr","lat":29.954993,"lng":-90.050189,"neighborhood":"Algiers Point","city_fetched":"New Orleans","state":"LA","country":"United States","canonicalUrl":"https://foursquare.com/v/old-point-bar/41326e00f964a520e1191fe3","category":"Bar","checkinsCount":1113,"usersCount":789,"tipCount":18,"visitsCount":1512,"url":"http://www.oldpointbar.com","tier":"","message":"","currency":"","rating":8.4},{"name":"Victory","phone":"5045228664","twitter":"victorynola","address":"339 Baronne St","lat":29.95153000837251,"lng":-90.07272633959474,"neighborhood":"Central Business District","city_fetched":"New Orleans","state":"LA","country":"United States","canonicalUrl":"https://foursquare.com/victorynola","category":"Cocktail Bar","checkinsCount":1240,"usersCount":954,"tipCount":23,"visitsCount":1523,"url":"http://instagram.com/victorynola","tier":"","message":"","currency":"","rating":8.4},{"name":"Cavan","phone":"5045097655","address":"3607 Magazine St","lat":29.92221450805664,"lng":-90.09186553955078,"neighborhood":"Central City - Garden","city_fetched":"New Orleans","state":"LA","country":"United States","canonicalUrl":"https://foursquare.com/v/cavan/56c6727a498e88a21b5d11b6","category":"Cocktail Bar","checkinsCount":139,"usersCount":168,"tipCount":5,"visitsCount":224,"url":"http://cavannola.com","tier":"","message":"","currency":"","rating":8.4},{"name":"Oz New Orleans","phone":"5045939491","twitter":"ozniteclub","address":"800 Bourbon St","lat":29.9594958490715,"lng":-90.06485293887967,"neighborhood":"French Quarter","city_fetched":"New Orleans","state":"LA","country":"United States","canonicalUrl":"https://foursquare.com/v/oz-new-orleans/41326e00f964a520a91a1fe3","category":"Gay Bar","checkinsCount":9962,"usersCount":4750,"tipCount":28,"visitsCount":10077,"url":"http://www.ozneworleans.com","tier":2,"message":"Moderate","currency":"$","rating":8.4},{"name":"Vaughan's Lounge","phone":"5049475562","address":"800 Lesseps St","lat":29.96192412562011,"lng":-90.033667162296,"neighborhood":"Bywater","city_fetched":"New Orleans","state":"LA","country":"United States","canonicalUrl":"https://foursquare.com/v/vaughans-lounge/4ad4c04bf964a520d7f220e3","category":"Bar","checkinsCount":1460,"usersCount":1369,"tipCount":32,"visitsCount":1768,"tier":"","message":"","currency":"","rating":8.4},{"name":"Maison Bourbon","address":"641 Bourbon St","lat":29.958569,"lng":-90.065651,"neighborhood":"French Quarter","city_fetched":"New Orleans","state":"LA","country":"United States","canonicalUrl":"https://foursquare.com/v/maison-bourbon/4ad4c04bf964a520b9f220e3","category":"Jazz Club","checkinsCount":3370,"usersCount":2972,"tipCount":61,"visitsCount":3388,"url":"http://www.maisonbourbon.com","tier":"","message":"","currency":"","rating":8.4},{"name":"SoBou","phone":"5045524095","twitter":"sobounola","address":"310 Chartres St","lat":29.95454301163239,"lng":-90.06642657758839,"neighborhood":"French Quarter","city_fetched":"New Orleans","state":"LA","country":"United States","canonicalUrl":"https://foursquare.com/sobounola","category":"Cajun / Creole Restaurant","checkinsCount":4614,"usersCount":3861,"tipCount":85,"visitsCount":4882,"url":"http://www.sobounola.com","tier":3,"message":"Expensive","currency":"$","rating":8.4},{"name":"The Bombay Club","phone":"5045772237","twitter":"bombayclubnola","address":"830 Conti St","lat":29.95668837598622,"lng":-90.06846248747974,"neighborhood":"French Quarter","city_fetched":"New Orleans","state":"LA","country":"United States","canonicalUrl":"https://foursquare.com/v/the-bombay-club/4b6cb370f964a520644d2ce3","category":"Restaurant","checkinsCount":1685,"usersCount":1284,"tipCount":30,"visitsCount":1726,"url":"http://www.bombayclubneworleans.com","tier":2,"message":"Moderate","currency":"$","rating":8.4},{"name":"Bouligny Tavern","phone":"5048911810","address":"3641 Magazine St","lat":29.921939,"lng":-90.092881,"neighborhood":"Central City - Garden","city_fetched":"New Orleans","state":"LA","country":"United States","canonicalUrl":"https://foursquare.com/v/bouligny-tavern/4c8c419dc37a6dcbb4f4f57a","category":"Cocktail Bar","checkinsCount":2645,"usersCount":1421,"tipCount":32,"visitsCount":2995,"url":"http://boulignytavern.com","tier":3,"message":"Expensive","currency":"$","rating":8.4},{"name":"Jester Mardi Gras Daiquiris 401 Bourbon Street","twitter":"drinkajester","address":"401 Bourbon St","lat":29.956272,"lng":-90.067744,"neighborhood":"French Quarter","city_fetched":"New Orleans","state":"LA","country":"United States","canonicalUrl":"https://foursquare.com/v/jester-mardi-gras-daiquiris-401-bourbon-street/4c26bf19a852c928e146e76c","category":"Speakeasy","checkinsCount":1047,"usersCount":924,"tipCount":9,"visitsCount":1051,"url":"http://www.jesterbeverages.com","tier":"","message":"","currency":"","rating":8.3},{"name":"Snake and Jake's Christmas Club Lounge","phone":"5048612802","address":"7612 Oak St","lat":29.944250779495366,"lng":-90.12587060438524,"neighborhood":"East Carrollton","city_fetched":"New Orleans","state":"LA","country":"United States","canonicalUrl":"https://foursquare.com/v/snake-and-jakes-christmas-club-lounge/4ad4c04cf964a52015f320e3","category":"Dive Bar","checkinsCount":4490,"usersCount":2149,"tipCount":45,"visitsCount":5175,"url":"http://snakeandjakes.com","tier":1,"message":"Cheap","currency":"$","rating":8.3},{"name":"Square Root","address":"1800 Magazine St","lat":29.931899976127,"lng":-90.07343803589734,"neighborhood":"Lower Garden District","city_fetched":"New Orleans","state":"LA","country":"United States","canonicalUrl":"https://foursquare.com/v/square-root/5355fede498ee5624f2bf477","category":"American Restaurant","checkinsCount":318,"usersCount":225,"tipCount":6,"visitsCount":324,"url":"http://squarerootnola.com","tier":"","message":"","currency":"","rating":8.3},{"name":"Sydney's Saloon Home of \"Treme Sidewalk Steppers\"","phone":"5049439461","address":"1200 Saint Bernard Ave","lat":29.968155026435852,"lng":-90.06308019161224,"neighborhood":"Seventh Ward","city_fetched":"New Orleans","state":"LA","country":"United States","canonicalUrl":"https://foursquare.com/v/sydneys-saloon-home-of-treme-sidewalk-steppers/4be616168a8cb713fd72c4a0","category":"Bar","checkinsCount":381,"usersCount":387,"tipCount":5,"visitsCount":777,"tier":"","message":"","currency":"","rating":8.3},{"name":"Buffa's Lounge","phone":"5049490038","twitter":"buffasbar","address":"1001 Esplanade Ave","lat":29.965420014109878,"lng":-90.06255873484743,"neighborhood":"Marigny","city_fetched":"New Orleans","state":"LA","country":"United States","canonicalUrl":"https://foursquare.com/v/buffas-lounge/4ad4c04cf964a5202ff320e3","category":"American Restaurant","checkinsCount":4336,"usersCount":2509,"tipCount":69,"visitsCount":5450,"url":"http://www.buffasrestaurant.com","tier":2,"message":"Moderate","currency":"$","rating":8.3},{"name":"Copper Monkey","phone":"5045270869","address":"725 Conti St","lat":29.95603889974464,"lng":-90.06744377548385,"neighborhood":"French Quarter","city_fetched":"New Orleans","state":"LA","country":"United States","canonicalUrl":"https://foursquare.com/v/copper-monkey/4ba5926bf964a520561339e3","category":"American Restaurant","checkinsCount":2140,"usersCount":1518,"tipCount":30,"visitsCount":2199,"url":"http://coppermonkeygrill.com","tier":2,"message":"Moderate","currency":"$","rating":8.3},{"name":"Lilette","phone":"5048951636","address":"3637 Magazine St","lat":29.921832,"lng":-90.092634,"neighborhood":"Central City - Garden","city_fetched":"New Orleans","state":"LA","country":"United States","canonicalUrl":"https://foursquare.com/v/lilette/4ad4c04bf964a520d5f220e3","category":"French Restaurant","checkinsCount":1129,"usersCount":986,"tipCount":39,"visitsCount":1301,"url":"http://www.liletterestaurant.com","tier":3,"message":"Expensive","currency":"$","rating":8.3},{"name":"Davenport Lounge at The Ritz-Carlton, New Orleans","phone":"5046702828","address":"921 Canal St","lat":29.955065953283754,"lng":-90.0707190621025,"neighborhood":"Central Business District","city_fetched":"New Orleans","state":"LA","country":"United States","canonicalUrl":"https://foursquare.com/v/davenport-lounge-at-the-ritzcarlton-new-orleans/4b904deaf964a520df8233e3","category":"Hotel Bar","checkinsCount":2080,"usersCount":1314,"tipCount":21,"visitsCount":2117,"tier":"","message":"","currency":"","rating":8.3},{"name":"LOA new orleans","phone":"5045539550","twitter":"loaneworleans","address":"221 Camp St","lat":29.950686341805163,"lng":-90.06931900978088,"neighborhood":"Central Business District","city_fetched":"New Orleans","state":"LA","country":"United States","canonicalUrl":"https://foursquare.com/loaneworleans","category":"Hotel Bar","checkinsCount":1459,"usersCount":798,"tipCount":25,"visitsCount":1471,"url":"http://ihhotel.com","tier":"","message":"","currency":"","rating":8.3},{"name":"Mr John's Steakhouse","phone":"5046797697","address":"2111 Saint Charles Ave","lat":29.934736974866073,"lng":-90.0798256441898,"neighborhood":"Central City - Garden","city_fetched":"New Orleans","state":"LA","country":"United States","canonicalUrl":"https://foursquare.com/v/mr-johns-steakhouse/4ad4c04cf964a520ebf220e3","category":"Steakhouse","checkinsCount":571,"usersCount":445,"tipCount":15,"visitsCount":579,"url":"http://www.mrjohnssteakhouse.com","tier":"","message":"","currency":"","rating":8.3},{"name":"Green Goddess","phone":"5043013447","address":"307 Exchange Pl","lat":29.954813759324892,"lng":-90.06696026101585,"neighborhood":"French Quarter","city_fetched":"New Orleans","state":"LA","country":"United States","canonicalUrl":"https://foursquare.com/v/green-goddess/4ad4c050f964a52088f420e3","category":"American Restaurant","checkinsCount":3257,"usersCount":2691,"tipCount":106,"visitsCount":3297,"url":"http://greengoddessrestaurant.com","tier":2,"message":"Moderate","currency":"$","rating":8.2},{"name":"World of Beer","phone":"5042993599","twitter":"wobneworleans","address":"300 Julia Street","lat":29.94477393,"lng":-90.06644482,"neighborhood":"Central Business District","city_fetched":"New Orleans","state":"LA","country":"United States","canonicalUrl":"https://foursquare.com/v/world-of-beer/56156f87498ecef4bbc0f967","category":"Bar","checkinsCount":380,"usersCount":342,"tipCount":4,"visitsCount":481,"url":"http://worldofbeer.com/Locations/WarehouseDistrict","tier":"","message":"","currency":"","rating":8.2},{"name":"Evangeline Lounge","phone":"5044821677","address":"4501 Toulouse St","lat":29.981544613838196,"lng":-90.1015967130661,"neighborhood":"City Park","city_fetched":"New Orleans","state":"LA","country":"United States","canonicalUrl":"https://foursquare.com/v/evangeline-lounge/4b5219b5f964a520c86727e3","category":"Dive Bar","checkinsCount":1090,"usersCount":343,"tipCount":5,"visitsCount":1261,"tier":"","message":"","currency":"","rating":8.2},{"name":"Ave Pub Balcony","lat":29.937062,"lng":-90.076815,"neighborhood":"Central City - Garden","city_fetched":"New Orleans","state":"LA","country":"United States","canonicalUrl":"https://foursquare.com/v/ave-pub-balcony/4e2a2caa52b1b8f198541b19","category":"Bar","checkinsCount":673,"usersCount":219,"tipCount":2,"visitsCount":688,"tier":"","message":"","currency":"","rating":8.2},{"name":"Kajun's Pub","phone":"5049473735","address":"2256 Saint Claude Ave","lat":29.968630283315818,"lng":-90.05516165916887,"neighborhood":"Marigny","city_fetched":"New Orleans","state":"LA","country":"United States","canonicalUrl":"https://foursquare.com/v/kajuns-pub/4ad4c04cf964a52032f320e3","category":"Karaoke Bar","checkinsCount":6093,"usersCount":1671,"tipCount":27,"visitsCount":6581,"url":"http://www.kajunpub.com","tier":1,"message":"Cheap","currency":"$","rating":8.2},{"name":"Pearl Wine Co.","phone":"5044836314","twitter":"nolawinebar","address":"Orleans Ave","lat":29.976717236684166,"lng":-90.092206939265,"neighborhood":"Mid-City","city_fetched":"New Orleans","state":"LA","country":"United States","canonicalUrl":"https://foursquare.com/v/pearl-wine-co/5179b128498e11ab2dd3a96f","category":"Wine Shop","checkinsCount":1255,"usersCount":444,"tipCount":13,"visitsCount":1617,"url":"http://www.pearlwineco.com","tier":"","message":"","currency":"","rating":8.2},{"name":"Le Pavillon Hotel","phone":"5045813111","twitter":"lepavillon","address":"833 Poydras St","lat":29.9506261866883,"lng":-90.07298181880147,"neighborhood":"Central Business District","city_fetched":"New Orleans","state":"LA","country":"United States","canonicalUrl":"https://foursquare.com/v/le-pavillon-hotel/4ad4c04af964a5208ef220e3","category":"Hotel","checkinsCount":4575,"usersCount":2677,"tipCount":52,"visitsCount":4999,"url":"http://www.lepavillon.com","tier":"","message":"","currency":"","rating":8.2},{"name":"Gabby's Restaurant & Lounge","address":"6600 Morrison Rd","lat":30.027657896179363,"lng":-90.01520474899857,"neighborhood":"New Orleans East Area","city_fetched":"New Orleans","state":"LA","country":"United States","canonicalUrl":"https://foursquare.com/v/gabbys-restaurant--lounge/41326e00f964a52026191fe3","category":"Lounge","checkinsCount":163,"usersCount":99,"tipCount":4,"visitsCount":212,"tier":"","message":"","currency":"","rating":8.1},{"name":"Henry's Uptown Bar","address":"5101 Magazine St","lat":29.920500166666667,"lng":-90.110153,"neighborhood":"Uptown","city_fetched":"New Orleans","state":"LA","country":"United States","canonicalUrl":"https://foursquare.com/v/henrys-uptown-bar/4aece905f964a52029cc21e3","category":"Bar","checkinsCount":1589,"usersCount":730,"tipCount":20,"visitsCount":1897,"url":"http://www.henrysbaruptown.com","tier":"","message":"","currency":"","rating":8.1},{"name":"Urban South Brewery","twitter":"urbansouthbeer","address":"1625 Tchoupitoulas Street","lat":29.929943746562618,"lng":-90.06680973416977,"neighborhood":"Lower Garden District","city_fetched":"New Orleans","state":"LA","country":"United States","canonicalUrl":"https://foursquare.com/v/urban-south-brewery/56ec910c498ea429f3d0211a","category":"Brewery","checkinsCount":157,"usersCount":187,"tipCount":2,"visitsCount":259,"tier":"","message":"","currency":"","rating":8.1},{"name":"Cosimos","phone":"5045255636","address":"1201 Burgundy St","lat":29.963900501230935,"lng":-90.06386317598712,"neighborhood":"French Quarter","city_fetched":"New Orleans","state":"LA","country":"United States","canonicalUrl":"https://foursquare.com/v/cosimos/41d9dc80f964a520b91e1fe3","category":"Bar","checkinsCount":1598,"usersCount":1073,"tipCount":20,"visitsCount":2085,"tier":1,"message":"Cheap","currency":"$","rating":8.1},{"name":"Antoine's Restaurant","phone":"5045814422","twitter":"antoinesnola","address":"713 Saint Louis St","lat":29.956751834779574,"lng":-90.06639003753662,"neighborhood":"French Quarter","city_fetched":"New Orleans","state":"LA","country":"United States","canonicalUrl":"https://foursquare.com/v/antoines-restaurant/4ad4c04df964a5206ff320e3","category":"Cajun / Creole Restaurant","checkinsCount":4401,"usersCount":3860,"tipCount":96,"visitsCount":4522,"url":"http://www.antoines.com","tier":3,"message":"Expensive","currency":"$","rating":8.1},{"name":"Deanie's Seafood","phone":"5045811316","address":"841 Iberville St","lat":29.95528648517525,"lng":-90.07003934873106,"neighborhood":"French Quarter","city_fetched":"New Orleans","state":"LA","country":"United States","canonicalUrl":"https://foursquare.com/v/deanies-seafood/4ad4c04cf964a520f1f220e3","category":"Seafood Restaurant","checkinsCount":9945,"usersCount":9381,"tipCount":214,"visitsCount":11294,"url":"http://deanies.com","tier":2,"message":"Moderate","currency":"$","rating":8.1},{"name":"The Kerry Irish Pub","address":"331 Decatur St","lat":29.954127,"lng":-90.065213,"neighborhood":"French Quarter","city_fetched":"New Orleans","state":"LA","country":"United States","canonicalUrl":"https://foursquare.com/v/the-kerry-irish-pub/4ad4c04df964a52069f320e3","category":"Pub","checkinsCount":1369,"usersCount":995,"tipCount":17,"visitsCount":1372,"tier":"","message":"","currency":"","rating":8.1},{"name":"The Tasting Room","address":"1906 Magazine St","lat":29.931549402437412,"lng":-90.07398550356524,"neighborhood":"Lower Garden District","city_fetched":"New Orleans","state":"LA","country":"United States","canonicalUrl":"https://foursquare.com/v/the-tasting-room/53040bc6498e000abc769694","category":"Wine Bar","checkinsCount":239,"usersCount":164,"tipCount":6,"visitsCount":253,"url":"http://ttrneworleans.com","tier":"","message":"","currency":"","rating":8.1},{"name":"La Thai Uptown","phone":"5048998886","address":"4938 Prytania St","lat":29.924590587615967,"lng":-90.108788,"neighborhood":"Uptown","city_fetched":"New Orleans","state":"LA","country":"United States","canonicalUrl":"https://foursquare.com/v/la-thai-uptown/4ad4c04cf964a5200bf320e3","category":"Thai Restaurant","checkinsCount":2146,"usersCount":1063,"tipCount":35,"visitsCount":2178,"url":"http://www.lathaiuptown.com","tier":2,"message":"Moderate","currency":"$","rating":8.1},{"name":"Tony Seville's Pirates Alley Cafe & Old Absinthe House","phone":"5045249332","address":"622 Pirates Aly","lat":29.95800207047326,"lng":-90.06407260894775,"neighborhood":"French Quarter","city_fetched":"New Orleans","state":"LA","country":"United States","canonicalUrl":"https://foursquare.com/v/tony-sevilles-pirates-alley-cafe--old-absinthe-house/4aeb317af964a5207abf21e3","category":"Bar","checkinsCount":3475,"usersCount":2686,"tipCount":37,"visitsCount":3589,"url":"http://piratesalleycafe.com","tier":2,"message":"Moderate","currency":"$","rating":8.1},{"name":"New Orleans Original Daiquiris","phone":"5048661846","twitter":"fat_tues_day","address":"8100 Saint Charles Ave","lat":29.94309589079571,"lng":-90.13444190833884,"neighborhood":"Uptown - Carrollton","city_fetched":"New Orleans","state":"LA","country":"United States","canonicalUrl":"https://foursquare.com/v/new-orleans-original-daiquiris/4b2aa6b5f964a52005ad24e3","category":"Bar","checkinsCount":2334,"usersCount":1253,"tipCount":23,"visitsCount":2497,"url":"http://t.co/s0aDVvUW9U","tier":1,"message":"Cheap","currency":"$","rating":8.1},{"name":"Mick's Irish Pub","phone":"5044829113","address":"4801 Bienville St","lat":29.98129354855135,"lng":-90.1062798500061,"neighborhood":"Mid-City","city_fetched":"New Orleans","state":"LA","country":"United States","canonicalUrl":"https://foursquare.com/v/micks-irish-pub/41326e00f964a520ba191fe3","category":"Pub","checkinsCount":2513,"usersCount":726,"tipCount":20,"visitsCount":2925,"tier":"","message":"","currency":"","rating":8.1},{"name":"Tracey's","phone":"5048975413","address":"2604 Magazine St","lat":29.92699911752417,"lng":-90.08087513854557,"neighborhood":"Irish Channel","city_fetched":"New Orleans","state":"LA","country":"United States","canonicalUrl":"https://foursquare.com/v/traceys/4c8074e447cc224b9da6739f","category":"Bar","checkinsCount":6926,"usersCount":3948,"tipCount":52,"visitsCount":8296,"url":"http://traceysnola.com","tier":1,"message":"Cheap","currency":"$","rating":8.1},{"name":"Daiquiris & Creams","phone":"5048353698","address":"1701 Lake Ave","lat":30.018091723102305,"lng":-90.1229834724711,"city_fetched":"New Orleans","state":"LA","country":"United States","canonicalUrl":"https://foursquare.com/v/daiquiris--creams/4cef1a6b7db3224b3cff2a2e","category":"Bar","checkinsCount":229,"usersCount":154,"tipCount":5,"visitsCount":229,"tier":"","message":"","currency":"","rating":8},{"name":"Wine Institute New Orleans (W.I.N.O.)","phone":"5043248000","twitter":"winoschool","address":"610 Tchoupitoulas St","lat":29.947139683143853,"lng":-90.06727043940832,"neighborhood":"Central Business District","city_fetched":"New Orleans","state":"LA","country":"United States","canonicalUrl":"https://foursquare.com/v/wine-institute-new-orleans-wino/4bd4e1c46f64952158596eec","category":"Wine Bar","checkinsCount":1987,"usersCount":1452,"tipCount":23,"visitsCount":2031,"url":"http://www.winoschool.com","tier":"","message":"","currency":"","rating":8},{"name":"The Alibi","phone":"5045229187","address":"811 Iberville St","lat":29.95484603333333,"lng":-90.069403,"neighborhood":"Central Business District","city_fetched":"New Orleans","state":"LA","country":"United States","canonicalUrl":"https://foursquare.com/v/the-alibi/4ad4c04cf964a5201df320e3","category":"Bar","checkinsCount":2750,"usersCount":1568,"tipCount":21,"visitsCount":2785,"url":"http://www.alibineworleans.com","tier":2,"message":"Moderate","currency":"$","rating":8},{"name":"The Old Absinthe House","phone":"5045233181","twitter":"absinthebarnola","address":"240 Bourbon St","lat":29.955478344339674,"lng":-90.06839632987976,"neighborhood":"French Quarter","city_fetched":"New Orleans","state":"LA","country":"United States","canonicalUrl":"https://foursquare.com/v/the-old-absinthe-house/4ad76daaf964a520520a21e3","category":"Bar","checkinsCount":10747,"usersCount":8438,"tipCount":91,"visitsCount":10848,"url":"http://www.ruebourbon.com/oldabsinthehouse/","tier":2,"message":"Moderate","currency":"$","rating":8},{"name":"Louisiana Bistro","phone":"5045253335","address":"337 Dauphine St","lat":29.956710173591127,"lng":-90.06869820461797,"neighborhood":"French Quarter","city_fetched":"New Orleans","state":"LA","country":"United States","canonicalUrl":"https://foursquare.com/v/louisiana-bistro/4ad4c04bf964a520e8f220e3","category":"Wine Bar","checkinsCount":413,"usersCount":307,"tipCount":15,"visitsCount":413,"url":"http://louisianabistro.net","tier":"","message":"","currency":"","rating":8},{"name":"Golden Lantern","address":"1239 Royal St","lat":29.96268,"lng":-90.06067881,"neighborhood":"French Quarter","city_fetched":"New Orleans","state":"LA","country":"United States","canonicalUrl":"https://foursquare.com/v/golden-lantern/41326e00f964a52033191fe3","category":"Gay Bar","checkinsCount":2953,"usersCount":2011,"tipCount":26,"visitsCount":4264,"tier":1,"message":"Cheap","currency":"$","rating":8},{"name":"New Orleans Original Daiquiris","twitter":"fat_tues_day","address":"620 Terry Pkwy","lat":29.902900750209877,"lng":-90.03068213609592,"city_fetched":"New Orleans","state":"LA","country":"United States","canonicalUrl":"https://foursquare.com/v/new-orleans-original-daiquiris/4b3d6d83f964a520079425e3","category":"Bar","checkinsCount":269,"usersCount":129,"tipCount":8,"visitsCount":278,"url":"http://t.co/s0aDVvUW9U","tier":"","message":"","currency":"","rating":8},{"name":"Dick & Jenny's","phone":"5048949880","twitter":"dickandjennys","address":"4501 Tchoupitoulas St","lat":29.917026,"lng":-90.102503,"neighborhood":"Uptown - Carrollton","city_fetched":"New Orleans","state":"LA","country":"United States","canonicalUrl":"https://foursquare.com/v/dick--jennys/4ad4c04df964a5207df320e3","category":"Cajun / Creole Restaurant","checkinsCount":1231,"usersCount":1137,"tipCount":20,"visitsCount":1366,"url":"http://dickandjennys.com","tier":2,"message":"Moderate","currency":"$","rating":8},{"name":"The Roosevelt Hotel Bar","phone":"5045669444","twitter":"rooseveltbar","address":"116 Roosevelt Way","lat":29.95478177252258,"lng":-90.0721013351281,"neighborhood":"Central Business District","city_fetched":"New Orleans","state":"LA","country":"United States","canonicalUrl":"https://foursquare.com/v/the-roosevelt-hotel-bar/4c92aed4ec2376b009aa2302","category":"Hotel Bar","checkinsCount":1008,"usersCount":763,"tipCount":14,"visitsCount":1015,"tier":"","message":"","currency":"","rating":8},{"name":"Krewe Of Endymion","lat":29.952423239442208,"lng":-90.07445541953669,"neighborhood":"Central Business District","city_fetched":"New Orleans","state":"LA","country":"United States","canonicalUrl":"https://foursquare.com/v/krewe-of-endymion/4f402c6be4b0def993476008","category":"General Entertainment","checkinsCount":709,"usersCount":663,"tipCount":2,"visitsCount":741,"tier":"","message":"","currency":"","rating":8},{"name":"Winston's Pub & Patio","lat":29.986599542344596,"lng":-90.1293701711388,"city_fetched":"New Orleans","state":"LA","country":"United States","canonicalUrl":"https://foursquare.com/v/winstons-pub--patio/517b3865e4b0f7d842364168","category":"Pub","checkinsCount":610,"usersCount":272,"tipCount":7,"visitsCount":819,"tier":"","message":"","currency":"","rating":8},{"name":"Ticklers Piano Bar","lat":29.958524156659305,"lng":-90.06587009507824,"neighborhood":"French Quarter","city_fetched":"New Orleans","state":"LA","country":"United States","canonicalUrl":"https://foursquare.com/v/ticklers-piano-bar/55a87b1f498e838f4df3d98c","category":"Bar","checkinsCount":143,"usersCount":128,"tipCount":0,"visitsCount":143,"tier":"","message":"","currency":"","rating":8},{"name":"The Prytania Bar","phone":"5048915773","twitter":"theprytaniabar","address":"3445 Prytania St","lat":29.92649479380494,"lng":-90.09208826436367,"neighborhood":"Touro","city_fetched":"New Orleans","state":"LA","country":"United States","canonicalUrl":"https://foursquare.com/v/the-prytania-bar/42016980f964a520601f1fe3","category":"Bar","checkinsCount":2356,"usersCount":1118,"tipCount":7,"visitsCount":2580,"url":"http://prytaniabar.com","tier":1,"message":"Cheap","currency":"$","rating":8},{"name":"Little Tokyo","phone":"5044855658","address":"310 N Carrollton Ave","lat":29.976227479537773,"lng":-90.09826440987061,"neighborhood":"Mid-City","city_fetched":"New Orleans","state":"LA","country":"United States","canonicalUrl":"https://foursquare.com/v/little-tokyo/4aeb65cff964a520bec121e3","category":"Sushi Restaurant","checkinsCount":1950,"usersCount":930,"tipCount":30,"visitsCount":2038,"url":"http://littletokyonola.com","tier":2,"message":"Moderate","currency":"$","rating":8},{"name":"Phoenix Bar","phone":"5049459264","twitter":"phoenixbarnola","address":"941 Elysian Fields Ave","lat":29.967585116846955,"lng":-90.05649320994888,"neighborhood":"Marigny","city_fetched":"New Orleans","state":"LA","country":"United States","canonicalUrl":"https://foursquare.com/v/phoenix-bar/41326e00f964a520ff191fe3","category":"Gay Bar","checkinsCount":1819,"usersCount":737,"tipCount":12,"visitsCount":2235,"url":"http://www.phoenixbarnola.com/home","tier":1,"message":"Cheap","currency":"$","rating":8},{"name":"Oak Wine Bar","phone":"5043021485","address":"8118 Oak St","lat":29.94771659374237,"lng":-90.13031034000001,"neighborhood":"Uptown - Carrollton","city_fetched":"New Orleans","state":"LA","country":"United States","canonicalUrl":"https://foursquare.com/v/oak-wine-bar/4c5474a9fd2ea5930e99212a","category":"Wine Bar","checkinsCount":2700,"usersCount":1304,"tipCount":19,"visitsCount":2784,"url":"http://www.oaknola.com","tier":2,"message":"Moderate","currency":"$","rating":8},{"name":"Ooh Poo Pah Doo Bar","phone":"5044353384","address":"1931 Orleans Ave","lat":29.965966488116912,"lng":-90.07555495412552,"neighborhood":"Treme - Lafitte","city_fetched":"New Orleans","state":"LA","country":"United States","canonicalUrl":"https://foursquare.com/v/ooh-poo-pah-doo-bar/52e28fb211d241e331cd1214","category":"Bar","checkinsCount":93,"usersCount":199,"tipCount":1,"visitsCount":253,"tier":"","message":"","currency":"","rating":8},{"name":"Cafe Negril","phone":"5049444744","address":"606 Frenchmen St","lat":29.963756452764375,"lng":-90.05782936729348,"neighborhood":"Marigny","city_fetched":"New Orleans","state":"LA","country":"United States","canonicalUrl":"https://foursquare.com/v/cafe-negril/4ad4c04cf964a5202ef320e3","category":"Bar","checkinsCount":5541,"usersCount":4496,"tipCount":54,"visitsCount":5587,"tier":1,"message":"Cheap","currency":"$","rating":8},{"name":"Cat's Meow","phone":"5045232788","twitter":"catskaraoke","address":"701 Bourbon St","lat":29.95868063047491,"lng":-90.06567254662514,"neighborhood":"French Quarter","city_fetched":"New Orleans","state":"LA","country":"United States","canonicalUrl":"https://foursquare.com/v/cats-meow/41326e00f964a52094181fe3","category":"Karaoke Bar","checkinsCount":12537,"usersCount":9345,"tipCount":83,"visitsCount":12687,"url":"http://www.catskaraoke.com","tier":1,"message":"Cheap","currency":"$","rating":8},{"name":"R Bar","address":"1431 Royal St","lat":29.964077618195745,"lng":-90.05940271802343,"neighborhood":"Marigny","city_fetched":"New Orleans","state":"LA","country":"United States","canonicalUrl":"https://foursquare.com/v/r-bar/4e28feada809ec0663f45da5","category":"Bar","checkinsCount":2896,"usersCount":2096,"tipCount":26,"visitsCount":3531,"url":"http://www.royalstreetinn.com","tier":1,"message":"Cheap","currency":"$","rating":8},{"name":"J & J's Sports Lounge","address":"Dauphine","lat":29.962068,"lng":-90.034651,"neighborhood":"Bywater","city_fetched":"New Orleans","state":"LA","country":"United States","canonicalUrl":"https://foursquare.com/v/j--js-sports-lounge/4d98e8c0e07ea35d3ca9fd02","category":"Bar","checkinsCount":511,"usersCount":305,"tipCount":6,"visitsCount":706,"tier":"","message":"","currency":"","rating":8},{"name":"Voodoo Vibe","address":"333 Bourbon St","lat":29.95610081213355,"lng":-90.06790904987194,"neighborhood":"French Quarter","city_fetched":"New Orleans","state":"LA","country":"United States","canonicalUrl":"https://foursquare.com/v/voodoo-vibe/4d8ebee6d4ec8cfa28147c89","category":"Bar","checkinsCount":1456,"usersCount":1276,"tipCount":11,"visitsCount":1456,"tier":"","message":"","currency":"","rating":7.9},{"name":"B-Mac's","address":"819 Saint Louis St","lat":29.957405210644872,"lng":-90.06754412830631,"neighborhood":"French Quarter","city_fetched":"New Orleans","state":"LA","country":"United States","canonicalUrl":"https://foursquare.com/v/bmacs/54d7b6a1498e8e0674d9ac10","category":"Bar","checkinsCount":213,"usersCount":125,"tipCount":0,"visitsCount":254,"tier":"","message":"","currency":"","rating":7.9},{"name":"Bourbon \"O\"","phone":"5045232222","address":"717 Orleans Ave","lat":29.959021343772907,"lng":-90.06520415120217,"neighborhood":"French Quarter","city_fetched":"New Orleans","state":"LA","country":"United States","canonicalUrl":"https://foursquare.com/v/bourbon-o/4ae2a542f964a520418f21e3","category":"Cocktail Bar","checkinsCount":1844,"usersCount":1151,"tipCount":32,"visitsCount":1856,"url":"http://www.bourbonorleans.com/bourbon-o","tier":3,"message":"Expensive","currency":"$","rating":7.9},{"name":"Tommy's Winebar","phone":"5045254790","address":"752 Tchoupitoulas St","lat":29.94512352955147,"lng":-90.067434652513,"neighborhood":"Central Business District","city_fetched":"New Orleans","state":"LA","country":"United States","canonicalUrl":"https://foursquare.com/v/tommys-winebar/4c4bad60712ac92815f1366d","category":"Wine Bar","checkinsCount":741,"usersCount":520,"tipCount":7,"visitsCount":751,"url":"http://www.tommysneworleans.com/winebar.html","tier":"","message":"","currency":"","rating":7.9},{"name":"ALLways Lounge","phone":"5042185778","address":"2240 Saint Claude Ave","lat":29.968550978468638,"lng":-90.05564958508234,"neighborhood":"Marigny","city_fetched":"New Orleans","state":"LA","country":"United States","canonicalUrl":"https://foursquare.com/v/allways-lounge/4aed4122f964a52067cd21e3","category":"Lounge","checkinsCount":1749,"usersCount":984,"tipCount":17,"visitsCount":1829,"url":"http://theallwayslounge.net","tier":"","message":"","currency":"","rating":7.9},{"name":"Bud Rip's","address":"900 Piety St","lat":29.964880267756055,"lng":-90.04256437610832,"neighborhood":"St. Claude","city_fetched":"New Orleans","state":"LA","country":"United States","canonicalUrl":"https://foursquare.com/v/bud-rips/4b500645f964a5205e1b27e3","category":"Bar","checkinsCount":871,"usersCount":477,"tipCount":9,"visitsCount":1020,"tier":1,"message":"Cheap","currency":"$","rating":7.9},{"name":"Desi Romano's Sports Bar & Grill","phone":"5042770824","twitter":"desiromanos","address":"3809 Paris Rd","lat":29.955969962468938,"lng":-89.95683389344806,"city_fetched":"New Orleans","state":"LA","country":"United States","canonicalUrl":"https://foursquare.com/v/desi-romanos-sports-bar--grill/41326e00f964a520e2181fe3","category":"Sports Bar","checkinsCount":208,"usersCount":117,"tipCount":6,"visitsCount":277,"tier":"","message":"","currency":"","rating":7.9},{"name":"Rare Form","twitter":"rareformnola","lat":29.96207968825177,"lng":-90.05749646367035,"neighborhood":"Marigny","city_fetched":"New Orleans","state":"LA","country":"United States","canonicalUrl":"https://foursquare.com/v/rare-form/54fa5a42498e1cb9a31db0ae","category":"Cocktail Bar","checkinsCount":225,"usersCount":211,"tipCount":4,"visitsCount":229,"tier":"","message":"","currency":"","rating":7.9},{"name":"The Irish House","phone":"5045956755","twitter":"irishhousenola","address":"1432 Saint Charles Ave","lat":29.939071016992788,"lng":-90.07532683232883,"neighborhood":"Lower Garden District","city_fetched":"New Orleans","state":"LA","country":"United States","canonicalUrl":"https://foursquare.com/v/the-irish-house/4e1c54ba18a8c65001fad54b","category":"Irish Pub","checkinsCount":3208,"usersCount":2063,"tipCount":65,"visitsCount":3376,"url":"http://www.theirishhouseneworleans.com","tier":2,"message":"Moderate","currency":"$","rating":7.9},{"name":"Hobnobber's Variety Bar & Restaurant","phone":"5045255428","twitter":"hobnobbersnola","address":"139 Carondelet St","lat":29.952824207158685,"lng":-90.07072818585374,"neighborhood":"Central Business District","city_fetched":"New Orleans","state":"LA","country":"United States","canonicalUrl":"https://foursquare.com/v/hobnobbers-variety-bar--restaurant/4be3121fcbdbef3bf98660d8","category":"American Restaurant","checkinsCount":1104,"usersCount":662,"tipCount":17,"visitsCount":1290,"url":"http://hobnobbers-hub.com","tier":2,"message":"Moderate","currency":"$","rating":7.9},{"name":"Deja Vu Restaurant And Bar","phone":"5045231931","address":"400 Dauphine St","lat":29.95690221145874,"lng":-90.06862521852725,"neighborhood":"French Quarter","city_fetched":"New Orleans","state":"LA","country":"United States","canonicalUrl":"https://foursquare.com/v/deja-vu-restaurant-and-bar/4ad4c04df964a5203cf320e3","category":"American Restaurant","checkinsCount":3527,"usersCount":2392,"tipCount":72,"visitsCount":3850,"url":"http://dejavunola.com","tier":1,"message":"Cheap","currency":"$","rating":7.9},{"name":"Johnny Whites","address":"733 Saint Peter St","lat":29.958467829732005,"lng":-90.06559185684822,"neighborhood":"French Quarter","city_fetched":"New Orleans","state":"LA","country":"United States","canonicalUrl":"https://foursquare.com/v/johnny-whites/504a507ee4b0f7c8ce24dfb1","category":"Bar","checkinsCount":619,"usersCount":415,"tipCount":8,"visitsCount":621,"url":"http://johnnywhitesfrenchquarter.com","tier":1,"message":"Cheap","currency":"$","rating":7.9},{"name":"Batch Bar at Hyatt French Quarter","twitter":"batchnola","address":"800 Iberville St","lat":29.95509463445707,"lng":-90.06987512448619,"neighborhood":"Central Business District","city_fetched":"New Orleans","state":"LA","country":"United States","canonicalUrl":"https://foursquare.com/v/batch-bar-at-hyatt-french-quarter/50e09e8de4b03fabf1d2a5aa","category":"Whisky Bar","checkinsCount":155,"usersCount":143,"tipCount":6,"visitsCount":158,"url":"http://frenchquarter.hyatt.com/en/hotel/dining/Batch.html","tier":2,"message":"Moderate","currency":"$","rating":7.9},{"name":"Tropical Isle Original","phone":"5045291702","twitter":"tropical_isle","address":"600 Bourbon St","lat":29.9578319,"lng":-90.0663256,"neighborhood":"French Quarter","city_fetched":"New Orleans","state":"LA","country":"United States","canonicalUrl":"https://foursquare.com/v/tropical-isle-original/4c200aca63750f47031bbc67","category":"Bar","checkinsCount":10299,"usersCount":8309,"tipCount":99,"visitsCount":10538,"url":"http://www.tropicalisle.com","tier":1,"message":"Cheap","currency":"$","rating":7.9},{"name":"The Blind Pelican","phone":"5045589398","twitter":"blindpelican1","address":"1628 Saint Charles Ave","lat":29.93764217,"lng":-90.07636146,"neighborhood":"Central City - Garden","city_fetched":"New Orleans","state":"LA","country":"United States","canonicalUrl":"https://foursquare.com/blindpelican1","category":"Bar","checkinsCount":3270,"usersCount":2177,"tipCount":57,"visitsCount":3643,"url":"http://theblindpelicanbar.com","tier":2,"message":"Moderate","currency":"$","rating":7.9},{"name":"Chart Room","phone":"7079442222","address":"300 Chartres St","lat":29.95437350374489,"lng":-90.0666227167892,"neighborhood":"French Quarter","city_fetched":"New Orleans","state":"LA","country":"United States","canonicalUrl":"https://foursquare.com/v/chart-room/4ad4c04bf964a520def220e3","category":"Dive Bar","checkinsCount":5941,"usersCount":2990,"tipCount":65,"visitsCount":6554,"tier":1,"message":"Cheap","currency":"$","rating":7.8},{"name":"The Pelican Club","phone":"5045231504","twitter":"chefrichardhugh","address":"312 Exchange Pl","lat":29.954678340993112,"lng":-90.06693745388002,"neighborhood":"French Quarter","city_fetched":"New Orleans","state":"LA","country":"United States","canonicalUrl":"https://foursquare.com/v/the-pelican-club/4ad4c04bf964a520d1f220e3","category":"French Restaurant","checkinsCount":1281,"usersCount":1144,"tipCount":28,"visitsCount":1289,"url":"http://www.pelicanclub.com","tier":4,"message":"Very Expensive","currency":"$","rating":7.8},{"name":"Boondock Saint","phone":"5045254950","address":"731 Saint Peter St","lat":29.958405864685822,"lng":-90.06544133536767,"neighborhood":"French Quarter","city_fetched":"New Orleans","state":"LA","country":"United States","canonicalUrl":"https://foursquare.com/v/boondock-saint/4aed5c1df964a52088cd21e3","category":"Bar","checkinsCount":4665,"usersCount":1983,"tipCount":31,"visitsCount":4678,"tier":2,"message":"Moderate","currency":"$","rating":7.8},{"name":"W XYZ Bar","address":"225 Baronne St","lat":29.952738506399527,"lng":-90.07233856190325,"neighborhood":"Central Business District","city_fetched":"New Orleans","state":"LA","country":"United States","canonicalUrl":"https://foursquare.com/v/w-xyz-bar/55231ad2498e16ad086d66b0","category":"Bar","checkinsCount":77,"usersCount":58,"tipCount":1,"visitsCount":78,"tier":"","message":"","currency":"","rating":7.8},{"name":"St. Roch Tavern","phone":"5049450194","address":"1200 Saint Roch Ave","lat":29.96989392,"lng":-90.052416,"neighborhood":"St. Roch","city_fetched":"New Orleans","state":"LA","country":"United States","canonicalUrl":"https://foursquare.com/v/st-roch-tavern/41326e00f964a520551a1fe3","category":"Bar","checkinsCount":601,"usersCount":429,"tipCount":7,"visitsCount":688,"tier":"","message":"","currency":"","rating":7.8},{"name":"Bullet's Sports Bar","address":"2441 A P Tureaud Ave","lat":29.98213516966699,"lng":-90.06744377548385,"neighborhood":"Seventh Ward","city_fetched":"New Orleans","state":"LA","country":"United States","canonicalUrl":"https://foursquare.com/v/bullets-sports-bar/41326e00f964a52075181fe3","category":"Sports Bar","checkinsCount":640,"usersCount":380,"tipCount":13,"visitsCount":959,"tier":"","message":"","currency":"","rating":7.8},{"name":"Legacy Kitchen","address":"700 Tchoupitoulas St","lat":29.946219116843405,"lng":-90.06734342292368,"neighborhood":"Central Business District","city_fetched":"New Orleans","state":"LA","country":"United States","canonicalUrl":"https://foursquare.com/v/legacy-kitchen/55036e5f498ec5a44f428bca","category":"American Restaurant","checkinsCount":277,"usersCount":233,"tipCount":3,"visitsCount":282,"tier":"","message":"","currency":"","rating":7.8},{"name":"Hermes Bar","phone":"5045814422","twitter":"antoinesnola","address":"725 Saint Louis St","lat":29.9567733281323,"lng":-90.06670026047057,"neighborhood":"French Quarter","city_fetched":"New Orleans","state":"LA","country":"United States","canonicalUrl":"https://foursquare.com/v/hermes-bar/4ad4c04df964a52053f320e3","category":"Bar","checkinsCount":2147,"usersCount":1556,"tipCount":35,"visitsCount":2162,"url":"http://www.antoines.com","tier":"","message":"","currency":"","rating":7.8},{"name":"Dino's Bar & Grill","phone":"5045580900","address":"1128 Tchoupitoulas St","lat":29.939989,"lng":-90.067059,"neighborhood":"Lower Garden District","city_fetched":"New Orleans","state":"LA","country":"United States","canonicalUrl":"https://foursquare.com/v/dinos-bar--grill/4ad4c04df964a5204af320e3","category":"Bar","checkinsCount":1545,"usersCount":793,"tipCount":17,"visitsCount":1882,"url":"http://dinosnola.com","tier":2,"message":"Moderate","currency":"$","rating":7.8},{"name":"3 Legged Dog Tavern","address":"Conti","lat":29.957516998948183,"lng":-90.06945088177105,"neighborhood":"French Quarter","city_fetched":"New Orleans","state":"LA","country":"United States","canonicalUrl":"https://foursquare.com/v/3-legged-dog-tavern/4b3c4185f964a5206c8325e3","category":"Bar","checkinsCount":1319,"usersCount":607,"tipCount":15,"visitsCount":1636,"tier":"","message":"","currency":"","rating":7.8},{"name":"Moby's Bar & Grill","phone":"5043019376","address":"1535 Veterans Memorial Blvd","lat":30.002272,"lng":-90.140074,"city_fetched":"New Orleans","state":"LA","country":"United States","canonicalUrl":"https://foursquare.com/v/mobys-bar--grill/4fb72e8ee4b04335c702882c","category":"Bar","checkinsCount":1033,"usersCount":210,"tipCount":12,"visitsCount":1242,"tier":"","message":"","currency":"","rating":7.7},{"name":"Ms Mae's The Club","phone":"5042188035","twitter":"msmaes","address":"4336 Magazine St","lat":29.920597979542265,"lng":-90.10143399932292,"neighborhood":"Central City - Garden","city_fetched":"New Orleans","state":"LA","country":"United States","canonicalUrl":"https://foursquare.com/v/ms-maes-the-club/4ada9cd8f964a520cb2321e3","category":"Bar","checkinsCount":7060,"usersCount":2610,"tipCount":39,"visitsCount":7637,"url":"http://msmaeswallofshame.blogspot.com","tier":1,"message":"Cheap","currency":"$","rating":7.7},{"name":"The Red Door","phone":"5043095801","address":"206 N Carrollton Ave","lat":29.9753,"lng":-90.09941875934601,"neighborhood":"Mid-City","city_fetched":"New Orleans","state":"LA","country":"United States","canonicalUrl":"https://foursquare.com/v/the-red-door/4b60f890f964a52012042ae3","category":"Bar","checkinsCount":646,"usersCount":241,"tipCount":7,"visitsCount":687,"tier":"","message":"","currency":"","rating":7.7},{"name":"Dos Jefes Uptown Cigar Bar","phone":"5048918500","address":"5525 Tchoupitoulas St.","lat":29.916443066564916,"lng":-90.1182746887207,"neighborhood":"Uptown - Carrollton","city_fetched":"New Orleans","state":"LA","country":"United States","canonicalUrl":"https://foursquare.com/v/dos-jefes-uptown-cigar-bar/4c95a7d5f7cfa1cdcfe5bf15","category":"Bar","checkinsCount":1972,"usersCount":1063,"tipCount":11,"visitsCount":2446,"url":"http://www.dosjefescigarbar.com","tier":2,"message":"Moderate","currency":"$","rating":7.7},{"name":"The King Pin Bar","address":"1307 Lyons St","lat":29.924145340919495,"lng":-90.10748745,"neighborhood":"Uptown","city_fetched":"New Orleans","state":"LA","country":"United States","canonicalUrl":"https://foursquare.com/v/the-king-pin-bar/4ad4c04cf964a52034f320e3","category":"Bar","checkinsCount":3782,"usersCount":1081,"tipCount":18,"visitsCount":3980,"tier":1,"message":"Cheap","currency":"$","rating":7.7},{"name":"Saint Bar & Lounge","phone":"5045230050","twitter":"saintbar","address":"961 Saint Mary St","lat":29.931216763349976,"lng":-90.07335591642017,"neighborhood":"Lower Garden District","city_fetched":"New Orleans","state":"LA","country":"United States","canonicalUrl":"https://foursquare.com/v/saint-bar--lounge/41326e00f964a520321a1fe3","category":"Dive Bar","checkinsCount":5679,"usersCount":1961,"tipCount":37,"visitsCount":6415,"url":"http://thesaintneworleans.com","tier":2,"message":"Moderate","currency":"$","rating":7.7},{"name":"VooDoo BBQ & Grill Uptown","phone":"5045224647","twitter":"neworleansbbq","address":"1501 Saint Charles Ave","lat":29.93899121294997,"lng":-90.07590651512146,"neighborhood":"Central City - Garden","city_fetched":"New Orleans","state":"LA","country":"United States","canonicalUrl":"https://foursquare.com/v/voodoo-bbq--grill-uptown/4af1d09df964a5206ce321e3","category":"BBQ Joint","checkinsCount":2151,"usersCount":1460,"tipCount":35,"visitsCount":2188,"url":"http://voodoobbqandgrill.com","tier":1,"message":"Cheap","currency":"$","rating":7.7},{"name":"Hard Rock Cafe New Orleans","phone":"5045295617","twitter":"hardrock","address":"125 Bourbon St","lat":29.95442328698448,"lng":-90.06953358650208,"neighborhood":"Central Business District","city_fetched":"New Orleans","state":"LA","country":"United States","canonicalUrl":"https://foursquare.com/v/hard-rock-cafe-new-orleans/41e85d00f964a520e41e1fe3","category":"Theme Restaurant","checkinsCount":9139,"usersCount":6256,"tipCount":67,"visitsCount":9336,"url":"http://www.facebook.com/hardrock","tier":2,"message":"Moderate","currency":"$","rating":7.7},{"name":"Vinnie's Bar And Grill","address":"Lapalco Blvd","lat":29.881922137492488,"lng":-90.02363292942869,"city_fetched":"New Orleans","state":"LA","country":"United States","canonicalUrl":"https://foursquare.com/v/vinnies-bar-and-grill/4bde21dc0ee3a593aa1f30b0","category":"Sports Bar","checkinsCount":331,"usersCount":156,"tipCount":6,"visitsCount":359,"tier":"","message":"","currency":"","rating":7.7},{"name":"Voodoo Bar","address":"718 N Rampart St","lat":29.960889,"lng":-90.067962,"neighborhood":"French Quarter","city_fetched":"New Orleans","state":"LA","country":"United States","canonicalUrl":"https://foursquare.com/v/voodoo-bar/4c548e13fd2ea593fd62472a","category":"Bar","checkinsCount":1257,"usersCount":1032,"tipCount":14,"visitsCount":1591,"url":"http://voodoobbq.com","tier":1,"message":"Cheap","currency":"$","rating":7.7},{"name":"The Dry Dock Cafe & Bar","phone":"5043618240","address":"133 Delaronde St","lat":29.95213166015691,"lng":-90.05475581897852,"neighborhood":"Algiers Point","city_fetched":"New Orleans","state":"LA","country":"United States","canonicalUrl":"https://foursquare.com/v/the-dry-dock-cafe--bar/4aef18fbf964a52099d521e3","category":"Bar","checkinsCount":1172,"usersCount":933,"tipCount":27,"visitsCount":1265,"url":"http://thedrydockcafe.com","tier":"","message":"","currency":"","rating":7.7},{"name":"New Orleans Athletic Club","phone":"5045252375","twitter":"thenoac","address":"222 N Rampart St","lat":29.956900538480408,"lng":-90.07133492017658,"neighborhood":"French Quarter","city_fetched":"New Orleans","state":"LA","country":"United States","canonicalUrl":"https://foursquare.com/v/new-orleans-athletic-club/4ae1d0daf964a520a98721e3","category":"Gym","checkinsCount":7001,"usersCount":1292,"tipCount":11,"visitsCount":8598,"url":"http://www.neworleansathleticclub.com","tier":"","message":"","currency":"","rating":7.7},{"name":"Swirl Sensational Wines","address":"3143 Ponce de Leon St","lat":29.980488522227652,"lng":-90.08438229560852,"neighborhood":"Fairgrounds","city_fetched":"New Orleans","state":"LA","country":"United States","canonicalUrl":"https://foursquare.com/v/swirl-sensational-wines/4ad4c052f964a5202ff520e3","category":"Wine Bar","checkinsCount":658,"usersCount":255,"tipCount":4,"visitsCount":677,"tier":"","message":"","currency":"","rating":7.7},{"name":"Yuki Izakaya","phone":"5049431122","address":"525 Frenchmen St","lat":29.963237043292025,"lng":-90.0577609622036,"neighborhood":"Marigny","city_fetched":"New Orleans","state":"LA","country":"United States","canonicalUrl":"https://foursquare.com/v/yuki-izakaya/4af230acf964a52073e621e3","category":"Sake Bar","checkinsCount":2173,"usersCount":1562,"tipCount":29,"visitsCount":2178,"url":"http://www.myspace.com/yukiizakaya","tier":"","message":"","currency":"","rating":7.7},{"name":"Tropical Isle","phone":"5045294109","address":"721 Bourbon St","lat":29.95905244221006,"lng":-90.06526350975037,"neighborhood":"French Quarter","city_fetched":"New Orleans","state":"LA","country":"United States","canonicalUrl":"https://foursquare.com/v/tropical-isle/41326e00f964a520791a1fe3","category":"Bar","checkinsCount":8719,"usersCount":7229,"tipCount":77,"visitsCount":8952,"url":"http://www.tropicalisle.com","tier":2,"message":"Moderate","currency":"$","rating":7.7},{"name":"Fulton Alley","phone":"5042085569","twitter":"fultonalley","address":"600 Fulton St","lat":29.946858329914885,"lng":-90.06527256956105,"neighborhood":"Central Business District","city_fetched":"New Orleans","state":"LA","country":"United States","canonicalUrl":"https://foursquare.com/v/fulton-alley/527838f111d2e22d39408a79","category":"Bowling Alley","checkinsCount":1468,"usersCount":1268,"tipCount":15,"visitsCount":1877,"url":"http://fultonalley.com","tier":"","message":"","currency":"","rating":7.6},{"name":"GB's Patio Bar & Grill","phone":"5048610067","address":"8117 Maple St","lat":29.94480828238755,"lng":-90.13313507264934,"neighborhood":"Uptown - Carrollton","city_fetched":"New Orleans","state":"LA","country":"United States","canonicalUrl":"https://foursquare.com/v/gbs-patio-bar--grill/4ad4c04bf964a520c9f220e3","category":"Bar","checkinsCount":1001,"usersCount":389,"tipCount":9,"visitsCount":1007,"tier":1,"message":"Cheap","currency":"$","rating":7.6},{"name":"Mat & Naddie's","phone":"5048619600","address":"937 Leonidas St","lat":29.94909,"lng":-90.13539,"neighborhood":"Uptown - Carrollton","city_fetched":"New Orleans","state":"LA","country":"United States","canonicalUrl":"https://foursquare.com/v/mat--naddies/4ad4c04cf964a520edf220e3","category":"Cajun / Creole Restaurant","checkinsCount":361,"usersCount":364,"tipCount":11,"visitsCount":429,"url":"http://www.matandnaddies.com/index.html","tier":3,"message":"Expensive","currency":"$","rating":7.6},{"name":"Marigny Brasserie","phone":"5049454472","twitter":"marignybrasseri","address":"640 Frenchmen St","lat":29.964450920173693,"lng":-90.05793881569096,"neighborhood":"Marigny","city_fetched":"New Orleans","state":"LA","country":"United States","canonicalUrl":"https://foursquare.com/marignybrasseri","category":"Southern / Soul Food Restaurant","checkinsCount":2990,"usersCount":2696,"tipCount":62,"visitsCount":3244,"url":"http://www.marignybrasserie.com","tier":3,"message":"Expensive","currency":"$","rating":7.6},{"name":"Homedale Inn","phone":"5044885519","address":"618 Homedale St","lat":29.99175985441033,"lng":-90.11019954906757,"city_fetched":"New Orleans","state":"LA","country":"United States","canonicalUrl":"https://foursquare.com/v/homedale-inn/4b933ff3f964a520413d34e3","category":"Bar","checkinsCount":415,"usersCount":171,"tipCount":1,"visitsCount":483,"tier":"","message":"","currency":"","rating":7.6},{"name":"Little Tropical Isle","address":"435 Bourbon St","lat":29.956986,"lng":-90.067163,"neighborhood":"French Quarter","city_fetched":"New Orleans","state":"LA","country":"United States","canonicalUrl":"https://foursquare.com/v/little-tropical-isle/4ae20ce5f964a5202e8a21e3","category":"Bar","checkinsCount":2833,"usersCount":2416,"tipCount":26,"visitsCount":2845,"tier":"","message":"","currency":"","rating":7.6},{"name":"Razzoo Bar & Patio","phone":"5045225100","address":"511 Bourbon St","lat":29.95738857522252,"lng":-90.06697850673427,"neighborhood":"French Quarter","city_fetched":"New Orleans","state":"LA","country":"United States","canonicalUrl":"https://foursquare.com/v/razzoo-bar--patio/41326e00f964a520131a1fe3","category":"Nightclub","checkinsCount":11143,"usersCount":8131,"tipCount":61,"visitsCount":11641,"url":"http://razzoo.com","tier":2,"message":"Moderate","currency":"$","rating":7.6},{"name":"Kyoto","phone":"5048913644","address":"4920 Prytania St","lat":29.924551689221392,"lng":-90.1082968711853,"neighborhood":"Uptown","city_fetched":"New Orleans","state":"LA","country":"United States","canonicalUrl":"https://foursquare.com/v/kyoto/4ad4c04df964a52067f320e3","category":"Sushi Restaurant","checkinsCount":3233,"usersCount":1086,"tipCount":35,"visitsCount":3264,"url":"http://kyotonola.com","tier":2,"message":"Moderate","currency":"$","rating":7.6},{"name":"Desi Vega's Steakhouse","phone":"5045237600","twitter":"desisteaks","address":"628 Saint Charles Ave","lat":29.947798337404905,"lng":-90.07125280519607,"neighborhood":"Central Business District","city_fetched":"New Orleans","state":"LA","country":"United States","canonicalUrl":"https://foursquare.com/v/desi-vegas-steakhouse/5101a606e4b01fa7d5a6915c","category":"Steakhouse","checkinsCount":407,"usersCount":267,"tipCount":8,"visitsCount":418,"url":"http://www.desivegasteaks.com","tier":4,"message":"Very Expensive","currency":"$","rating":7.6},{"name":"Rock-n-Sake","phone":"5045817253","address":"823 Fulton St","lat":29.94405165060238,"lng":-90.06532730433595,"neighborhood":"Lower Garden District","city_fetched":"New Orleans","state":"LA","country":"United States","canonicalUrl":"https://foursquare.com/v/rocknsake/4ad4c04cf964a520f8f220e3","category":"Sushi Restaurant","checkinsCount":3012,"usersCount":1613,"tipCount":24,"visitsCount":3082,"url":"http://www.rocknsake.com","tier":"","message":"","currency":"","rating":7.6},{"name":"Verret's Lounge","phone":"5048959640","twitter":"verretslounge","address":"1738 Washington Ave","lat":29.932455100850106,"lng":-90.08724689483643,"neighborhood":"Central City - Garden","city_fetched":"New Orleans","state":"LA","country":"United States","canonicalUrl":"https://foursquare.com/v/verrets-lounge/5272af7611d25bd755ee4f72","category":"Lounge","checkinsCount":145,"usersCount":234,"tipCount":0,"visitsCount":363,"tier":1,"message":"Cheap","currency":"$","rating":7.6},{"name":"Apple Barrel Bar","phone":"5049499399","address":"609 Frenchmen St","lat":29.963880631092238,"lng":-90.0577427208669,"neighborhood":"Marigny","city_fetched":"New Orleans","state":"LA","country":"United States","canonicalUrl":"https://foursquare.com/v/apple-barrel-bar/41326e00f964a52038181fe3","category":"Dive Bar","checkinsCount":3404,"usersCount":2544,"tipCount":35,"visitsCount":3415,"tier":2,"message":"Moderate","currency":"$","rating":7.6},{"name":"Tom Foolery's Spirits & Cookery","phone":"5045225851","address":"91 French Market Pl","lat":29.961017776688877,"lng":-90.05835837077389,"neighborhood":"French Quarter","city_fetched":"New Orleans","state":"LA","country":"United States","canonicalUrl":"https://foursquare.com/v/tom-foolerys-spirits--cookery/521a3f1411d22403e66fa3d2","category":"Bar","checkinsCount":164,"usersCount":91,"tipCount":1,"visitsCount":166,"tier":"","message":"","currency":"","rating":7.6},{"name":"Club Carribean","phone":"5049499246","address":"2441 Bayou Rd","lat":29.975541,"lng":-90.0757509469986,"neighborhood":"Seventh Ward","city_fetched":"New Orleans","state":"LA","country":"United States","canonicalUrl":"https://foursquare.com/v/club-carribean/4ccd1c05ee23a143cdec23a8","category":"Bar","checkinsCount":172,"usersCount":108,"tipCount":4,"visitsCount":176,"tier":"","message":"","currency":"","rating":7.6},{"name":"Check Point Charlie","phone":"5049497012","address":"501 Esplanade Ave","lat":29.962107541389635,"lng":-90.05819419649939,"neighborhood":"Marigny","city_fetched":"New Orleans","state":"LA","country":"United States","canonicalUrl":"https://foursquare.com/v/check-point-charlie/41326e00f964a52095181fe3","category":"Dive Bar","checkinsCount":2212,"usersCount":1506,"tipCount":15,"visitsCount":2259,"tier":"","message":"","currency":"","rating":7.6},{"name":"Crescent City Steak House","phone":"5048213271","address":"1001 N Broad St","lat":29.973303094621304,"lng":-90.08086144930427,"neighborhood":"Bayou St. John","city_fetched":"New Orleans","state":"LA","country":"United States","canonicalUrl":"https://foursquare.com/v/crescent-city-steak-house/4ad4c04bf964a520e7f220e3","category":"Steakhouse","checkinsCount":639,"usersCount":582,"tipCount":13,"visitsCount":946,"url":"http://www.crescentcitysteaks.com","tier":1,"message":"Cheap","currency":"$","rating":7.6},{"name":"Three Legged Dog","phone":"5044128335","address":"400 Burgundy St","lat":29.957489023037116,"lng":-90.0694371966002,"neighborhood":"French Quarter","city_fetched":"New Orleans","state":"LA","country":"United States","canonicalUrl":"https://foursquare.com/v/three-legged-dog/41326e00f964a520701a1fe3","category":"Bar","checkinsCount":1041,"usersCount":492,"tipCount":19,"visitsCount":1045,"tier":"","message":"","currency":"","rating":7.5},{"name":"Rouler","address":"601 Baronne St","lat":29.948796157484527,"lng":-90.07352015555009,"neighborhood":"Central Business District","city_fetched":"New Orleans","state":"LA","country":"United States","canonicalUrl":"https://foursquare.com/v/rouler/574069a8cd10ca9f9bcda56e","category":"Café","checkinsCount":52,"usersCount":45,"tipCount":3,"visitsCount":77,"tier":"","message":"","currency":"","rating":7.5},{"name":"St. Charles Tavern","phone":"5045239823","address":"1433 Saint Charles Ave","lat":29.93928256,"lng":-90.075544,"neighborhood":"Central City - Garden","city_fetched":"New Orleans","state":"LA","country":"United States","canonicalUrl":"https://foursquare.com/v/st-charles-tavern/4ae805e3f964a52004ae21e3","category":"Pub","checkinsCount":2057,"usersCount":1322,"tipCount":40,"visitsCount":2092,"url":"http://www.stcharlestavern.com","tier":2,"message":"Moderate","currency":"$","rating":7.5},{"name":"Second Line Brewing","address":"433 N Bernadotte St","lat":29.982539,"lng":-90.105233,"neighborhood":"Mid-City","city_fetched":"New Orleans","state":"LA","country":"United States","canonicalUrl":"https://foursquare.com/v/second-line-brewing/55d7bd2d498ed91673863db9","category":"Brewery","checkinsCount":310,"usersCount":284,"tipCount":8,"visitsCount":523,"tier":"","message":"","currency":"","rating":7.5},{"name":"Industry Bar & Kitchen","phone":"5045816969","address":"242 Decatur St","lat":29.953514,"lng":-90.065611,"neighborhood":"French Quarter","city_fetched":"New Orleans","state":"LA","country":"United States","canonicalUrl":"https://foursquare.com/v/industry-bar--kitchen/4c8e684188ba952153bdcf62","category":"Sandwich Place","checkinsCount":1775,"usersCount":791,"tipCount":13,"visitsCount":1786,"tier":1,"message":"Cheap","currency":"$","rating":7.5},{"name":"Big Mama's Lounge @ HOB","phone":"5043104999","twitter":"bigmamaslounge","address":"225 Decatur St","lat":29.953346209334573,"lng":-90.06588377897765,"neighborhood":"French Quarter","city_fetched":"New Orleans","state":"LA","country":"United States","canonicalUrl":"https://foursquare.com/v/big-mamas-lounge--hob/516b6eb3e4b02d884f57cfb2","category":"Music Venue","checkinsCount":254,"usersCount":132,"tipCount":1,"visitsCount":256,"url":"http://houseofblues.com","tier":"","message":"","currency":"","rating":7.5},{"name":"Gordon Biersch Brewery Restaurant","phone":"5055522739","twitter":"gordon_biersch","address":"200 Poydras St","lat":29.948012,"lng":-90.065402,"neighborhood":"Central Business District","city_fetched":"New Orleans","state":"LA","country":"United States","canonicalUrl":"https://foursquare.com/v/gordon-biersch-brewery-restaurant/4ad4c04cf964a520f6f220e3","category":"Beer Garden","checkinsCount":7888,"usersCount":5628,"tipCount":90,"visitsCount":8298,"url":"http://gordonbiersch.com","tier":2,"message":"Moderate","currency":"$","rating":7.5},{"name":"TGI Fridays","phone":"5043682100","twitter":"tgifridays","address":"1201 Manhattan Blvd","lat":29.89722535,"lng":-90.06145501,"city_fetched":"New Orleans","state":"LA","country":"United States","canonicalUrl":"https://foursquare.com/v/tgi-fridays/509d636c5d2463e871547fa1","category":"American Restaurant","checkinsCount":1612,"usersCount":1063,"tipCount":18,"visitsCount":2003,"url":"http://tgifridays.com","tier":2,"message":"Moderate","currency":"$","rating":7.5},{"name":"Backspace Bar & Kitchen","phone":"5043222245","twitter":"backspacenola","address":"139 Chartres St","lat":29.953554333883424,"lng":-90.06748026738894,"neighborhood":"Central Business District","city_fetched":"New Orleans","state":"LA","country":"United States","canonicalUrl":"https://foursquare.com/backspacenola","category":"Bar","checkinsCount":240,"usersCount":167,"tipCount":3,"visitsCount":240,"url":"http://www.backspacenola.com","tier":"","message":"","currency":"","rating":7.5},{"name":"Other Bar","address":"5039 Freret St","lat":29.934970294739646,"lng":-90.10912185587064,"neighborhood":"Freret","city_fetched":"New Orleans","state":"LA","country":"United States","canonicalUrl":"https://foursquare.com/v/other-bar/50ef8c0ce4b0edbd4873bd8f","category":"Bar","checkinsCount":606,"usersCount":326,"tipCount":8,"visitsCount":617,"tier":1,"message":"Cheap","currency":"$","rating":7.5},{"name":"Voodoo Two","phone":"5045869220","address":"346 Baronne St","lat":29.951112137680596,"lng":-90.0728175819735,"neighborhood":"Central Business District","city_fetched":"New Orleans","state":"LA","country":"United States","canonicalUrl":"https://foursquare.com/v/voodoo-two/41326e00f964a520871a1fe3","category":"Bar","checkinsCount":388,"usersCount":211,"tipCount":6,"visitsCount":393,"url":"http://voodootwo.com","tier":"","message":"","currency":"","rating":7.5},{"name":"Bellocq","phone":"5049620900","address":"936 St. Charles","lat":29.94387295474687,"lng":-90.07236593431776,"neighborhood":"Central Business District","city_fetched":"New Orleans","state":"LA","country":"United States","canonicalUrl":"https://foursquare.com/v/bellocq/4ef3c41029c24e3535ebf575","category":"Cocktail Bar","checkinsCount":2046,"usersCount":1244,"tipCount":23,"visitsCount":2115,"url":"http:/bellocqnola.com","tier":"","message":"","currency":"","rating":7.4},{"name":"45 Tchoup","phone":"5048919066","address":"4529 Tchoupitoulas St","lat":29.917060019066884,"lng":-90.10320421379475,"neighborhood":"Uptown - Carrollton","city_fetched":"New Orleans","state":"LA","country":"United States","canonicalUrl":"https://foursquare.com/v/45-tchoup/4af5522bf964a520ccf821e3","category":"Bar","checkinsCount":2725,"usersCount":787,"tipCount":12,"visitsCount":2841,"url":"http://45tchoup.blogspot.com","tier":1,"message":"Cheap","currency":"$","rating":7.4},{"name":"Igor's Checkpoint Charlie","phone":"5042814847","address":"501 Esplanade Ave","lat":29.962184,"lng":-90.058047,"neighborhood":"Marigny","city_fetched":"New Orleans","state":"LA","country":"United States","canonicalUrl":"https://foursquare.com/v/igors-checkpoint-charlie/4ad4c04df964a5207bf320e3","category":"Dive Bar","checkinsCount":678,"usersCount":395,"tipCount":6,"visitsCount":682,"tier":"","message":"","currency":"","rating":7.3},{"name":"701 Bar & Restaurant","phone":"5045238995","twitter":"lucysneworleans","address":"701 Tchoupitoulas St","lat":29.946439264153742,"lng":-90.06740728361343,"neighborhood":"Central Business District","city_fetched":"New Orleans","state":"LA","country":"United States","canonicalUrl":"https://foursquare.com/v/701-bar--restaurant/4a693f0bf964a520d7cb1fe3","category":"Bar","checkinsCount":11080,"usersCount":6741,"tipCount":118,"visitsCount":12199,"url":"http://www.lucysretiredsurfers.com/new-orleans","tier":1,"message":"Cheap","currency":"$","rating":7.3}]