[{"name":"Gramercy Tavern","phone":"2124770777","twitter":"gramercytavern","address":"42 E 20th St","lat":40.73857555787898,"lng":-73.9883279800415,"neighborhood":"Flatiron District","city_fetched":"New York","state":"NY","country":"United States","canonicalUrl":"https://foursquare.com/v/gramercy-tavern/3fd66200f964a520aee91ee3","category":"American Restaurant","checkinsCount":19130,"usersCount":15173,"tipCount":338,"visitsCount":21264,"url":"http://www.gramercytavern.com","tier":4,"message":"Very Expensive","currency":"$","rating":9.6},{"name":"New York Vintners","phone":"2128123999","twitter":"nyvintners","address":"21 Warren St","lat":40.71410723603152,"lng":-74.00778583536326,"neighborhood":"Tribeca","city_fetched":"New York","state":"NY","country":"United States","canonicalUrl":"https://foursquare.com/v/new-york-vintners/4a760cc5f964a5200ee21fe3","category":"Wine Shop","checkinsCount":4021,"usersCount":2900,"tipCount":32,"visitsCount":4448,"url":"http://www.newyorkvintners.com","tier":"","message":"","currency":"","rating":9.5},{"name":"Good Beer NYC","phone":"2126774836","twitter":"goodbeernyc","address":"422 E 9th St","lat":40.727852,"lng":-73.983864,"neighborhood":"East Village","city_fetched":"New York","state":"NY","country":"United States","canonicalUrl":"https://foursquare.com/v/good-beer-nyc/4cb34b64aef16dcb6287c754","category":"Beer Store","checkinsCount":9537,"usersCount":4309,"tipCount":88,"visitsCount":10366,"url":"http://www.goodbeernyc.com","tier":"","message":"","currency":"","rating":9.5},{"name":"Maison Premiere","phone":"3473350446","twitter":"maisonpremiere","address":"298 Bedford Ave","lat":40.71422835987285,"lng":-73.96155168062676,"neighborhood":"Williamsburg","city_fetched":"New York","state":"NY","country":"United States","canonicalUrl":"https://foursquare.com/v/maison-premiere/4d34a091c6cba35dec2f357a","category":"Seafood Restaurant","checkinsCount":18581,"usersCount":10898,"tipCount":372,"visitsCount":18993,"url":"http://www.maisonpremiere.com","tier":4,"message":"Very Expensive","currency":"$","rating":9.5},{"name":"Upstate Craft Beer and Oyster Bar","phone":"9174083395","twitter":"upstate95first","address":"95 1st Ave","lat":40.72633548047841,"lng":-73.98613361309032,"neighborhood":"East Village","city_fetched":"New York","state":"NY","country":"United States","canonicalUrl":"https://foursquare.com/v/upstate-craft-beer-and-oyster-bar/4e41f0822271a90466a0e967","category":"Seafood Restaurant","checkinsCount":8232,"usersCount":5449,"tipCount":193,"visitsCount":8604,"url":"http://upstatenyc.com","tier":3,"message":"Expensive","currency":"$","rating":9.5},{"name":"Le Bernardin","phone":"2125541515","twitter":"lebernardinny","address":"155 W 51st St","lat":40.76134706746836,"lng":-73.98186944981789,"neighborhood":"Theater District","city_fetched":"New York","state":"NY","country":"United States","canonicalUrl":"https://foursquare.com/v/le-bernardin/3fd66200f964a52066e31ee3","category":"French Restaurant","checkinsCount":7878,"usersCount":6620,"tipCount":239,"visitsCount":7920,"url":"http://www.le-bernardin.com","tier":4,"message":"Very Expensive","currency":"$","rating":9.5},{"name":"The Dead Rabbit","phone":"6464227906","twitter":"deadrabbitnyc","address":"30 Water St","lat":40.70299656164107,"lng":-74.01095914643912,"neighborhood":"Financial District","city_fetched":"New York","state":"NY","country":"United States","canonicalUrl":"https://foursquare.com/v/the-dead-rabbit/50bcb93ae4b0efcb4c84d434","category":"Cocktail Bar","checkinsCount":17399,"usersCount":11819,"tipCount":329,"visitsCount":19723,"url":"http://www.deadrabbitnyc.com","tier":3,"message":"Expensive","currency":"$","rating":9.4},{"name":"Top of The Standard","phone":"2126454646","twitter":"standardculture","address":"848 Washington St","lat":40.74096795529766,"lng":-74.00825638391181,"neighborhood":"Meatpacking District","city_fetched":"New York","state":"NY","country":"United States","canonicalUrl":"https://foursquare.com/v/top-of-the-standard/4ad15b84f964a5202dde20e3","category":"Lounge","checkinsCount":29883,"usersCount":20545,"tipCount":283,"visitsCount":30100,"url":"http://standardhotels.com","tier":3,"message":"Expensive","currency":"$","rating":9.4},{"name":"Threes Brewing","phone":"7185222110","twitter":"threesbrewing","address":"333 Douglass St","lat":40.679935578556695,"lng":-73.98211049521852,"neighborhood":"Boerum Hill","city_fetched":"New York","state":"NY","country":"United States","canonicalUrl":"https://foursquare.com/v/threes-brewing/5414d0a6498ea3d31a3c64cf","category":"Brewery","checkinsCount":8796,"usersCount":6891,"tipCount":114,"visitsCount":12697,"url":"http://www.threesbrewing.com","tier":2,"message":"Moderate","currency":"$","rating":9.4},{"name":"Delta SKY360° Suite","twitter":"delta","address":"Yankee Stadium","lat":40.82935033173812,"lng":-73.92716156708124,"neighborhood":"Concourse Village","city_fetched":"New York","state":"NY","country":"United States","canonicalUrl":"https://foursquare.com/v/delta-sky360-suite/4c9ff17103133704920477d5","category":"Lounge","checkinsCount":3552,"usersCount":2440,"tipCount":35,"visitsCount":3556,"url":"http://www.delta.com","tier":"","message":"","currency":"","rating":9.4},{"name":"Syndicated","phone":"7183863399","address":"40 Bogart","lat":40.704862,"lng":-73.932966,"neighborhood":"East Williamsburg","city_fetched":"New York","state":"NY","country":"United States","canonicalUrl":"https://foursquare.com/v/syndicated/56959704498e7caa31133d41","category":"Indie Movie Theater","checkinsCount":1246,"usersCount":1175,"tipCount":14,"visitsCount":1667,"url":"http://syndicatedbk.com","tier":"","message":"","currency":"","rating":9.4},{"name":"Rosemary’s","phone":"2126471818","twitter":"rosemarysnyc","address":"18 Greenwich Ave","lat":40.73479741103519,"lng":-73.99985879659653,"neighborhood":"West Village","city_fetched":"New York","state":"NY","country":"United States","canonicalUrl":"https://foursquare.com/v/rosemarys/4fccfed41081ba9a64ce9613","category":"Italian Restaurant","checkinsCount":18921,"usersCount":13591,"tipCount":299,"visitsCount":21339,"url":"http://rosemarysnyc.com","tier":3,"message":"Expensive","currency":"$","rating":9.4},{"name":"Sakagura","phone":"2129537253","address":"211 E 43rd St Lowr Level","lat":40.75128914628804,"lng":-73.97337527608217,"neighborhood":"Turtle Bay","city_fetched":"New York","state":"NY","country":"United States","canonicalUrl":"https://foursquare.com/v/sakagura/407f2200f964a5207df21ee3","category":"Sake Bar","checkinsCount":7080,"usersCount":5164,"tipCount":193,"visitsCount":7277,"url":"http://www.sakagura.com","tier":3,"message":"Expensive","currency":"$","rating":9.4},{"name":"Dear Irving","address":"55 Irving Pl","lat":40.73611443223027,"lng":-73.98744211258024,"neighborhood":"Union Square","city_fetched":"New York","state":"NY","country":"United States","canonicalUrl":"https://foursquare.com/v/dear-irving/53866567498ea4ed73cabb0c","category":"Cocktail Bar","checkinsCount":6491,"usersCount":5209,"tipCount":171,"visitsCount":7594,"url":"http://www.dearirving.com","tier":3,"message":"Expensive","currency":"$","rating":9.4},{"name":"Clover Club","phone":"7188557939","twitter":"cloverclubny","address":"210 Smith St","lat":40.68451348653312,"lng":-73.99199883503896,"neighborhood":"Boerum Hill","city_fetched":"New York","state":"NY","country":"United States","canonicalUrl":"https://foursquare.com/v/clover-club/48a410c0f964a52092511fe3","category":"Cocktail Bar","checkinsCount":21018,"usersCount":10913,"tipCount":329,"visitsCount":21770,"url":"http://cloverclubny.com","tier":2,"message":"Moderate","currency":"$","rating":9.4},{"name":"Black Mountain Wine House","phone":"7185224340","address":"415 Union St","lat":40.68087,"lng":-73.991653,"neighborhood":"Carroll Gardens","city_fetched":"New York","state":"NY","country":"United States","canonicalUrl":"https://foursquare.com/v/black-mountain-wine-house/46ad9342f964a52079491fe3","category":"Wine Bar","checkinsCount":4480,"usersCount":3223,"tipCount":75,"visitsCount":5475,"url":"http://www.blackmountainwinehouse.com","tier":2,"message":"Moderate","currency":"$","rating":9.4},{"name":"Alphabet City Beer Co.","phone":"6464227103","twitter":"abcbeerco","address":"96 Avenue C","lat":40.723704105405005,"lng":-73.97894269487551,"neighborhood":"Alphabet City","city_fetched":"New York","state":"NY","country":"United States","canonicalUrl":"https://foursquare.com/abcbeerco","category":"Beer Bar","checkinsCount":9947,"usersCount":4875,"tipCount":139,"visitsCount":10232,"url":"http://abcbeer.co","tier":2,"message":"Moderate","currency":"$","rating":9.4},{"name":"Sake Bar Decibel","phone":"2129792733","address":"240 E 9th St","lat":40.72941823593811,"lng":-73.98776923605922,"neighborhood":"East Village","city_fetched":"New York","state":"NY","country":"United States","canonicalUrl":"https://foursquare.com/v/sake-bar-decibel/3fd66200f964a5203de41ee3","category":"Sake Bar","checkinsCount":11967,"usersCount":8549,"tipCount":214,"visitsCount":12588,"url":"http://www.sakebardecibel.com","tier":2,"message":"Moderate","currency":"$","rating":9.4},{"name":"St. Mazie","phone":"7183844807","twitter":"stmazie","address":"345 Grand St","lat":40.7125021515757,"lng":-73.95584050956272,"neighborhood":"Williamsburg","city_fetched":"New York","state":"NY","country":"United States","canonicalUrl":"https://foursquare.com/stmazie","category":"Cocktail Bar","checkinsCount":5912,"usersCount":4407,"tipCount":110,"visitsCount":6828,"url":"http://stmazie.com","tier":2,"message":"Moderate","currency":"$","rating":9.4},{"name":"Casellula","phone":"2122478137","twitter":"casellula","address":"401 W 52nd St","lat":40.76482311821841,"lng":-73.98830296264396,"neighborhood":"Hell's Kitchen","city_fetched":"New York","state":"NY","country":"United States","canonicalUrl":"https://foursquare.com/v/casellula/4aeca57af964a520dac921e3","category":"Wine Bar","checkinsCount":7266,"usersCount":5241,"tipCount":143,"visitsCount":7881,"url":"http://www.casellula.com","tier":3,"message":"Expensive","currency":"$","rating":9.4},{"name":"Sakagura","phone":"2129537253","address":"211 E 43rd St Lowr Level","lat":40.75128914628804,"lng":-73.97337527608217,"neighborhood":"Turtle Bay","city_fetched":"New York","state":"NY","country":"United States","canonicalUrl":"https://foursquare.com/v/sakagura/407f2200f964a5207df21ee3","category":"Sake Bar","checkinsCount":7080,"usersCount":5164,"tipCount":193,"visitsCount":7277,"url":"http://www.sakagura.com","tier":3,"message":"Expensive","currency":"$","rating":9.4},{"name":"La Compagnie des Vins Surnaturels","phone":"2123433660","twitter":"compagnienyc","address":"249 Centre St","lat":40.72050237532792,"lng":-73.99792126464878,"neighborhood":"SoHo","city_fetched":"New York","state":"NY","country":"United States","canonicalUrl":"https://foursquare.com/v/la-compagnie-des-vins-surnaturels/53506fd9498ebca706a7c170","category":"Wine Bar","checkinsCount":1631,"usersCount":1234,"tipCount":37,"visitsCount":1919,"url":"http://www.compagnienyc.com","tier":"","message":"","currency":"","rating":9.4},{"name":"Soho House","phone":"2126279800","twitter":"sohohouse","address":"2935 9th Ave","lat":40.74056311435524,"lng":-74.00590181350708,"neighborhood":"Meatpacking District","city_fetched":"New York","state":"NY","country":"United States","canonicalUrl":"https://foursquare.com/v/soho-house/40a16900f964a520f9f21ee3","category":"Hotel","checkinsCount":54212,"usersCount":20034,"tipCount":192,"visitsCount":57192,"url":"http://www.sohohouseny.com","tier":"","message":"","currency":"","rating":9.4},{"name":"Locanda Vini & Olii","phone":"7186229202","twitter":"locandaviniolii","address":"129 Gates Ave","lat":40.68486874759393,"lng":-73.96300792694092,"neighborhood":"Clinton Hill","city_fetched":"New York","state":"NY","country":"United States","canonicalUrl":"https://foursquare.com/v/locanda-vini--olii/3fd66200f964a52079f11ee3","category":"Italian Restaurant","checkinsCount":2831,"usersCount":2716,"tipCount":78,"visitsCount":4117,"url":"http://www.locandavinieolii.com","tier":2,"message":"Moderate","currency":"$","rating":9.4},{"name":"Videology","phone":"7187823468","twitter":"videology","address":"308 Bedford Ave","lat":40.71386,"lng":-73.961694,"neighborhood":"Williamsburg","city_fetched":"New York","state":"NY","country":"United States","canonicalUrl":"https://foursquare.com/v/videology/4a345617f964a520179c1fe3","category":"Video Store","checkinsCount":7327,"usersCount":3803,"tipCount":44,"visitsCount":7897,"url":"http://videologybarandcinema.com","tier":"","message":"","currency":"","rating":9.4},{"name":"Sweet Chick","phone":"3477254793","twitter":"sweetchickbk","address":"164 Bedford Ave","lat":40.718310474102104,"lng":-73.9572948217392,"neighborhood":"Williamsburg","city_fetched":"New York","state":"NY","country":"United States","canonicalUrl":"https://foursquare.com/v/sweet-chick/511aac3c011c9870a17a8f5d","category":"Southern / Soul Food Restaurant","checkinsCount":10648,"usersCount":8600,"tipCount":251,"visitsCount":12186,"url":"http://sweetchicknyc.com","tier":2,"message":"Moderate","currency":"$","rating":9.4},{"name":"Casa Mono","phone":"2122532773","twitter":"casamono","address":"52 Irving Pl","lat":40.735921325442995,"lng":-73.98720413446426,"neighborhood":"Gramercy Park","city_fetched":"New York","state":"NY","country":"United States","canonicalUrl":"https://foursquare.com/casamono","category":"Tapas Restaurant","checkinsCount":9772,"usersCount":7685,"tipCount":190,"visitsCount":9917,"url":"http://www.casamononyc.com","tier":4,"message":"Very Expensive","currency":"$","rating":9.4},{"name":"Astoria Bier & Cheese","phone":"7185459463","twitter":"astoriawbnc","address":"34-14 Broadway","lat":40.76059497277032,"lng":-73.92249423608105,"neighborhood":"Astoria","city_fetched":"New York","state":"NY","country":"United States","canonicalUrl":"https://foursquare.com/v/astoria-bier--cheese/50676bc4e4b08e8fd3d07f72","category":"Cheese Shop","checkinsCount":6744,"usersCount":2724,"tipCount":76,"visitsCount":7951,"url":"http://astoriabierandcheese.com","tier":"","message":"","currency":"","rating":9.4},{"name":"Locanda Verde","phone":"2129253797","twitter":"locandaverde","address":"377 Greenwich St","lat":40.72004087043341,"lng":-74.01011561319163,"neighborhood":"Tribeca","city_fetched":"New York","state":"NY","country":"United States","canonicalUrl":"https://foursquare.com/v/locanda-verde/4a149749f964a52055781fe3","category":"Italian Restaurant","checkinsCount":25140,"usersCount":17419,"tipCount":455,"visitsCount":27412,"url":"http://www.locandaverdenyc.com","tier":3,"message":"Expensive","currency":"$","rating":9.4},{"name":"UVA Wine Bar & Restaurant","phone":"6464613208","twitter":"uvanyc","address":"1486 2nd Ave","lat":40.7722435782595,"lng":-73.95575441021364,"neighborhood":"Upper East Side","city_fetched":"New York","state":"NY","country":"United States","canonicalUrl":"https://foursquare.com/v/uva-wine-bar--restaurant/42699000f964a52049211fe3","category":"Italian Restaurant","checkinsCount":14328,"usersCount":9488,"tipCount":186,"visitsCount":15153,"url":"http://www.uvanyc.com","tier":3,"message":"Expensive","currency":"$","rating":9.4},{"name":"Barbuto","phone":"2129249700","twitter":"barbutonyc","address":"775 Washington St","lat":40.7377138584985,"lng":-74.00801539421082,"neighborhood":"West Village","city_fetched":"New York","state":"NY","country":"United States","canonicalUrl":"https://foursquare.com/v/barbuto/42225f00f964a520b21f1fe3","category":"Italian Restaurant","checkinsCount":14143,"usersCount":10721,"tipCount":267,"visitsCount":16295,"url":"http://www.barbutonyc.com","tier":2,"message":"Moderate","currency":"$","rating":9.4},{"name":"Attaboy","address":"134 Eldridge St","lat":40.7189448736153,"lng":-73.99156841878008,"neighborhood":"Lower East Side","city_fetched":"New York","state":"NY","country":"United States","canonicalUrl":"https://foursquare.com/v/attaboy/511c1229e4b09afd49f4bc51","category":"Speakeasy","checkinsCount":6370,"usersCount":4980,"tipCount":176,"visitsCount":7695,"tier":3,"message":"Expensive","currency":"$","rating":9.4},{"name":"Apothéke","phone":"2124060400","twitter":"apothekenyc","address":"9 Doyers St","lat":40.71448179088089,"lng":-73.99800734512525,"neighborhood":"Chinatown","city_fetched":"New York","state":"NY","country":"United States","canonicalUrl":"https://foursquare.com/v/apoth%C3%A9ke/48c91543f964a520e4511fe3","category":"Cocktail Bar","checkinsCount":19678,"usersCount":13613,"tipCount":381,"visitsCount":19785,"url":"http://www.apothekenyc.com","tier":3,"message":"Expensive","currency":"$","rating":9.3},{"name":"Freemans","phone":"2124200012","twitter":"freemansalley","address":"1 Freeman Aly","lat":40.72181106286557,"lng":-73.99251222610472,"neighborhood":"Lower East Side","city_fetched":"New York","state":"NY","country":"United States","canonicalUrl":"https://foursquare.com/v/freemans/4169cd00f964a5208c1d1fe3","category":"American Restaurant","checkinsCount":28974,"usersCount":22785,"tipCount":491,"visitsCount":32127,"url":"http://www.freemansrestaurant.com","tier":2,"message":"Moderate","currency":"$","rating":9.3},{"name":"Cigar Inn","phone":"2127177403","twitter":"cigarinn","address":"334 E 73rd St","lat":40.76875190290388,"lng":-73.95623656607404,"neighborhood":"Upper East Side","city_fetched":"New York","state":"NY","country":"United States","canonicalUrl":"https://foursquare.com/v/cigar-inn/4bb63a4f2ea195218555ab2f","category":"Smoke Shop","checkinsCount":1992,"usersCount":562,"tipCount":29,"visitsCount":2326,"tier":"","message":"","currency":"","rating":9.3},{"name":"The NoMad Restaurant","phone":"2127961500","address":"1170 Broadway","lat":40.74507433709667,"lng":-73.98856121691024,"neighborhood":"NoMad","city_fetched":"New York","state":"NY","country":"United States","canonicalUrl":"https://foursquare.com/v/the-nomad-restaurant/4f6e6af3e4b0463c94b07375","category":"American Restaurant","checkinsCount":15132,"usersCount":10628,"tipCount":334,"visitsCount":15236,"url":"http://www.thenomadhotel.com/#/dining","tier":4,"message":"Very Expensive","currency":"$","rating":9.3},{"name":"The Edge Harlem","phone":"2129399688","twitter":"edgecafeharlem","address":"101 Edgecombe Ave","lat":40.819661,"lng":-73.946058,"neighborhood":"Central Harlem","city_fetched":"New York","state":"NY","country":"United States","canonicalUrl":"https://foursquare.com/v/the-edge-harlem/541c683e498ef421d4e16eb3","category":"American Restaurant","checkinsCount":751,"usersCount":768,"tipCount":32,"visitsCount":1380,"url":"http://www.edgecafeharlem.com","tier":2,"message":"Moderate","currency":"$","rating":9.3},{"name":"Le Barricou","phone":"7187827372","address":"533 Grand St","lat":40.711093,"lng":-73.95009,"neighborhood":"East Williamsburg","city_fetched":"New York","state":"NY","country":"United States","canonicalUrl":"https://foursquare.com/v/le-barricou/465c180df964a5202a471fe3","category":"French Restaurant","checkinsCount":13284,"usersCount":8573,"tipCount":228,"visitsCount":15509,"url":"http://www.lebarricouny.com","tier":2,"message":"Moderate","currency":"$","rating":9.3},{"name":"Estela","phone":"2122197693","twitter":"estelanyc","address":"47 E Houston St","lat":40.724705719621376,"lng":-73.99480819702147,"neighborhood":"NoLita","city_fetched":"New York","state":"NY","country":"United States","canonicalUrl":"https://foursquare.com/v/estela/51c34f3d5019f1cc0e1d1211","category":"American Restaurant","checkinsCount":4050,"usersCount":3130,"tipCount":184,"visitsCount":4138,"url":"http://estelanyc.com","tier":4,"message":"Very Expensive","currency":"$","rating":9.3},{"name":"La Esquina","phone":"6466137100","twitter":"laesquinany","address":"114 Kenmare St","lat":40.72144922191938,"lng":-73.99761378765106,"neighborhood":"SoHo","city_fetched":"New York","state":"NY","country":"United States","canonicalUrl":"https://foursquare.com/v/la-esquina/431e2d80f964a52079271fe3","category":"Mexican Restaurant","checkinsCount":41184,"usersCount":23968,"tipCount":622,"visitsCount":42136,"url":"http://esquinanyc.com","tier":3,"message":"Expensive","currency":"$","rating":9.3},{"name":"Macao Trading Co.","phone":"2124318642","twitter":"macaotradingco","address":"311 Church St","lat":40.719735997452034,"lng":-74.00425668435223,"neighborhood":"Tribeca","city_fetched":"New York","state":"NY","country":"United States","canonicalUrl":"https://foursquare.com/macaotradingco","category":"Asian Restaurant","checkinsCount":15286,"usersCount":10750,"tipCount":188,"visitsCount":15948,"url":"http://www.macaonyc.com","tier":3,"message":"Expensive","currency":"$","rating":9.3},{"name":"The Cannibal Beer & Butcher","phone":"2126865480","address":"113 E 29th St","lat":40.74370081269097,"lng":-73.98277580738068,"neighborhood":"Rose Hill","city_fetched":"New York","state":"NY","country":"United States","canonicalUrl":"https://foursquare.com/v/the-cannibal-beer--butcher/4e4e8ef61fc7e04d29e227f3","category":"New American Restaurant","checkinsCount":9984,"usersCount":6880,"tipCount":173,"visitsCount":11035,"url":"http://thecannibalnyc.com","tier":2,"message":"Moderate","currency":"$","rating":9.3},{"name":"Leyenda","phone":"3479873260","address":"221 Smith St","lat":40.68438627399585,"lng":-73.99205048492512,"neighborhood":"Boerum Hill","city_fetched":"New York","state":"NY","country":"United States","canonicalUrl":"https://foursquare.com/v/leyenda/55513f41498ed9b1b3c392e1","category":"Cocktail Bar","checkinsCount":1779,"usersCount":1280,"tipCount":33,"visitsCount":1984,"url":"http://leyendabk.com","tier":3,"message":"Expensive","currency":"$","rating":9.3},{"name":"The Library at The NoMad","phone":"2127961500","address":"1170 Broadway","lat":40.74509170295177,"lng":-73.9883947864229,"neighborhood":"NoMad","city_fetched":"New York","state":"NY","country":"United States","canonicalUrl":"https://foursquare.com/v/the-library-at-the-nomad/4f860f7de4b0f18937861f61","category":"Hotel Bar","checkinsCount":5878,"usersCount":4146,"tipCount":85,"visitsCount":5906,"url":"http://www.thenomadhotel.com/#/dining/librar","tier":3,"message":"Expensive","currency":"$","rating":9.3},{"name":"The NoMad Bar","phone":"2127961500","address":"10 W 28th St","lat":40.74514646892529,"lng":-73.98838330845294,"neighborhood":"NoMad","city_fetched":"New York","state":"NY","country":"United States","canonicalUrl":"https://foursquare.com/v/the-nomad-bar/53a10cef498e173a807996db","category":"Lounge","checkinsCount":8432,"usersCount":6364,"tipCount":163,"visitsCount":9369,"url":"http://www.thenomadhotel.com/#!/dining/the-nomad-bar","tier":3,"message":"Expensive","currency":"$","rating":9.3},{"name":"Top Hops","phone":"2122544677","twitter":"tophops","address":"94 Orchard St","lat":40.71841211980871,"lng":-73.9898943901062,"neighborhood":"Lower East Side","city_fetched":"New York","state":"NY","country":"United States","canonicalUrl":"https://foursquare.com/v/top-hops/4efcba2377161596a8040d45","category":"Bar","checkinsCount":10244,"usersCount":6011,"tipCount":133,"visitsCount":11220,"url":"http://tophops.com","tier":2,"message":"Moderate","currency":"$","rating":9.3},{"name":"Corkbuzz","phone":"6468736071","twitter":"corkbuzz","address":"13 E 13th St","lat":40.734995540767926,"lng":-73.99324990614738,"neighborhood":"Greenwich Village","city_fetched":"New York","state":"NY","country":"United States","canonicalUrl":"https://foursquare.com/v/corkbuzz/4d531ddd7e0f8eec112b8ae4","category":"Wine Bar","checkinsCount":9618,"usersCount":5996,"tipCount":115,"visitsCount":9727,"url":"http://www.corkbuzz.com","tier":2,"message":"Moderate","currency":"$","rating":9.3},{"name":"Noorman's Kil","phone":"3473842526","twitter":"noormanskil","address":"609 Grand St","lat":40.711369,"lng":-73.947794,"neighborhood":"East Williamsburg","city_fetched":"New York","state":"NY","country":"United States","canonicalUrl":"https://foursquare.com/v/noormans-kil/4e52d190091aa2eef14de455","category":"Whisky Bar","checkinsCount":10024,"usersCount":5457,"tipCount":102,"visitsCount":11022,"url":"http://noormanskil.com","tier":2,"message":"Moderate","currency":"$","rating":9.3},{"name":"Brouwerij Lane","phone":"3475296133","twitter":"brouwerijlane","address":"78 Greenpoint Ave","lat":40.72966537251703,"lng":-73.95798683166504,"neighborhood":"Greenpoint","city_fetched":"New York","state":"NY","country":"United States","canonicalUrl":"https://foursquare.com/v/brouwerij-lane/49ea427af964a5203e661fe3","category":"Pub","checkinsCount":7452,"usersCount":2566,"tipCount":60,"visitsCount":7824,"url":"http://brouwerijlane.com","tier":2,"message":"Moderate","currency":"$","rating":9.3},{"name":"Blaue Gans","phone":"2125718880","twitter":"blauegansnyc","address":"139 Duane St","lat":40.71632701972756,"lng":-74.007783,"neighborhood":"Tribeca","city_fetched":"New York","state":"NY","country":"United States","canonicalUrl":"https://foursquare.com/v/blaue-gans/45633154f964a520a53d1fe3","category":"German Restaurant","checkinsCount":5655,"usersCount":3759,"tipCount":85,"visitsCount":5969,"url":"http://www.blauegans.com","tier":3,"message":"Expensive","currency":"$","rating":9.3},{"name":"Brooklyn Barge","phone":"9143566809","address":"3 Milton St","lat":40.72927171037438,"lng":-73.96108675744277,"neighborhood":"Greenpoint","city_fetched":"New York","state":"NY","country":"United States","canonicalUrl":"https://foursquare.com/v/brooklyn-barge/5524b660498ea0b222fc4df8","category":"Bar","checkinsCount":1781,"usersCount":2119,"tipCount":22,"visitsCount":2722,"url":"http://www.thebrooklynbarge.com","tier":2,"message":"Moderate","currency":"$","rating":9.3},{"name":"As Is NYC","phone":"6468581153","twitter":"asisnyc","address":"734 10th Ave","lat":40.76469113315358,"lng":-73.99184962417858,"neighborhood":"Hell's Kitchen","city_fetched":"New York","state":"NY","country":"United States","canonicalUrl":"https://foursquare.com/v/as-is-nyc/563277f0498e325424c2e5e0","category":"Bar","checkinsCount":1256,"usersCount":922,"tipCount":18,"visitsCount":1630,"url":"http://asisnyc.com","tier":2,"message":"Moderate","currency":"$","rating":9.3},{"name":"Walter Foods","phone":"7183878783","address":"253 Grand St","lat":40.71341513867138,"lng":-73.95861862795327,"neighborhood":"Williamsburg","city_fetched":"New York","state":"NY","country":"United States","canonicalUrl":"https://foursquare.com/v/walter-foods/49c3df11f964a52081561fe3","category":"American Restaurant","checkinsCount":13777,"usersCount":7678,"tipCount":217,"visitsCount":15364,"url":"http://walterfoods.com","tier":2,"message":"Moderate","currency":"$","rating":9.3},{"name":"Corkbuzz","phone":"6468736071","twitter":"corkbuzz","address":"13 E 13th St","lat":40.734995540767926,"lng":-73.99324990614738,"neighborhood":"Greenwich Village","city_fetched":"New York","state":"NY","country":"United States","canonicalUrl":"https://foursquare.com/v/corkbuzz/4d531ddd7e0f8eec112b8ae4","category":"Wine Bar","checkinsCount":9618,"usersCount":5996,"tipCount":115,"visitsCount":9727,"url":"http://www.corkbuzz.com","tier":2,"message":"Moderate","currency":"$","rating":9.3},{"name":"Dell'anima","phone":"2123666633","twitter":"dellanimanyc","address":"38 8th Ave","lat":40.73806883330297,"lng":-74.00411322155213,"neighborhood":"West Village","city_fetched":"New York","state":"NY","country":"United States","canonicalUrl":"https://foursquare.com/v/dellanima/49b1f9def964a520de521fe3","category":"Italian Restaurant","checkinsCount":7396,"usersCount":4734,"tipCount":150,"visitsCount":7456,"url":"http://www.dellanima.com","tier":3,"message":"Expensive","currency":"$","rating":9.3},{"name":"Earl's Beer & Cheese","phone":"2122891581","twitter":"earlsnyc","address":"1259 Park Ave","lat":40.78738052568445,"lng":-73.95191434021758,"neighborhood":"East Harlem","city_fetched":"New York","state":"NY","country":"United States","canonicalUrl":"https://foursquare.com/v/earls-beer--cheese/4d1e8f8e5acaa35dfb7eb835","category":"American Restaurant","checkinsCount":7169,"usersCount":4590,"tipCount":138,"visitsCount":8138,"url":"http://www.earlsny.com","tier":2,"message":"Moderate","currency":"$","rating":9.3},{"name":"The Raines Law Room","phone":"2122420600","twitter":"raineslawroom","address":"48 W 17th St","lat":40.738984433423674,"lng":-73.99454687950539,"neighborhood":"Union Square","city_fetched":"New York","state":"NY","country":"United States","canonicalUrl":"https://foursquare.com/v/the-raines-law-room/49ad6634f964a520b2521fe3","category":"Speakeasy","checkinsCount":14343,"usersCount":10860,"tipCount":294,"visitsCount":14758,"url":"http://www.raineslawroom.com","tier":3,"message":"Expensive","currency":"$","rating":9.3},{"name":"Terroir","phone":"2126259463","twitter":"terroirny","address":"24 Harrison St","lat":40.718781,"lng":-74.01013895,"neighborhood":"Tribeca","city_fetched":"New York","state":"NY","country":"United States","canonicalUrl":"https://foursquare.com/v/terroir/4bc51cf40a30d13aafad599c","category":"Wine Bar","checkinsCount":8738,"usersCount":5352,"tipCount":119,"visitsCount":9306,"url":"http://www.wineisterroir.com","tier":2,"message":"Moderate","currency":"$","rating":9.3},{"name":"Greenwich Hotel","phone":"2129418900","twitter":"thegreenwichny","address":"377 Greenwich St","lat":40.71991433978972,"lng":-74.01009265985395,"neighborhood":"Tribeca","city_fetched":"New York","state":"NY","country":"United States","canonicalUrl":"https://foursquare.com/v/greenwich-hotel/4ab6c985f964a5200a7920e3","category":"Hotel","checkinsCount":3267,"usersCount":1539,"tipCount":36,"visitsCount":3334,"url":"http://www.thegreenwichhotel.com","tier":"","message":"","currency":"","rating":9.3},{"name":"Hotel Delmano","phone":"7183871945","address":"128 N 9th St.","lat":40.71975505,"lng":-73.957924,"neighborhood":"Williamsburg","city_fetched":"New York","state":"NY","country":"United States","canonicalUrl":"https://foursquare.com/v/hotel-delmano/47ba56ddf964a520c94d1fe3","category":"Cocktail Bar","checkinsCount":14931,"usersCount":8931,"tipCount":206,"visitsCount":15863,"url":"http://www.hoteldelmano.com","tier":3,"message":"Expensive","currency":"$","rating":9.3},{"name":"Manderley Bar at the McKittrick Hotel","twitter":"manderleybar","address":"530 W 27th St","lat":40.7507425248637,"lng":-74.00372300219179,"neighborhood":"Chelsea","city_fetched":"New York","state":"NY","country":"United States","canonicalUrl":"https://foursquare.com/v/manderley-bar-at-the-mckittrick-hotel/4d95141361a3a1cdc6e27b42","category":"Hotel Bar","checkinsCount":2937,"usersCount":1419,"tipCount":15,"visitsCount":2940,"url":"http://mckittrickhotel.com","tier":3,"message":"Expensive","currency":"$","rating":9.3},{"name":"The Wayland","phone":"2127777022","twitter":"thewaylandnyc","address":"700 E 9th St","lat":40.725238904993944,"lng":-73.97804711806346,"neighborhood":"Alphabet City","city_fetched":"New York","state":"NY","country":"United States","canonicalUrl":"https://foursquare.com/v/the-wayland/4effd1ae8b81b0190aea7919","category":"Cocktail Bar","checkinsCount":14464,"usersCount":9412,"tipCount":241,"visitsCount":15715,"url":"http://thewaylandnyc.com","tier":2,"message":"Moderate","currency":"$","rating":9.3},{"name":"Bed-Vyne Brew","phone":"3479151080","twitter":"bedvynebrew","address":"370 Tompkins Ave","lat":40.684717,"lng":-73.944312,"neighborhood":"Bedford-Stuyvesant","city_fetched":"New York","state":"NY","country":"United States","canonicalUrl":"https://foursquare.com/v/bedvyne-brew/51c4f36a498ed84020c10d26","category":"Bar","checkinsCount":2144,"usersCount":1588,"tipCount":35,"visitsCount":3441,"url":"http://www.bed-vyne.com","tier":2,"message":"Moderate","currency":"$","rating":9.3},{"name":"Achilles Heel","phone":"3479873666","address":"180 West St","lat":40.73319381854889,"lng":-73.95968198776245,"neighborhood":"Greenpoint","city_fetched":"New York","state":"NY","country":"United States","canonicalUrl":"https://foursquare.com/v/achilles-heel/5106b507067d28e49859ec95","category":"Cocktail Bar","checkinsCount":3366,"usersCount":2802,"tipCount":67,"visitsCount":4884,"url":"http://achillesheelnyc.com","tier":2,"message":"Moderate","currency":"$","rating":9.3},{"name":"Angel’s Share","phone":"2127775415","address":"8 Stuyvesant St","lat":40.73013910823928,"lng":-73.98922693741638,"neighborhood":"East Village","city_fetched":"New York","state":"NY","country":"United States","canonicalUrl":"https://foursquare.com/v/angels-share/3fd66200f964a520caea1ee3","category":"Speakeasy","checkinsCount":20413,"usersCount":13215,"tipCount":388,"visitsCount":20793,"url":"http://www.angelsshare.com","tier":2,"message":"Moderate","currency":"$","rating":9.3},{"name":"House of Yes","twitter":"thehouseofyes","address":"2 Wyckoff Ave","lat":40.70678487752821,"lng":-73.92364114522934,"neighborhood":"Bushwick","city_fetched":"New York","state":"NY","country":"United States","canonicalUrl":"https://foursquare.com/v/house-of-yes/4a46e401f964a520a0a91fe3","category":"Event Space","checkinsCount":4281,"usersCount":3461,"tipCount":23,"visitsCount":5418,"url":"http://www.houseofyes.org","tier":"","message":"","currency":"","rating":9.3},{"name":"Mosaic","phone":"7187280708","twitter":"mosaicastoria","address":"25-19 24th Ave","lat":40.7746400583813,"lng":-73.91843900084496,"neighborhood":"Astoria","city_fetched":"New York","state":"NY","country":"United States","canonicalUrl":"https://foursquare.com/mosaicastoria","category":"Bar","checkinsCount":5632,"usersCount":2145,"tipCount":43,"visitsCount":6600,"url":"http://mosaicastoria.com","tier":2,"message":"Moderate","currency":"$","rating":9.2},{"name":"The Four Horsemen","phone":"7185994900","address":"295 Grand St","lat":40.71299622040224,"lng":-73.95730018615723,"neighborhood":"Williamsburg","city_fetched":"New York","state":"NY","country":"United States","canonicalUrl":"https://foursquare.com/v/the-four-horsemen/554f66e8498e387866311421","category":"Wine Bar","checkinsCount":1459,"usersCount":1077,"tipCount":33,"visitsCount":1622,"url":"http://www.fourhorsemenbk.com","tier":2,"message":"Moderate","currency":"$","rating":9.2},{"name":"Hot Bird","phone":"7182305800","twitter":"hotbirdbar","address":"546 Clinton Ave","lat":40.68192354233878,"lng":-73.96686226129532,"neighborhood":"Clinton Hill","city_fetched":"New York","state":"NY","country":"United States","canonicalUrl":"https://foursquare.com/v/hot-bird/4bcb54340687ef3b057cddcc","category":"Bar","checkinsCount":16575,"usersCount":9993,"tipCount":146,"visitsCount":20018,"tier":2,"message":"Moderate","currency":"$","rating":9.2},{"name":"Beer Street","phone":"3472940495","twitter":"beerstreetny","address":"413 Graham Ave","lat":40.71735485358794,"lng":-73.94487688388168,"neighborhood":"Williamsburg","city_fetched":"New York","state":"NY","country":"United States","canonicalUrl":"https://foursquare.com/v/beer-street/4ebedd607beb5340001f897f","category":"Beer Bar","checkinsCount":1773,"usersCount":752,"tipCount":31,"visitsCount":1912,"url":"http://beerstreetnyc.com","tier":"","message":"","currency":"","rating":9.2},{"name":"The Bonnie","phone":"7182742105","address":"29-12 23rd Ave","lat":40.77471102685053,"lng":-73.91347500464883,"neighborhood":"Astoria","city_fetched":"New York","state":"NY","country":"United States","canonicalUrl":"https://foursquare.com/v/the-bonnie/544ed5d6498e79ed1c48737a","category":"Bar","checkinsCount":3318,"usersCount":1763,"tipCount":44,"visitsCount":3939,"url":"http://www.thebonnie.com","tier":"","message":"","currency":"","rating":9.2},{"name":"Cardiff Giant","phone":"9293377873","twitter":"cardiffgiantnyc","address":"415 Myrtle Ave","lat":40.6932399048093,"lng":-73.96924138069153,"neighborhood":"Clinton Hill","city_fetched":"New York","state":"NY","country":"United States","canonicalUrl":"https://foursquare.com/v/cardiff-giant/56b32020498ebc3a63a82b02","category":"Bar","checkinsCount":440,"usersCount":314,"tipCount":14,"visitsCount":496,"url":"http://cardiffgiantny.com","tier":"","message":"","currency":"","rating":9.2},{"name":"Nobu","phone":"2122190500","twitter":"nobunyc","address":"105 Hudson St","lat":40.71940069151983,"lng":-74.00869823942159,"neighborhood":"Tribeca","city_fetched":"New York","state":"NY","country":"United States","canonicalUrl":"https://foursquare.com/v/nobu/3fd66200f964a52097e61ee3","category":"Japanese Restaurant","checkinsCount":8400,"usersCount":6761,"tipCount":193,"visitsCount":8567,"url":"http://www.noburestaurants.com/new-york/experience/introduction/","tier":4,"message":"Very Expensive","currency":"$","rating":9.2},{"name":"Don Antonio by Starita","phone":"6467191043","twitter":"donantoniopizza","address":"309 W 50th St","lat":40.762599296229745,"lng":-73.9865755196171,"neighborhood":"Hell's Kitchen","city_fetched":"New York","state":"NY","country":"United States","canonicalUrl":"https://foursquare.com/v/don-antonio-by-starita/4f16b98fe4b0f2c21698586c","category":"Pizza Place","checkinsCount":7242,"usersCount":6215,"tipCount":265,"visitsCount":8313,"url":"http://www.donantoniopizza.com","tier":2,"message":"Moderate","currency":"$","rating":9.2},{"name":"Gyu-Kaku Japanese BBQ","phone":"2124752989","twitter":"gyukakujbbq","address":"34 Cooper Sq","lat":40.72829298080731,"lng":-73.99119292464046,"neighborhood":"NoHo","city_fetched":"New York","state":"NY","country":"United States","canonicalUrl":"https://foursquare.com/v/gyukaku-japanese-bbq/427ff980f964a520b7211fe3","category":"Japanese Restaurant","checkinsCount":19670,"usersCount":11187,"tipCount":210,"visitsCount":20201,"url":"http://www.gyu-kaku.com","tier":2,"message":"Moderate","currency":"$","rating":9.2},{"name":"ilili","phone":"2126832929","twitter":"ililirestaurant","address":"236 5th Ave","lat":40.74433537661916,"lng":-73.98753967578142,"neighborhood":"NoMad","city_fetched":"New York","state":"NY","country":"United States","canonicalUrl":"https://foursquare.com/ililirestaurant","category":"Mediterranean Restaurant","checkinsCount":18484,"usersCount":14228,"tipCount":369,"visitsCount":20030,"url":"http://www.ililinyc.com","tier":3,"message":"Expensive","currency":"$","rating":9.2},{"name":"The Leopard at des Artistes","phone":"2127878767","twitter":"ilgattopardonyc","address":"1 W 67th St","lat":40.773278,"lng":-73.978987,"neighborhood":"Lincoln Square","city_fetched":"New York","state":"NY","country":"United States","canonicalUrl":"https://foursquare.com/v/the-leopard-at-des-artistes/4db9ebb54b22153e34a7035b","category":"Italian Restaurant","checkinsCount":1049,"usersCount":940,"tipCount":29,"visitsCount":1158,"url":"http://www.cafenyc.com/cafedesartistes/html/index2.htm","tier":4,"message":"Very Expensive","currency":"$","rating":9.2},{"name":"Kesté Pizza & Vino","phone":"2122431500","twitter":"kestepizzeria","address":"271 Bleecker St","lat":40.731508,"lng":-74.0031859561163,"neighborhood":"West Village","city_fetched":"New York","state":"NY","country":"United States","canonicalUrl":"https://foursquare.com/v/kest%C3%A9-pizza--vino/49ef26f3f964a52082681fe3","category":"Pizza Place","checkinsCount":9770,"usersCount":7240,"tipCount":236,"visitsCount":9955,"url":"http://kestepizzeria.com","tier":2,"message":"Moderate","currency":"$","rating":9.2},{"name":"Music Hall of Williamsburg","phone":"7184865400","twitter":"bowerypresents","address":"66 N 6th St","lat":40.71924854740439,"lng":-73.96171813433378,"neighborhood":"Williamsburg","city_fetched":"New York","state":"NY","country":"United States","canonicalUrl":"https://foursquare.com/v/music-hall-of-williamsburg/47048266f964a5204f4b1fe3","category":"Music Venue","checkinsCount":39988,"usersCount":22225,"tipCount":173,"visitsCount":42064,"url":"http://www.bowerypresents.com","tier":"","message":"","currency":"","rating":9.2},{"name":"Jadis","phone":"2122541675","twitter":"jadiswinebar","address":"42 Rivington St","lat":40.720914,"lng":-73.99103,"neighborhood":"Lower East Side","city_fetched":"New York","state":"NY","country":"United States","canonicalUrl":"https://foursquare.com/jadiswinebar","category":"Wine Bar","checkinsCount":5333,"usersCount":4489,"tipCount":62,"visitsCount":6068,"url":"http://jadisnyc.com","tier":2,"message":"Moderate","currency":"$","rating":9.2},{"name":"Dutch Kills","phone":"7183832724","address":"27-24 Jackson Ave","lat":40.74783093755247,"lng":-73.94020423884278,"city_fetched":"New York","state":"NY","country":"United States","canonicalUrl":"https://foursquare.com/v/dutch-kills/49ff6b95f964a5201f701fe3","category":"Cocktail Bar","checkinsCount":12792,"usersCount":7627,"tipCount":231,"visitsCount":14715,"url":"http://dutchkillsbar.com","tier":2,"message":"Moderate","currency":"$","rating":9.2},{"name":"Cork City Pub","phone":"2019635512","twitter":"corkcitynj","address":"239 Bloomfield St","lat":40.74008,"lng":-74.030934,"city_fetched":"New York","state":"NJ","country":"United States","canonicalUrl":"https://foursquare.com/v/cork-city-pub/4d4218cd607b6dcb31df08c6","category":"Pub","checkinsCount":7798,"usersCount":2603,"tipCount":32,"visitsCount":8630,"url":"http://www.corkcitypub.com","tier":2,"message":"Moderate","currency":"$","rating":9.2},{"name":"Tørst","phone":"7183896034","twitter":"torst_nyc","address":"615 Manhattan Ave","lat":40.72350581184346,"lng":-73.95070892134139,"neighborhood":"Williamsburg","city_fetched":"New York","state":"NY","country":"United States","canonicalUrl":"https://foursquare.com/v/t%C3%B8rst/51394771e4b0b8423e85a43e","category":"Beer Bar","checkinsCount":11191,"usersCount":7118,"tipCount":214,"visitsCount":12375,"url":"http://www.torstnyc.com","tier":2,"message":"Moderate","currency":"$","rating":9.2},{"name":"The Wilky","phone":"7184847458","twitter":"thewilkybar","address":"108 Patchen Ave","lat":40.688027376267634,"lng":-73.92723798751831,"neighborhood":"Bedford-Stuyvesant","city_fetched":"New York","state":"NY","country":"United States","canonicalUrl":"https://foursquare.com/v/the-wilky/5622c013498e6aeb7e049ce7","category":"Beer Bar","checkinsCount":401,"usersCount":391,"tipCount":16,"visitsCount":754,"url":"http://thewilky.com","tier":1,"message":"Cheap","currency":"$","rating":9.2},{"name":"Bemelmans Bar","phone":"2127441600","twitter":"thecarlylehotel","address":"35 E 76th St","lat":40.77457984211516,"lng":-73.96331378671937,"neighborhood":"Upper East Side","city_fetched":"New York","state":"NY","country":"United States","canonicalUrl":"https://foursquare.com/v/bemelmans-bar/3fd66200f964a520cdea1ee3","category":"Hotel Bar","checkinsCount":5079,"usersCount":3072,"tipCount":109,"visitsCount":5137,"url":"http://www.thecarlyle.com/dining/bemelmans_bar","tier":4,"message":"Very Expensive","currency":"$","rating":9.2},{"name":"The Spotted Pig","phone":"2126200393","twitter":"thespottedpig","address":"314 W 11th St","lat":40.73574391446307,"lng":-74.0068217810627,"neighborhood":"West Village","city_fetched":"New York","state":"NY","country":"United States","canonicalUrl":"https://foursquare.com/v/the-spotted-pig/4393dd78f964a520782b1fe3","category":"Gastropub","checkinsCount":36384,"usersCount":28204,"tipCount":753,"visitsCount":41847,"url":"http://thespottedpig.com","tier":3,"message":"Expensive","currency":"$","rating":9.2},{"name":"Le Bain","phone":"2126454646","twitter":"standardculture","address":"848 Washington St","lat":40.74099801143199,"lng":-74.008229970932,"neighborhood":"Meatpacking District","city_fetched":"New York","state":"NY","country":"United States","canonicalUrl":"https://foursquare.com/v/le-bain/4c22beee99282d7f17b667b0","category":"Nightclub","checkinsCount":36514,"usersCount":20820,"tipCount":307,"visitsCount":37092,"url":"http://standardhotels.com","tier":3,"message":"Expensive","currency":"$","rating":9.2},{"name":"Radegast Hall & Biergarten","phone":"7189633973","twitter":"radegasthallbk","address":"113 N 3rd St","lat":40.71653437713537,"lng":-73.96144836446048,"neighborhood":"Williamsburg","city_fetched":"New York","state":"NY","country":"United States","canonicalUrl":"https://foursquare.com/radegasthallbk","category":"Beer Garden","checkinsCount":49583,"usersCount":30387,"tipCount":424,"visitsCount":51431,"url":"http://www.radegasthall.com","tier":2,"message":"Moderate","currency":"$","rating":9.2},{"name":"Jadis","phone":"2122541675","twitter":"jadiswinebar","address":"42 Rivington St","lat":40.720914,"lng":-73.99103,"neighborhood":"Lower East Side","city_fetched":"New York","state":"NY","country":"United States","canonicalUrl":"https://foursquare.com/jadiswinebar","category":"Wine Bar","checkinsCount":5333,"usersCount":4489,"tipCount":62,"visitsCount":6068,"url":"http://jadisnyc.com","tier":2,"message":"Moderate","currency":"$","rating":9.2},{"name":"Beauty & Essex","phone":"2126140146","twitter":"beautyandessex","address":"146 Essex St","lat":40.720363687278706,"lng":-73.9870834350586,"neighborhood":"Lower East Side","city_fetched":"New York","state":"NY","country":"United States","canonicalUrl":"https://foursquare.com/v/beauty--essex/4cc35db6d43ba14387a35ff8","category":"Speakeasy","checkinsCount":40522,"usersCount":29668,"tipCount":516,"visitsCount":43112,"url":"http://www.beautyandessex.com","tier":4,"message":"Very Expensive","currency":"$","rating":9.2},{"name":"The Leadbelly","phone":"6465969142","twitter":"theleadbelly","address":"14 Orchard St","lat":40.71517414471992,"lng":-73.99176927982109,"neighborhood":"Chinatown","city_fetched":"New York","state":"NY","country":"United States","canonicalUrl":"https://foursquare.com/theleadbelly","category":"Cocktail Bar","checkinsCount":5256,"usersCount":3953,"tipCount":85,"visitsCount":5598,"url":"http://theleadbelly.com","tier":3,"message":"Expensive","currency":"$","rating":9.2},{"name":"The Roost","phone":"6469186700","twitter":"theroostnyc","address":"222 Avenue B","lat":40.729118292221266,"lng":-73.978609568045,"neighborhood":"Alphabet City","city_fetched":"New York","state":"NY","country":"United States","canonicalUrl":"https://foursquare.com/v/the-roost/5309676d11d21cbecc67fa01","category":"Bar","checkinsCount":4577,"usersCount":2878,"tipCount":79,"visitsCount":5579,"url":"http://theroostnyc.com","tier":2,"message":"Moderate","currency":"$","rating":9.2},{"name":"Cienfuegos","phone":"2126146818","twitter":"cienfuegosnyc","address":"95 Avenue A","lat":40.72552895364746,"lng":-73.98398145637879,"neighborhood":"East Village","city_fetched":"New York","state":"NY","country":"United States","canonicalUrl":"https://foursquare.com/v/cienfuegos/4bd5f646cfa7b713c2c326da","category":"Cocktail Bar","checkinsCount":11726,"usersCount":8281,"tipCount":187,"visitsCount":11829,"url":"http://www.cienfuegosny.com","tier":3,"message":"Expensive","currency":"$","rating":9.2},{"name":"Harlem Public","phone":"2129399404","twitter":"harlempublic","address":"3612 Broadway","lat":40.828843706991115,"lng":-73.94867117233746,"neighborhood":"Hamilton Heights","city_fetched":"New York","state":"NY","country":"United States","canonicalUrl":"https://foursquare.com/harlempublic","category":"Bar","checkinsCount":10705,"usersCount":5116,"tipCount":164,"visitsCount":12672,"url":"http://www.harlempublic.com","tier":2,"message":"Moderate","currency":"$","rating":9.2},{"name":"Bar Jamon","phone":"2122532773","twitter":"casamono","address":"125 E 17th St","lat":40.7358177011548,"lng":-73.9872355079905,"neighborhood":"Gramercy Park","city_fetched":"New York","state":"NY","country":"United States","canonicalUrl":"https://foursquare.com/v/bar-jamon/414e1d80f964a520da1c1fe3","category":"Wine Bar","checkinsCount":4021,"usersCount":3078,"tipCount":65,"visitsCount":4105,"url":"http://barjamonnyc.com","tier":3,"message":"Expensive","currency":"$","rating":9.2},{"name":"Dandelion Wine","phone":"3476894563","address":"153 Franklin St","lat":40.73166349069047,"lng":-73.95781504409862,"neighborhood":"Greenpoint","city_fetched":"New York","state":"NY","country":"United States","canonicalUrl":"https://foursquare.com/v/dandelion-wine/4bd61b737b1876b008038c86","category":"Wine Bar","checkinsCount":2084,"usersCount":849,"tipCount":22,"visitsCount":2467,"url":"http://dandelionwineshop.tumblr.com","tier":"","message":"","currency":"","rating":9.2},{"name":"Bondurants","phone":"2122491509","twitter":"bondurantsnyc","address":"303 E 85th St","lat":40.77711784637458,"lng":-73.95209802243383,"neighborhood":"Yorkville","city_fetched":"New York","state":"NY","country":"United States","canonicalUrl":"https://foursquare.com/v/bondurants/52bfac81498eeba382012f35","category":"Bar","checkinsCount":5024,"usersCount":2972,"tipCount":92,"visitsCount":5822,"url":"http://bondurantsnyc.com","tier":2,"message":"Moderate","currency":"$","rating":9.2},{"name":"The Hamilton Inn","phone":"2018395818","twitter":"thehamiltoninn","address":"708 Jersey Ave","lat":40.72900681693928,"lng":-74.04479384422302,"neighborhood":"Hamilton Park","city_fetched":"New York","state":"NJ","country":"United States","canonicalUrl":"https://foursquare.com/v/the-hamilton-inn/4b740e31f964a520b2c52de3","category":"American Restaurant","checkinsCount":10413,"usersCount":3509,"tipCount":119,"visitsCount":11686,"url":"http://www.hamiltoninnjc.com","tier":3,"message":"Expensive","currency":"$","rating":9.2},{"name":"Grand Army","phone":"7184227867","twitter":"grandarmybar","address":"336 State St","lat":40.68832228244325,"lng":-73.98652821779251,"neighborhood":"Boerum Hill","city_fetched":"New York","state":"NY","country":"United States","canonicalUrl":"https://foursquare.com/v/grand-army/54b4026b498e73880a40a8d7","category":"Seafood Restaurant","checkinsCount":1784,"usersCount":1805,"tipCount":40,"visitsCount":2661,"url":"http://grandarmybar.com","tier":3,"message":"Expensive","currency":"$","rating":9.2},{"name":"Buceo 95","phone":"2126627010","address":"201 W 95th St","lat":40.79352250690712,"lng":-73.97110818658369,"neighborhood":"Upper West Side","city_fetched":"New York","state":"NY","country":"United States","canonicalUrl":"https://foursquare.com/v/buceo-95/49c079b1f964a52068551fe3","category":"Tapas Restaurant","checkinsCount":3703,"usersCount":2251,"tipCount":73,"visitsCount":3957,"url":"http://buceo95.com","tier":3,"message":"Expensive","currency":"$","rating":9.2},{"name":"The Heath","phone":"2125641662","twitter":"theheathnyc","address":"542 W 27th St","lat":40.75064333448892,"lng":-74.00416486817255,"neighborhood":"Chelsea","city_fetched":"New York","state":"NY","country":"United States","canonicalUrl":"https://foursquare.com/v/the-heath/50e7831ce4b0a9a01671fb98","category":"Lounge","checkinsCount":4233,"usersCount":3469,"tipCount":50,"visitsCount":4335,"url":"http://mckittrickhotel.com","tier":3,"message":"Expensive","currency":"$","rating":9.2},{"name":"Terra Blues","phone":"2127777776","twitter":"terrabluesnyc","address":"149 Bleecker St","lat":40.728364515715036,"lng":-73.9992955327034,"neighborhood":"Greenwich Village","city_fetched":"New York","state":"NY","country":"United States","canonicalUrl":"https://foursquare.com/terrabluesnyc","category":"Jazz Club","checkinsCount":2977,"usersCount":2336,"tipCount":48,"visitsCount":2982,"url":"http://www.terrablues.com","tier":"","message":"","currency":"","rating":9.2},{"name":"The Cellar at Beecher's","phone":"2124663340","twitter":"beechersny","address":"900 Broadway","lat":40.73907778333829,"lng":-73.9897319652254,"neighborhood":"Flatiron District","city_fetched":"New York","state":"NY","country":"United States","canonicalUrl":"https://foursquare.com/v/the-cellar-at-beechers/4e1a41d3183880768f53f08c","category":"American Restaurant","checkinsCount":10707,"usersCount":7261,"tipCount":124,"visitsCount":10816,"url":"http://www.beechershandmadecheese.com","tier":2,"message":"Moderate","currency":"$","rating":9.2},{"name":"Pilsener Haus & Biergarten","phone":"2016835465","twitter":"pilsenerhaus1","address":"1422 Grand St","lat":40.75526053306984,"lng":-74.03155856334385,"city_fetched":"New York","state":"NJ","country":"United States","canonicalUrl":"https://foursquare.com/v/pilsener-haus--biergarten/4e286ba7ae60078b2fcb1551","category":"German Restaurant","checkinsCount":20657,"usersCount":11153,"tipCount":148,"visitsCount":24464,"url":"http://www.pilsenerhaus.com","tier":2,"message":"Moderate","currency":"$","rating":9.2},{"name":"DiWine","phone":"7187771355","twitter":"diwinebar","address":"41-15 31st Ave","lat":40.76075234604868,"lng":-73.91571387648582,"neighborhood":"Astoria","city_fetched":"New York","state":"NY","country":"United States","canonicalUrl":"https://foursquare.com/diwinebar","category":"Restaurant","checkinsCount":5334,"usersCount":3241,"tipCount":109,"visitsCount":6207,"url":"http://www.diwineonline.com","tier":2,"message":"Moderate","currency":"$","rating":9.2},{"name":"Satis Bistro","phone":"2014355151","twitter":"satisbistro","address":"212 Washington St","lat":40.714411227628915,"lng":-74.03770208358765,"neighborhood":"Paulus Hook","city_fetched":"New York","state":"NJ","country":"United States","canonicalUrl":"https://foursquare.com/v/satis-bistro/4ceabeb2b4952d4322a863f5","category":"Restaurant","checkinsCount":4128,"usersCount":2423,"tipCount":54,"visitsCount":4958,"url":"http://www.satisbistro.com","tier":2,"message":"Moderate","currency":"$","rating":9.2},{"name":"EN Japanese Brasserie","phone":"2126479196","twitter":"enjb_ny","address":"435 Hudson St","lat":40.730371,"lng":-74.006888,"neighborhood":"West Village","city_fetched":"New York","state":"NY","country":"United States","canonicalUrl":"https://foursquare.com/v/en-japanese-brasserie/42055e00f964a5206e1f1fe3","category":"Japanese Restaurant","checkinsCount":10962,"usersCount":7303,"tipCount":234,"visitsCount":11184,"url":"http://www.enjb.com","tier":3,"message":"Expensive","currency":"$","rating":9.2},{"name":"Gallow Green","phone":"2125641662","twitter":"gallowgreen","address":"542 W 27th St","lat":40.750730126172556,"lng":-74.00413617560737,"neighborhood":"Chelsea","city_fetched":"New York","state":"NY","country":"United States","canonicalUrl":"https://foursquare.com/v/gallow-green/4ff260e7e4b020c287b83193","category":"Roof Deck","checkinsCount":15233,"usersCount":12116,"tipCount":178,"visitsCount":15811,"url":"http://mckittrickhotel.com/gallowgreen/","tier":"","message":"","currency":"","rating":9.2},{"name":"Vesta Trattoria & Wine Bar","phone":"7185455550","twitter":"vestavino","address":"21-02 30th Ave","lat":40.769771,"lng":-73.927716,"neighborhood":"Astoria","city_fetched":"New York","state":"NY","country":"United States","canonicalUrl":"https://foursquare.com/v/vesta-trattoria--wine-bar/49c68eaaf964a5205c571fe3","category":"Italian Restaurant","checkinsCount":5864,"usersCount":2693,"tipCount":100,"visitsCount":6777,"url":"http://www.vestavino.com","tier":2,"message":"Moderate","currency":"$","rating":9.2},{"name":"Brooklyn Brewery","phone":"7184867422","twitter":"brooklynbrewery","address":"79 N 11th St","lat":40.72174931179293,"lng":-73.95761414761225,"neighborhood":"Williamsburg","city_fetched":"New York","state":"NY","country":"United States","canonicalUrl":"https://foursquare.com/v/brooklyn-brewery/3fd66200f964a5205deb1ee3","category":"Brewery","checkinsCount":38599,"usersCount":27357,"tipCount":322,"visitsCount":39508,"url":"http://brooklynbrewery.com","tier":2,"message":"Moderate","currency":"$","rating":9.2},{"name":"Lois","phone":"2124751400","twitter":"loisbarnyc","address":"98 Avenue C","lat":40.723901982671364,"lng":-73.97903427408377,"neighborhood":"Alphabet City","city_fetched":"New York","state":"NY","country":"United States","canonicalUrl":"https://foursquare.com/v/lois/54c064e4498e47f3d5a1692c","category":"Wine Bar","checkinsCount":1151,"usersCount":769,"tipCount":35,"visitsCount":1189,"url":"http://www.loisbarnyc.com","tier":2,"message":"Moderate","currency":"$","rating":9.2},{"name":"Dynaco","address":"1112 Bedford Ave","lat":40.68672095997484,"lng":-73.95466381513616,"neighborhood":"Bedford-Stuyvesant","city_fetched":"New York","state":"NY","country":"United States","canonicalUrl":"https://foursquare.com/v/dynaco/51971065498ef767dfaa6b6c","category":"Bar","checkinsCount":3057,"usersCount":1881,"tipCount":33,"visitsCount":3633,"tier":2,"message":"Moderate","currency":"$","rating":9.2},{"name":"Weather Up","phone":"5125240464","address":"589 Vanderbilt Ave","lat":40.6798732121251,"lng":-73.96783858537674,"neighborhood":"Prospect Heights","city_fetched":"New York","state":"NY","country":"United States","canonicalUrl":"https://foursquare.com/v/weather-up/47bd72ecf964a520d84d1fe3","category":"Cocktail Bar","checkinsCount":10109,"usersCount":5441,"tipCount":138,"visitsCount":10620,"url":"http://www.weatherupnyc.com","tier":2,"message":"Moderate","currency":"$","rating":9.2},{"name":"McSorley's Old Ale House","phone":"2124739148","address":"15 E 7th St","lat":40.728602348741525,"lng":-73.98996152288103,"neighborhood":"East Village","city_fetched":"New York","state":"NY","country":"United States","canonicalUrl":"https://foursquare.com/v/mcsorleys-old-ale-house/3fd66200f964a52058e41ee3","category":"Pub","checkinsCount":40202,"usersCount":29987,"tipCount":410,"visitsCount":42016,"tier":1,"message":"Cheap","currency":"$","rating":9.2},{"name":"The Up & Up","phone":"2122603000","twitter":"theupandupnyc","address":"116 Macdougal St","lat":40.72978238137066,"lng":-74.00059548005227,"neighborhood":"Greenwich Village","city_fetched":"New York","state":"NY","country":"United States","canonicalUrl":"https://foursquare.com/v/the-up--up/54d5326b498e410382657827","category":"Cocktail Bar","checkinsCount":2822,"usersCount":2096,"tipCount":67,"visitsCount":3034,"url":"http://www.upandupnyc.com","tier":3,"message":"Expensive","currency":"$","rating":9.2},{"name":"Employees Only","phone":"2122423021","address":"510 Hudson St","lat":40.73347640394026,"lng":-74.0062192446574,"neighborhood":"West Village","city_fetched":"New York","state":"NY","country":"United States","canonicalUrl":"https://foursquare.com/v/employees-only/41e46880f964a520d41e1fe3","category":"Speakeasy","checkinsCount":25356,"usersCount":18629,"tipCount":409,"visitsCount":29357,"url":"http://employeesonlynyc.com","tier":3,"message":"Expensive","currency":"$","rating":9.2},{"name":"Featherweight","phone":"2029073372","address":"135 Graham Ave","lat":40.70626908776655,"lng":-73.94332700183666,"neighborhood":"East Williamsburg","city_fetched":"New York","state":"NY","country":"United States","canonicalUrl":"https://foursquare.com/v/featherweight/52466a46498ecfb870e62cee","category":"Cocktail Bar","checkinsCount":1904,"usersCount":1326,"tipCount":56,"visitsCount":2324,"url":"http://featherweightbk.com","tier":2,"message":"Moderate","currency":"$","rating":9.2},{"name":"Glasserie","phone":"7183890640","address":"95 Commercial St.","lat":40.73759487550654,"lng":-73.95599548829432,"city_fetched":"New York","state":"NY","country":"United States","canonicalUrl":"https://foursquare.com/v/glasserie/5196e899498eda39050c109c","category":"Mediterranean Restaurant","checkinsCount":3548,"usersCount":3405,"tipCount":115,"visitsCount":4995,"url":"http://www.glasserienyc.com","tier":3,"message":"Expensive","currency":"$","rating":9.2},{"name":"Bar Jamon","phone":"2122532773","twitter":"casamono","address":"125 E 17th St","lat":40.7358177011548,"lng":-73.9872355079905,"neighborhood":"Gramercy Park","city_fetched":"New York","state":"NY","country":"United States","canonicalUrl":"https://foursquare.com/v/bar-jamon/414e1d80f964a520da1c1fe3","category":"Wine Bar","checkinsCount":4021,"usersCount":3078,"tipCount":65,"visitsCount":4105,"url":"http://barjamonnyc.com","tier":3,"message":"Expensive","currency":"$","rating":9.2},{"name":"The Spotted Pig","phone":"2126200393","twitter":"thespottedpig","address":"314 W 11th St","lat":40.73574391446307,"lng":-74.0068217810627,"neighborhood":"West Village","city_fetched":"New York","state":"NY","country":"United States","canonicalUrl":"https://foursquare.com/v/the-spotted-pig/4393dd78f964a520782b1fe3","category":"Gastropub","checkinsCount":36384,"usersCount":28204,"tipCount":753,"visitsCount":41847,"url":"http://thespottedpig.com","tier":3,"message":"Expensive","currency":"$","rating":9.2},{"name":"Taboon","phone":"2127130271","twitter":"taboonnyc","address":"773 10th Ave","lat":40.7660272407982,"lng":-73.99089122857772,"neighborhood":"Hell's Kitchen","city_fetched":"New York","state":"NY","country":"United States","canonicalUrl":"https://foursquare.com/v/taboon/4a4792a1f964a520d7a91fe3","category":"Mediterranean Restaurant","checkinsCount":3961,"usersCount":3351,"tipCount":92,"visitsCount":4601,"url":"http://www.taboononline.com","tier":2,"message":"Moderate","currency":"$","rating":9.2},{"name":"The Standing Room","phone":"3473097666","twitter":"standingroomlic","address":"4738 Vernon Blvd","lat":40.74431216665452,"lng":-73.95361913407693,"neighborhood":"Hunters Point","city_fetched":"New York","state":"NY","country":"United States","canonicalUrl":"https://foursquare.com/v/the-standing-room/55ab1720498e95351bdc5a7f","category":"Comedy Club","checkinsCount":472,"usersCount":358,"tipCount":17,"visitsCount":536,"url":"http://standingroomlic.com","tier":"","message":"","currency":"","rating":9.2},{"name":"Hi-Collar - ハイカラ","phone":"2127777018","address":"214 E 10th St","lat":40.72944395157202,"lng":-73.98588683367826,"neighborhood":"East Village","city_fetched":"New York","state":"NY","country":"United States","canonicalUrl":"https://foursquare.com/v/hicollar--%E3%83%8F%E3%82%A4%E3%82%AB%E3%83%A9/5193df09498e0397c22b8e07","category":"Coffee Shop","checkinsCount":3151,"usersCount":2043,"tipCount":85,"visitsCount":3222,"url":"http://www.hi-collar.com","tier":2,"message":"Moderate","currency":"$","rating":9.2},{"name":"Grand Banks","phone":"2129603390","twitter":"grandbanksnyc","address":"Pier 25","lat":40.720285870659794,"lng":-74.01599731509839,"neighborhood":"Tribeca","city_fetched":"New York","state":"NY","country":"United States","canonicalUrl":"https://foursquare.com/grandbanksnyc","category":"Seafood Restaurant","checkinsCount":5459,"usersCount":5412,"tipCount":113,"visitsCount":7166,"url":"http://www.grandbanks.org","tier":3,"message":"Expensive","currency":"$","rating":9.2},{"name":"Hudson Clearwater","phone":"2129893255","twitter":"hudsonclearwatr","address":"447 Hudson St","lat":40.7310779928982,"lng":-74.00690227746964,"neighborhood":"West Village","city_fetched":"New York","state":"NY","country":"United States","canonicalUrl":"https://foursquare.com/v/hudson-clearwater/4d01634c527e236ac073c285","category":"New American Restaurant","checkinsCount":9274,"usersCount":7304,"tipCount":146,"visitsCount":10541,"url":"http://www.hudsonclearwater.com","tier":2,"message":"Moderate","currency":"$","rating":9.2},{"name":"Lois","phone":"2124751400","twitter":"loisbarnyc","address":"98 Avenue C","lat":40.723901982671364,"lng":-73.97903427408377,"neighborhood":"Alphabet City","city_fetched":"New York","state":"NY","country":"United States","canonicalUrl":"https://foursquare.com/v/lois/54c064e4498e47f3d5a1692c","category":"Wine Bar","checkinsCount":1151,"usersCount":769,"tipCount":35,"visitsCount":1189,"url":"http://www.loisbarnyc.com","tier":2,"message":"Moderate","currency":"$","rating":9.2},{"name":"Strip House","phone":"2123280000","twitter":"striphouse","address":"13 E 12th St","lat":40.73430989487854,"lng":-73.99350815375443,"neighborhood":"Greenwich Village","city_fetched":"New York","state":"NY","country":"United States","canonicalUrl":"https://foursquare.com/v/strip-house/3fd66200f964a52094e41ee3","category":"Steakhouse","checkinsCount":8686,"usersCount":6633,"tipCount":154,"visitsCount":8950,"url":"http://www.striphouse.com","tier":4,"message":"Very Expensive","currency":"$","rating":9.1},{"name":"The Fat Radish","phone":"2123004053","twitter":"thefatradish","address":"17 Orchard St","lat":40.71529324249843,"lng":-73.99194144626024,"neighborhood":"Chinatown","city_fetched":"New York","state":"NY","country":"United States","canonicalUrl":"https://foursquare.com/v/the-fat-radish/4c9d482e46978cfa8247967f","category":"Gastropub","checkinsCount":10866,"usersCount":8630,"tipCount":196,"visitsCount":11714,"url":"http://www.thefatradishnyc.com","tier":2,"message":"Moderate","currency":"$","rating":9.1},{"name":"Pouring Ribbons","phone":"9176566788","twitter":"pouringribbons","address":"225 Avenue B Fl 2","lat":40.729014947294786,"lng":-73.97807121276855,"neighborhood":"Alphabet City","city_fetched":"New York","state":"NY","country":"United States","canonicalUrl":"https://foursquare.com/pouringribbons","category":"Cocktail Bar","checkinsCount":9100,"usersCount":6397,"tipCount":155,"visitsCount":9824,"url":"http://www.pouringribbons.com","tier":3,"message":"Expensive","currency":"$","rating":9.1},{"name":"Ardesia","phone":"2122479191","twitter":"ardesiawinebar","address":"510 W 52nd St","lat":40.76637840235331,"lng":-73.9917807575885,"neighborhood":"Hell's Kitchen","city_fetched":"New York","state":"NY","country":"United States","canonicalUrl":"https://foursquare.com/v/ardesia/4ad395b4f964a5200ee520e3","category":"Wine Bar","checkinsCount":6418,"usersCount":4321,"tipCount":87,"visitsCount":6925,"url":"http://www.ardesia-ny.com","tier":2,"message":"Moderate","currency":"$","rating":9.1},{"name":"Ace Hotel Lobby Bar","phone":"2126792222","twitter":"acehotel","address":"16 W 29th St","lat":40.74575933876292,"lng":-73.98838698863983,"neighborhood":"NoMad","city_fetched":"New York","state":"NY","country":"United States","canonicalUrl":"https://foursquare.com/v/ace-hotel-lobby-bar/4adfb640f964a520e57c21e3","category":"Hotel Bar","checkinsCount":34309,"usersCount":19490,"tipCount":225,"visitsCount":34417,"url":"http://www.acehotel.com","tier":2,"message":"Moderate","currency":"$","rating":9.1},{"name":"Anfora","phone":"2125182722","twitter":"anforanyc","address":"34 8th Ave","lat":40.73801856494529,"lng":-74.004296853917,"neighborhood":"West Village","city_fetched":"New York","state":"NY","country":"United States","canonicalUrl":"https://foursquare.com/v/anfora/4bea9f4a61aca5933eeb8300","category":"Wine Bar","checkinsCount":8369,"usersCount":5068,"tipCount":83,"visitsCount":8643,"url":"http://www.anforanyc.com","tier":2,"message":"Moderate","currency":"$","rating":9.1},{"name":"The Immigrant","phone":"6463081724","twitter":"theimmigrantnyc","address":"341 E 9th St","lat":40.7284825326176,"lng":-73.98541049112558,"neighborhood":"East Village","city_fetched":"New York","state":"NY","country":"United States","canonicalUrl":"https://foursquare.com/v/the-immigrant/4b57b82cf964a520a53d28e3","category":"Wine Bar","checkinsCount":7797,"usersCount":5325,"tipCount":92,"visitsCount":8403,"url":"http://theimmigrantnyc.com","tier":2,"message":"Moderate","currency":"$","rating":9.1},{"name":"Provocateur","phone":"2129299036","twitter":"provocateur","address":"18 9th Ave","lat":40.73967476917629,"lng":-74.00551341388324,"neighborhood":"Meatpacking District","city_fetched":"New York","state":"NY","country":"United States","canonicalUrl":"https://foursquare.com/v/provocateur/4b513135f964a520bb4627e3","category":"Nightclub","checkinsCount":14534,"usersCount":9451,"tipCount":51,"visitsCount":14820,"url":"http://provocateurny.com","tier":4,"message":"Very Expensive","currency":"$","rating":9.1},{"name":"Milk & Roses","phone":"7183890160","twitter":"milkandroses","address":"1110 Manhattan Ave","lat":40.73633502126099,"lng":-73.95517467359709,"neighborhood":"Greenpoint","city_fetched":"New York","state":"NY","country":"United States","canonicalUrl":"https://foursquare.com/v/milk--roses/4bd34b149854d13a9a6afd4d","category":"Wine Bar","checkinsCount":4369,"usersCount":2580,"tipCount":106,"visitsCount":4634,"url":"http://milkandrosesbk.com","tier":1,"message":"Cheap","currency":"$","rating":9.1},{"name":"Bohemian Hall & Beer Garden","phone":"7182744925","twitter":"bohemianhall","address":"29-19 24th Ave","lat":40.772984726769415,"lng":-73.91593222690723,"neighborhood":"Astoria","city_fetched":"New York","state":"NY","country":"United States","canonicalUrl":"https://foursquare.com/bohemianhall","category":"Beer Garden","checkinsCount":38061,"usersCount":23593,"tipCount":232,"visitsCount":41946,"url":"http://www.bohemianhall.com","tier":2,"message":"Moderate","currency":"$","rating":9.1},{"name":"61 Local","phone":"7188751150","twitter":"61local","address":"61 Bergen St","lat":40.68709156838494,"lng":-73.99090844530741,"neighborhood":"Boerum Hill","city_fetched":"New York","state":"NY","country":"United States","canonicalUrl":"https://foursquare.com/v/61-local/4c8cf3e9509e37043cb33755","category":"Bar","checkinsCount":19884,"usersCount":9615,"tipCount":220,"visitsCount":23158,"url":"http://61local.com","tier":2,"message":"Moderate","currency":"$","rating":9.1},{"name":"Lightship Frying Pan @ Pier 66 Maritime","phone":"2129896363","twitter":"pier66maritime","address":"205 12th Ave","lat":40.752375440251605,"lng":-74.00939832008686,"neighborhood":"Chelsea","city_fetched":"New York","state":"NY","country":"United States","canonicalUrl":"https://foursquare.com/v/lightship-frying-pan--pier-66-maritime/3fd66200f964a52023e41ee3","category":"Bar","checkinsCount":62853,"usersCount":44793,"tipCount":388,"visitsCount":70809,"url":"http://www.pier66maritime.com","tier":2,"message":"Moderate","currency":"$","rating":9.1},{"name":"Ace Hotel Lobby Bar","phone":"2126792222","twitter":"acehotel","address":"16 W 29th St","lat":40.74575933876292,"lng":-73.98838698863983,"neighborhood":"NoMad","city_fetched":"New York","state":"NY","country":"United States","canonicalUrl":"https://foursquare.com/v/ace-hotel-lobby-bar/4adfb640f964a520e57c21e3","category":"Hotel Bar","checkinsCount":34309,"usersCount":19490,"tipCount":225,"visitsCount":34417,"url":"http://www.acehotel.com","tier":2,"message":"Moderate","currency":"$","rating":9.1},{"name":"The Ten Bells","phone":"2122284450","twitter":"thetenbells","address":"247 Broome St","lat":40.71802614679331,"lng":-73.9897778767785,"neighborhood":"Lower East Side","city_fetched":"New York","state":"NY","country":"United States","canonicalUrl":"https://foursquare.com/v/the-ten-bells/480f35eef964a520294f1fe3","category":"Wine Bar","checkinsCount":9288,"usersCount":5924,"tipCount":140,"visitsCount":9360,"url":"http://www.tenbellsnyc.com","tier":2,"message":"Moderate","currency":"$","rating":9.1},{"name":"Izakaya MEW","phone":"6463689384","address":"53 W 35th St","lat":40.75027584817231,"lng":-73.98643778262694,"neighborhood":"Koreatown","city_fetched":"New York","state":"NY","country":"United States","canonicalUrl":"https://foursquare.com/v/izakaya-mew/51e8ce40498ea1fb0180efb2","category":"Japanese Restaurant","checkinsCount":8197,"usersCount":5662,"tipCount":181,"visitsCount":9485,"url":"http://mewnyc.com","tier":2,"message":"Moderate","currency":"$","rating":9.1},{"name":"Birdland Jazz Club","phone":"2125813080","twitter":"birdlandjazz","address":"315 W 44th St","lat":40.758829498570314,"lng":-73.98963440313861,"neighborhood":"Hell's Kitchen","city_fetched":"New York","state":"NY","country":"United States","canonicalUrl":"https://foursquare.com/v/birdland-jazz-club/3fd66200f964a52092e81ee3","category":"Jazz Club","checkinsCount":6342,"usersCount":4624,"tipCount":65,"visitsCount":6363,"url":"http://www.birdlandjazz.com","tier":"","message":"","currency":"","rating":9.1},{"name":"Forgtmenot","phone":"6467073195","address":"138 Division St","lat":40.714530628566436,"lng":-73.99144216316094,"neighborhood":"Chinatown","city_fetched":"New York","state":"NY","country":"United States","canonicalUrl":"https://foursquare.com/v/forgtmenot/4fd38a04e4b065401a9aaf88","category":"New American Restaurant","checkinsCount":6408,"usersCount":3212,"tipCount":80,"visitsCount":6920,"url":"http://www.forgtmenotnyc.com","tier":2,"message":"Moderate","currency":"$","rating":9.1},{"name":"Pier I Cafe","phone":"2123624450","twitter":"piericafe","address":"W. 70th St","lat":40.779826511063796,"lng":-73.9888858795166,"neighborhood":"Lincoln Square","city_fetched":"New York","state":"NY","country":"United States","canonicalUrl":"https://foursquare.com/v/pier-i-cafe/4a35a6fef964a520459d1fe3","category":"American Restaurant","checkinsCount":14534,"usersCount":9854,"tipCount":159,"visitsCount":18162,"url":"http://piericafe.com","tier":2,"message":"Moderate","currency":"$","rating":9.1},{"name":"The Odeon","phone":"2122330507","twitter":"theodeonnyc","address":"145 W Broadway","lat":40.71700358931347,"lng":-74.00810144732247,"neighborhood":"Tribeca","city_fetched":"New York","state":"NY","country":"United States","canonicalUrl":"https://foursquare.com/v/the-odeon/3fd66200f964a52083e61ee3","category":"French Restaurant","checkinsCount":14616,"usersCount":10752,"tipCount":169,"visitsCount":16278,"url":"http://www.theodeonrestaurant.com","tier":2,"message":"Moderate","currency":"$","rating":9.1},{"name":"The Honorable William Wall","address":"NY Harbor","lat":40.70172995233166,"lng":-74.03639537384788,"city_fetched":"New York","state":"NJ","country":"United States","canonicalUrl":"https://foursquare.com/v/the-honorable-william-wall/4c24087ef7ced13a2144226d","category":"Boat or Ferry","checkinsCount":2206,"usersCount":1763,"tipCount":18,"visitsCount":2389,"url":"http://www.myc.org","tier":"","message":"","currency":"","rating":9.1},{"name":"Zum Schneider","phone":"2125981098","twitter":"zumschneider","address":"107 Avenue C","lat":40.72417,"lng":-73.978871,"neighborhood":"Alphabet City","city_fetched":"New York","state":"NY","country":"United States","canonicalUrl":"https://foursquare.com/v/zum-schneider/3fd66200f964a52022e51ee3","category":"German Restaurant","checkinsCount":16855,"usersCount":11401,"tipCount":163,"visitsCount":17638,"url":"http://www.zumschneider.com","tier":2,"message":"Moderate","currency":"$","rating":9.1},{"name":"Charlie Bird","phone":"2122357133","twitter":"charliebirdnyc","address":"5 King St","lat":40.72781164387366,"lng":-74.0030264854431,"neighborhood":"SoHo","city_fetched":"New York","state":"NY","country":"United States","canonicalUrl":"https://foursquare.com/v/charlie-bird/51278a09e4b0b624edbc914c","category":"Italian Restaurant","checkinsCount":6176,"usersCount":5781,"tipCount":144,"visitsCount":8129,"url":"http://www.charliebirdnyc.com","tier":4,"message":"Very Expensive","currency":"$","rating":9.1},{"name":"The Alcove","phone":"3478134159","address":"41-11 49th St","lat":40.74595971268485,"lng":-73.9152662538462,"neighborhood":"Sunnyside","city_fetched":"New York","state":"NY","country":"United States","canonicalUrl":"https://foursquare.com/v/the-alcove/567a40b1498ef19172a0b3cf","category":"American Restaurant","checkinsCount":278,"usersCount":195,"tipCount":11,"visitsCount":366,"tier":"","message":"","currency":"","rating":9.1},{"name":"Blue Note","phone":"2124758592","twitter":"bluenotenyc","address":"131 W 3rd St","lat":40.73091629339441,"lng":-74.00061843452929,"neighborhood":"Greenwich Village","city_fetched":"New York","state":"NY","country":"United States","canonicalUrl":"https://foursquare.com/v/blue-note/3fd66200f964a520e9e51ee3","category":"Jazz Club","checkinsCount":10153,"usersCount":8247,"tipCount":138,"visitsCount":10290,"url":"http://bluenote.net","tier":"","message":"","currency":"","rating":9.1},{"name":"Yerba Buena","phone":"2125292919","twitter":"chefmedinanyc","address":"23 Avenue A","lat":40.72293,"lng":-73.985748,"neighborhood":"Alphabet City","city_fetched":"New York","state":"NY","country":"United States","canonicalUrl":"https://foursquare.com/v/yerba-buena/49b40911f964a520e5521fe3","category":"Latin American Restaurant","checkinsCount":6954,"usersCount":5066,"tipCount":180,"visitsCount":7156,"url":"http://ybnyc.com","tier":3,"message":"Expensive","currency":"$","rating":9.1},{"name":"Black Tap","phone":"9176393089","address":"529 Broome St","lat":40.72394516521381,"lng":-74.0041074830379,"neighborhood":"SoHo","city_fetched":"New York","state":"NY","country":"United States","canonicalUrl":"https://foursquare.com/v/black-tap/54f9d808498eaa73550d399c","category":"Burger Joint","checkinsCount":2256,"usersCount":2169,"tipCount":139,"visitsCount":2800,"url":"http://blacktapnyc.com","tier":2,"message":"Moderate","currency":"$","rating":9.1},{"name":"El Cortez","phone":"3475992976","twitter":"elcortezbk","address":"17 Ingraham St","lat":40.7070242661569,"lng":-73.93305728483547,"neighborhood":"East Williamsburg","city_fetched":"New York","state":"NY","country":"United States","canonicalUrl":"https://foursquare.com/v/el-cortez/553db519498e983c7f4881a3","category":"Mexican Restaurant","checkinsCount":2131,"usersCount":2139,"tipCount":48,"visitsCount":3388,"url":"http://elcortezbushwick.com","tier":2,"message":"Moderate","currency":"$","rating":9.1},{"name":"Freek's Mill","phone":"7188523000","address":"285 Nevins St","lat":40.67967093436544,"lng":-73.9869715129134,"neighborhood":"Gowanus","city_fetched":"New York","state":"NY","country":"United States","canonicalUrl":"https://foursquare.com/v/freeks-mill/56e0d05c498e4c4b789a9785","category":"New American Restaurant","checkinsCount":471,"usersCount":686,"tipCount":37,"visitsCount":822,"url":"http://freeksmill.com","tier":3,"message":"Expensive","currency":"$","rating":9.1},{"name":"Archie's","phone":"3479152244","address":"128 Central Ave","lat":40.699855,"lng":-73.928287,"neighborhood":"Bushwick","city_fetched":"New York","state":"NY","country":"United States","canonicalUrl":"https://foursquare.com/v/archies/53472f19498ee10da9096342","category":"Pizza Place","checkinsCount":1898,"usersCount":1167,"tipCount":59,"visitsCount":2660,"url":"http://www.archiesbrooklyn.com","tier":1,"message":"Cheap","currency":"$","rating":9.1},{"name":"Barrio Chino","phone":"2122286710","address":"253 Broome St","lat":40.718151906489844,"lng":-73.9900016784668,"neighborhood":"Lower East Side","city_fetched":"New York","state":"NY","country":"United States","canonicalUrl":"https://foursquare.com/v/barrio-chino/3fd66200f964a52022e41ee3","category":"Mexican Restaurant","checkinsCount":13592,"usersCount":8490,"tipCount":262,"visitsCount":13957,"url":"http://www.barriochinonyc.com","tier":2,"message":"Moderate","currency":"$","rating":9.1},{"name":"The Marlton Hotel","phone":"2123210100","address":"5 W 8th St","lat":40.732542160895505,"lng":-73.99688829591487,"neighborhood":"Greenwich Village","city_fetched":"New York","state":"NY","country":"United States","canonicalUrl":"https://foursquare.com/v/the-marlton-hotel/5139440ee4b0b10ea1c7b7c0","category":"Hotel","checkinsCount":5730,"usersCount":4227,"tipCount":53,"visitsCount":7195,"url":"http://www.marltonhotel.com","tier":"","message":"","currency":"","rating":9.1},{"name":"The Jeffrey Craft Beer & Bites","phone":"2123552337","twitter":"thejeffreynyc","address":"311 E 60th St","lat":40.76098988483319,"lng":-73.96294644345505,"neighborhood":"Upper East Side","city_fetched":"New York","state":"NY","country":"United States","canonicalUrl":"https://foursquare.com/thejeffreynyc","category":"Beer Garden","checkinsCount":11460,"usersCount":7094,"tipCount":150,"visitsCount":14534,"url":"http://www.thejeffreynyc.com","tier":2,"message":"Moderate","currency":"$","rating":9.1},{"name":"The Ten Bells","phone":"2122284450","twitter":"thetenbells","address":"247 Broome St","lat":40.71802614679331,"lng":-73.9897778767785,"neighborhood":"Lower East Side","city_fetched":"New York","state":"NY","country":"United States","canonicalUrl":"https://foursquare.com/v/the-ten-bells/480f35eef964a520294f1fe3","category":"Wine Bar","checkinsCount":9288,"usersCount":5924,"tipCount":140,"visitsCount":9360,"url":"http://www.tenbellsnyc.com","tier":2,"message":"Moderate","currency":"$","rating":9.1},{"name":"Doris","phone":"2128361075","address":"1088 Fulton St","lat":40.68133774014167,"lng":-73.95735919475555,"neighborhood":"Bedford-Stuyvesant","city_fetched":"New York","state":"NY","country":"United States","canonicalUrl":"https://foursquare.com/v/doris/51a3e385498e6d1b9cc72194","category":"Bar","checkinsCount":3600,"usersCount":3270,"tipCount":56,"visitsCount":5821,"tier":2,"message":"Moderate","currency":"$","rating":9.1},{"name":"Aria Wine Bar","phone":"2122424233","address":"117 Perry St","lat":40.73510410768182,"lng":-74.00650616699185,"neighborhood":"West Village","city_fetched":"New York","state":"NY","country":"United States","canonicalUrl":"https://foursquare.com/v/aria-wine-bar/4c18e7d34ff90f4716100f49","category":"Wine Bar","checkinsCount":9694,"usersCount":7527,"tipCount":148,"visitsCount":10905,"tier":2,"message":"Moderate","currency":"$","rating":9.1},{"name":"BÚÐIN","phone":"3478449639","twitter":"budinnyc","address":"114 Greenpoint Ave","lat":40.72988285703239,"lng":-73.95626217126846,"neighborhood":"Greenpoint","city_fetched":"New York","state":"NY","country":"United States","canonicalUrl":"https://foursquare.com/v/b%C3%BA%C3%B0in/519d8f3e50199258b393eb33","category":"Café","checkinsCount":4311,"usersCount":2651,"tipCount":114,"visitsCount":6232,"url":"http://www.budin-nyc.com","tier":2,"message":"Moderate","currency":"$","rating":9.1},{"name":"Anella","phone":"7183898100","twitter":"anellabk","address":"222 Franklin St","lat":40.73325088888788,"lng":-73.95786670316132,"neighborhood":"Greenpoint","city_fetched":"New York","state":"NY","country":"United States","canonicalUrl":"https://foursquare.com/v/anella/4a5a78f1f964a52064ba1fe3","category":"American Restaurant","checkinsCount":6637,"usersCount":3667,"tipCount":116,"visitsCount":7353,"url":"http://anellabrooklyn.com","tier":2,"message":"Moderate","currency":"$","rating":9.1},{"name":"Sweetleaf","phone":"3475271038","twitter":"sweetleaflic","address":"4615 Center Blvd","lat":40.74699000943985,"lng":-73.95632266520812,"neighborhood":"Hunters Point","city_fetched":"New York","state":"NY","country":"United States","canonicalUrl":"https://foursquare.com/v/sweetleaf/51435bb3e4b0df06d5e4e9ef","category":"Café","checkinsCount":5674,"usersCount":2744,"tipCount":88,"visitsCount":7655,"url":"http://www.sweetleaflic.com","tier":2,"message":"Moderate","currency":"$","rating":9.1},{"name":"Peasant","phone":"2129659511","address":"194 Elizabeth St","lat":40.72173338059507,"lng":-73.99448949148922,"neighborhood":"NoLita","city_fetched":"New York","state":"NY","country":"United States","canonicalUrl":"https://foursquare.com/v/peasant/3fd66200f964a52023eb1ee3","category":"Italian Restaurant","checkinsCount":7122,"usersCount":5491,"tipCount":148,"visitsCount":7192,"url":"http://www.peasantnyc.com","tier":3,"message":"Expensive","currency":"$","rating":9.1},{"name":"Baker & Co.","phone":"2122551234","twitter":"bakerandcony","address":"259 Bleecker St","lat":40.73128194314368,"lng":-74.00300568511572,"neighborhood":"West Village","city_fetched":"New York","state":"NY","country":"United States","canonicalUrl":"https://foursquare.com/v/baker--co/534c7a27498efe3d035cbbe9","category":"Italian Restaurant","checkinsCount":3167,"usersCount":2584,"tipCount":69,"visitsCount":3256,"url":"http://bakerandcony.com","tier":2,"message":"Moderate","currency":"$","rating":9.1},{"name":"Dante","phone":"2129825275","twitter":"dante_nyc","address":"79-81 Macdougal St","lat":40.728805580121815,"lng":-74.00156530430915,"neighborhood":"Greenwich Village","city_fetched":"New York","state":"NY","country":"United States","canonicalUrl":"https://foursquare.com/v/dante/556f4ef2498ee60139b28c72","category":"Italian Restaurant","checkinsCount":3510,"usersCount":2314,"tipCount":63,"visitsCount":3623,"url":"http://www.dante-nyc.com","tier":"","message":"","currency":"","rating":9.1},{"name":"Tao","phone":"2128882288","twitter":"taony","address":"42 E 58th St","lat":40.76266902962865,"lng":-73.97156734610637,"neighborhood":"Midtown East","city_fetched":"New York","state":"NY","country":"United States","canonicalUrl":"https://foursquare.com/taony","category":"Asian Restaurant","checkinsCount":21691,"usersCount":18192,"tipCount":333,"visitsCount":23004,"url":"http://www.taorestaurant.com","tier":4,"message":"Very Expensive","currency":"$","rating":9.1},{"name":"SoHo Grand Hotel","phone":"2129653000","twitter":"sohograndhotel","address":"310 W Broadway","lat":40.72195527037662,"lng":-74.0043771930212,"neighborhood":"SoHo","city_fetched":"New York","state":"NY","country":"United States","canonicalUrl":"https://foursquare.com/v/soho-grand-hotel/3fd66200f964a52053eb1ee3","category":"Hotel","checkinsCount":26749,"usersCount":16576,"tipCount":145,"visitsCount":28814,"url":"http://www.sohogrand.com","tier":"","message":"","currency":"","rating":9.1},{"name":"J.G. Melon","phone":"2127440585","address":"1291 3rd Ave","lat":40.77108290360298,"lng":-73.9596116233806,"neighborhood":"Upper East Side","city_fetched":"New York","state":"NY","country":"United States","canonicalUrl":"https://foursquare.com/v/jg-melon/3fd66200f964a52044ea1ee3","category":"Burger Joint","checkinsCount":16080,"usersCount":11488,"tipCount":369,"visitsCount":18608,"tier":2,"message":"Moderate","currency":"$","rating":9.1},{"name":"The Blind Tiger","phone":"2124624682","twitter":"blindtigernyc","address":"281 Bleecker St","lat":40.73185406724251,"lng":-74.00334999764773,"neighborhood":"West Village","city_fetched":"New York","state":"NY","country":"United States","canonicalUrl":"https://foursquare.com/blindtigernyc","category":"Bar","checkinsCount":36894,"usersCount":20822,"tipCount":312,"visitsCount":37721,"url":"http://www.blindtigeralehouse.com","tier":1,"message":"Cheap","currency":"$","rating":9.1},{"name":"Bar Goto","phone":"2124754411","twitter":"bargoto_nyc","address":"245 Eldridge St","lat":40.7227523487073,"lng":-73.98941632300053,"neighborhood":"Lower East Side","city_fetched":"New York","state":"NY","country":"United States","canonicalUrl":"https://foursquare.com/v/bar-goto/55b01ace498e6282c0c2acd7","category":"Cocktail Bar","checkinsCount":1576,"usersCount":1605,"tipCount":51,"visitsCount":2078,"url":"http://www.bargoto.com","tier":2,"message":"Moderate","currency":"$","rating":9.1},{"name":"Provocateur","phone":"2129299036","twitter":"provocateur","address":"18 9th Ave","lat":40.73967476917629,"lng":-74.00551341388324,"neighborhood":"Meatpacking District","city_fetched":"New York","state":"NY","country":"United States","canonicalUrl":"https://foursquare.com/v/provocateur/4b513135f964a520bb4627e3","category":"Nightclub","checkinsCount":14534,"usersCount":9451,"tipCount":51,"visitsCount":14820,"url":"http://provocateurny.com","tier":4,"message":"Very Expensive","currency":"$","rating":9.1},{"name":"Pouring Ribbons","phone":"9176566788","twitter":"pouringribbons","address":"225 Avenue B Fl 2","lat":40.729014947294786,"lng":-73.97807121276855,"neighborhood":"Alphabet City","city_fetched":"New York","state":"NY","country":"United States","canonicalUrl":"https://foursquare.com/pouringribbons","category":"Cocktail Bar","checkinsCount":9100,"usersCount":6397,"tipCount":155,"visitsCount":9824,"url":"http://www.pouringribbons.com","tier":3,"message":"Expensive","currency":"$","rating":9.1},{"name":"Crescent & Vine","phone":"7182044774","twitter":"crescentandvine","address":"25-03 Ditmars Blvd","lat":40.77870419353765,"lng":-73.91434766657366,"neighborhood":"Ditmars","city_fetched":"New York","state":"NY","country":"United States","canonicalUrl":"https://foursquare.com/v/crescent--vine/470b8bb9f964a520784b1fe3","category":"Wine Bar","checkinsCount":2859,"usersCount":1206,"tipCount":29,"visitsCount":3418,"tier":2,"message":"Moderate","currency":"$","rating":9.1},{"name":"St. Gambrinus Beer Shoppe","phone":"3477632261","twitter":"stgambrinusbeer","address":"533 Atlantic Ave","lat":40.685049,"lng":-73.979857,"neighborhood":"Boerum Hill","city_fetched":"New York","state":"NY","country":"United States","canonicalUrl":"https://foursquare.com/v/st-gambrinus-beer-shoppe/52111ce111d2e6fde814bcf2","category":"Bar","checkinsCount":2683,"usersCount":1865,"tipCount":41,"visitsCount":3693,"url":"http://www.stgambrinusbeer.com","tier":2,"message":"Moderate","currency":"$","rating":9.1},{"name":"The Immigrant","phone":"6463081724","twitter":"theimmigrantnyc","address":"341 E 9th St","lat":40.7284825326176,"lng":-73.98541049112558,"neighborhood":"East Village","city_fetched":"New York","state":"NY","country":"United States","canonicalUrl":"https://foursquare.com/v/the-immigrant/4b57b82cf964a520a53d28e3","category":"Wine Bar","checkinsCount":7797,"usersCount":5325,"tipCount":92,"visitsCount":8403,"url":"http://theimmigrantnyc.com","tier":2,"message":"Moderate","currency":"$","rating":9.1},{"name":"Proletariat","phone":"2127776707","twitter":"proletariatny","address":"102 Saint Marks Pl","lat":40.72694980507786,"lng":-73.98414373397827,"neighborhood":"East Village","city_fetched":"New York","state":"NY","country":"United States","canonicalUrl":"https://foursquare.com/v/proletariat/4f9f2577c2eea55dddf4b9e1","category":"Bar","checkinsCount":8016,"usersCount":4762,"tipCount":134,"visitsCount":8147,"url":"http://proletariatny.com","tier":2,"message":"Moderate","currency":"$","rating":9.1},{"name":"Bathtub Gin","phone":"6465591671","twitter":"bathtubgin","address":"132 9th Ave","lat":40.74359105994247,"lng":-74.00334999764773,"neighborhood":"Chelsea","city_fetched":"New York","state":"NY","country":"United States","canonicalUrl":"https://foursquare.com/v/bathtub-gin/4dc34fc7ae608779d1064ae9","category":"Speakeasy","checkinsCount":16753,"usersCount":13858,"tipCount":238,"visitsCount":19544,"url":"http://www.bathtubginnyc.com","tier":3,"message":"Expensive","currency":"$","rating":9.1},{"name":"Vanguard Wine Bar","phone":"2127999463","twitter":"vanguard_nyc","address":"189 Amsterdam Ave","lat":40.77637722864869,"lng":-73.98325258717293,"neighborhood":"Lincoln Square","city_fetched":"New York","state":"NY","country":"United States","canonicalUrl":"https://foursquare.com/v/vanguard-wine-bar/5364212f498e00c999fe9c00","category":"Wine Bar","checkinsCount":1698,"usersCount":1777,"tipCount":34,"visitsCount":2580,"url":"http://www.vanguard-nyc.com","tier":2,"message":"Moderate","currency":"$","rating":9.1},{"name":"Spuyten Duyvil","phone":"7189634140","address":"359 Metropolitan Ave","lat":40.71416108630139,"lng":-73.95588642919986,"neighborhood":"Williamsburg","city_fetched":"New York","state":"NY","country":"United States","canonicalUrl":"https://foursquare.com/v/spuyten-duyvil/40807380f964a52080f21ee3","category":"Beer Garden","checkinsCount":16849,"usersCount":8989,"tipCount":161,"visitsCount":16957,"url":"http://www.spuytenduyvilnyc.com","tier":2,"message":"Moderate","currency":"$","rating":9.1},{"name":"Little Branch","phone":"2129294360","address":"20 7th Ave S","lat":40.730161317477,"lng":-74.00490939617157,"neighborhood":"West Village","city_fetched":"New York","state":"NY","country":"United States","canonicalUrl":"https://foursquare.com/v/little-branch/43db9775f964a520922e1fe3","category":"Speakeasy","checkinsCount":17660,"usersCount":13283,"tipCount":293,"visitsCount":18656,"tier":2,"message":"Moderate","currency":"$","rating":9.1},{"name":"Brandy Library","phone":"2122265545","twitter":"brandylibrary","address":"25 N Moore St","lat":40.71981,"lng":-74.007007,"neighborhood":"Tribeca","city_fetched":"New York","state":"NY","country":"United States","canonicalUrl":"https://foursquare.com/v/brandy-library/42e82000f964a52083261fe3","category":"Whisky Bar","checkinsCount":8812,"usersCount":7266,"tipCount":154,"visitsCount":9738,"url":"http://brandylibrary.com","tier":2,"message":"Moderate","currency":"$","rating":9.1},{"name":"Donna","phone":"6465686622","twitter":"donnabklyn","address":"27 Broadway","lat":40.710883715027364,"lng":-73.96769889288808,"neighborhood":"Williamsburg","city_fetched":"New York","state":"NY","country":"United States","canonicalUrl":"https://foursquare.com/donnabklyn","category":"Cocktail Bar","checkinsCount":5220,"usersCount":3690,"tipCount":65,"visitsCount":5804,"url":"http://www.donnabklyn.com","tier":"","message":"","currency":"","rating":9.1},{"name":"Kaia Wine Bar","phone":"2127220490","twitter":"kaiawinebar","address":"1614 3rd Ave","lat":40.78175241189823,"lng":-73.9516158562438,"neighborhood":"Yorkville","city_fetched":"New York","state":"NY","country":"United States","canonicalUrl":"https://foursquare.com/v/kaia-wine-bar/4d7eb8554219a1cd522e68d3","category":"Wine Bar","checkinsCount":4085,"usersCount":2424,"tipCount":81,"visitsCount":4161,"url":"http://kaiawinebar.com","tier":3,"message":"Expensive","currency":"$","rating":9.1},{"name":"Ardesia","phone":"2122479191","twitter":"ardesiawinebar","address":"510 W 52nd St","lat":40.76637840235331,"lng":-73.9917807575885,"neighborhood":"Hell's Kitchen","city_fetched":"New York","state":"NY","country":"United States","canonicalUrl":"https://foursquare.com/v/ardesia/4ad395b4f964a5200ee520e3","category":"Wine Bar","checkinsCount":6418,"usersCount":4321,"tipCount":87,"visitsCount":6925,"url":"http://www.ardesia-ny.com","tier":2,"message":"Moderate","currency":"$","rating":9.1},{"name":"bibi","phone":"2126732424","address":"211 E 4th St","lat":40.723810667553806,"lng":-73.98368302207766,"neighborhood":"Alphabet City","city_fetched":"New York","state":"NY","country":"United States","canonicalUrl":"https://foursquare.com/v/bibi/52ed36f511d2e0abd9fc8f11","category":"Wine Bar","checkinsCount":1232,"usersCount":868,"tipCount":20,"visitsCount":1506,"url":"http://bibiwinebar.com","tier":"","message":"","currency":"","rating":9.1},{"name":"Pearl's Social & Billy Club","phone":"3476279985","address":"40 Saint Nicholas Ave","lat":40.70708173393841,"lng":-73.9213290810585,"neighborhood":"Bushwick","city_fetched":"New York","state":"NY","country":"United States","canonicalUrl":"https://foursquare.com/v/pearls-social--billy-club/4e054e43483b98d4170307ea","category":"Bar","checkinsCount":7400,"usersCount":3917,"tipCount":65,"visitsCount":8823,"url":"http://www.pearlssocial.com","tier":2,"message":"Moderate","currency":"$","rating":9.1},{"name":"Mother's Ruin","phone":"2122190942","address":"18 Spring St","lat":40.72147210037024,"lng":-73.99505189330694,"neighborhood":"NoLita","city_fetched":"New York","state":"NY","country":"United States","canonicalUrl":"https://foursquare.com/v/mothers-ruin/4de3e4effa7651589f21983d","category":"Cocktail Bar","checkinsCount":22803,"usersCount":13785,"tipCount":257,"visitsCount":25489,"url":"http://mothersruinnyc.com","tier":2,"message":"Moderate","currency":"$","rating":9.1},{"name":"Sweet Afton","phone":"7187772570","twitter":"sweetaftonbar","address":"30-09 34th St","lat":40.76548383013281,"lng":-73.91906686259051,"neighborhood":"Astoria","city_fetched":"New York","state":"NY","country":"United States","canonicalUrl":"https://foursquare.com/v/sweet-afton/4a9b0e2cf964a520373420e3","category":"Bar","checkinsCount":21037,"usersCount":8696,"tipCount":242,"visitsCount":22157,"url":"http://sweetaftonbar.com","tier":2,"message":"Moderate","currency":"$","rating":9.1},{"name":"The Sampler","phone":"7184843560","address":"234 Starr St","lat":40.705595811417375,"lng":-73.9225171998537,"neighborhood":"Bushwick","city_fetched":"New York","state":"NY","country":"United States","canonicalUrl":"https://foursquare.com/v/the-sampler/51bcb4c2498e9d1a44691b21","category":"Bar","checkinsCount":2376,"usersCount":1236,"tipCount":36,"visitsCount":2735,"url":"http://www.thesamplerbk.com","tier":2,"message":"Moderate","currency":"$","rating":9.1},{"name":"Brooklyn Bowl","phone":"7189633369","twitter":"brooklynbowl","address":"61 Wythe Ave","lat":40.721917873452945,"lng":-73.9575452687688,"neighborhood":"Williamsburg","city_fetched":"New York","state":"NY","country":"United States","canonicalUrl":"https://foursquare.com/v/brooklyn-bowl/4a1afeb7f964a520b77a1fe3","category":"Bowling Alley","checkinsCount":81735,"usersCount":43430,"tipCount":513,"visitsCount":84285,"url":"http://www.brooklynbowl.com","tier":"","message":"","currency":"","rating":9.1},{"name":"Blue Ribbon Sushi Bar & Grill","phone":"2123970404","address":"308 W 58th St","lat":40.76765291211733,"lng":-73.98292545600036,"neighborhood":"Hell's Kitchen","city_fetched":"New York","state":"NY","country":"United States","canonicalUrl":"https://foursquare.com/v/blue-ribbon-sushi-bar--grill/4a20a2e9f964a520af7c1fe3","category":"Sushi Restaurant","checkinsCount":9940,"usersCount":6350,"tipCount":117,"visitsCount":10012,"url":"http://www.facebook.com/thompsonhotels","tier":3,"message":"Expensive","currency":"$","rating":9.1},{"name":"La Lanterna di Vittorio","phone":"2125295945","twitter":"lalanternacaffe","address":"129 Macdougal St","lat":40.73065725874063,"lng":-73.9999794960022,"neighborhood":"Greenwich Village","city_fetched":"New York","state":"NY","country":"United States","canonicalUrl":"https://foursquare.com/v/la-lanterna-di-vittorio/3fd66200f964a520cee91ee3","category":"Italian Restaurant","checkinsCount":8269,"usersCount":6324,"tipCount":146,"visitsCount":8616,"url":"http://lalanternacaffe.com","tier":2,"message":"Moderate","currency":"$","rating":9.1},{"name":"Turntable Chicken Jazz","phone":"2127149700","twitter":"turntablenyc","address":"314 5th Ave #F # 2","lat":40.74709727592872,"lng":-73.98569170554654,"neighborhood":"Koreatown","city_fetched":"New York","state":"NY","country":"United States","canonicalUrl":"https://foursquare.com/v/turntable-chicken-jazz/49ebc888f964a5202d671fe3","category":"Wings Joint","checkinsCount":20542,"usersCount":12209,"tipCount":282,"visitsCount":21903,"url":"http://turntablenyc.com","tier":2,"message":"Moderate","currency":"$","rating":9.1},{"name":"Maysville","phone":"6464908240","twitter":"maysvillenyc","address":"17 W 26th St","lat":40.74405353472563,"lng":-73.98973770417014,"neighborhood":"NoMad","city_fetched":"New York","state":"NY","country":"United States","canonicalUrl":"https://foursquare.com/v/maysville/5096f9a5e4b0ad3a967b4237","category":"New American Restaurant","checkinsCount":11338,"usersCount":8493,"tipCount":213,"visitsCount":12575,"url":"http://www.maysvillenyc.com","tier":3,"message":"Expensive","currency":"$","rating":9},{"name":"Don's Bogam Korean BBQ & Wine","phone":"2126832200","twitter":"donsbogam","address":"17 E 32nd St.","lat":40.7468200665746,"lng":-73.9844061505464,"neighborhood":"NoMad","city_fetched":"New York","state":"NY","country":"United States","canonicalUrl":"https://foursquare.com/v/dons-bogam-korean-bbq--wine/41e46880f964a520d81e1fe3","category":"Korean Restaurant","checkinsCount":11418,"usersCount":8239,"tipCount":120,"visitsCount":12483,"url":"http://www.donsbogam.com","tier":4,"message":"Very Expensive","currency":"$","rating":9},{"name":"BONDST","phone":"2127772500","twitter":"bondst","address":"6 Bond St","lat":40.72680327276638,"lng":-73.99440914823772,"neighborhood":"NoHo","city_fetched":"New York","state":"NY","country":"United States","canonicalUrl":"https://foursquare.com/v/bondst/3fd66200f964a52079e91ee3","category":"Sushi Restaurant","checkinsCount":10563,"usersCount":7647,"tipCount":178,"visitsCount":11262,"url":"http://www.bondstrestaurant.com","tier":4,"message":"Very Expensive","currency":"$","rating":9},{"name":"Allswell","phone":"3477992743","twitter":"allswell_nyc","address":"124 Bedford Ave","lat":40.71965625068183,"lng":-73.95596981048584,"neighborhood":"Williamsburg","city_fetched":"New York","state":"NY","country":"United States","canonicalUrl":"https://foursquare.com/v/allswell/4e18c39da8097d08b23ac35d","category":"American Restaurant","checkinsCount":11547,"usersCount":7229,"tipCount":209,"visitsCount":12606,"url":"http://allswellnyc.com","tier":2,"message":"Moderate","currency":"$","rating":9},{"name":"Shorty's","phone":"2123482300","twitter":"shortysnyc","address":"1678 1st Ave","lat":40.778007089654785,"lng":-73.9485563689376,"neighborhood":"Yorkville","city_fetched":"New York","state":"NY","country":"United States","canonicalUrl":"https://foursquare.com/v/shortys/53dad557498ec8c9278ec199","category":"Sandwich Place","checkinsCount":1018,"usersCount":769,"tipCount":25,"visitsCount":1284,"url":"http://www.shortysnyc.com","tier":1,"message":"Cheap","currency":"$","rating":9},{"name":"An Choi","phone":"2122263700","twitter":"anchoinyc","address":"85 Orchard St","lat":40.71772905767726,"lng":-73.99060249328613,"neighborhood":"Lower East Side","city_fetched":"New York","state":"NY","country":"United States","canonicalUrl":"https://foursquare.com/anchoinyc","category":"Vietnamese Restaurant","checkinsCount":7801,"usersCount":4462,"tipCount":154,"visitsCount":7954,"url":"http://www.anchoinyc.com","tier":2,"message":"Moderate","currency":"$","rating":9},{"name":"Montana's Trail House","phone":"9179661666","twitter":"trail_house","address":"445 Troutman St","lat":40.70793729579379,"lng":-73.92183976741954,"neighborhood":"Bushwick","city_fetched":"New York","state":"NY","country":"United States","canonicalUrl":"https://foursquare.com/trail_house","category":"Comfort Food Restaurant","checkinsCount":2787,"usersCount":2342,"tipCount":67,"visitsCount":3621,"url":"http://www.montanastrailhouse.com","tier":2,"message":"Moderate","currency":"$","rating":9},{"name":"The Narrows","phone":"2818271800","address":"1037 Flushing Ave","lat":40.70405007643559,"lng":-73.9308026432991,"neighborhood":"East Williamsburg","city_fetched":"New York","state":"NY","country":"United States","canonicalUrl":"https://foursquare.com/v/the-narrows/4c18320a4ff90f4793250e49","category":"Cocktail Bar","checkinsCount":6807,"usersCount":3633,"tipCount":101,"visitsCount":7470,"url":"http://narrowsbar.com","tier":2,"message":"Moderate","currency":"$","rating":9},{"name":"SixtyFive","phone":"2126325000","twitter":"sixtyfivenyc","address":"30 Rockefeller Plz","lat":40.75914289573979,"lng":-73.97958524268209,"neighborhood":"Rockefeller Center","city_fetched":"New York","state":"NY","country":"United States","canonicalUrl":"https://foursquare.com/v/sixtyfive/54331ff2498e34ea4b223455","category":"Lounge","checkinsCount":1070,"usersCount":939,"tipCount":21,"visitsCount":1103,"url":"http://rainbowroom.com/sixtyfive/","tier":"","message":"","currency":"","rating":9},{"name":"Beer Culture","phone":"6465902139","twitter":"beerculturenyc","address":"328 W 45th St","lat":40.759585,"lng":-73.989724,"neighborhood":"Hell's Kitchen","city_fetched":"New York","state":"NY","country":"United States","canonicalUrl":"https://foursquare.com/v/beer-culture/51eb44f8498e718fe6450886","category":"Bar","checkinsCount":6345,"usersCount":4365,"tipCount":114,"visitsCount":7524,"url":"http://beerculturenyc.com","tier":2,"message":"Moderate","currency":"$","rating":9},{"name":"Departed Soles Brewing Co.","phone":"2014798578","address":"150 Bay Street, Commercial Side, Suite 2a","lat":40.720710390081585,"lng":-74.04033702527555,"neighborhood":"The Waterfront","city_fetched":"New York","state":"NJ","country":"United States","canonicalUrl":"https://foursquare.com/v/departed-soles-brewing-co/55046643498e89d9f4bf1418","category":"Brewery","checkinsCount":541,"usersCount":320,"tipCount":8,"visitsCount":549,"url":"http://departedsoles.com","tier":1,"message":"Cheap","currency":"$","rating":9},{"name":"Copper & Oak","address":"157 Allen St","lat":40.72097378606286,"lng":-73.98954257995278,"neighborhood":"Lower East Side","city_fetched":"New York","state":"NY","country":"United States","canonicalUrl":"https://foursquare.com/v/copper--oak/53c580cb498efd710d9d1e93","category":"Whisky Bar","checkinsCount":768,"usersCount":796,"tipCount":24,"visitsCount":1001,"tier":3,"message":"Expensive","currency":"$","rating":9},{"name":"Mr. Purple","phone":"2122371790","address":"180 Orchard St","lat":40.72176931188539,"lng":-73.98791845009258,"neighborhood":"Lower East Side","city_fetched":"New York","state":"NY","country":"United States","canonicalUrl":"https://foursquare.com/v/mr-purple/5642aef9498e51025cf4a7a5","category":"Hotel Bar","checkinsCount":4349,"usersCount":3697,"tipCount":96,"visitsCount":5081,"url":"http://www.mrpurplenyc.com","tier":2,"message":"Moderate","currency":"$","rating":9},{"name":"The Breslin","phone":"2126791939","twitter":"thebreslin","address":"16 W 29th St","lat":40.74583734577147,"lng":-73.98799265354255,"neighborhood":"NoMad","city_fetched":"New York","state":"NY","country":"United States","canonicalUrl":"https://foursquare.com/v/the-breslin/4aa9386ef964a5208b5220e3","category":"Gastropub","checkinsCount":39254,"usersCount":24247,"tipCount":645,"visitsCount":39476,"url":"http://www.thebreslin.com","tier":3,"message":"Expensive","currency":"$","rating":9},{"name":"Copper & Oak","address":"157 Allen St","lat":40.72097378606286,"lng":-73.98954257995278,"neighborhood":"Lower East Side","city_fetched":"New York","state":"NY","country":"United States","canonicalUrl":"https://foursquare.com/v/copper--oak/53c580cb498efd710d9d1e93","category":"Whisky Bar","checkinsCount":768,"usersCount":796,"tipCount":24,"visitsCount":1001,"tier":3,"message":"Expensive","currency":"$","rating":9},{"name":"PDT (Please Don't Tell)","phone":"2126140386","address":"113 Saint Marks Pl","lat":40.727134776137426,"lng":-73.98382186889648,"neighborhood":"East Village","city_fetched":"New York","state":"NY","country":"United States","canonicalUrl":"https://foursquare.com/v/pdt-please-dont-tell/4656e1ebf964a52007471fe3","category":"Speakeasy","checkinsCount":16660,"usersCount":12636,"tipCount":399,"visitsCount":16718,"url":"http://pdtnyc.com","tier":3,"message":"Expensive","currency":"$","rating":9},{"name":"Marie's Crisis Cafe","phone":"2122439323","address":"59 Grove St","lat":40.73305811156182,"lng":-74.003206534168,"neighborhood":"West Village","city_fetched":"New York","state":"NY","country":"United States","canonicalUrl":"https://foursquare.com/v/maries-crisis-cafe/4a0b79cff964a520fc741fe3","category":"Piano Bar","checkinsCount":14053,"usersCount":5742,"tipCount":107,"visitsCount":14233,"tier":"","message":"","currency":"","rating":9},{"name":"Lantern Hall","twitter":"lanternhall","address":"52 Harrison Pl.","lat":40.70630157537652,"lng":-73.93144416077938,"neighborhood":"East Williamsburg","city_fetched":"New York","state":"NY","country":"United States","canonicalUrl":"https://foursquare.com/v/lantern-hall/564f6c8e498eaef222b40e2c","category":"Beer Garden","checkinsCount":722,"usersCount":856,"tipCount":18,"visitsCount":1313,"url":"http://www.lanternhall.com","tier":"","message":"","currency":"","rating":9},{"name":"The Flatiron Room","phone":"2127253860","twitter":"theflatironroom","address":"37 W 26th St","lat":40.74452585645749,"lng":-73.99060249328613,"neighborhood":"NoMad","city_fetched":"New York","state":"NY","country":"United States","canonicalUrl":"https://foursquare.com/v/the-flatiron-room/4aed0d90f964a520f2cc21e3","category":"Lounge","checkinsCount":8907,"usersCount":6375,"tipCount":116,"visitsCount":9047,"url":"http://theflatironroom.com","tier":3,"message":"Expensive","currency":"$","rating":9},{"name":"Toro","phone":"2126912360","twitter":"toro_nyc","address":"85 10th Ave","lat":40.74308033300265,"lng":-74.0085375648089,"neighborhood":"Chelsea","city_fetched":"New York","state":"NY","country":"United States","canonicalUrl":"https://foursquare.com/v/toro/5113d786e4b0159581d82bf0","category":"Spanish Restaurant","checkinsCount":6868,"usersCount":6766,"tipCount":126,"visitsCount":9079,"url":"http://toro-nyc.com","tier":3,"message":"Expensive","currency":"$","rating":9},{"name":"Mercer Kitchen","phone":"2129665454","twitter":"mercerkitchenny","address":"99 Prince St","lat":40.72474364215556,"lng":-73.99866155548237,"neighborhood":"SoHo","city_fetched":"New York","state":"NY","country":"United States","canonicalUrl":"https://foursquare.com/mercerkitchenny","category":"American Restaurant","checkinsCount":24188,"usersCount":19013,"tipCount":333,"visitsCount":25693,"url":"http://www.themercerkitchen.com","tier":3,"message":"Expensive","currency":"$","rating":9},{"name":"John's of Bleecker Street","phone":"2122431680","twitter":"johnsbleecker","address":"278 Bleecker St","lat":40.73172115027891,"lng":-74.00324670395317,"neighborhood":"West Village","city_fetched":"New York","state":"NY","country":"United States","canonicalUrl":"https://foursquare.com/v/johns-of-bleecker-street/43b9adf1f964a520e22c1fe3","category":"Pizza Place","checkinsCount":13284,"usersCount":9908,"tipCount":184,"visitsCount":13371,"url":"http://www.johnsbrickovenpizza.com","tier":2,"message":"Moderate","currency":"$","rating":9},{"name":"Saxon + Parole","phone":"2122540350","address":"316 Bowery","lat":40.72516293205118,"lng":-73.992159523528,"neighborhood":"East Village","city_fetched":"New York","state":"NY","country":"United States","canonicalUrl":"https://foursquare.com/v/saxon--parole/4e691e82b9930387355c629d","category":"American Restaurant","checkinsCount":16605,"usersCount":12005,"tipCount":255,"visitsCount":17900,"url":"http://www.saxonandparole.com","tier":3,"message":"Expensive","currency":"$","rating":9},{"name":"Sake Bar Hagi","phone":"2127648549","address":"152 W 49th St","lat":40.76032574241358,"lng":-73.98317797835803,"neighborhood":"Theater District","city_fetched":"New York","state":"NY","country":"United States","canonicalUrl":"https://foursquare.com/v/sake-bar-hagi/4a7f0d22f964a52094f21fe3","category":"Japanese Restaurant","checkinsCount":10254,"usersCount":6421,"tipCount":173,"visitsCount":10376,"url":"http://sakebarhagi.com","tier":3,"message":"Expensive","currency":"$","rating":9},{"name":"Fedora","phone":"6464499336","address":"239 W 4th St","lat":40.734481,"lng":-74.002934,"neighborhood":"West Village","city_fetched":"New York","state":"NY","country":"United States","canonicalUrl":"https://foursquare.com/v/fedora/49f1c129f964a520b5691fe3","category":"New American Restaurant","checkinsCount":9152,"usersCount":5855,"tipCount":125,"visitsCount":9708,"url":"http://fedoranyc.com","tier":3,"message":"Expensive","currency":"$","rating":9},{"name":"The Dutch","phone":"2126776200","twitter":"thedutchnyc","address":"131 Sullivan St","lat":40.72643754620104,"lng":-74.00225393393526,"neighborhood":"SoHo","city_fetched":"New York","state":"NY","country":"United States","canonicalUrl":"https://foursquare.com/v/the-dutch/4d9db7087f9e4eb9436ea1fc","category":"New American Restaurant","checkinsCount":26746,"usersCount":20108,"tipCount":394,"visitsCount":30177,"url":"http://www.thedutchnyc.com","tier":3,"message":"Expensive","currency":"$","rating":9},{"name":"Rosamunde Sausage Grill","phone":"7183882170","twitter":"rosamundebk","address":"285 Bedford Ave","lat":40.71428111327738,"lng":-73.96139860153198,"neighborhood":"Williamsburg","city_fetched":"New York","state":"NY","country":"United States","canonicalUrl":"https://foursquare.com/rosamundebk","category":"Hot Dog Joint","checkinsCount":7927,"usersCount":3954,"tipCount":85,"visitsCount":8330,"url":"http://rosamundesausagegrill.com","tier":3,"message":"Expensive","currency":"$","rating":9},{"name":"Negril Village","phone":"2124772804","twitter":"negrilvillage","address":"70 W 3rd St","lat":40.72956803487758,"lng":-73.99836888270403,"neighborhood":"Greenwich Village","city_fetched":"New York","state":"NY","country":"United States","canonicalUrl":"https://foursquare.com/v/negril-village/40fc6080f964a520150b1fe3","category":"Caribbean Restaurant","checkinsCount":9067,"usersCount":5317,"tipCount":132,"visitsCount":9162,"url":"http://www.negrilvillage.com","tier":2,"message":"Moderate","currency":"$","rating":9},{"name":"The Smith","phone":"2124209800","twitter":"thesmithnyc","address":"55 3rd Ave","lat":40.731155872068506,"lng":-73.98872764725327,"neighborhood":"East Village","city_fetched":"New York","state":"NY","country":"United States","canonicalUrl":"https://foursquare.com/v/the-smith/477a3514f964a520214d1fe3","category":"American Restaurant","checkinsCount":50545,"usersCount":28825,"tipCount":485,"visitsCount":52657,"url":"http://thesmithnyc.com","tier":3,"message":"Expensive","currency":"$","rating":9},{"name":"Indian Road Café","phone":"2129427451","twitter":"thetipsycow1","address":"600 W 218th St","lat":40.87285684461155,"lng":-73.91848127514643,"neighborhood":"Inwood","city_fetched":"New York","state":"NY","country":"United States","canonicalUrl":"https://foursquare.com/thetipsycow1","category":"Café","checkinsCount":7678,"usersCount":2864,"tipCount":106,"visitsCount":9035,"url":"http://www.indianroadcafe.com","tier":2,"message":"Moderate","currency":"$","rating":9},{"name":"Otto Enoteca Pizzeria","phone":"2129959559","twitter":"ottopizzeria","address":"1 5th Ave","lat":40.73205608596082,"lng":-73.99608487193893,"neighborhood":"Greenwich Village","city_fetched":"New York","state":"NY","country":"United States","canonicalUrl":"https://foursquare.com/v/otto-enoteca-pizzeria/3fd66200f964a520c7f11ee3","category":"Pizza Place","checkinsCount":35081,"usersCount":23924,"tipCount":465,"visitsCount":38497,"url":"http://www.ottopizzeria.com","tier":2,"message":"Moderate","currency":"$","rating":9},{"name":"Zizi Limona","phone":"3477631463","address":"129 Havemeyer St","lat":40.71244447495268,"lng":-73.9570401564992,"neighborhood":"Williamsburg","city_fetched":"New York","state":"NY","country":"United States","canonicalUrl":"https://foursquare.com/v/zizi-limona/504d44b1e4b0c450c331a39a","category":"Mediterranean Restaurant","checkinsCount":2537,"usersCount":1955,"tipCount":59,"visitsCount":2733,"url":"http://www.zizilimona1.com","tier":3,"message":"Expensive","currency":"$","rating":9},{"name":"Gyu-Kaku Japanese BBQ","phone":"6466929115","twitter":"gyukakujbbq","address":"321 W 44th St","lat":40.758832729468764,"lng":-73.99000169544253,"neighborhood":"Hell's Kitchen","city_fetched":"New York","state":"NY","country":"United States","canonicalUrl":"https://foursquare.com/v/gyukaku-japanese-bbq/4ef0d81fbe7ba3ed7c2296d2","category":"Japanese Restaurant","checkinsCount":10790,"usersCount":6592,"tipCount":128,"visitsCount":11203,"url":"http://www.gyu-kaku.com","tier":2,"message":"Moderate","currency":"$","rating":9},{"name":"Tuffet","phone":"7183887434","address":"286 Graham Ave","lat":40.71209565403459,"lng":-73.9439584367607,"neighborhood":"East Williamsburg","city_fetched":"New York","state":"NY","country":"United States","canonicalUrl":"https://foursquare.com/v/tuffet/4c6848d4832bc92868c4b3a8","category":"Bar","checkinsCount":3419,"usersCount":1962,"tipCount":58,"visitsCount":3691,"url":"http://www.tuffetnyc.com","tier":2,"message":"Moderate","currency":"$","rating":9}]