[{"name":"Swamp Head Brewery","address":"3650 SW 42nd Ave","lat":29.614682552774937,"lng":-82.37700003972203,"city_fetched":"Newberry,US","state":"FL","country":"United States","canonicalUrl":"https://foursquare.com/v/swamp-head-brewery/54dab1cb498e577dc3362bdd","categoryId":"50327c8591d4c4b30a586d5d","category":"Brewery","checkinsCount":472,"usersCount":485,"tipCount":3,"visitsCount":896,"url":"http://swamphead.com","tier":"","message":"","currency":"","rating":9.2},{"name":"First Magnitude Brewing","phone":"3527274677","address":"1220 SE Veitch St","lat":29.639810171260645,"lng":-82.32453629434822,"city_fetched":"Newberry,US","state":"FL","country":"United States","canonicalUrl":"https://foursquare.com/v/first-magnitude-brewing/538b22e7498ef93b52fb9b6e","categoryId":"50327c8591d4c4b30a586d5d","category":"Brewery","checkinsCount":754,"usersCount":577,"tipCount":6,"visitsCount":1467,"url":"http://www.fmbrewing.com","tier":"","message":"","currency":"","rating":9.2},{"name":"The Bull","address":"18 SW 1st Ave","lat":29.65124965,"lng":-82.32575912,"city_fetched":"Newberry,US","state":"FL","country":"United States","canonicalUrl":"https://foursquare.com/v/the-bull/4d12e0f80ad2f04da6bcaf54","categoryId":"4bf58dd8d48988d116941735","category":"Bar","checkinsCount":1377,"usersCount":500,"tipCount":11,"visitsCount":1385,"url":"http://thebulldowntown.com","tier":"","message":"","currency":"","rating":8.9},{"name":"Swamp Head Brewery","phone":"3525053035","twitter":"swamphead","address":"3650 SW 42nd Way","lat":29.624858463133506,"lng":-82.38872766494751,"city_fetched":"Newberry,US","state":"FL","country":"United States","canonicalUrl":"https://foursquare.com/swamphead","categoryId":"50327c8591d4c4b30a586d5d","category":"Brewery","checkinsCount":4683,"usersCount":1171,"tipCount":27,"visitsCount":4939,"url":"http://www.swamphead.com","tier":1,"message":"Cheap","currency":"$","rating":8.8},{"name":"Miller's Gainesville Ale House","phone":"3523710818","address":"3950 SW Archer Rd","lat":29.61976701647504,"lng":-82.3825762658602,"city_fetched":"Newberry,US","state":"FL","country":"United States","canonicalUrl":"https://foursquare.com/v/millers-gainesville-ale-house/4e4d0664bd413c4cc66e1349","categoryId":"4bf58dd8d48988d116941735","category":"Bar","checkinsCount":6268,"usersCount":3034,"tipCount":46,"visitsCount":6793,"url":"http://www.millersalehouse.com","tier":"","message":"","currency":"","rating":8.8},{"name":"Gainesville House of Beer","phone":"3523761100","twitter":"gainesvillehob","address":"19 W University Ave","lat":29.651915277859807,"lng":-82.32577642497142,"city_fetched":"Newberry,US","state":"FL","country":"United States","canonicalUrl":"https://foursquare.com/gainesvillehob","categoryId":"4bf58dd8d48988d11b941735","category":"Pub","checkinsCount":2350,"usersCount":914,"tipCount":14,"visitsCount":2485,"url":"http://www.gainesvillehob.com","tier":2,"message":"Moderate","currency":"$","rating":8.7},{"name":"The Backyard","address":"15 SE 2nd Pl","lat":29.649427933237636,"lng":-82.32446739755866,"city_fetched":"Newberry,US","state":"FL","country":"United States","canonicalUrl":"https://foursquare.com/v/the-backyard/4dfd8811d22d879302f94ca3","categoryId":"4bf58dd8d48988d117941735","category":"Beer Garden","checkinsCount":1180,"usersCount":271,"tipCount":2,"visitsCount":1192,"tier":"","message":"","currency":"","rating":8.5},{"name":"The Midnight","phone":"3526726113","address":"223 S Main St","lat":29.649309233264656,"lng":-82.32480525970459,"city_fetched":"Newberry,US","state":"FL","country":"United States","canonicalUrl":"https://foursquare.com/v/the-midnight/4c21741613c00f476c1386de","categoryId":"4bf58dd8d48988d116941735","category":"Bar","checkinsCount":2796,"usersCount":761,"tipCount":25,"visitsCount":2985,"url":"http://midnightgainesville.com","tier":1,"message":"Cheap","currency":"$","rating":8.4},{"name":"World of Beer","phone":"3527274714","twitter":"wobtioga","address":"140 Sw 128th St","lat":29.655695378226728,"lng":-82.47950884310724,"city_fetched":"Newberry,US","state":"FL","country":"United States","canonicalUrl":"https://foursquare.com/v/world-of-beer/501e1c00f1366768d6b1bc9c","categoryId":"4bf58dd8d48988d116941735","category":"Bar","checkinsCount":1704,"usersCount":530,"tipCount":5,"visitsCount":1913,"url":"http://worldofbeer.com/Locations/Gainesville","tier":2,"message":"Moderate","currency":"$","rating":8.4},{"name":"Mother's Pub & Grill","phone":"3523788135","address":"1017 W University Ave","lat":29.651983,"lng":-82.335848,"city_fetched":"Newberry,US","state":"FL","country":"United States","canonicalUrl":"https://foursquare.com/v/mothers-pub--grill/4b63ac97f964a520548b2ae3","categoryId":"4bf58dd8d48988d11b941735","category":"Pub","checkinsCount":6718,"usersCount":2061,"tipCount":55,"visitsCount":7203,"url":"http://www.motherspub.com","tier":1,"message":"Cheap","currency":"$","rating":8.2},{"name":"The JAM","twitter":"thejamgville","address":"817 W University Ave","lat":29.651943199049416,"lng":-82.3334287109375,"city_fetched":"Newberry,US","state":"FL","country":"United States","canonicalUrl":"https://foursquare.com/v/the-jam/50f60b4df0e42ccaf5ae32fb","categoryId":"4bf58dd8d48988d121941735","category":"Lounge","checkinsCount":290,"usersCount":117,"tipCount":5,"visitsCount":307,"url":"http://www.thejamgainesville.com","tier":"","message":"","currency":"","rating":8.2},{"name":"Copper Monkey","phone":"3523744984","address":"1700 W University Ave","lat":29.65216236876441,"lng":-82.34473943710327,"neighborhood":"University Park","city_fetched":"Newberry,US","state":"FL","country":"United States","canonicalUrl":"https://foursquare.com/v/copper-monkey/4b4bb03cf964a52022a426e3","categoryId":"4bf58dd8d48988d116941735","category":"Bar","checkinsCount":2266,"usersCount":1068,"tipCount":17,"visitsCount":2321,"url":"http://mycoppermonkey.com","tier":2,"message":"Moderate","currency":"$","rating":8.1},{"name":"Gator Tales","phone":"3523769500","address":"5112 NW 34th Blvd","lat":29.702431927766565,"lng":-82.36734517693709,"city_fetched":"Newberry,US","state":"FL","country":"United States","canonicalUrl":"https://foursquare.com/v/gator-tales/4b8f10daf964a520624733e3","categoryId":"4bf58dd8d48988d116941735","category":"Bar","checkinsCount":1258,"usersCount":211,"tipCount":13,"visitsCount":1319,"url":"http://gator-tales.com","tier":2,"message":"Moderate","currency":"$","rating":8},{"name":"The Brass Tap","phone":"3523717860","twitter":"brasstap","address":"3833 SW Archer Rd","lat":29.61967708926117,"lng":-82.38105118850063,"city_fetched":"Newberry,US","state":"FL","country":"United States","canonicalUrl":"https://foursquare.com/v/the-brass-tap/51201dcae4b00c9525902019","categoryId":"4bf58dd8d48988d117941735","category":"Beer Garden","checkinsCount":1312,"usersCount":519,"tipCount":14,"visitsCount":1436,"url":"http://www.brasstapbeerbar.com","tier":2,"message":"Moderate","currency":"$","rating":8},{"name":"Tall Paul's Brew House","phone":"3525050990","twitter":"tallpaulsbrew","address":"10 SE 2nd Ave","lat":29.650434,"lng":-82.324596,"city_fetched":"Newberry,US","state":"FL","country":"United States","canonicalUrl":"https://foursquare.com/v/tall-pauls-brew-house/4d60918529ef236afb34a759","categoryId":"50327c8591d4c4b30a586d5d","category":"Brewery","checkinsCount":3258,"usersCount":1505,"tipCount":21,"visitsCount":3526,"tier":2,"message":"Moderate","currency":"$","rating":7.9},{"name":"The Atlantic","phone":"3523371188","address":"15 N Main St","lat":29.652331428635996,"lng":-82.32497617225316,"city_fetched":"Newberry,US","state":"FL","country":"United States","canonicalUrl":"https://foursquare.com/v/the-atlantic/4b50823cf964a5208b2527e3","categoryId":"4bf58dd8d48988d116941735","category":"Bar","checkinsCount":2771,"usersCount":899,"tipCount":16,"visitsCount":2781,"url":"http://atlanticnightspot.com","tier":"","message":"","currency":"","rating":7.8},{"name":"The Queen's Arms British Pub","phone":"3523780721","address":"5323 SW 91st Ter","lat":29.60518394485385,"lng":-82.43927164814721,"city_fetched":"Newberry,US","state":"FL","country":"United States","canonicalUrl":"https://foursquare.com/v/the-queens-arms-british-pub/4bf1ec1178cec9288902bb86","categoryId":"4bf58dd8d48988d116941735","category":"Bar","checkinsCount":816,"usersCount":218,"tipCount":12,"visitsCount":870,"tier":"","message":"","currency":"","rating":7.8},{"name":"Crafty Bastards","lat":29.688984231648735,"lng":-82.39521511865863,"city_fetched":"Newberry,US","state":"FL","country":"United States","canonicalUrl":"https://foursquare.com/v/crafty-bastards/54cd1e03498e90135b66304a","categoryId":"4bf58dd8d48988d11b941735","category":"Pub","checkinsCount":254,"usersCount":178,"tipCount":4,"visitsCount":416,"tier":"","message":"","currency":"","rating":7.7},{"name":"2nd St. Speakeasy","twitter":"21speakeasy","address":"21 SW 2nd St","lat":29.651426,"lng":-82.326533,"city_fetched":"Newberry,US","state":"FL","country":"United States","canonicalUrl":"https://foursquare.com/v/2nd-st-speakeasy/4bd8ff2911dcc9283ab5f833","categoryId":"4bf58dd8d48988d11e941735","category":"Cocktail Bar","checkinsCount":1584,"usersCount":413,"tipCount":11,"visitsCount":1594,"tier":"","message":"","currency":"","rating":7.6},{"name":"Whiskey House","phone":"3525195534","address":"60 SW 2nd St","lat":29.650935755530263,"lng":-82.32666146203118,"city_fetched":"Newberry,US","state":"FL","country":"United States","canonicalUrl":"https://foursquare.com/v/whiskey-house/543745a0498e5f4612f74a39","categoryId":"4bf58dd8d48988d122941735","category":"Whisky Bar","checkinsCount":158,"usersCount":104,"tipCount":2,"visitsCount":168,"url":"http://www.whiskeyhouse.com","tier":"","message":"","currency":"","rating":7.5},{"name":"Lillian's Music Store","phone":"3523721010","address":"112 SE 1st St","lat":29.65052135953462,"lng":-82.32396841049194,"city_fetched":"Newberry,US","state":"FL","country":"United States","canonicalUrl":"https://foursquare.com/v/lillians-music-store/4b4ea856f964a52083f326e3","categoryId":"4bf58dd8d48988d116941735","category":"Bar","checkinsCount":1493,"usersCount":686,"tipCount":10,"visitsCount":1515,"tier":"","message":"","currency":"","rating":7.5},{"name":"Rockeys Dueling Piano Bar","phone":"3525050042","address":"112 S Main St","lat":29.650536698129013,"lng":-82.32526235639473,"city_fetched":"Newberry,US","state":"FL","country":"United States","canonicalUrl":"https://foursquare.com/v/rockeys-dueling-piano-bar/4d0c252f95c1a1cd959ffafe","categoryId":"4bf58dd8d48988d116941735","category":"Bar","checkinsCount":2181,"usersCount":1256,"tipCount":20,"visitsCount":2320,"tier":"","message":"","currency":"","rating":7.4},{"name":"Corks And Colors Studio","address":"5200 W Newberry Rd","lat":29.658831201086755,"lng":-82.39781461498816,"city_fetched":"Newberry,US","state":"FL","country":"United States","canonicalUrl":"https://foursquare.com/v/corks-and-colors-studio/4f11e512e4b09e58a182aace","categoryId":"4bf58dd8d48988d11a941735","category":"Other Nightlife","checkinsCount":101,"usersCount":71,"tipCount":3,"visitsCount":106,"tier":"","message":"","currency":"","rating":7.2},{"name":"Grog House Bar & Grill","phone":"3523787033","address":"1718 W University Ave","lat":29.652265,"lng":-82.345208,"neighborhood":"University Park","city_fetched":"Newberry,US","state":"FL","country":"United States","canonicalUrl":"https://foursquare.com/v/grog-house-bar--grill/4b60f4d7f964a52077032ae3","categoryId":"4bf58dd8d48988d116941735","category":"Bar","checkinsCount":3097,"usersCount":1089,"tipCount":14,"visitsCount":3120,"url":"http://groghouse.com","tier":"","message":"","currency":"","rating":7.2},{"name":"Stage 7 KTV","phone":"3525055156","twitter":"stage7ktv","address":"4110 SW 34th St Ste 1","lat":29.61440019417919,"lng":-82.37238726871085,"city_fetched":"Newberry,US","state":"FL","country":"United States","canonicalUrl":"https://foursquare.com/stage7ktv","categoryId":"4bf58dd8d48988d120941735","category":"Karaoke Bar","checkinsCount":102,"usersCount":112,"tipCount":1,"visitsCount":147,"url":"http://stage7ktv.com","tier":"","message":"","currency":"","rating":7.2},{"name":"Court Of Hero's","phone":"3523748629","address":"2104 SW 34th St","lat":29.633012164671968,"lng":-82.3737430631475,"city_fetched":"Newberry,US","state":"FL","country":"United States","canonicalUrl":"https://foursquare.com/v/court-of-heros/4bf30865706e20a1e9c3a798","categoryId":"4bf58dd8d48988d118941735","category":"Dive Bar","checkinsCount":1013,"usersCount":232,"tipCount":2,"visitsCount":1049,"url":"http://courtofherosgainesville.com","tier":"","message":"","currency":"","rating":7.1},{"name":"Fluid Lounge","lat":29.655724028302,"lng":-82.47937664403239,"city_fetched":"Newberry,US","state":"FL","country":"United States","canonicalUrl":"https://foursquare.com/v/fluid-lounge/521fec0511d2414fb927a8d8","categoryId":"4bf58dd8d48988d11e941735","category":"Cocktail Bar","checkinsCount":300,"usersCount":116,"tipCount":5,"visitsCount":336,"tier":"","message":"","currency":"","rating":7},{"name":"Salty Dog Saloon","phone":"3523756969","address":"1712 W University Ave","lat":29.652396224887948,"lng":-82.34518107746275,"neighborhood":"University Park","city_fetched":"Newberry,US","state":"FL","country":"United States","canonicalUrl":"https://foursquare.com/v/salty-dog-saloon/4b381ef7f964a520e04b25e3","categoryId":"4bf58dd8d48988d116941735","category":"Bar","checkinsCount":4668,"usersCount":1370,"tipCount":23,"visitsCount":4687,"url":"http://saltydogsaloon.com","tier":1,"message":"Cheap","currency":"$","rating":6.8},{"name":"OAK - Original American Kitchen","phone":"3525194979","address":"15 SE 1st Ave","lat":29.650947,"lng":-82.324486,"city_fetched":"Newberry,US","state":"FL","country":"United States","canonicalUrl":"https://foursquare.com/v/oak--original-american-kitchen/55161a6a498ef850f1fb07cc","categoryId":"4bf58dd8d48988d116941735","category":"Bar","checkinsCount":221,"usersCount":168,"tipCount":3,"visitsCount":240,"tier":"","message":"","currency":"","rating":6.7},{"name":"Dugout Billiards & Sports Club","phone":"3523751008","address":"3501 SW 2nd Ave","lat":29.649481552577424,"lng":-82.37625862753383,"city_fetched":"Newberry,US","state":"FL","country":"United States","canonicalUrl":"https://foursquare.com/v/dugout-billiards--sports-club/4bf0a24424f020a1ac5c684f","categoryId":"4bf58dd8d48988d11d941735","category":"Sports Bar","checkinsCount":561,"usersCount":177,"tipCount":5,"visitsCount":623,"url":"http://www.dugoutbilliards.com","tier":"","message":"","currency":"","rating":6.7},{"name":"University Club","phone":"3523786814","address":"18 E University Ave","lat":29.652127080061465,"lng":-82.32434550307266,"city_fetched":"Newberry,US","state":"FL","country":"United States","canonicalUrl":"https://foursquare.com/v/university-club/4b63c1adf964a52014902ae3","categoryId":"4bf58dd8d48988d1d8941735","category":"Gay Bar","checkinsCount":1727,"usersCount":592,"tipCount":10,"visitsCount":1844,"tier":2,"message":"Moderate","currency":"$","rating":6.6},{"name":"Kava Bar and Hookah Lounge","address":"1007 W University Ave","lat":29.65185868312068,"lng":-82.33549002168232,"city_fetched":"Newberry,US","state":"FL","country":"United States","canonicalUrl":"https://foursquare.com/v/kava-bar-and-hookah-lounge/4c5509c95b83952148b8db31","categoryId":"4bf58dd8d48988d119941735","category":"Hookah Bar","checkinsCount":642,"usersCount":188,"tipCount":8,"visitsCount":659,"tier":"","message":"","currency":"","rating":6.6},{"name":"Durty Nelly's Irish Pub","phone":"3523749567","address":"208 W University Ave","lat":29.652192242203594,"lng":-82.32673035666242,"city_fetched":"Newberry,US","state":"FL","country":"United States","canonicalUrl":"https://foursquare.com/v/durty-nellys-irish-pub/4b59ac85f964a520089228e3","categoryId":"4bf58dd8d48988d11b941735","category":"Pub","checkinsCount":1821,"usersCount":669,"tipCount":11,"visitsCount":1882,"tier":"","message":"","currency":"","rating":6.5},{"name":"Main Street Bar & Billiards","phone":"3523785081","twitter":"mainbilliardsgv","address":"108 S Main St","lat":29.650693,"lng":-82.32532,"city_fetched":"Newberry,US","state":"FL","country":"United States","canonicalUrl":"https://foursquare.com/v/main-street-bar--billiards/4becd3a0d5510f478019cd6c","categoryId":"4bf58dd8d48988d11d941735","category":"Sports Bar","checkinsCount":762,"usersCount":375,"tipCount":13,"visitsCount":765,"url":"http://mainstreetbarandbilliards-hub.com","tier":"","message":"","currency":"","rating":6.4},{"name":"Gators Den Sports Grill","phone":"3523314875","address":"4200 NW 97th Blvd","lat":29.69162678274494,"lng":-82.45169387950399,"city_fetched":"Newberry,US","state":"FL","country":"United States","canonicalUrl":"https://foursquare.com/v/gators-den-sports-grill/4ba84a2df964a52029d539e3","categoryId":"4bf58dd8d48988d1d5941735","category":"Hotel Bar","checkinsCount":233,"usersCount":166,"tipCount":5,"visitsCount":235,"tier":1,"message":"Cheap","currency":"$","rating":6.3},{"name":"Sheesha","phone":"3525195253","address":"1029 W University Ave","lat":29.651849982520257,"lng":-82.33604110732774,"city_fetched":"Newberry,US","state":"FL","country":"United States","canonicalUrl":"https://foursquare.com/v/sheesha/4e37937ea809a0c63b377476","categoryId":"4bf58dd8d48988d119941735","category":"Hookah Bar","checkinsCount":429,"usersCount":139,"tipCount":3,"visitsCount":430,"tier":"","message":"","currency":"","rating":6.3},{"name":"Balls","phone":"3523361188","address":"1716 W University Ave","lat":29.65216202810123,"lng":-82.34531903715403,"neighborhood":"University Park","city_fetched":"Newberry,US","state":"FL","country":"United States","canonicalUrl":"https://foursquare.com/v/balls/4b6904b4f964a5200f972be3","categoryId":"4bf58dd8d48988d116941735","category":"Bar","checkinsCount":3817,"usersCount":910,"tipCount":19,"visitsCount":3829,"tier":"","message":"","currency":"","rating":6.2},{"name":"Gator City","phone":"3523777333","address":"1728 W University Ave","lat":29.652356092757266,"lng":-82.34559433484225,"neighborhood":"University Park","city_fetched":"Newberry,US","state":"FL","country":"United States","canonicalUrl":"https://foursquare.com/v/gator-city/4b5a8849f964a52017ca28e3","categoryId":"4bf58dd8d48988d116941735","category":"Bar","checkinsCount":5054,"usersCount":1750,"tipCount":20,"visitsCount":5146,"url":"http://www.gatorcade.com","tier":1,"message":"Cheap","currency":"$","rating":6.1},{"name":"Thirsty Gator","address":"1301 NW 76th Blvd","lat":29.664744347401413,"lng":-82.42482033310804,"city_fetched":"Newberry,US","state":"FL","country":"United States","canonicalUrl":"https://foursquare.com/v/thirsty-gator/4c3a11e4dfb0e21e6f87b1a8","categoryId":"4bf58dd8d48988d116941735","category":"Bar","checkinsCount":239,"usersCount":70,"tipCount":3,"visitsCount":249,"tier":"","message":"","currency":"","rating":6},{"name":"Fat Daddy's","lat":29.65215685814098,"lng":-82.34501683346694,"neighborhood":"University Park","city_fetched":"Newberry,US","state":"FL","country":"United States","canonicalUrl":"https://foursquare.com/v/fat-daddys/505806c8e4b02ba603c935aa","categoryId":"4bf58dd8d48988d11e941735","category":"Cocktail Bar","checkinsCount":541,"usersCount":291,"tipCount":2,"visitsCount":543,"tier":"","message":"","currency":"","rating":6},{"name":"Dirty Bar","phone":"3523731141","address":"2441 NW 43rd St","lat":29.67606837,"lng":-82.38796108333334,"city_fetched":"Newberry,US","state":"FL","country":"United States","canonicalUrl":"https://foursquare.com/v/dirty-bar/4c7854b293ef236a5702ac0f","categoryId":"4bf58dd8d48988d116941735","category":"Bar","checkinsCount":283,"usersCount":107,"tipCount":4,"visitsCount":284,"tier":"","message":"","currency":"","rating":6},{"name":"Copper Monkey West","phone":"3523636338","address":"14209 W Newberry Rd","lat":29.653556497668475,"lng":-82.49534974841474,"city_fetched":"Newberry,US","state":"FL","country":"United States","canonicalUrl":"https://foursquare.com/v/copper-monkey-west/51ddce5a498e219fc45ee236","categoryId":"4bf58dd8d48988d11b941735","category":"Pub","checkinsCount":190,"usersCount":127,"tipCount":5,"visitsCount":247,"url":"http://mycoppermonkey.com","tier":"","message":"","currency":"","rating":5.9},{"name":"Jack's","address":"20 S Main St","lat":29.651256,"lng":-82.325045,"city_fetched":"Newberry,US","state":"FL","country":"United States","canonicalUrl":"https://foursquare.com/v/jacks/4eaa174077c850207ea5d7fa","categoryId":"4bf58dd8d48988d116941735","category":"Bar","checkinsCount":451,"usersCount":147,"tipCount":2,"visitsCount":463,"tier":1,"message":"Cheap","currency":"$","rating":5.8},{"name":"8 Seconds","address":"201 W University Ave","lat":29.65192298975791,"lng":-82.32682044953947,"city_fetched":"Newberry,US","state":"FL","country":"United States","canonicalUrl":"https://foursquare.com/v/8-seconds/4b7c8777f964a5200d992fe3","categoryId":"4bf58dd8d48988d116941735","category":"Bar","checkinsCount":2201,"usersCount":894,"tipCount":4,"visitsCount":2252,"url":"http://cowboysgainesville.com","tier":2,"message":"Moderate","currency":"$","rating":5.6},{"name":"Simons","phone":"3523367141","twitter":"simonsgnv","address":"8 S Main St","lat":29.651588217900603,"lng":-82.32525175700292,"city_fetched":"Newberry,US","state":"FL","country":"United States","canonicalUrl":"https://foursquare.com/v/simons/5036fccee4b0be420e7965f3","categoryId":"4bf58dd8d48988d11f941735","category":"Nightclub","checkinsCount":382,"usersCount":214,"tipCount":2,"visitsCount":387,"url":"http://simonsnightclub.com","tier":"","message":"","currency":"","rating":5.6},{"name":"Chomps Sports Grill","phone":"3527274722","twitter":"chompsgrill","address":"5109 NW 39th Ave","lat":29.68786704577455,"lng":-82.39797873471598,"city_fetched":"Newberry,US","state":"FL","country":"United States","canonicalUrl":"https://foursquare.com/v/chomps-sports-grill/51296e9de4b03158ba55a679","categoryId":"4bf58dd8d48988d11d941735","category":"Sports Bar","checkinsCount":412,"usersCount":190,"tipCount":11,"visitsCount":462,"url":"http://www.chompssportsgrill.com","tier":"","message":"","currency":"","rating":5.3},{"name":"Envy","address":"1728 W University Ave","lat":29.652324,"lng":-82.34562456607819,"neighborhood":"University Park","city_fetched":"Newberry,US","state":"FL","country":"United States","canonicalUrl":"https://foursquare.com/v/envy/4c7f2030fb13a1cdeaef9fa4","categoryId":"4bf58dd8d48988d116941735","category":"Bar","checkinsCount":690,"usersCount":340,"tipCount":4,"visitsCount":697,"tier":"","message":"","currency":"","rating":5.3}]