[{"name":"St. George Brewing Co.","phone":"7578657781","address":"204 Challenger Way","lat":37.100106666494796,"lng":-76.39461369682438,"city_fetched":"Newport","state":"VA","country":"United States","canonicalUrl":"https://foursquare.com/v/st-george-brewing-co/4c61375a1e5cd13a1a6aa3ed","category":"Brewery","checkinsCount":438,"usersCount":351,"tipCount":8,"visitsCount":628,"url":"http://stgbeer.com","tier":1,"message":"Cheap","currency":"$","rating":8.7},{"name":"Wharf Hill Brewing Co.","phone":"7573577100","address":"25 Main St","lat":36.982553055482654,"lng":-76.63025758273866,"city_fetched":"Newport","state":"VA","country":"United States","canonicalUrl":"https://foursquare.com/v/wharf-hill-brewing-co/551ec0e7498ee22d179f806e","category":"Brewery","checkinsCount":94,"usersCount":173,"tipCount":5,"visitsCount":343,"url":"http://wharfhillbrewing.com","tier":"","message":"","currency":"","rating":8.7},{"name":"Park Lane Tavern","phone":"7578382748","twitter":"parklanehampton","address":"4200 Kilgore Ave","lat":37.043899841588924,"lng":-76.39126539230347,"neighborhood":"Coliseum Central","city_fetched":"Newport","state":"VA","country":"United States","canonicalUrl":"https://foursquare.com/v/park-lane-tavern/4ba402f5f964a520937738e3","category":"Pub","checkinsCount":6442,"usersCount":2662,"tipCount":96,"visitsCount":7130,"url":"http://parklanetavern.com","tier":2,"message":"Moderate","currency":"$","rating":8.6},{"name":"Craft 60 Ale House","phone":"7579880506","address":"13361 Warwick Blvd","lat":37.115384480208036,"lng":-76.5207296575221,"neighborhood":"North Newport News","city_fetched":"Newport","state":"VA","country":"United States","canonicalUrl":"https://foursquare.com/v/craft-60-ale-house/53b33223498e0ee63f836867","category":"Bar","checkinsCount":149,"usersCount":180,"tipCount":1,"visitsCount":302,"url":"http://craft60.com","tier":"","message":"","currency":"","rating":8.4},{"name":"The Brickhouse Tavern","phone":"7572239531","address":"141 Herman Melville Ave","lat":37.08388381024666,"lng":-76.4886572812036,"neighborhood":"Port Warwick","city_fetched":"Newport","state":"VA","country":"United States","canonicalUrl":"https://foursquare.com/v/the-brickhouse-tavern/4b9e5f05f964a520b9dd36e3","category":"Bar","checkinsCount":4783,"usersCount":1201,"tipCount":30,"visitsCount":5379,"url":"http://brickhouse-tavern.com","tier":2,"message":"Moderate","currency":"$","rating":8.4},{"name":"Circa 1918","phone":"7575991918","address":"10367 Warwick Blvd","lat":37.033158477213384,"lng":-76.4620616890855,"neighborhood":"Central Newport News","city_fetched":"Newport","state":"VA","country":"United States","canonicalUrl":"https://foursquare.com/v/circa-1918/4c1388e7f1e0b71316aa34bc","category":"Gastropub","checkinsCount":506,"usersCount":263,"tipCount":11,"visitsCount":615,"url":"http://circa1918.com","tier":"","message":"","currency":"","rating":8.4},{"name":"Cin√©Bistro at Peninsula Town Center","phone":"7573258896","twitter":"cobbtheatres","address":"4401 Claiborne Sq W","lat":37.043548738105876,"lng":-76.39366865158081,"neighborhood":"Coliseum Central","city_fetched":"Newport","state":"VA","country":"United States","canonicalUrl":"https://foursquare.com/v/cin%C3%A9bistro-at-peninsula-town-center/4c0138b3783720a19448c62e","category":"Movie Theater","checkinsCount":4548,"usersCount":1891,"tipCount":44,"visitsCount":4829,"url":"http://www.facebook.com/cobbtheatres","tier":"","message":"","currency":"","rating":8.4},{"name":"Hoss's Deli","phone":"7575969104","address":"806 Old Oyster Point Rd","lat":37.09760727759456,"lng":-76.45998871019181,"neighborhood":"South Newport News","city_fetched":"Newport","state":"VA","country":"United States","canonicalUrl":"https://foursquare.com/v/hosss-deli/4bbcc82aa8cf76b0f7f1b0fd","category":"Bar","checkinsCount":1841,"usersCount":842,"tipCount":20,"visitsCount":2459,"url":"http://www.hosssdeli.com","tier":2,"message":"Moderate","currency":"$","rating":8.2},{"name":"Total Wine & More","phone":"7572492261","twitter":"totalwine","address":"308 Oyster Point Road","lat":37.103568,"lng":-76.510444,"neighborhood":"Wendwood","city_fetched":"Newport","state":"VA","country":"United States","canonicalUrl":"https://foursquare.com/v/total-wine--more/4b52061cf964a5200b6227e3","category":"Wine Shop","checkinsCount":1305,"usersCount":709,"tipCount":15,"visitsCount":1709,"url":"http://www.totalwine.com","tier":"","message":"","currency":"","rating":7.8},{"name":"Tradition Brewing Company","phone":"7573033415","twitter":"traditionbrewco","address":"700 Thimble Shoals Blvd","lat":37.08466211258251,"lng":-76.4770686199599,"neighborhood":"Central Newport News","city_fetched":"Newport","state":"VA","country":"United States","canonicalUrl":"https://foursquare.com/v/tradition-brewing-company/56f5593c498e89d195390deb","category":"Brewery","checkinsCount":63,"usersCount":100,"tipCount":3,"visitsCount":140,"tier":"","message":"","currency":"","rating":7.8},{"name":"Neo Kitchen+bar","lat":37.0855976173849,"lng":-76.47212674691885,"neighborhood":"Oyster Point City Center","city_fetched":"Newport","state":"VA","country":"United States","canonicalUrl":"https://foursquare.com/v/neo-kitchenbar/5381417e498ee3b991cc8929","category":"Gastropub","checkinsCount":123,"usersCount":76,"tipCount":1,"visitsCount":123,"url":"http://neokitchenandbar.com","tier":"","message":"","currency":"","rating":7.7},{"name":"Beef O'Brady's","phone":"7572499464","twitter":"beefobrady","address":"309 Oyster Point Rd","lat":37.105641611646206,"lng":-76.51056673606784,"neighborhood":"North Newport News","city_fetched":"Newport","state":"VA","country":"United States","canonicalUrl":"https://foursquare.com/v/beef-obradys/4bf85dab4a67c928824d25cf","category":"Pub","checkinsCount":586,"usersCount":247,"tipCount":6,"visitsCount":616,"url":"http://www.beefobradys.com","tier":"","message":"","currency":"","rating":7.4},{"name":"Manhattan's NY Deli & Pub","phone":"7578330555","twitter":"manhattansnn","address":"601 Thimble Shoals Blvd","lat":37.08472702616002,"lng":-76.48037251030661,"neighborhood":"Central Newport News","city_fetched":"Newport","state":"VA","country":"United States","canonicalUrl":"https://foursquare.com/v/manhattans-ny-deli--pub/4b49786bf964a5203d7026e3","category":"Pub","checkinsCount":1820,"usersCount":957,"tipCount":25,"visitsCount":2455,"url":"http://www.manhattansdeli.com","tier":2,"message":"Moderate","currency":"$","rating":7.4},{"name":"The Greene Turtle Sports Bar & Grille","phone":"7578383854","address":"3610 Von Schilling Dr","lat":37.04340887279414,"lng":-76.39361341095531,"neighborhood":"Coliseum Central","city_fetched":"Newport","state":"VA","country":"United States","canonicalUrl":"https://foursquare.com/v/the-greene-turtle-sports-bar--grille/4cefe7e38604a1cd4fa2ffc0","category":"Bar","checkinsCount":2527,"usersCount":1261,"tipCount":25,"visitsCount":2559,"url":"http://thegreeneturtle.com","tier":2,"message":"Moderate","currency":"$","rating":7.4},{"name":"Bay Haven Grille","phone":"7578728406","address":"6500 George Washington Mem Hwy","lat":37.172346,"lng":-76.472285,"city_fetched":"Newport","state":"VA","country":"United States","canonicalUrl":"https://foursquare.com/v/bay-haven-grille/4ba8de61f964a52092f539e3","category":"Bar","checkinsCount":737,"usersCount":213,"tipCount":8,"visitsCount":821,"tier":"","message":"","currency":"","rating":7.2},{"name":"Bridges Restaurant","address":"13162 Carrollton Blvd","lat":36.95952060281493,"lng":-76.52288635254773,"city_fetched":"Newport","state":"VA","country":"United States","canonicalUrl":"https://foursquare.com/v/bridges-restaurant/4e53dfcab61c309d14fca220","category":"Bar","checkinsCount":474,"usersCount":210,"tipCount":11,"visitsCount":525,"tier":"","message":"","currency":"","rating":7.2},{"name":"Cozzy's Comedy Club","phone":"7575952800","address":"9700 Warwick Blvd","lat":37.02588870757427,"lng":-76.45514488220215,"neighborhood":"Central Newport News","city_fetched":"Newport","state":"VA","country":"United States","canonicalUrl":"https://foursquare.com/v/cozzys-comedy-club/4b98f538f964a520865835e3","category":"Comedy Club","checkinsCount":503,"usersCount":319,"tipCount":6,"visitsCount":634,"url":"http://www.cozzys.com","tier":"","message":"","currency":"","rating":7.2},{"name":"The Weekend Pub","phone":"7579880506","address":"13361 Warwick Blvd","lat":37.115333470915324,"lng":-76.52084257438486,"neighborhood":"North Newport News","city_fetched":"Newport","state":"VA","country":"United States","canonicalUrl":"https://foursquare.com/v/the-weekend-pub/4b5a0759f964a520bba828e3","category":"Pub","checkinsCount":514,"usersCount":196,"tipCount":7,"visitsCount":541,"tier":1,"message":"Cheap","currency":"$","rating":7.1}]