[{"name":"O'Connor Brewing Company","phone":"7576232337","address":"211 W 24th St","lat":36.870029960653675,"lng":-76.28637501123686,"neighborhood":"Park Place","city_fetched":"Norfolk","state":"VA","country":"United States","canonicalUrl":"https://foursquare.com/v/oconnor-brewing-company/4cc9f01bb7d9a1436538f936","category":"Brewery","checkinsCount":2100,"usersCount":1286,"tipCount":23,"visitsCount":3184,"url":"http://oconnorbrewing.com","tier":2,"message":"Moderate","currency":"$","rating":9.3},{"name":"Venture Kitchen & Bar","phone":"7573258868","twitter":"venturekitchbar","address":"9 E Queens Way","lat":37.025888707574275,"lng":-76.34380102157593,"neighborhood":"Downtown Hampton","city_fetched":"Norfolk","state":"VA","country":"United States","canonicalUrl":"https://foursquare.com/venturekitchbar","category":"Pizza Place","checkinsCount":855,"usersCount":358,"tipCount":18,"visitsCount":1078,"url":"http://www.venturekitchenandbar.com","tier":2,"message":"Moderate","currency":"$","rating":9.1},{"name":"Total Wine & More","phone":"7576236108","twitter":"totalwine","address":"536 West 21st Street","lat":36.869828,"lng":-76.293301,"neighborhood":"West 21st Street","city_fetched":"Norfolk","state":"VA","country":"United States","canonicalUrl":"https://foursquare.com/v/total-wine--more/4b6db190f964a5201a872ce3","category":"Wine Shop","checkinsCount":2940,"usersCount":991,"tipCount":9,"visitsCount":3314,"url":"http://www.totalwine.com","tier":"","message":"","currency":"","rating":9},{"name":"Yard House","phone":"7574909273","twitter":"yardhouse","address":"4549 Commerce St","lat":36.84164021,"lng":-76.1363858,"city_fetched":"Norfolk","state":"VA","country":"United States","canonicalUrl":"https://foursquare.com/v/yard-house/4e9a2c2d9a52edbd653c2f6f","category":"American Restaurant","checkinsCount":10014,"usersCount":5016,"tipCount":83,"visitsCount":11736,"url":"http://www.yardhouse.com","tier":2,"message":"Moderate","currency":"$","rating":9},{"name":"The Birch","phone":"7579625400","twitter":"thebirchbar","address":"1231 W Olney Rd","lat":36.864703673653764,"lng":-76.3095934689045,"neighborhood":"Chelsea, Norfolk, VA","city_fetched":"Norfolk","state":"VA","country":"United States","canonicalUrl":"https://foursquare.com/thebirchbar","category":"Bar","checkinsCount":2424,"usersCount":849,"tipCount":31,"visitsCount":2632,"url":"http://thebirchbar.com","tier":2,"message":"Moderate","currency":"$","rating":8.9},{"name":"Asahi","phone":"7573184111","address":"1528 Thoroughgood Shop Ctr","lat":36.894135638231894,"lng":-76.14070415496826,"neighborhood":"Bayside","city_fetched":"Norfolk","state":"VA","country":"United States","canonicalUrl":"https://foursquare.com/v/asahi/4b9ee5dbf964a5205d0937e3","category":"Korean Restaurant","checkinsCount":454,"usersCount":233,"tipCount":17,"visitsCount":477,"tier":"","message":"","currency":"","rating":8.9},{"name":"A.W. Shucks Raw Bar & Grill","phone":"7576649117","twitter":"a_w_shucks","address":"2200 Colonial Ave","lat":36.869787118082236,"lng":-76.29043025320088,"city_fetched":"Norfolk","state":"VA","country":"United States","canonicalUrl":"https://foursquare.com/v/aw-shucks-raw-bar--grill/4b0d8219f964a520d04923e3","category":"Seafood Restaurant","checkinsCount":3820,"usersCount":1537,"tipCount":54,"visitsCount":4350,"tier":2,"message":"Moderate","currency":"$","rating":8.8},{"name":"Bier Garden","phone":"7573936022","address":"434 High St","lat":36.8355415598087,"lng":-76.3020579894936,"city_fetched":"Norfolk","state":"VA","country":"United States","canonicalUrl":"https://foursquare.com/v/bier-garden/4b6b8f69f964a520ef0f2ce3","category":"German Restaurant","checkinsCount":4264,"usersCount":1964,"tipCount":46,"visitsCount":4518,"url":"http://www.biergarden.com","tier":2,"message":"Moderate","currency":"$","rating":8.8},{"name":"Paradise Ocean Club","phone":"7572240290","twitter":"paradiseoc","address":"490 Fenwick Rd","lat":37.017874876023455,"lng":-76.29757894278404,"city_fetched":"Norfolk","state":"VA","country":"United States","canonicalUrl":"https://foursquare.com/v/paradise-ocean-club/5009c04fe4b01eff30a306a4","category":"Beach Bar","checkinsCount":651,"usersCount":559,"tipCount":9,"visitsCount":1004,"url":"http://www.paradiseoceanclub.com","tier":"","message":"","currency":"","rating":8.8},{"name":"Topgolf","phone":"7575449217","twitter":"topgolfvabeach","address":"5444 Greenwich Rd","lat":36.843224357471726,"lng":-76.17048740386963,"neighborhood":"Kempsville","city_fetched":"Norfolk","state":"VA","country":"United States","canonicalUrl":"https://foursquare.com/topgolfvabeach","category":"Sports Bar","checkinsCount":790,"usersCount":994,"tipCount":7,"visitsCount":1828,"url":"http://topgolf.com/us/virginia-beach/","tier":"","message":"","currency":"","rating":8.8},{"name":"Smartmouth Brewing Company","phone":"7576243939","twitter":"smartmouthbeer","address":"1309 Raleigh Ave","lat":36.866567215916795,"lng":-76.30934742882842,"neighborhood":"Chelsea","city_fetched":"Norfolk","state":"VA","country":"United States","canonicalUrl":"https://foursquare.com/v/smartmouth-brewing-company/505ba4cf498efe383c676e60","category":"Brewery","checkinsCount":1899,"usersCount":918,"tipCount":18,"visitsCount":2391,"url":"http://smartmouthbrewing.com","tier":1,"message":"Cheap","currency":"$","rating":8.7},{"name":"Press 626 Cafe & Wine Bar","phone":"7572826234","address":"626 W Olney Rd","lat":36.86050293331265,"lng":-76.29971355199814,"neighborhood":"Ghent","city_fetched":"Norfolk","state":"VA","country":"United States","canonicalUrl":"https://foursquare.com/v/press-626-cafe--wine-bar/4b637854f964a520547c2ae3","category":"Wine Bar","checkinsCount":1790,"usersCount":893,"tipCount":32,"visitsCount":2111,"url":"http://www.press626.com","tier":2,"message":"Moderate","currency":"$","rating":8.5},{"name":"MJ's Tavern","phone":"7576488942","address":"4019 Granby St","lat":36.883706066597135,"lng":-76.28183322011834,"neighborhood":"Colonial Place-Riverview","city_fetched":"Norfolk","state":"VA","country":"United States","canonicalUrl":"https://foursquare.com/v/mjs-tavern/4f2e0810e4b067066dd18f52","category":"Pub","checkinsCount":2834,"usersCount":629,"tipCount":22,"visitsCount":3537,"url":"http://mjtavern.com","tier":2,"message":"Moderate","currency":"$","rating":8.5},{"name":"Work Release","address":"759 Granby St","lat":36.8562055087963,"lng":-76.28851293659542,"neighborhood":"Downtown Norfolk","city_fetched":"Norfolk","state":"VA","country":"United States","canonicalUrl":"https://foursquare.com/v/work-release/552898b2498e15f96df337d9","category":"Nightclub","checkinsCount":144,"usersCount":174,"tipCount":2,"visitsCount":282,"tier":"","message":"","currency":"","rating":8.5},{"name":"LUBO Wine Tasting Room","phone":"7572162900","address":"1658 Pleasure House Rd","lat":36.8965404358185,"lng":-76.1389853948524,"neighborhood":"Bayside","city_fetched":"Norfolk","state":"VA","country":"United States","canonicalUrl":"https://foursquare.com/v/lubo-wine-tasting-room/4de04058fa76425c5414d9ef","category":"Wine Bar","checkinsCount":1406,"usersCount":656,"tipCount":17,"visitsCount":1745,"url":"http://www.lubowines.com","tier":"","message":"","currency":"","rating":8.4},{"name":"Town Point Club","phone":"7576256606","address":"101 W Main St","lat":36.846268082050194,"lng":-76.29334859368863,"neighborhood":"Downtown Norfolk","city_fetched":"Norfolk","state":"VA","country":"United States","canonicalUrl":"https://foursquare.com/v/town-point-club/4b451e3cf964a520480526e3","category":"Other Nightlife","checkinsCount":1442,"usersCount":323,"tipCount":7,"visitsCount":1477,"tier":"","message":"","currency":"","rating":8.4},{"name":"Gordon Biersch Brewery Restaurant","phone":"7574902739","twitter":"gbvabeach","address":"4561 Virginia Beach Blvd","lat":36.84318880152813,"lng":-76.13459717907487,"city_fetched":"Norfolk","state":"VA","country":"United States","canonicalUrl":"https://foursquare.com/v/gordon-biersch-brewery-restaurant/4b43c32ef964a520e7e825e3","category":"Brewery","checkinsCount":6908,"usersCount":2863,"tipCount":58,"visitsCount":7118,"url":"http://gordonbiersch.com","tier":2,"message":"Moderate","currency":"$","rating":8.4},{"name":"Sonoma Wine Bar & Bistro","phone":"7574909463","address":"189 Central Park Ave","lat":36.841909850285106,"lng":-76.13455754293314,"city_fetched":"Norfolk","state":"VA","country":"United States","canonicalUrl":"https://foursquare.com/v/sonoma-wine-bar--bistro/4b79ce52f964a52042132fe3","category":"Wine Bar","checkinsCount":1495,"usersCount":753,"tipCount":21,"visitsCount":1504,"url":"http://www.sonomatowncenter.com‎","tier":"","message":"","currency":"","rating":8.3},{"name":"The Torch","phone":"7574166848","address":"601 Orapax St","lat":36.86512470828764,"lng":-76.30974327523111,"city_fetched":"Norfolk","state":"VA","country":"United States","canonicalUrl":"https://foursquare.com/v/the-torch/5536dbe2498ea3ffb2a6f294","category":"Bar","checkinsCount":308,"usersCount":220,"tipCount":6,"visitsCount":484,"tier":"","message":"","currency":"","rating":8.2},{"name":"Bold Mariner Brewing Company","address":"2409 Bowdens Ferry Rd","lat":36.876185716671934,"lng":-76.3050778677435,"neighborhood":"West 21st Street","city_fetched":"Norfolk","state":"VA","country":"United States","canonicalUrl":"https://foursquare.com/v/bold-mariner-brewing-company/561d209d498e7e6fc74f2055","category":"Brewery","checkinsCount":113,"usersCount":156,"tipCount":2,"visitsCount":244,"tier":"","message":"","currency":"","rating":8.1},{"name":"La Bodega Hampton","phone":"7577228466","address":"22 Wine St","lat":37.026449664135534,"lng":-76.34326152931136,"neighborhood":"Downtown Hampton","city_fetched":"Norfolk","state":"VA","country":"United States","canonicalUrl":"https://foursquare.com/v/la-bodega-hampton/4c53014c250dd13a08c1997f","category":"Sandwich Place","checkinsCount":350,"usersCount":114,"tipCount":3,"visitsCount":356,"url":"http://www.labodegahampton.com","tier":1,"message":"Cheap","currency":"$","rating":8.1},{"name":"The Point at Phoebus","phone":"7572249299","address":"30 E Mellen St","lat":37.017799790681934,"lng":-76.32160681021611,"neighborhood":"Pheobus","city_fetched":"Norfolk","state":"VA","country":"United States","canonicalUrl":"https://foursquare.com/v/the-point-at-phoebus/52043634498eeca4c1b0bc72","category":"American Restaurant","checkinsCount":242,"usersCount":131,"tipCount":10,"visitsCount":265,"tier":"","message":"","currency":"","rating":8.1},{"name":"Empire Little Bar Bistro","phone":"7576263100","address":"257 Granby St","lat":36.849540141039675,"lng":-76.29069041793142,"neighborhood":"Downtown Norfolk","city_fetched":"Norfolk","state":"VA","country":"United States","canonicalUrl":"https://foursquare.com/v/empire-little-bar-bistro/4b730b44f964a520cd972de3","category":"Bar","checkinsCount":1903,"usersCount":807,"tipCount":30,"visitsCount":1983,"url":"http://www.littlebarbistro.com","tier":3,"message":"Expensive","currency":"$","rating":8.1},{"name":"Spirit of Norfolk","phone":"8663042469","twitter":"spiritofnorfolk","address":"109 E Main St Ste 500","lat":36.844838520601634,"lng":-76.29322528839111,"city_fetched":"Norfolk","state":"VA","country":"United States","canonicalUrl":"https://foursquare.com/v/spirit-of-norfolk/4b7899fdf964a5208fd92ee3","category":"Boat or Ferry","checkinsCount":1009,"usersCount":898,"tipCount":2,"visitsCount":1058,"url":"http://www.spiritcruises.com/norfolk","tier":"","message":"","currency":"","rating":8.1},{"name":"NEX Naval Station Norfolk Package Store","phone":"7574402110","address":"1560 Mall Dr","lat":36.94211205382715,"lng":-76.31267250198154,"neighborhood":"Naval Station Norfolk","city_fetched":"Norfolk","state":"VA","country":"United States","canonicalUrl":"https://foursquare.com/v/nex-naval-station-norfolk-package-store/4b915931f964a5202eb533e3","category":"Liquor Store","checkinsCount":1216,"usersCount":976,"tipCount":11,"visitsCount":1947,"tier":"","message":"","currency":"","rating":8},{"name":"Conch & Bucket","phone":"7578640865","address":"13 E Queens Way","lat":37.025923736689464,"lng":-76.34371946296189,"neighborhood":"Downtown Hampton","city_fetched":"Norfolk","state":"VA","country":"United States","canonicalUrl":"https://foursquare.com/v/conch--bucket/4e1c482fd164040ac7c51907","category":"Caribbean Restaurant","checkinsCount":1071,"usersCount":314,"tipCount":29,"visitsCount":1082,"tier":"","message":"","currency":"","rating":8},{"name":"Olde Towne Tavern","phone":"7572512636","address":"31 E Mellen St","lat":37.01802282001438,"lng":-76.32139194150204,"neighborhood":"Pheobus","city_fetched":"Norfolk","state":"VA","country":"United States","canonicalUrl":"https://foursquare.com/v/olde-towne-tavern/4d2f972510e9b1f70f28b3f1","category":"Bar","checkinsCount":494,"usersCount":233,"tipCount":15,"visitsCount":526,"url":"http://oldetownetavernphoebus.com","tier":1,"message":"Cheap","currency":"$","rating":7.9},{"name":"Smokey Bones Bar & Fire Grill","phone":"7576711622","twitter":"smokeybonesbar","address":"4590 Virginia Beach Blvd","lat":36.84366648667642,"lng":-76.1357749334513,"neighborhood":"Bayside","city_fetched":"Norfolk","state":"VA","country":"United States","canonicalUrl":"https://foursquare.com/v/smokey-bones-bar--fire-grill/4b758ffbf964a5204a142ee3","category":"BBQ Joint","checkinsCount":5167,"usersCount":2081,"tipCount":42,"visitsCount":5489,"url":"http://www.smokeybones.com","tier":2,"message":"Moderate","currency":"$","rating":7.9},{"name":"Crackers","phone":"7576263100","address":"4226 Granby St","lat":36.886114,"lng":-76.28100203333334,"neighborhood":"Colonial Place-Riverview","city_fetched":"Norfolk","state":"VA","country":"United States","canonicalUrl":"https://foursquare.com/v/crackers/4b91a6aef964a520edcc33e3","category":"Bar","checkinsCount":897,"usersCount":446,"tipCount":15,"visitsCount":991,"url":"http://www.littlebarbistro.com","tier":"","message":"","currency":"","rating":7.8},{"name":"AJ Gators Sports Bar & Grill","address":"9575 Shore Dr","lat":36.928156930868234,"lng":-76.19213666069247,"neighborhood":"East Ocean View","city_fetched":"Norfolk","state":"VA","country":"United States","canonicalUrl":"https://foursquare.com/v/aj-gators-sports-bar--grill/524cda9e11d21a1d6524e990","category":"Sports Bar","checkinsCount":169,"usersCount":100,"tipCount":5,"visitsCount":203,"url":"http://www.gatorssportsbar.com","tier":"","message":"","currency":"","rating":7.8},{"name":"The Thirsty Camel","phone":"7575889877","address":"394 W Ocean View Ave","lat":36.959795416666665,"lng":-76.26065,"neighborhood":"Willoughby","city_fetched":"Norfolk","state":"VA","country":"United States","canonicalUrl":"https://foursquare.com/v/the-thirsty-camel/4b3a721bf964a5207e6725e3","category":"Bar","checkinsCount":653,"usersCount":477,"tipCount":7,"visitsCount":786,"url":"http://thirstycamelnorfolk.com","tier":1,"message":"Cheap","currency":"$","rating":7.8},{"name":"Taphouse","phone":"7572245829","address":"17 E Queens Way","lat":37.02578592137113,"lng":-76.34373664855957,"neighborhood":"Downtown Hampton","city_fetched":"Norfolk","state":"VA","country":"United States","canonicalUrl":"https://foursquare.com/v/taphouse/4b85748ef964a520195f31e3","category":"Beer Bar","checkinsCount":4396,"usersCount":1118,"tipCount":31,"visitsCount":4496,"tier":2,"message":"Moderate","currency":"$","rating":7.8},{"name":"Tap It Local","phone":"7576233760","address":"244 Granby St","lat":36.849002490593534,"lng":-76.29071304092747,"neighborhood":"Downtown Norfolk","city_fetched":"Norfolk","state":"VA","country":"United States","canonicalUrl":"https://foursquare.com/v/tap-it-local/5650b274498ee6bcc782dd6f","category":"Bar","checkinsCount":154,"usersCount":97,"tipCount":3,"visitsCount":165,"tier":"","message":"","currency":"","rating":7.8},{"name":"The Public House","phone":"7572279064","twitter":"publichouseeats","address":"1112 Colley Ave","lat":36.865476198461394,"lng":-76.29899740219116,"neighborhood":"Ghent","city_fetched":"Norfolk","state":"VA","country":"United States","canonicalUrl":"https://foursquare.com/v/the-public-house/4ce6c41d75c62c0f6cc9e457","category":"Gastropub","checkinsCount":5511,"usersCount":2135,"tipCount":75,"visitsCount":6779,"url":"http://www.publichouseeats.com","tier":2,"message":"Moderate","currency":"$","rating":7.8},{"name":"Granby Theater","phone":"7579617208","address":"421 Granby St","lat":36.85197218157312,"lng":-76.28980246230395,"neighborhood":"Downtown Norfolk","city_fetched":"Norfolk","state":"VA","country":"United States","canonicalUrl":"https://foursquare.com/v/granby-theater/4b398d14f964a520ab5d25e3","category":"Nightclub","checkinsCount":1780,"usersCount":926,"tipCount":14,"visitsCount":1802,"url":"http://www.granbytheater.com","tier":"","message":"","currency":"","rating":7.7},{"name":"Keagan's Irish Pub and Restaurant","phone":"7579614432","twitter":"keagans","address":"244 Market St","lat":36.84286374190331,"lng":-76.13456726074219,"city_fetched":"Norfolk","state":"VA","country":"United States","canonicalUrl":"https://foursquare.com/v/keagans-irish-pub-and-restaurant/4b3991fef964a520cb5d25e3","category":"Pub","checkinsCount":8340,"usersCount":3304,"tipCount":65,"visitsCount":8627,"url":"http://www.keagans.com","tier":2,"message":"Moderate","currency":"$","rating":7.7},{"name":"Marker 20","phone":"7577269410","address":"21 E Queens Way","lat":37.02593174331582,"lng":-76.34343678805612,"neighborhood":"Downtown Hampton","city_fetched":"Norfolk","state":"VA","country":"United States","canonicalUrl":"https://foursquare.com/v/marker-20/4b5f8531f964a52040bf29e3","category":"Bar","checkinsCount":4022,"usersCount":891,"tipCount":28,"visitsCount":4267,"url":"http://www.marker20.com","tier":2,"message":"Moderate","currency":"$","rating":7.7},{"name":"McCormick & Schmick's","phone":"7576878686","twitter":"mcandschmicks","address":"211 Market St","lat":36.84207038221148,"lng":-76.13514642156584,"city_fetched":"Norfolk","state":"VA","country":"United States","canonicalUrl":"https://foursquare.com/v/mccormick--schmicks/4b733b67f964a5204fa32de3","category":"American Restaurant","checkinsCount":2158,"usersCount":1133,"tipCount":27,"visitsCount":2219,"url":"http://mccormickandschmicks.com","tier":3,"message":"Expensive","currency":"$","rating":7.7},{"name":"Brass Bell","phone":"7574642720","twitter":"brassbellvb","address":"1628 Independence Blvd","lat":36.894050904525166,"lng":-76.14089351681322,"neighborhood":"Bayside","city_fetched":"Norfolk","state":"VA","country":"United States","canonicalUrl":"https://foursquare.com/brassbellvb","category":"Steakhouse","checkinsCount":1274,"usersCount":576,"tipCount":20,"visitsCount":1646,"url":"http://brassbellvb.com/menu.html","tier":2,"message":"Moderate","currency":"$","rating":7.6},{"name":"Tap House Grill at Ghent","phone":"7576279172","address":"931 W 21st St","lat":36.8721158444216,"lng":-76.29966013474258,"neighborhood":"West 21st Street","city_fetched":"Norfolk","state":"VA","country":"United States","canonicalUrl":"https://foursquare.com/v/tap-house-grill-at-ghent/4b4008dcf964a52094b425e3","category":"Bar","checkinsCount":2913,"usersCount":1141,"tipCount":32,"visitsCount":3079,"tier":2,"message":"Moderate","currency":"$","rating":7.6},{"name":"Homebrew USA","address":"5802 E Virginia Beach Blvd","lat":36.858518740500756,"lng":-76.20659128201422,"neighborhood":"JANAF","city_fetched":"Norfolk","state":"VA","country":"United States","canonicalUrl":"https://foursquare.com/v/homebrew-usa/4bc268b4920eb713433d1c2c","category":"Hobby Shop","checkinsCount":395,"usersCount":127,"tipCount":4,"visitsCount":417,"tier":"","message":"","currency":"","rating":7.6},{"name":"The Vineyards Trattoria and Pizzeria","phone":"7572220431","address":"147 Granby St","lat":36.84759068110263,"lng":-76.29155008908243,"neighborhood":"Downtown Norfolk","city_fetched":"Norfolk","state":"VA","country":"United States","canonicalUrl":"https://foursquare.com/v/the-vineyards-trattoria-and-pizzeria/4bd9adfd2e6f0f47e7720b08","category":"Italian Restaurant","checkinsCount":391,"usersCount":262,"tipCount":12,"visitsCount":398,"url":"http://www.thevineyardsnorfolk.com","tier":2,"message":"Moderate","currency":"$","rating":7.6},{"name":"Jaxon Place","phone":"7572273210","twitter":"jaxplace","address":"5265 Princess Anne Rd","lat":36.8272267466554,"lng":-76.16708360562812,"neighborhood":"Kempsville","city_fetched":"Norfolk","state":"VA","country":"United States","canonicalUrl":"https://foursquare.com/v/jaxon-place/4cda33174006a143b64ed0b2","category":"Sports Bar","checkinsCount":173,"usersCount":98,"tipCount":2,"visitsCount":174,"tier":"","message":"","currency":"","rating":7.5},{"name":"Roger Brown's Restaurant & Sports Bar","phone":"7573995377","twitter":"rogerbrowns","address":"316 High St","lat":36.83561767887157,"lng":-76.30013518486905,"city_fetched":"Norfolk","state":"VA","country":"United States","canonicalUrl":"https://foursquare.com/v/roger-browns-restaurant--sports-bar/4b4551d1f964a5208a0a26e3","category":"Sports Bar","checkinsCount":2203,"usersCount":1376,"tipCount":39,"visitsCount":2460,"url":"http://www.rogerbrowns.com","tier":2,"message":"Moderate","currency":"$","rating":7.5},{"name":"Waterside Marina","phone":"7576253625","address":"333 Waterside Dr #106","lat":36.84425297020021,"lng":-76.29187812003397,"neighborhood":"Downtown Norfolk","city_fetched":"Norfolk","state":"VA","country":"United States","canonicalUrl":"https://foursquare.com/v/waterside-marina/4ba668d8f964a5205b4f39e3","category":"Harbor / Marina","checkinsCount":1294,"usersCount":887,"tipCount":6,"visitsCount":1359,"url":"http://www.watersidemarina.com‎","tier":"","message":"","currency":"","rating":7.5},{"name":"Funny Bone Comedy Club","phone":"7572135555","twitter":"vb_funnybone","address":"217 Central Park Ave","lat":36.84222836747829,"lng":-76.13400936126709,"city_fetched":"Norfolk","state":"VA","country":"United States","canonicalUrl":"https://foursquare.com/v/funny-bone-comedy-club/4b71ecfbf964a52095642de3","category":"Comedy Club","checkinsCount":2491,"usersCount":1609,"tipCount":30,"visitsCount":2512,"url":"http://www.vbfunnybone.com","tier":"","message":"","currency":"","rating":7.5},{"name":"Ocean View Fishing Pier Restaurant","lat":36.96167171001434,"lng":-76.26007318496704,"city_fetched":"Norfolk","state":"VA","country":"United States","canonicalUrl":"https://foursquare.com/v/ocean-view-fishing-pier-restaurant/4cd039293e63721e10cc9ccc","category":"Cocktail Bar","checkinsCount":257,"usersCount":194,"tipCount":5,"visitsCount":257,"tier":"","message":"","currency":"","rating":7.4},{"name":"757 Crave on the Harbor","phone":"7579667919","twitter":"757craver","address":"10 Crawford Pkwy","lat":36.841416834179896,"lng":-76.29804268946057,"city_fetched":"Norfolk","state":"VA","country":"United States","canonicalUrl":"https://foursquare.com/v/757-crave-on-the-harbor/4c082a78340720a167b58293","category":"American Restaurant","checkinsCount":1104,"usersCount":470,"tipCount":12,"visitsCount":1292,"url":"http://757cravers-hub.com","tier":3,"message":"Expensive","currency":"$","rating":7.4},{"name":"Greenie's","phone":"7574801210","address":"196W Ocean View Ave","lat":36.956285633359585,"lng":-76.25357955694199,"neighborhood":"West Ocean View","city_fetched":"Norfolk","state":"VA","country":"United States","canonicalUrl":"https://foursquare.com/v/greenies/4b6b40aff964a52047fc2be3","category":"Seafood Restaurant","checkinsCount":3070,"usersCount":1358,"tipCount":51,"visitsCount":3649,"url":"http://greeniesoceanview.com","tier":2,"message":"Moderate","currency":"$","rating":7.3},{"name":"Gershwin's","phone":"7572260814","address":"332 Granby St","lat":36.85056492820417,"lng":-76.28997213581084,"neighborhood":"Downtown Norfolk","city_fetched":"Norfolk","state":"VA","country":"United States","canonicalUrl":"https://foursquare.com/v/gershwins/5361a670498ead277d927195","category":"Piano Bar","checkinsCount":151,"usersCount":117,"tipCount":7,"visitsCount":157,"url":"http://www.gershwinsnorfolk.com","tier":"","message":"","currency":"","rating":7.3},{"name":"Colley Cantina","phone":"7576220033","twitter":"novavictims","address":"1316 Colley Ave","lat":36.86696,"lng":-76.298356,"neighborhood":"Ghent","city_fetched":"Norfolk","state":"VA","country":"United States","canonicalUrl":"https://foursquare.com/v/colley-cantina/4b0731b6f964a52057f922e3","category":"Taco Place","checkinsCount":3599,"usersCount":946,"tipCount":37,"visitsCount":3853,"url":"http://colleycantina.com","tier":2,"message":"Moderate","currency":"$","rating":7.3},{"name":"Peck & Pour","phone":"7573954176","address":"1308 Colley Ave","lat":36.866916,"lng":-76.298463,"neighborhood":"Ghent","city_fetched":"Norfolk","state":"VA","country":"United States","canonicalUrl":"https://foursquare.com/v/peck--pour/54f258cd498e8e052f82febf","category":"Wings Joint","checkinsCount":336,"usersCount":119,"tipCount":4,"visitsCount":374,"url":"http://pecknpour.com","tier":"","message":"","currency":"","rating":7.3},{"name":"Nazef Char Grill & Hookah Bar","phone":"7576224500","address":"806 Harrington Ave","lat":36.8706,"lng":-76.29686587,"neighborhood":"West 21st Street","city_fetched":"Norfolk","state":"VA","country":"United States","canonicalUrl":"https://foursquare.com/v/nazef-char-grill--hookah-bar/4bb3f46c643cd13a4d3f395c","category":"Hookah Bar","checkinsCount":198,"usersCount":132,"tipCount":5,"visitsCount":199,"tier":"","message":"","currency":"","rating":7.2},{"name":"The Turtle Bar & Grill","phone":"7572249244","address":"24 N Mallory St","lat":37.01962618243394,"lng":-76.32011403091295,"neighborhood":"Pheobus","city_fetched":"Norfolk","state":"VA","country":"United States","canonicalUrl":"https://foursquare.com/v/the-turtle-bar--grill/502ef0bbe4b021f7a4cb8770","category":"Bar","checkinsCount":293,"usersCount":68,"tipCount":6,"visitsCount":304,"tier":"","message":"","currency":"","rating":7.2},{"name":"Nazef Hookah Lounge","phone":"7579638733","address":"7734 Hampton Blvd","lat":36.917346635150004,"lng":-76.30915516015051,"neighborhood":"North Shore","city_fetched":"Norfolk","state":"VA","country":"United States","canonicalUrl":"https://foursquare.com/v/nazef-hookah-lounge/4b9ac556f964a5200bd435e3","category":"Hookah Bar","checkinsCount":324,"usersCount":102,"tipCount":9,"visitsCount":332,"tier":"","message":"","currency":"","rating":7.2},{"name":"Coelacanth Brewing","phone":"7573836438","twitter":"coelacanthbrew","address":"760A W 22nd St","lat":36.87149210143347,"lng":-76.29524321851459,"neighborhood":"West 21st Street","city_fetched":"Norfolk","state":"VA","country":"United States","canonicalUrl":"https://foursquare.com/v/coelacanth-brewing/55a3d0f3498e29417e5e7a5a","category":"Brewery","checkinsCount":174,"usersCount":160,"tipCount":2,"visitsCount":263,"url":"http://www.coelacanth.com","tier":"","message":"","currency":"","rating":7.2},{"name":"The Banque","phone":"7574803600","twitter":"thebanquedance","address":"1849 E Little Creek Rd","lat":36.91470077,"lng":-76.22579,"neighborhood":"Larrymore Lawns","city_fetched":"Norfolk","state":"VA","country":"United States","canonicalUrl":"https://foursquare.com/v/the-banque/4b454d5bf964a520390a26e3","category":"Nightclub","checkinsCount":1494,"usersCount":652,"tipCount":8,"visitsCount":1682,"url":"http://thebanque.com","tier":"","message":"","currency":"","rating":7.2},{"name":"Wave Restaurant","phone":"7574405911","twitter":"thewavenorfolk","address":"4107 Colley Ave","lat":36.88264238241422,"lng":-76.29522625184464,"city_fetched":"Norfolk","state":"VA","country":"United States","canonicalUrl":"https://foursquare.com/v/wave-restaurant/4be3728399feb713420c82f6","category":"Nightclub","checkinsCount":3515,"usersCount":941,"tipCount":22,"visitsCount":3843,"tier":1,"message":"Cheap","currency":"$","rating":7.1},{"name":"Red Dog Saloon","phone":"7576250259","address":"1421 Colley Ave","lat":36.8677711357833,"lng":-76.29818973075254,"neighborhood":"Ghent","city_fetched":"Norfolk","state":"VA","country":"United States","canonicalUrl":"https://foursquare.com/v/red-dog-saloon/4b5880c1f964a520ea5a28e3","category":"Bar","checkinsCount":7196,"usersCount":1933,"tipCount":25,"visitsCount":7498,"url":"http://www.reddogsaloon.com","tier":2,"message":"Moderate","currency":"$","rating":7},{"name":"Baxter's","phone":"7576229837","twitter":"baxtersnorfolk","address":"500 Granby St","lat":36.85284350226664,"lng":-76.28899368228684,"neighborhood":"Downtown Norfolk","city_fetched":"Norfolk","state":"VA","country":"United States","canonicalUrl":"https://foursquare.com/baxtersnorfolk","category":"Sports Bar","checkinsCount":2653,"usersCount":1424,"tipCount":24,"visitsCount":2862,"url":"http://www.baxtersnorfolk.com","tier":1,"message":"Cheap","currency":"$","rating":7},{"name":"The Barrel Room","twitter":"thebarrelroomva","address":"437 Granby St","lat":36.852266456645786,"lng":-76.28953098424378,"neighborhood":"Downtown Norfolk","city_fetched":"Norfolk","state":"VA","country":"United States","canonicalUrl":"https://foursquare.com/v/the-barrel-room/54b983c1498e9dd85f21fe08","category":"Bar","checkinsCount":184,"usersCount":149,"tipCount":2,"visitsCount":204,"tier":"","message":"","currency":"","rating":7},{"name":"Tangos Tavern","phone":"7574978978","address":"4668 Pembroke Blvd #106","lat":36.86189414568726,"lng":-76.1352200312159,"neighborhood":"Bayside","city_fetched":"Norfolk","state":"VA","country":"United States","canonicalUrl":"https://foursquare.com/v/tangos-tavern/4c2e9292213c2d7f8f7e2f5d","category":"Bar","checkinsCount":936,"usersCount":228,"tipCount":7,"visitsCount":1053,"tier":"","message":"","currency":"","rating":7},{"name":"Hampton Block Party","address":"W. Queens Way","lat":37.02582124095434,"lng":-76.34358377908246,"neighborhood":"Downtown Hampton","city_fetched":"Norfolk","state":"VA","country":"United States","canonicalUrl":"https://foursquare.com/v/hampton-block-party/4bdc906f4b1f9521d8d3670b","category":"Music Venue","checkinsCount":388,"usersCount":179,"tipCount":3,"visitsCount":388,"tier":"","message":"","currency":"","rating":7},{"name":"Q-Master Billiards","phone":"7574998900","address":"5612 Princess Anne Rd","lat":36.83882240877349,"lng":-76.18021071685092,"neighborhood":"Kempsville","city_fetched":"Norfolk","state":"VA","country":"United States","canonicalUrl":"https://foursquare.com/v/qmaster-billiards/4b70dcc0f964a52017322de3","category":"Pool Hall","checkinsCount":1789,"usersCount":551,"tipCount":11,"visitsCount":1968,"tier":"","message":"","currency":"","rating":6.9},{"name":"The Highlander","phone":"7579627963","address":"676 N Witchduck Rd","lat":36.85654025094778,"lng":-76.14686117954277,"neighborhood":"Bayside","city_fetched":"Norfolk","state":"VA","country":"United States","canonicalUrl":"https://foursquare.com/v/the-highlander/4e1ca39d62e147e54f54744a","category":"Restaurant","checkinsCount":202,"usersCount":121,"tipCount":9,"visitsCount":216,"tier":"","message":"","currency":"","rating":6.9},{"name":"Todd Jurich's Bistro","phone":"7576223210","twitter":"toddsbistro","address":"150 W Main St","lat":36.84732886402614,"lng":-76.29340515004365,"neighborhood":"Downtown Norfolk","city_fetched":"Norfolk","state":"VA","country":"United States","canonicalUrl":"https://foursquare.com/v/todd-jurichs-bistro/4b730669f964a52087962de3","category":"American Restaurant","checkinsCount":1649,"usersCount":591,"tipCount":11,"visitsCount":1731,"url":"http://www.toddjurichsbistro.com","tier":2,"message":"Moderate","currency":"$","rating":6.9}]