[{"name":"Fat Point Brewing","phone":"8003807405","twitter":"fatpointbrewing","address":"611 Charlotte St.","lat":26.94248208229161,"lng":-82.02887177467346,"city_fetched":"North Port,US","state":"FL","country":"United States","canonicalUrl":"https://foursquare.com/v/fat-point-brewing/529e464211d284dac80d1600","categoryId":"50327c8591d4c4b30a586d5d","category":"Brewery","checkinsCount":272,"usersCount":239,"tipCount":7,"visitsCount":439,"url":"http://fatpoint.com","tier":"","message":"","currency":"","rating":8.7},{"name":"Casey Key Tiki Bar","address":"Blackburn Road","lat":27.17971975335628,"lng":-82.49495324139903,"city_fetched":"North Port,US","state":"FL","country":"United States","canonicalUrl":"https://foursquare.com/v/casey-key-tiki-bar/4f7f843ae4b0a458b91e2f8c","categoryId":"4bf58dd8d48988d11e941735","category":"Cocktail Bar","checkinsCount":759,"usersCount":309,"tipCount":5,"visitsCount":830,"tier":"","message":"","currency":"","rating":8.2},{"name":"Norma Jean's Sports Bar & Grill","phone":"9414925524","address":"1635 US Highway 41 Byp S","lat":27.076630088955618,"lng":-82.4245610180264,"city_fetched":"North Port,US","state":"FL","country":"United States","canonicalUrl":"https://foursquare.com/v/norma-jeans-sports-bar--grill/4b3c03f2f964a5206d8025e3","categoryId":"4bf58dd8d48988d11d941735","category":"Sports Bar","checkinsCount":516,"usersCount":240,"tipCount":12,"visitsCount":590,"url":"http://normajeanssportsgrill.com","tier":"","message":"","currency":"","rating":8.1},{"name":"Tap & Cork","address":"101 W Venice Ave #16","lat":27.09912529571821,"lng":-82.44466829133694,"neighborhood":"Downtown Venice","city_fetched":"North Port,US","state":"FL","country":"United States","canonicalUrl":"https://foursquare.com/v/tap--cork/4c3cf6f87c1ee21eb8528d71","categoryId":"4bf58dd8d48988d11b941735","category":"Pub","checkinsCount":539,"usersCount":164,"tipCount":7,"visitsCount":576,"tier":"","message":"","currency":"","rating":8.1},{"name":"Gatorz Bar & Grill","phone":"9416255000","address":"3816 Tamiami Trl","lat":26.974104333333333,"lng":-82.08667757,"city_fetched":"North Port,US","state":"FL","country":"United States","canonicalUrl":"https://foursquare.com/v/gatorz-bar--grill/4b624668f964a520d03f2ae3","categoryId":"4bf58dd8d48988d116941735","category":"Bar","checkinsCount":730,"usersCount":537,"tipCount":16,"visitsCount":945,"url":"http://gatorzbar-grill.com","tier":"","message":"","currency":"","rating":8},{"name":"Old Venice Pub","phone":"9414843031","address":"100 W Venice Ave","lat":27.099954,"lng":-82.444741,"neighborhood":"Downtown Venice","city_fetched":"North Port,US","state":"FL","country":"United States","canonicalUrl":"https://foursquare.com/v/old-venice-pub/4bb51f57941ad13a2cc71de3","categoryId":"4bf58dd8d48988d11d941735","category":"Sports Bar","checkinsCount":1529,"usersCount":368,"tipCount":14,"visitsCount":1613,"tier":"","message":"","currency":"","rating":7.9},{"name":"Ice House Pub","phone":"9415750866","address":"408 Tamiami Trl","lat":26.93412197371897,"lng":-82.04761732888768,"city_fetched":"North Port,US","state":"FL","country":"United States","canonicalUrl":"https://foursquare.com/v/ice-house-pub/4b513710f964a5208a4727e3","categoryId":"4bf58dd8d48988d11b941735","category":"Pub","checkinsCount":2039,"usersCount":805,"tipCount":33,"visitsCount":2435,"url":"http://www.theicehousepub.com","tier":2,"message":"Moderate","currency":"$","rating":7.9},{"name":"mad moe's","address":"106 N Tamiami Trl","lat":27.197959238182293,"lng":-82.48995177066004,"city_fetched":"North Port,US","state":"FL","country":"United States","canonicalUrl":"https://foursquare.com/v/mad-moes/54387ffc498ea4de4936bafe","categoryId":"4bf58dd8d48988d11d941735","category":"Sports Bar","checkinsCount":107,"usersCount":207,"tipCount":4,"visitsCount":367,"tier":"","message":"","currency":"","rating":7.9},{"name":"Emil's Sports Bar And Grill","phone":"9417640640","address":"24901 Sandhill Blvd","lat":27.0169105,"lng":-82.0422618,"city_fetched":"North Port,US","state":"FL","country":"United States","canonicalUrl":"https://foursquare.com/v/emils-sports-bar-and-grill/4c5ce1c79b28d13ae24b5870","categoryId":"4bf58dd8d48988d120941735","category":"Karaoke Bar","checkinsCount":816,"usersCount":358,"tipCount":14,"visitsCount":1130,"url":"http://emilssportsbar.net","tier":"","message":"","currency":"","rating":7.8},{"name":"TTâ€™s Tiki Bar at Four Points By Sheraton Punta Gorda Harborside Hotel","phone":"9416376770","address":"33 Tamiami Trl","lat":26.938621282798703,"lng":-82.05419847363936,"city_fetched":"North Port,US","state":"FL","country":"United States","canonicalUrl":"https://foursquare.com/v/tts-tiki-bar-at-four-points-by-sheraton-punta-gorda-harborside-hotel/4de98575fa76cc1b8acd9c59","categoryId":"4bf58dd8d48988d1d5941735","category":"Hotel Bar","checkinsCount":882,"usersCount":749,"tipCount":10,"visitsCount":1338,"url":"http://fourpointspuntagordaharborside.com","tier":2,"message":"Moderate","currency":"$","rating":7.8},{"name":"Jack's Restaurant","phone":"9416378800","address":"201 W Marion Ave","lat":26.935117,"lng":-82.05107578,"city_fetched":"North Port,US","state":"FL","country":"United States","canonicalUrl":"https://foursquare.com/v/jacks-restaurant/4b89f0a3f964a520915732e3","categoryId":"4bf58dd8d48988d116941735","category":"Bar","checkinsCount":647,"usersCount":452,"tipCount":24,"visitsCount":699,"url":"http://www.jackspuntagorda.com","tier":"","message":"","currency":"","rating":7.8},{"name":"The Portside Tavern","phone":"9416293055","twitter":"portsidetavern","address":"3636 Tamiami Trl","lat":26.97727218,"lng":-82.09097389,"city_fetched":"North Port,US","state":"FL","country":"United States","canonicalUrl":"https://foursquare.com/v/the-portside-tavern/4c54208b30f92d7f7134e9b9","categoryId":"4bf58dd8d48988d11b941735","category":"Pub","checkinsCount":95,"usersCount":65,"tipCount":3,"visitsCount":126,"url":"http://www.theportside.com","tier":"","message":"","currency":"","rating":7.7},{"name":"New Faull Inn","phone":"9416978050","address":"2670 Placida Rd","lat":26.91646,"lng":-82.32892513275146,"city_fetched":"North Port,US","state":"FL","country":"United States","canonicalUrl":"https://foursquare.com/v/new-faull-inn/4c44e1addcd61b8d1afe7b56","categoryId":"4bf58dd8d48988d116941735","category":"Bar","checkinsCount":283,"usersCount":224,"tipCount":12,"visitsCount":409,"url":"http://www.faullinn.com","tier":"","message":"","currency":"","rating":7.6},{"name":"Pops Sunset Grill","phone":"9414883177","address":"112 Circuit Rd","lat":27.122994460375015,"lng":-82.46845083861304,"city_fetched":"North Port,US","state":"FL","country":"United States","canonicalUrl":"https://foursquare.com/v/pops-sunset-grill/4b87c907f964a520f3cb31e3","categoryId":"4bf58dd8d48988d116941735","category":"Bar","checkinsCount":1773,"usersCount":1420,"tipCount":40,"visitsCount":2469,"url":"http://www.popssunsetgrill.net","tier":2,"message":"Moderate","currency":"$","rating":7.6},{"name":"Chubby'z 2 Tavern","phone":"9416130002","address":"4109 Tamiami Trl","lat":26.970035859759655,"lng":-82.08293668416165,"city_fetched":"North Port,US","state":"FL","country":"United States","canonicalUrl":"https://foursquare.com/v/chubbyz-2-tavern/4bb924383db7b713d70c229a","categoryId":"4bf58dd8d48988d118941735","category":"Dive Bar","checkinsCount":439,"usersCount":233,"tipCount":11,"visitsCount":543,"url":"http://www.chubbyz2tavern.com","tier":"","message":"","currency":"","rating":7.4},{"name":"Hoosier Bar","phone":"9419661251","address":"748 S Tamiami Trl","lat":27.18521434417281,"lng":-82.48561616457873,"city_fetched":"North Port,US","state":"FL","country":"United States","canonicalUrl":"https://foursquare.com/v/hoosier-bar/4d4e2409e0f2a1cdcb258a8d","categoryId":"4bf58dd8d48988d118941735","category":"Dive Bar","checkinsCount":267,"usersCount":126,"tipCount":4,"visitsCount":295,"url":"http://www.thehoosierbar.com","tier":"","message":"","currency":"","rating":7.3},{"name":"Norma Jean's Sports Bar & Grill","phone":"9414608860","address":"1859 Englewood Rd","lat":27.000089077920755,"lng":-82.37452686978324,"city_fetched":"North Port,US","state":"FL","country":"United States","canonicalUrl":"https://foursquare.com/v/norma-jeans-sports-bar--grill/4d3c88888edf37049534b1a5","categoryId":"4bf58dd8d48988d11d941735","category":"Sports Bar","checkinsCount":168,"usersCount":117,"tipCount":6,"visitsCount":321,"tier":"","message":"","currency":"","rating":7.3},{"name":"Daiquiri Deck Venice","phone":"9414880649","address":"300 W Venice Ave","lat":27.1000290097939,"lng":-82.4479272370766,"city_fetched":"North Port,US","state":"FL","country":"United States","canonicalUrl":"https://foursquare.com/v/daiquiri-deck-venice/50e4c705e4b0aaa2af69020a","categoryId":"4bf58dd8d48988d11e941735","category":"Cocktail Bar","checkinsCount":1302,"usersCount":1169,"tipCount":16,"visitsCount":1746,"url":"http://daiquirideckvenice.com","tier":2,"message":"Moderate","currency":"$","rating":7.3},{"name":"Linksters Tap Room","phone":"9414260177","twitter":"linknrt","address":"4371 Aidan Ln","lat":27.033990734799783,"lng":-82.21128481786289,"city_fetched":"North Port,US","state":"FL","country":"United States","canonicalUrl":"https://foursquare.com/v/linksters-tap-room/4b7df890f964a520d8dc2fe3","categoryId":"4bf58dd8d48988d116941735","category":"Bar","checkinsCount":632,"usersCount":197,"tipCount":7,"visitsCount":672,"url":"http://linksterstaproom.com","tier":"","message":"","currency":"","rating":7.1},{"name":"Torch Bistro","address":"2113 Tamiami Trl","lat":26.91921830177307,"lng":-82.04790472984314,"city_fetched":"North Port,US","state":"FL","country":"United States","canonicalUrl":"https://foursquare.com/v/torch-bistro/4bd22cfd77b29c74ae318e82","categoryId":"4bf58dd8d48988d11e941735","category":"Cocktail Bar","checkinsCount":138,"usersCount":95,"tipCount":8,"visitsCount":138,"tier":"","message":"","currency":"","rating":6.7},{"name":"Boomer's","phone":"9417434140","address":"2360 Tamiami Trl","lat":26.997611860681065,"lng":-82.11947705407104,"city_fetched":"North Port,US","state":"FL","country":"United States","canonicalUrl":"https://foursquare.com/v/boomers/4b533c46f964a5207f9327e3","categoryId":"4bf58dd8d48988d116941735","category":"Bar","checkinsCount":359,"usersCount":196,"tipCount":7,"visitsCount":452,"url":"http://boomersportcharlotte.com","tier":"","message":"","currency":"","rating":6.7},{"name":"Biehl's Slip Knot","phone":"9416397677","address":"1601 Tamiami Trl","lat":26.923763460313562,"lng":-82.04785675055307,"city_fetched":"North Port,US","state":"FL","country":"United States","canonicalUrl":"https://foursquare.com/v/biehls-slip-knot/4bb41d80bd4b9c747c6732f5","categoryId":"4bf58dd8d48988d116941735","category":"Bar","checkinsCount":226,"usersCount":140,"tipCount":4,"visitsCount":226,"tier":"","message":"","currency":"","rating":6.6},{"name":"Ryan's Subs & Sports Grill","phone":"9415057827","address":"5268 Duncan Rd","lat":26.955029808093315,"lng":-81.99302673339844,"city_fetched":"North Port,US","state":"FL","country":"United States","canonicalUrl":"https://foursquare.com/v/ryans-subs--sports-grill/4bb924f83db7b713c10d229a","categoryId":"4bf58dd8d48988d11d941735","category":"Sports Bar","checkinsCount":209,"usersCount":125,"tipCount":7,"visitsCount":291,"tier":"","message":"","currency":"","rating":6.5},{"name":"Scotty's Brewhouse","lat":26.928675,"lng":-82.064476,"city_fetched":"North Port,US","state":"FL","country":"United States","canonicalUrl":"https://foursquare.com/v/scottys-brewhouse/571e257f498e9e393120a51c","categoryId":"50327c8591d4c4b30a586d5d","category":"Brewery","checkinsCount":47,"usersCount":39,"tipCount":3,"visitsCount":58,"tier":"","message":"","currency":"","rating":6.5},{"name":"Spanish Pointe Restaurant & Bar","phone":"9419665746","address":"135 Bayview Dr","lat":27.19547068955598,"lng":-82.49296538522037,"city_fetched":"North Port,US","state":"FL","country":"United States","canonicalUrl":"https://foursquare.com/v/spanish-pointe-restaurant--bar/4dffd37562844b4c4eb69c14","categoryId":"4bf58dd8d48988d116941735","category":"Bar","checkinsCount":620,"usersCount":501,"tipCount":7,"visitsCount":796,"tier":"","message":"","currency":"","rating":6.2}]