[{"name":"Total Wine & More","phone":"2038400007","twitter":"totalwine","address":"380 Main Avenue","lat":41.140143,"lng":-73.423613,"city_fetched":"Norwalk","state":"CT","country":"United States","canonicalUrl":"https://foursquare.com/v/total-wine--more/50c11291e4b08e7068033c63","category":"Wine Shop","checkinsCount":2401,"usersCount":1788,"tipCount":24,"visitsCount":4793,"url":"http://www.totalwine.com","tier":"","message":"","currency":"","rating":9.2},{"name":"Local Kitchen and Beer Bar","phone":"2039573352","twitter":"localbeerbar","address":"68 Washington St","lat":41.098941802978516,"lng":-73.4187240600586,"neighborhood":"South Norwalk","city_fetched":"Norwalk","state":"CT","country":"United States","canonicalUrl":"https://foursquare.com/v/local-kitchen-and-beer-bar/53813458498e54e075ca84a5","category":"Bar","checkinsCount":895,"usersCount":758,"tipCount":19,"visitsCount":1343,"url":"http://sonolocal.com","tier":"","message":"","currency":"","rating":9.1},{"name":"Sunset Grille","phone":"2038664177","address":"52 Calf Pasture Beach Rd","lat":41.084343037563535,"lng":-73.39907713132345,"city_fetched":"Norwalk","state":"CT","country":"United States","canonicalUrl":"https://foursquare.com/v/sunset-grille/4ba92ffff964a5209c123ae3","category":"Bar","checkinsCount":1824,"usersCount":1237,"tipCount":18,"visitsCount":2245,"url":"http://www.sunsetgrille.net","tier":"","message":"","currency":"","rating":8.7},{"name":"Little Pub","phone":"2037621122","twitter":"littlepubwilton","address":"26 Danbury Rd","lat":41.163932126906076,"lng":-73.4182311360637,"city_fetched":"Norwalk","state":"CT","country":"United States","canonicalUrl":"https://foursquare.com/v/little-pub/5250a50f11d27f33e483622e","category":"Pub","checkinsCount":1115,"usersCount":921,"tipCount":17,"visitsCount":1916,"url":"http://littlepub.com","tier":2,"message":"Moderate","currency":"$","rating":8.7},{"name":"Match Restaurant","phone":"2038521088","twitter":"matchsono","address":"98 Washington St","lat":41.0989899403979,"lng":-73.41780525427598,"neighborhood":"South Norwalk","city_fetched":"Norwalk","state":"CT","country":"United States","canonicalUrl":"https://foursquare.com/v/match-restaurant/4a6dbe61f964a520ecd21fe3","category":"New American Restaurant","checkinsCount":1702,"usersCount":1033,"tipCount":30,"visitsCount":1895,"url":"http://www.matchsono.com","tier":2,"message":"Moderate","currency":"$","rating":8.6},{"name":"Rory's Restaurant","phone":"2036559453","twitter":"rorysrestaurant","address":"416 Post Rd","lat":41.08529429164279,"lng":-73.46166087232258,"city_fetched":"Norwalk","state":"CT","country":"United States","canonicalUrl":"https://foursquare.com/v/rorys-restaurant/4acd1818f964a520d7ca20e3","category":"American Restaurant","checkinsCount":819,"usersCount":353,"tipCount":17,"visitsCount":943,"url":"http://rorys.net","tier":2,"message":"Moderate","currency":"$","rating":8.6},{"name":"Harlan Publick","twitter":"harlanpublick","address":"127 Washington St","lat":41.09933995680803,"lng":-73.41682111880421,"neighborhood":"South Norwalk","city_fetched":"Norwalk","state":"CT","country":"United States","canonicalUrl":"https://foursquare.com/v/harlan-publick/53a21789498edc8689141e36","category":"Gastropub","checkinsCount":690,"usersCount":581,"tipCount":9,"visitsCount":939,"url":"http://harlanpublick.com","tier":2,"message":"Moderate","currency":"$","rating":8.5},{"name":"Bodega Taco Bar","phone":"2036558500","address":"980 Post Rd","lat":41.07606444693088,"lng":-73.47106267396548,"city_fetched":"Norwalk","state":"CT","country":"United States","canonicalUrl":"https://foursquare.com/v/bodega-taco-bar/509efce4e4b00adc5e95d284","category":"Mexican Restaurant","checkinsCount":1857,"usersCount":1070,"tipCount":31,"visitsCount":2199,"url":"http://www.bodegatacobar.com","tier":2,"message":"Moderate","currency":"$","rating":8.4},{"name":"Strada 18","phone":"2038534546","twitter":"strada18","address":"122 Washington St","lat":41.09901018920483,"lng":-73.41706859189136,"neighborhood":"South Norwalk","city_fetched":"Norwalk","state":"CT","country":"United States","canonicalUrl":"https://foursquare.com/v/strada-18/4b22e2b6f964a520804f24e3","category":"Italian Restaurant","checkinsCount":1669,"usersCount":833,"tipCount":29,"visitsCount":1693,"url":"http://www.strada18.com","tier":3,"message":"Expensive","currency":"$","rating":8.4},{"name":"Oishi Sushi & Izakaya","phone":"2039573888","twitter":"oishisono","address":"124 Washington St","lat":41.098841,"lng":-73.416972,"neighborhood":"South Norwalk","city_fetched":"Norwalk","state":"CT","country":"United States","canonicalUrl":"https://foursquare.com/v/oishi-sushi--izakaya/542aec3b498e73dbf3bcbecb","category":"Sushi Restaurant","checkinsCount":187,"usersCount":96,"tipCount":4,"visitsCount":192,"url":"http://www.oishisono.com","tier":"","message":"","currency":"","rating":8.2},{"name":"Cask Republic","phone":"2033540163","twitter":"gingermansono","address":"99 Washington St","lat":41.09903202718803,"lng":-73.41760382340634,"neighborhood":"South Norwalk","city_fetched":"Norwalk","state":"CT","country":"United States","canonicalUrl":"https://foursquare.com/v/cask-republic/4ab27fcdf964a520646b20e3","category":"Bar","checkinsCount":9350,"usersCount":3456,"tipCount":63,"visitsCount":9650,"url":"http://gingermannorwalk.com","tier":3,"message":"Expensive","currency":"$","rating":8.1},{"name":"The Goose","phone":"2036562600","twitter":"thegoose972","address":"972 Post Rd","lat":41.076165,"lng":-73.470846,"city_fetched":"Norwalk","state":"CT","country":"United States","canonicalUrl":"https://foursquare.com/thegoose972","category":"American Restaurant","checkinsCount":2610,"usersCount":1116,"tipCount":18,"visitsCount":2711,"url":"http://www.thegoosedarien.com","tier":3,"message":"Expensive","currency":"$","rating":8},{"name":"The Spread","phone":"2039391111","address":"70 N Main St","lat":41.101142166132895,"lng":-73.41974473611785,"neighborhood":"South Norwalk","city_fetched":"Norwalk","state":"CT","country":"United States","canonicalUrl":"https://foursquare.com/v/the-spread/507a0761e4b08aa6be9eeebd","category":"American Restaurant","checkinsCount":1750,"usersCount":923,"tipCount":26,"visitsCount":2226,"url":"http://thespreadsono.com","tier":3,"message":"Expensive","currency":"$","rating":8},{"name":"Don Carmelo's Mexican Grill & Tequila Bar","phone":"2039573000","twitter":"doncarmelosmex","address":"7 Winfield St","lat":41.1038412961899,"lng":-73.40348017100129,"city_fetched":"Norwalk","state":"CT","country":"United States","canonicalUrl":"https://foursquare.com/v/don-carmelos-mexican-grill--tequila-bar/4f40462ae4b08cc37161881a","category":"Mexican Restaurant","checkinsCount":556,"usersCount":303,"tipCount":10,"visitsCount":696,"url":"http://dcmexicangrill.com","tier":2,"message":"Moderate","currency":"$","rating":7.9},{"name":"BJ Ryans","phone":"2038667926","address":"57 Main St","lat":41.11992680384147,"lng":-73.41306870122999,"city_fetched":"Norwalk","state":"CT","country":"United States","canonicalUrl":"https://foursquare.com/v/bj-ryans/4ad65c25f964a520c20621e3","category":"Bar","checkinsCount":2698,"usersCount":852,"tipCount":20,"visitsCount":3074,"url":"http://www.bjryans.com","tier":2,"message":"Moderate","currency":"$","rating":7.9},{"name":"South Norwalk Boat Club","phone":"2038666624","address":"17 Mack St","lat":41.092862399316104,"lng":-73.41268309632306,"neighborhood":"South Norwalk","city_fetched":"Norwalk","state":"CT","country":"United States","canonicalUrl":"https://foursquare.com/v/south-norwalk-boat-club/4ac7f72df964a520e2ba20e3","category":"Harbor / Marina","checkinsCount":484,"usersCount":285,"tipCount":1,"visitsCount":740,"url":"http://southnorwalkboatclub.com","tier":"","message":"","currency":"","rating":7.8},{"name":"Bowlmor Norwalk","phone":"2038387501","twitter":"bowlmorlanes","address":"701 Connecticut Avenue","lat":41.0936514,"lng":-73.449619,"city_fetched":"Norwalk","state":"CT","country":"United States","canonicalUrl":"https://foursquare.com/v/bowlmor-norwalk/54824eaa498e40c7e2061c85","category":"Bowling Alley","checkinsCount":546,"usersCount":696,"tipCount":4,"visitsCount":980,"url":"https://t.co/WJShMamkFL","tier":"","message":"","currency":"","rating":7.7},{"name":"Ten Twenty Post","phone":"2036551020","twitter":"tentwentypost","address":"1020 Post Rd","lat":41.0754690831404,"lng":-73.47149848937988,"city_fetched":"Norwalk","state":"CT","country":"United States","canonicalUrl":"https://foursquare.com/v/ten-twenty-post/4b2be455f964a5202abd24e3","category":"Bar","checkinsCount":1830,"usersCount":930,"tipCount":20,"visitsCount":2092,"url":"http://www.tentwentypost.com","tier":3,"message":"Expensive","currency":"$","rating":7.6},{"name":"O'Neill's Pub & Restaurant","phone":"2038380222","address":"93 N Main St","lat":41.101869945256375,"lng":-73.41971020543716,"neighborhood":"South Norwalk","city_fetched":"Norwalk","state":"CT","country":"United States","canonicalUrl":"https://foursquare.com/v/oneills-pub--restaurant/4ae26432f964a520fc8d21e3","category":"Irish Pub","checkinsCount":6348,"usersCount":1892,"tipCount":37,"visitsCount":7179,"url":"http://www.oneillsono.com/index.php","tier":2,"message":"Moderate","currency":"$","rating":7.4},{"name":"Donovan's","phone":"2033549451","address":"138 Washington St","lat":41.09896599974323,"lng":-73.41638947901598,"neighborhood":"South Norwalk","city_fetched":"Norwalk","state":"CT","country":"United States","canonicalUrl":"https://foursquare.com/v/donovans/4af98cdef964a520441222e3","category":"Bar","checkinsCount":1975,"usersCount":1066,"tipCount":23,"visitsCount":2042,"url":"http://www.donovanssono.com","tier":2,"message":"Moderate","currency":"$","rating":7.4},{"name":"Center Street Public House","phone":"2033095522","address":"22 Center St","lat":41.07670097008429,"lng":-73.46937107082772,"city_fetched":"Norwalk","state":"CT","country":"United States","canonicalUrl":"https://foursquare.com/v/center-street-public-house/53dad320498eada00667049d","category":"Pub","checkinsCount":229,"usersCount":112,"tipCount":4,"visitsCount":288,"tier":"","message":"","currency":"","rating":7.4},{"name":"Sedona Taphouse","phone":"2032991800","address":"515 West Ave","lat":41.111862728605075,"lng":-73.41590028620686,"neighborhood":"Central Norwalk","city_fetched":"Norwalk","state":"CT","country":"United States","canonicalUrl":"https://foursquare.com/v/sedona-taphouse/55b56a53498e11380b63e583","category":"Beer Garden","checkinsCount":360,"usersCount":266,"tipCount":11,"visitsCount":568,"url":"http://www.sedonataphouse.com/#!norwalk-connecticut/c1ic3","tier":"","message":"","currency":"","rating":7.3},{"name":"Scena Wine Bar & Restaurant","phone":"2036623226","address":"1077 Post Rd","lat":41.07464775448532,"lng":-73.47296139612544,"city_fetched":"Norwalk","state":"CT","country":"United States","canonicalUrl":"https://foursquare.com/v/scena-wine-bar--restaurant/4c7fcf04078e3704ae255494","category":"Mediterranean Restaurant","checkinsCount":1203,"usersCount":348,"tipCount":9,"visitsCount":1205,"tier":3,"message":"Expensive","currency":"$","rating":7.1},{"name":"The Blind Rhino","address":"15 N Main St","lat":41.099498,"lng":-73.418813,"neighborhood":"South Norwalk","city_fetched":"Norwalk","state":"CT","country":"United States","canonicalUrl":"https://foursquare.com/v/the-blind-rhino/5621ac29498ee6007b1ed467","category":"Sports Bar","checkinsCount":204,"usersCount":181,"tipCount":3,"visitsCount":283,"tier":"","message":"","currency":"","rating":6.9}]