[{"name":"Flyers Restaurant and Brewery","phone":"3606755858","address":"32295 State Route 20","lat":48.29910314654256,"lng":-122.65276808575447,"city_fetched":"Oak Harbor,US","state":"WA","country":"United States","canonicalUrl":"https://foursquare.com/v/flyers-restaurant-and-brewery/4bd5c58c6798ef3b34eb638d","categoryId":"50327c8591d4c4b30a586d5d","category":"Brewery","checkinsCount":1414,"usersCount":781,"tipCount":32,"visitsCount":1641,"url":"http://eatatflyers.com","tier":"","message":"","currency":"","rating":7.8},{"name":"Toby's Tavern","phone":"3606784222","address":"8 Front St","lat":48.22120591085721,"lng":-122.68667578697205,"city_fetched":"Oak Harbor,US","state":"WA","country":"United States","canonicalUrl":"https://foursquare.com/v/tobys-tavern/4b8ad64ff964a520618432e3","categoryId":"4bf58dd8d48988d118941735","category":"Dive Bar","checkinsCount":844,"usersCount":673,"tipCount":15,"visitsCount":884,"url":"http://www.tobysuds.com","tier":"","message":"","currency":"","rating":7.6},{"name":"Football Bat Sports Bar and Grill","phone":"3606793999","address":"31359 SR 20","lat":48.28704911408424,"lng":-122.65886004658701,"city_fetched":"Oak Harbor,US","state":"WA","country":"United States","canonicalUrl":"https://foursquare.com/v/football-bat-sports-bar-and-grill/4ef4257b61af302a9776da88","categoryId":"4bf58dd8d48988d116941735","category":"Bar","checkinsCount":1249,"usersCount":95,"tipCount":10,"visitsCount":1249,"tier":"","message":"","currency":"","rating":7.5},{"name":"Oak Harbor Tavern","phone":"3606759919","address":"940 SE Pioneer Way","lat":48.28904949822946,"lng":-122.64588669934935,"city_fetched":"Oak Harbor,US","state":"WA","country":"United States","canonicalUrl":"https://foursquare.com/v/oak-harbor-tavern/512d6cabe4b0208cd48cdf2a","categoryId":"4bf58dd8d48988d116941735","category":"Bar","checkinsCount":297,"usersCount":72,"tipCount":1,"visitsCount":304,"url":"http://oakharbortavern.com","tier":"","message":"","currency":"","rating":7.3},{"name":"Off The Hook","address":"880-898 SE Pioneer Way","lat":48.288791,"lng":-122.64688789844513,"city_fetched":"Oak Harbor,US","state":"WA","country":"United States","canonicalUrl":"https://foursquare.com/v/off-the-hook/4ce75aaa595cb1f7bb46c214","categoryId":"4bf58dd8d48988d116941735","category":"Bar","checkinsCount":502,"usersCount":117,"tipCount":1,"visitsCount":541,"tier":"","message":"","currency":"","rating":7}]