[{"name":"The Corkscrew","phone":"3524020158","address":"16 SW Broadway St","lat":29.186187206068343,"lng":-82.13740811224835,"city_fetched":"Ocala,US","state":"FL","country":"United States","canonicalUrl":"https://foursquare.com/v/the-corkscrew/50df5212e4b0a6d1c363ab6c","categoryId":"4bf58dd8d48988d123941735","category":"Wine Bar","checkinsCount":98,"usersCount":50,"tipCount":4,"visitsCount":101,"url":"http://thecorkscrewwinery.com","tier":"","message":"","currency":"","rating":8.2},{"name":"Infinite Ale Works","phone":"3525120212","twitter":"infinitealework","address":"304 S Magnolia Ave","lat":29.183932976973804,"lng":-82.13712647965221,"city_fetched":"Ocala,US","state":"FL","country":"United States","canonicalUrl":"https://foursquare.com/v/infinite-ale-works/5322d4fa498ebf5932cd5acd","categoryId":"50327c8591d4c4b30a586d5d","category":"Brewery","checkinsCount":346,"usersCount":163,"tipCount":6,"visitsCount":486,"url":"http://www.infinitealeworks.com","tier":"","message":"","currency":"","rating":8.1},{"name":"The Pub","phone":"3528577256","address":"14 NW 5th St","lat":29.19078763,"lng":-82.13729038,"city_fetched":"Ocala,US","state":"FL","country":"United States","canonicalUrl":"https://foursquare.com/v/the-pub/4d44c1901b62b1f70e7cf6e2","categoryId":"4bf58dd8d48988d1d8941735","category":"Gay Bar","checkinsCount":2563,"usersCount":87,"tipCount":10,"visitsCount":2589,"url":"http://thepubocala.com","tier":"","message":"","currency":"","rating":7.9},{"name":"Miller's Ocala Ale House","phone":"3526208989","address":"305 SE 17th St","lat":29.17206652160362,"lng":-82.13321539111482,"city_fetched":"Ocala,US","state":"FL","country":"United States","canonicalUrl":"https://foursquare.com/v/millers-ocala-ale-house/4d9125143dd4a09328bc7418","categoryId":"4bf58dd8d48988d11d941735","category":"Sports Bar","checkinsCount":2917,"usersCount":1196,"tipCount":25,"visitsCount":3431,"url":"http://www.millersalehouse.com","tier":2,"message":"Moderate","currency":"$","rating":7.7},{"name":"English Dart Tavern","phone":"3526243200","address":"3865 SE 58th Ave","lat":29.149072,"lng":-82.05317,"city_fetched":"Ocala,US","state":"FL","country":"United States","canonicalUrl":"https://foursquare.com/v/english-dart-tavern/4c09b653bbc676b00fc548d5","categoryId":"4bf58dd8d48988d11b941735","category":"Pub","checkinsCount":138,"usersCount":89,"tipCount":2,"visitsCount":206,"tier":"","message":"","currency":"","rating":7.6},{"name":"O'Malley's Alley","phone":"3526902262","address":"24 S Magnolia Ave","lat":29.186603643211978,"lng":-82.13743999511358,"city_fetched":"Ocala,US","state":"FL","country":"United States","canonicalUrl":"https://foursquare.com/v/omalleys-alley/4bc52509693695212fc78388","categoryId":"4bf58dd8d48988d116941735","category":"Bar","checkinsCount":1617,"usersCount":560,"tipCount":6,"visitsCount":1639,"tier":"","message":"","currency":"","rating":7.5},{"name":"The Dugout Sports Bar","phone":"3526800376","address":"6801 SE Maricamp Rd","lat":29.129616759128826,"lng":-82.03770989235214,"city_fetched":"Ocala,US","state":"FL","country":"United States","canonicalUrl":"https://foursquare.com/v/the-dugout-sports-bar/4dfa8654b0fb0401c7f8a273","categoryId":"4bf58dd8d48988d11d941735","category":"Sports Bar","checkinsCount":696,"usersCount":243,"tipCount":12,"visitsCount":781,"url":"http://dugoutmiami.com","tier":"","message":"","currency":"","rating":7.5},{"name":"Copa Nightclub","phone":"3523515721","address":"2330 S Pine Ave","lat":29.16491845,"lng":-82.13595192,"city_fetched":"Ocala,US","state":"FL","country":"United States","canonicalUrl":"https://foursquare.com/v/copa-nightclub/4c8adb521797236a66d46588","categoryId":"4bf58dd8d48988d1d8941735","category":"Gay Bar","checkinsCount":592,"usersCount":143,"tipCount":5,"visitsCount":671,"tier":"","message":"","currency":"","rating":7.2},{"name":"100 Proof Saloon","phone":"3525120233","address":"1735 N Pine Ave","lat":29.205119,"lng":-82.141235,"city_fetched":"Ocala,US","state":"FL","country":"United States","canonicalUrl":"https://foursquare.com/v/100-proof-saloon/50dd0970e4b096daa03b445a","categoryId":"4bf58dd8d48988d116941735","category":"Bar","checkinsCount":137,"usersCount":84,"tipCount":2,"visitsCount":203,"tier":"","message":"","currency":"","rating":7.1},{"name":"Suite 306","lat":29.159572789943443,"lng":-82.17612463516478,"city_fetched":"Ocala,US","state":"FL","country":"United States","canonicalUrl":"https://foursquare.com/v/suite-306/4bc9156568f976b09ec55c83","categoryId":"4bf58dd8d48988d116941735","category":"Bar","checkinsCount":306,"usersCount":115,"tipCount":5,"visitsCount":310,"tier":"","message":"","currency":"","rating":7.1},{"name":"Ker's Winghouse","phone":"3526717880","address":"2145 E Silver Springs Blvd","lat":29.187208,"lng":-82.10919953333334,"city_fetched":"Ocala,US","state":"FL","country":"United States","canonicalUrl":"https://foursquare.com/v/kers-winghouse/4bbaa84098c7ef3b44683302","categoryId":"4bf58dd8d48988d116941735","category":"Bar","checkinsCount":1103,"usersCount":478,"tipCount":14,"visitsCount":1118,"url":"http://www.winghouse.com","tier":2,"message":"Moderate","currency":"$","rating":6.6},{"name":"Tilted Kilt Ocala","phone":"3523515458","twitter":"tiltedkiltpub","address":"3400 Silver Springs Blvd","lat":29.19433345945411,"lng":-82.0925028903573,"city_fetched":"Ocala,US","state":"FL","country":"United States","canonicalUrl":"https://foursquare.com/v/tilted-kilt-ocala/4d2a1003915fa093afa40b0a","categoryId":"4bf58dd8d48988d11b941735","category":"Pub","checkinsCount":1061,"usersCount":602,"tipCount":21,"visitsCount":1253,"url":"http://www.tiltedkilt.com","tier":"","message":"","currency":"","rating":6.5},{"name":"Tony's Sports Bar & Grill","phone":"3523908188","address":"2711 SW 27th Ave","lat":29.162726174741465,"lng":-82.16832777833135,"city_fetched":"Ocala,US","state":"FL","country":"United States","canonicalUrl":"https://foursquare.com/v/tonys-sports-bar--grill/5036be72e4b02090b31c05d9","categoryId":"4bf58dd8d48988d11d941735","category":"Sports Bar","checkinsCount":275,"usersCount":139,"tipCount":9,"visitsCount":280,"url":"http://tonyssportsbar.com","tier":"","message":"","currency":"","rating":5.8},{"name":"Beef 'O' Brady's","phone":"3524020003","address":"11100 SW 93rd Court Rd #12","lat":29.060732542407195,"lng":-82.27509340046936,"city_fetched":"Ocala,US","state":"FL","country":"United States","canonicalUrl":"https://foursquare.com/v/beef-o-bradys/4bd5f02f4e32d13a11c4c180","categoryId":"4bf58dd8d48988d11d941735","category":"Sports Bar","checkinsCount":551,"usersCount":283,"tipCount":12,"visitsCount":766,"url":"http://www.beefobradys.com","tier":"","message":"","currency":"","rating":5.7}]