[{"name":"Fish Tales","phone":"4102890990","address":"2207 Herring Way","lat":38.351702887023436,"lng":-75.0785493850708,"city_fetched":"Ocean City","state":"MD","country":"United States","canonicalUrl":"https://foursquare.com/v/fish-tales/4a9471e7f964a520a02120e3","category":"Seafood Restaurant","checkinsCount":8934,"usersCount":6483,"tipCount":88,"visitsCount":10580,"url":"http://www.ocfishtales.com","tier":2,"message":"Moderate","currency":"$","rating":9},{"name":"Belly Busters","phone":"4105247116","address":"4408 Coastal Hwy","lat":38.37111196867014,"lng":-75.07026041741744,"city_fetched":"Ocean City","state":"MD","country":"United States","canonicalUrl":"https://foursquare.com/v/belly-busters/4bbe0307593fef3b57270456","category":"Deli / Bodega","checkinsCount":1704,"usersCount":1268,"tipCount":25,"visitsCount":1973,"url":"http://ocbellybusters.com","tier":"","message":"","currency":"","rating":8.9},{"name":"Hooked","phone":"4107234665","address":"8003 Coastal Hwy","lat":38.399818980106545,"lng":-75.06189892143848,"city_fetched":"Ocean City","state":"MD","country":"United States","canonicalUrl":"https://foursquare.com/v/hooked/51a28a46498ecc371116aff5","category":"Seafood Restaurant","checkinsCount":1172,"usersCount":1145,"tipCount":41,"visitsCount":1612,"url":"http://hookedoc.com","tier":"","message":"","currency":"","rating":8.9},{"name":"Macky's Bayside Bar & Grill","phone":"4107235565","twitter":"mackysocmd","address":"5311 Coastal Hwy","lat":38.37897593513772,"lng":-75.0709277211977,"city_fetched":"Ocean City","state":"MD","country":"United States","canonicalUrl":"https://foursquare.com/v/mackys-bayside-bar--grill/4a91b25ff964a520681b20e3","category":"Bar","checkinsCount":10967,"usersCount":6712,"tipCount":74,"visitsCount":12682,"url":"http://www.mackys.com","tier":1,"message":"Cheap","currency":"$","rating":8.8},{"name":"M.R. Ducks","phone":"4102899125","address":"311 Talbot St","lat":38.33124570988428,"lng":-75.0900387992012,"city_fetched":"Ocean City","state":"MD","country":"United States","canonicalUrl":"https://foursquare.com/v/mr-ducks/4be4559b2457a5937814aa15","category":"Bar","checkinsCount":2253,"usersCount":1366,"tipCount":20,"visitsCount":2442,"url":"http://www.mrducks.com","tier":1,"message":"Cheap","currency":"$","rating":8.8},{"name":"Fager's Island Restaurant and Bar","phone":"4105245500","twitter":"fagersisland","address":"201 60th St","lat":38.38304567035748,"lng":-75.070481300354,"city_fetched":"Ocean City","state":"MD","country":"United States","canonicalUrl":"https://foursquare.com/fagersisland","category":"Seafood Restaurant","checkinsCount":10789,"usersCount":7753,"tipCount":87,"visitsCount":12973,"url":"http://www.fagers.com","tier":2,"message":"Moderate","currency":"$","rating":8.8},{"name":"Seacrets Jamaica USA","phone":"4105244900","twitter":"seacretsusa","address":"117 49th St","lat":38.374553,"lng":-75.071816,"city_fetched":"Ocean City","state":"MD","country":"United States","canonicalUrl":"https://foursquare.com/v/seacrets-jamaica-usa/4b452e47f964a5203c0726e3","category":"Bar","checkinsCount":30208,"usersCount":19461,"tipCount":180,"visitsCount":35103,"url":"http://seacrets.com","tier":2,"message":"Moderate","currency":"$","rating":8.7},{"name":"Castle In The Sand Hotel","address":"3701 Atlantic Ave","lat":38.36474374412813,"lng":-75.07049425923097,"city_fetched":"Ocean City","state":"MD","country":"United States","canonicalUrl":"https://foursquare.com/v/castle-in-the-sand-hotel/4bc39e4ddce4eee10dae719d","category":"Hotel","checkinsCount":1737,"usersCount":834,"tipCount":14,"visitsCount":1939,"tier":"","message":"","currency":"","rating":8.5},{"name":"De Lazy Lizard Brew Pub","address":"25 Philadelphia Ave","lat":38.333985769655314,"lng":-75.08853326488892,"city_fetched":"Ocean City","state":"MD","country":"United States","canonicalUrl":"https://foursquare.com/v/de-lazy-lizard-brew-pub/51f2f533498ebaa0149875b1","category":"Pub","checkinsCount":302,"usersCount":404,"tipCount":4,"visitsCount":481,"tier":"","message":"","currency":"","rating":8.4},{"name":"Brass Balls Saloon","phone":"4102890069","address":"1105 Atlantic Ave","lat":38.34138691548408,"lng":-75.0796115398407,"city_fetched":"Ocean City","state":"MD","country":"United States","canonicalUrl":"https://foursquare.com/v/brass-balls-saloon/4e1dd11462e1f8a446d1c380","category":"Bar","checkinsCount":2732,"usersCount":2387,"tipCount":32,"visitsCount":3182,"url":"http://brassballssaloon.com","tier":2,"message":"Moderate","currency":"$","rating":8.4},{"name":"The Bearded Clam","phone":"4102894498","address":"15 Wicomico St","lat":38.32843215346619,"lng":-75.08736988770046,"city_fetched":"Ocean City","state":"MD","country":"United States","canonicalUrl":"https://foursquare.com/v/the-bearded-clam/4c0411a7f423a593201ad116","category":"Bar","checkinsCount":1646,"usersCount":798,"tipCount":11,"visitsCount":1690,"url":"http://thebeardedclam.com","tier":"","message":"","currency":"","rating":8.2},{"name":"Caribbean Pool Bar & Grill","phone":"4102890837","address":"6 2nd St","lat":38.33314458627014,"lng":-75.0845355458848,"city_fetched":"Ocean City","state":"MD","country":"United States","canonicalUrl":"https://foursquare.com/v/caribbean-pool-bar--grill/4dbaf444a86e0e98a1bdd870","category":"Hotel Bar","checkinsCount":1499,"usersCount":912,"tipCount":5,"visitsCount":1512,"url":"http://plimplazaoc.com/caribbeanpoolbar/","tier":"","message":"","currency":"","rating":8.1},{"name":"Cafe Mirage","address":"128th St","lat":38.433712438248904,"lng":-75.0559954186936,"city_fetched":"Ocean City","state":"MD","country":"United States","canonicalUrl":"https://foursquare.com/v/cafe-mirage/51829b92498eb457ea546bd4","category":"Bar","checkinsCount":156,"usersCount":60,"tipCount":5,"visitsCount":161,"url":"http://cafemirageocmd.com","tier":"","message":"","currency":"","rating":8},{"name":"Ocean City Brewing Company","phone":"4436646682","twitter":"ocbrewco","address":"5509 Coastal Hwy","lat":38.38005036140264,"lng":-75.06834089756012,"city_fetched":"Ocean City","state":"MD","country":"United States","canonicalUrl":"https://foursquare.com/v/ocean-city-brewing-company/534ff3ca498e7c69b7da2470","category":"Brewery","checkinsCount":1084,"usersCount":1193,"tipCount":27,"visitsCount":1534,"url":"http://www.ocbrewingcompany.com","tier":"","message":"","currency":"","rating":8},{"name":"JC's Northside Pub","phone":"4102502337","twitter":"jcsnorthsidepub","address":"12701 Coastal Hwy #8","lat":38.43298,"lng":-75.0550834,"city_fetched":"Ocean City","state":"MD","country":"United States","canonicalUrl":"https://foursquare.com/v/jcs-northside-pub/4b5a45def964a5202db928e3","category":"Bar","checkinsCount":3312,"usersCount":550,"tipCount":19,"visitsCount":3468,"url":"http://jcsnorthsidepub.com","tier":2,"message":"Moderate","currency":"$","rating":8},{"name":"Bull On The Beach","phone":"4105242455","address":"94th St.","lat":38.40916270936811,"lng":-75.05860781686975,"city_fetched":"Ocean City","state":"MD","country":"United States","canonicalUrl":"https://foursquare.com/v/bull-on-the-beach/4b5a7942f964a52043c728e3","category":"American Restaurant","checkinsCount":4407,"usersCount":2621,"tipCount":43,"visitsCount":4845,"url":"http://bullonthebeachoc.com","tier":1,"message":"Cheap","currency":"$","rating":8},{"name":"Big Pecker's Bar & Grille","phone":"4107230690","address":"7301 Coastal Hwy","lat":38.394263,"lng":-75.06362,"city_fetched":"Ocean City","state":"MD","country":"United States","canonicalUrl":"https://foursquare.com/v/big-peckers-bar--grille/4bb67ad646d4a593664fc6c0","category":"Burger Joint","checkinsCount":3512,"usersCount":2665,"tipCount":35,"visitsCount":3672,"tier":"","message":"","currency":"","rating":7.9},{"name":"Dead Freddies Island Grill","phone":"4105243733","address":"105 64th St","lat":38.38666378194399,"lng":-75.06691815304609,"city_fetched":"Ocean City","state":"MD","country":"United States","canonicalUrl":"https://foursquare.com/v/dead-freddies-island-grill/4bec614c976ac9289aec600b","category":"Caribbean Restaurant","checkinsCount":6540,"usersCount":4470,"tipCount":119,"visitsCount":7415,"url":"http://www.deadfreddiesoceancity.com","tier":2,"message":"Moderate","currency":"$","rating":7.9},{"name":"Cork Bar","phone":"4102890009","address":"3 Wicomico St","lat":38.328351254357855,"lng":-75.08693647049317,"city_fetched":"Ocean City","state":"MD","country":"United States","canonicalUrl":"https://foursquare.com/v/cork-bar/4b6c727cf964a520e43a2ce3","category":"Bar","checkinsCount":2699,"usersCount":1231,"tipCount":14,"visitsCount":2760,"tier":1,"message":"Cheap","currency":"$","rating":7.9},{"name":"Ky West","phone":"4436642836","address":"5401 Coastal Hwy","lat":38.378978,"lng":-75.068728,"city_fetched":"Ocean City","state":"MD","country":"United States","canonicalUrl":"https://foursquare.com/v/ky-west/515df92be4b0199d4aa779f8","category":"Restaurant","checkinsCount":195,"usersCount":175,"tipCount":11,"visitsCount":247,"url":"http://www.kywestoceancity.com","tier":"","message":"","currency":"","rating":7.9},{"name":"The Purple Moose Saloon","phone":"4102896953","address":"108 S Atlantic Ave","lat":38.33037934875065,"lng":-75.08556604385376,"city_fetched":"Ocean City","state":"MD","country":"United States","canonicalUrl":"https://foursquare.com/v/the-purple-moose-saloon/4bef6b5b96edc9b653c64af2","category":"Bar","checkinsCount":2990,"usersCount":2238,"tipCount":32,"visitsCount":3285,"url":"http://purplemoose.com","tier":"","message":"","currency":"","rating":7.9},{"name":"Kirby's Red Onion Grille","phone":"4436646151","address":"13729 Coastal Hwy","lat":38.443106599937,"lng":-75.05381405353546,"city_fetched":"Ocean City","state":"MD","country":"United States","canonicalUrl":"https://foursquare.com/v/kirbys-red-onion-grille/4c3a6b912c8020a178708e00","category":"American Restaurant","checkinsCount":1528,"usersCount":421,"tipCount":10,"visitsCount":1693,"tier":2,"message":"Moderate","currency":"$","rating":7.9},{"name":"Skye Bar","phone":"4107236762","address":"6601 Coastal Hwy","lat":38.388564545880925,"lng":-75.06577172882898,"city_fetched":"Ocean City","state":"MD","country":"United States","canonicalUrl":"https://foursquare.com/v/skye-bar/4c8973db9ef0224bcb6b527b","category":"Lounge","checkinsCount":1520,"usersCount":1135,"tipCount":19,"visitsCount":1617,"url":"http://galaxy66barandgrille.com","tier":"","message":"","currency":"","rating":7.8},{"name":"Rio Grande Pool Bar","address":"145th Street","lat":38.45059892558145,"lng":-75.05195125083112,"city_fetched":"Ocean City","state":"MD","country":"United States","canonicalUrl":"https://foursquare.com/v/rio-grande-pool-bar/4c2e6099452620a106bd1b0f","category":"Dive Bar","checkinsCount":1579,"usersCount":315,"tipCount":8,"visitsCount":1607,"tier":"","message":"","currency":"","rating":7.8},{"name":"Backshore Brewing Company","phone":"4433731224","twitter":"backshorebrewco","address":"913 Atlantic Ave","lat":38.34021723054375,"lng":-75.08031964302063,"city_fetched":"Ocean City","state":"MD","country":"United States","canonicalUrl":"https://foursquare.com/v/backshore-brewing-company/51095859e4b0b31197fca5c6","category":"Brewery","checkinsCount":751,"usersCount":594,"tipCount":22,"visitsCount":840,"url":"http://backshorebrew.com","tier":"","message":"","currency":"","rating":7.7},{"name":"Coconuts Beachfront Resort","phone":"4102896846","address":"3701 Atlantic Ave","lat":38.364782,"lng":-75.0704106,"city_fetched":"Ocean City","state":"MD","country":"United States","canonicalUrl":"https://foursquare.com/v/coconuts-beachfront-resort/4c02d6690d0e0f47a7bc019a","category":"Bar","checkinsCount":755,"usersCount":454,"tipCount":4,"visitsCount":756,"tier":"","message":"","currency":"","rating":7.7},{"name":"Blue Bar And Grill","phone":"4436642836","address":"5401 Coastal Hwy","lat":38.37876381955646,"lng":-75.06870336440281,"city_fetched":"Ocean City","state":"MD","country":"United States","canonicalUrl":"https://foursquare.com/v/blue-bar-and-grill/4fc04634e4b0d3da58979320","category":"Bar","checkinsCount":239,"usersCount":107,"tipCount":9,"visitsCount":239,"tier":"","message":"","currency":"","rating":7.7},{"name":"Holiday Inn Pool Bar","address":"3 66th St","lat":38.38821134842448,"lng":-75.06355870754135,"city_fetched":"Ocean City","state":"MD","country":"United States","canonicalUrl":"https://foursquare.com/v/holiday-inn-pool-bar/4c8fd46d590ab1f7ba43e27d","category":"Hotel Bar","checkinsCount":432,"usersCount":335,"tipCount":8,"visitsCount":480,"tier":"","message":"","currency":"","rating":7.7},{"name":"Shenanigan's Irish Pub & Grille","phone":"4102897181","twitter":"shenanigansmd","address":"309 Atlantic Ave","lat":38.33502494783621,"lng":-75.08310377597809,"city_fetched":"Ocean City","state":"MD","country":"United States","canonicalUrl":"https://foursquare.com/v/shenanigans-irish-pub--grille/4ba35661f964a520e13538e3","category":"Pub","checkinsCount":3933,"usersCount":3455,"tipCount":52,"visitsCount":4534,"url":"http://www.ocshenanigans.com","tier":"","message":"","currency":"","rating":7.7},{"name":"The Greene Turtle","phone":"4107232120","address":"11613 Coastal Hwy","lat":38.42175115853745,"lng":-75.05685299634933,"city_fetched":"Ocean City","state":"MD","country":"United States","canonicalUrl":"https://foursquare.com/v/the-greene-turtle/4baebf2bf964a52069d43be3","category":"Sports Bar","checkinsCount":5138,"usersCount":3636,"tipCount":45,"visitsCount":6101,"url":"http://www.thegreeneturtle.com","tier":2,"message":"Moderate","currency":"$","rating":7.6},{"name":"Chill Out Hookah Lounge","phone":"4436646700","address":"304-398 S Baltimore Ave","lat":38.329695,"lng":-75.087174,"city_fetched":"Ocean City","state":"MD","country":"United States","canonicalUrl":"https://foursquare.com/v/chill-out-hookah-lounge/4d86aec39324236a2da7e80e","category":"Hookah Bar","checkinsCount":377,"usersCount":287,"tipCount":8,"visitsCount":383,"url":"http://chillouthookahlounge.com","tier":"","message":"","currency":"","rating":7.5},{"name":"Riptide Pool Bar And Grill","phone":"4102893384","address":"2601 Atlantic Ave.","lat":38.354951494521565,"lng":-75.07367105183512,"city_fetched":"Ocean City","state":"MD","country":"United States","canonicalUrl":"https://foursquare.com/v/riptide-pool-bar-and-grill/4c000dbb37850f4786a5973f","category":"Bar","checkinsCount":508,"usersCount":310,"tipCount":6,"visitsCount":520,"url":"http://flagshipoceanfront.com","tier":"","message":"","currency":"","rating":7.5},{"name":"Hammerheads on The Beach","phone":"4102890006","address":"913 Atlantic Ave","lat":38.34015514624782,"lng":-75.08032671175575,"city_fetched":"Ocean City","state":"MD","country":"United States","canonicalUrl":"https://foursquare.com/v/hammerheads-on-the-beach/4c0940ca6071a5930196dd32","category":"Seafood Restaurant","checkinsCount":2371,"usersCount":1753,"tipCount":35,"visitsCount":2451,"url":"http://hammerheadsocmd.com","tier":"","message":"","currency":"","rating":7.4},{"name":"Surfin' Betty's","address":"1601A Atlantic Ave","lat":38.34610942,"lng":-75.07732193,"city_fetched":"Ocean City","state":"MD","country":"United States","canonicalUrl":"https://foursquare.com/v/surfin-bettys/4c27b88efe6e2d7fb22e523c","category":"Bar","checkinsCount":426,"usersCount":244,"tipCount":2,"visitsCount":451,"tier":"","message":"","currency":"","rating":7.3},{"name":"45th Street Taphouse","phone":"4436642201","address":"4507 Coastal Hwy","lat":38.371729966607006,"lng":-75.0716463529143,"city_fetched":"Ocean City","state":"MD","country":"United States","canonicalUrl":"https://foursquare.com/v/45th-street-taphouse/4f5650bae4b0b3e20f8087a1","category":"Gastropub","checkinsCount":3420,"usersCount":2345,"tipCount":59,"visitsCount":3723,"url":"http://45taphouse.com","tier":"","message":"","currency":"","rating":7.3},{"name":"Whiskers Pub","phone":"4105242609","address":"11805 Ocean Gtwy","lat":38.424819732771326,"lng":-75.05744992513222,"city_fetched":"Ocean City","state":"MD","country":"United States","canonicalUrl":"https://foursquare.com/v/whiskers-pub/4bde33bbffdec9283e23e8a1","category":"American Restaurant","checkinsCount":693,"usersCount":369,"tipCount":9,"visitsCount":759,"url":"http://whiskerspub.com","tier":2,"message":"Moderate","currency":"$","rating":7.3},{"name":"Harbor Inn","phone":"4102894149","address":"216 Somerset St","lat":38.33020074367903,"lng":-75.08929743939,"city_fetched":"Ocean City","state":"MD","country":"United States","canonicalUrl":"https://foursquare.com/v/harbor-inn/4c66b09ec2ead13ad554b480","category":"Dive Bar","checkinsCount":192,"usersCount":112,"tipCount":4,"visitsCount":197,"tier":"","message":"","currency":"","rating":7.2},{"name":"Pickles Pub","phone":"4102894891","twitter":"picklespuboc","address":"706 8th St","lat":38.338941185309636,"lng":-75.08357174410276,"city_fetched":"Ocean City","state":"MD","country":"United States","canonicalUrl":"https://foursquare.com/v/pickles-pub/4be8bd5788ed2d7f2a4ecc1d","category":"Pub","checkinsCount":3697,"usersCount":2042,"tipCount":40,"visitsCount":4254,"url":"http://www.picklesoc.com","tier":2,"message":"Moderate","currency":"$","rating":7.1},{"name":"Frog Bar & Grill","address":"Inlet Village","lat":38.3256492843002,"lng":-75.08876323699951,"city_fetched":"Ocean City","state":"MD","country":"United States","canonicalUrl":"https://foursquare.com/v/frog-bar--grill/4db48c466e8179a9137fa047","category":"Bar","checkinsCount":1106,"usersCount":782,"tipCount":14,"visitsCount":1132,"tier":"","message":"","currency":"","rating":7}]