[{"name":"Graham Central Station","phone":"4325520552","twitter":"grahamsodessa","address":"4240 Preston Smith Rd","lat":31.89788930070396,"lng":-102.32513394870466,"city_fetched":"Odessa,US","state":"TX","country":"United States","canonicalUrl":"https://foursquare.com/v/graham-central-station/4c0747420ed3c9283360797d","categoryId":"4bf58dd8d48988d11f941735","category":"Nightclub","checkinsCount":848,"usersCount":270,"tipCount":9,"visitsCount":905,"url":"http://www.grahamcentralstationodessa.com","tier":"","message":"","currency":"","rating":8.2},{"name":"Homemade Wines","phone":"4325509463","address":"4555 E University Blvd Ste A7","lat":31.879931688308716,"lng":-102.331634,"city_fetched":"Odessa,US","state":"TX","country":"United States","canonicalUrl":"https://foursquare.com/v/homemade-wines/4c2638e45c5ca593f8b745fe","categoryId":"4bf58dd8d48988d123941735","category":"Wine Bar","checkinsCount":231,"usersCount":70,"tipCount":4,"visitsCount":242,"url":"http://homemadewinesofodessa.com","tier":"","message":"","currency":"","rating":7.7},{"name":"Beer Garden","lat":31.947600716789356,"lng":-102.16967923791924,"city_fetched":"Odessa,US","state":"Texas","country":"United States","canonicalUrl":"https://foursquare.com/v/beer-garden/54b9f5c5498e61f57b01e79e","categoryId":"4bf58dd8d48988d117941735","category":"Beer Garden","checkinsCount":113,"usersCount":182,"tipCount":2,"visitsCount":528,"tier":"","message":"","currency":"","rating":7.5},{"name":"Twin Peaks Restaurant","phone":"4323660921","address":"5001 E 42nd St","lat":31.89406303205636,"lng":-102.33384100350168,"city_fetched":"Odessa,US","state":"TX","country":"United States","canonicalUrl":"https://foursquare.com/v/twin-peaks-restaurant/4ec1c1f302d5a63a3ffc3f2c","categoryId":"4bf58dd8d48988d11d941735","category":"Sports Bar","checkinsCount":1657,"usersCount":859,"tipCount":14,"visitsCount":2190,"url":"http://www.twinpeaksrestaurant.com","tier":"","message":"","currency":"","rating":7.5},{"name":"Oasis Grill & Bar","phone":"4323636237","address":"Elegante Hotel","lat":31.882569633366558,"lng":-102.31427522852997,"city_fetched":"Odessa,US","state":"TX","country":"United States","canonicalUrl":"https://foursquare.com/v/oasis-grill--bar/4c86f0a0b504a1431fe7b21c","categoryId":"4bf58dd8d48988d1d5941735","category":"Hotel Bar","checkinsCount":200,"usersCount":138,"tipCount":1,"visitsCount":207,"url":"https://oasisgrill.com","tier":"","message":"","currency":"","rating":7.3},{"name":"Zucchis Sports Bar","phone":"4325504755","address":"1541 John Ben Shepperd Pkwy","lat":31.877342,"lng":-102.32977828333334,"city_fetched":"Odessa,US","state":"TX","country":"United States","canonicalUrl":"https://foursquare.com/v/zucchis-sports-bar/4c4261c1af052d7f2ef37e79","categoryId":"4bf58dd8d48988d11d941735","category":"Sports Bar","checkinsCount":487,"usersCount":205,"tipCount":4,"visitsCount":733,"url":"http://www.zucchis.com","tier":"","message":"","currency":"","rating":7.3},{"name":"Basin Nights","address":"2113 Kermit Hwy","lat":31.862518974985715,"lng":-102.38252035700468,"city_fetched":"Odessa,US","state":"TX","country":"United States","canonicalUrl":"https://foursquare.com/v/basin-nights/4c46760a417b20a101dfdaa9","categoryId":"4bf58dd8d48988d11a941735","category":"Other Nightlife","checkinsCount":164,"usersCount":70,"tipCount":3,"visitsCount":205,"tier":"","message":"","currency":"","rating":7.3},{"name":"Fast Eddies","phone":"4325500190","twitter":"fasteddies_","address":"4031 E 42nd St","lat":31.89243107112179,"lng":-102.34356039909986,"city_fetched":"Odessa,US","state":"TX","country":"United States","canonicalUrl":"https://foursquare.com/v/fast-eddies/4bf8a5205ec320a16f3389d3","categoryId":"4bf58dd8d48988d11d941735","category":"Sports Bar","checkinsCount":337,"usersCount":182,"tipCount":4,"visitsCount":374,"url":"http://fasteddiesbilliards.com","tier":"","message":"","currency":"","rating":7.2},{"name":"Steins Ultra Bar","lat":31.879544,"lng":-102.331668,"city_fetched":"Odessa,US","state":"TX","country":"United States","canonicalUrl":"https://foursquare.com/v/steins-ultra-bar/532cd7a2498ee94a239a736c","categoryId":"4bf58dd8d48988d116941735","category":"Bar","checkinsCount":68,"usersCount":60,"tipCount":3,"visitsCount":120,"tier":"","message":"","currency":"","rating":6.6},{"name":"Black Gold Sports Bar","address":"4555 E University Blvd","lat":31.876828784611266,"lng":-102.32975006103516,"city_fetched":"Odessa,US","state":"TX","country":"United States","canonicalUrl":"https://foursquare.com/v/black-gold-sports-bar/4c5b826a6ebe2d7ffececd2e","categoryId":"4bf58dd8d48988d116941735","category":"Bar","checkinsCount":354,"usersCount":132,"tipCount":1,"visitsCount":433,"tier":"","message":"","currency":"","rating":6.4},{"name":"Bottoms Up Bar and Grill","phone":"4326530148","address":"4101 E 52nd St","lat":31.902448009303857,"lng":-102.34452234866374,"city_fetched":"Odessa,US","state":"TX","country":"United States","canonicalUrl":"https://foursquare.com/v/bottoms-up-bar-and-grill/549b2ea7498e8b6d4935a9a7","categoryId":"4bf58dd8d48988d116941735","category":"Bar","checkinsCount":88,"usersCount":109,"tipCount":3,"visitsCount":286,"tier":"","message":"","currency":"","rating":6.2},{"name":"10 Sports Bar and Grill","phone":"4323671001","address":"4101 E 42nd St","lat":31.89574670999014,"lng":-102.33780565238413,"city_fetched":"Odessa,US","state":"TX","country":"United States","canonicalUrl":"https://foursquare.com/v/10-sports-bar-and-grill/4ba44813f964a520b49238e3","categoryId":"4bf58dd8d48988d116941735","category":"Bar","checkinsCount":383,"usersCount":159,"tipCount":6,"visitsCount":394,"url":"http://10sbag.com","tier":"","message":"","currency":"","rating":5.3}]