[{"name":"Roosters Brewing Co.","phone":"8016276171","twitter":"roostersbrewing","address":"253 25th St","lat":41.22054147456769,"lng":-111.97452733155006,"neighborhood":"Ogden Central Buisness District","city_fetched":"Ogden,US","state":"UT","country":"United States","canonicalUrl":"https://foursquare.com/v/roosters-brewing-co/4b6ce41bf964a520ec5b2ce3","categoryId":"50327c8591d4c4b30a586d5d","category":"Brewery","checkinsCount":1608,"usersCount":1262,"tipCount":30,"visitsCount":1803,"url":"http://www.roostersbrewingco.com","tier":2,"message":"Moderate","currency":"$","rating":8},{"name":"The City Club","lat":41.22093915939331,"lng":-111.97411707,"neighborhood":"Ogden Central Buisness District","city_fetched":"Ogden,US","state":"UT","country":"United States","canonicalUrl":"https://foursquare.com/v/the-city-club/4b76265cf964a52029402ee3","categoryId":"4bf58dd8d48988d116941735","category":"Bar","checkinsCount":399,"usersCount":244,"tipCount":14,"visitsCount":410,"tier":"","message":"","currency":"","rating":7.9},{"name":"Bout Time Pub & Grub","twitter":"bouttimepub","address":"1232 Newgate","lat":41.194062784851226,"lng":-111.98203778689538,"city_fetched":"Ogden,US","state":"UT","country":"United States","canonicalUrl":"https://foursquare.com/v/bout-time-pub--grub/50e61d76498e176272525764","categoryId":"4bf58dd8d48988d11b941735","category":"Pub","checkinsCount":324,"usersCount":160,"tipCount":5,"visitsCount":464,"url":"http://www.bouttimepub.com","tier":2,"message":"Moderate","currency":"$","rating":7.6},{"name":"The Circle Inn Pizzeria","address":"2253 N Main St","lat":41.14645383333333,"lng":-112.02633,"city_fetched":"Ogden,US","state":"UT","country":"United States","canonicalUrl":"https://foursquare.com/v/the-circle-inn-pizzeria/4b7f3b36f964a520f22030e3","categoryId":"4bf58dd8d48988d11d941735","category":"Sports Bar","checkinsCount":184,"usersCount":89,"tipCount":4,"visitsCount":187,"tier":"","message":"","currency":"","rating":7.5},{"name":"MacCool's Public House","phone":"8016271900","address":"2510 Washington Blvd","lat":41.220609102309304,"lng":-111.97033544178309,"neighborhood":"Ogden Central Buisness District","city_fetched":"Ogden,US","state":"UT","country":"United States","canonicalUrl":"https://foursquare.com/v/maccools-public-house/4d800b6b6bd8b60cb357427c","categoryId":"50327c8591d4c4b30a586d5d","category":"Brewery","checkinsCount":876,"usersCount":306,"tipCount":14,"visitsCount":917,"url":"http://maccoolsrestaurant.com","tier":"","message":"","currency":"","rating":7.5},{"name":"Roosters Brewing Co","twitter":"roostersbrewing","address":"748 Heritage Park Blvd","lat":41.08348222,"lng":-111.97913,"city_fetched":"Ogden,US","state":"UT","country":"United States","canonicalUrl":"https://foursquare.com/v/roosters-brewing-co/4b89eb3bf964a520305632e3","categoryId":"50327c8591d4c4b30a586d5d","category":"Brewery","checkinsCount":1264,"usersCount":927,"tipCount":26,"visitsCount":1578,"tier":"","message":"","currency":"","rating":7.4},{"name":"Kokomo Club","phone":"8016219991","address":"216 25th St","lat":41.22098210921619,"lng":-111.97549961630857,"neighborhood":"Ogden Central Buisness District","city_fetched":"Ogden,US","state":"UT","country":"United States","canonicalUrl":"https://foursquare.com/v/kokomo-club/4b9bf9d7f964a520903c36e3","categoryId":"4bf58dd8d48988d116941735","category":"Bar","checkinsCount":125,"usersCount":87,"tipCount":5,"visitsCount":125,"tier":"","message":"","currency":"","rating":7.4},{"name":"Summit Lounge","lat":41.08411511,"lng":-111.983131,"city_fetched":"Ogden,US","state":"UT","country":"United States","canonicalUrl":"https://foursquare.com/v/summit-lounge/4d0ff3169302a35d102f786e","categoryId":"4bf58dd8d48988d121941735","category":"Lounge","checkinsCount":201,"usersCount":111,"tipCount":3,"visitsCount":203,"tier":"","message":"","currency":"","rating":7.3},{"name":"Fahrenheit Lounge","address":"762 Heritage Park Blvd","lat":41.083849085219946,"lng":-111.9804017900086,"city_fetched":"Ogden,US","state":"UT","country":"United States","canonicalUrl":"https://foursquare.com/v/fahrenheit-lounge/4e7bf8859a527ce9558affc5","categoryId":"4bf58dd8d48988d121941735","category":"Lounge","checkinsCount":136,"usersCount":57,"tipCount":2,"visitsCount":137,"url":"http://loungef.com","tier":"","message":"","currency":"","rating":7.3},{"name":"Kamikazes","phone":"8016219138","address":"2408 Adams Ave","lat":41.222257567336,"lng":-111.96742440401633,"city_fetched":"Ogden,US","state":"UT","country":"United States","canonicalUrl":"https://foursquare.com/v/kamikazes/4afe3465f964a520ba2e22e3","categoryId":"4bf58dd8d48988d116941735","category":"Bar","checkinsCount":585,"usersCount":96,"tipCount":7,"visitsCount":588,"tier":"","message":"","currency":"","rating":7},{"name":"Alleged","phone":"8019900692","twitter":"alleged25th","address":"205 25th St","lat":41.220542741923786,"lng":-111.97593627104358,"neighborhood":"Ogden Central Buisness District","city_fetched":"Ogden,US","state":"UT","country":"United States","canonicalUrl":"https://foursquare.com/v/alleged/518c7b9e498e7f98884efa1b","categoryId":"4bf58dd8d48988d11e941735","category":"Cocktail Bar","checkinsCount":184,"usersCount":111,"tipCount":4,"visitsCount":190,"url":"http://www.alleged25th.com","tier":"","message":"","currency":"","rating":6.6},{"name":"Brewskis","phone":"8013941713","address":"244 25th St","lat":41.22099652333205,"lng":-111.97468452730956,"neighborhood":"Ogden Central Buisness District","city_fetched":"Ogden,US","state":"UT","country":"United States","canonicalUrl":"https://foursquare.com/v/brewskis/4b4e872af964a52096f026e3","categoryId":"4bf58dd8d48988d118941735","category":"Dive Bar","checkinsCount":1152,"usersCount":508,"tipCount":13,"visitsCount":1224,"url":"http://brewskisonline.net","tier":"","message":"","currency":"","rating":6.4},{"name":"the outlaw","lat":41.22992058221745,"lng":-112.01007083554839,"city_fetched":"Ogden,US","state":"UT","country":"United States","canonicalUrl":"https://foursquare.com/v/the-outlaw/4b8a11dcf964a5208c5e32e3","categoryId":"4bf58dd8d48988d11f941735","category":"Nightclub","checkinsCount":262,"usersCount":135,"tipCount":3,"visitsCount":271,"tier":"","message":"","currency":"","rating":6.3}]