[{"name":"Double Play Sports Bar","phone":"8146784994","address":"45 Seneca St","lat":41.4332423173227,"lng":-79.70819173396843,"city_fetched":"Oil City,US","state":"PA","country":"United States","canonicalUrl":"https://foursquare.com/v/double-play-sports-bar/4b66fe72f964a52013342be3","categoryId":"4bf58dd8d48988d11d941735","category":"Sports Bar","checkinsCount":352,"usersCount":128,"tipCount":5,"visitsCount":370,"url":"http://www.doubleplaysportsbar.net","tier":"","message":"","currency":"","rating":7.3},{"name":"Shamrock","phone":"8146760604","address":"310 Cooper Ave","lat":41.43901414008192,"lng":-79.70407161664608,"city_fetched":"Oil City,US","state":"PA","country":"United States","canonicalUrl":"https://foursquare.com/v/shamrock/4bd0dd26a8b3a593f8d1645f","categoryId":"4bf58dd8d48988d116941735","category":"Bar","checkinsCount":153,"usersCount":38,"tipCount":1,"visitsCount":163,"tier":"","message":"","currency":"","rating":7.1},{"name":"Billys","phone":"8146782582","address":"275 Seneca St","lat":41.435649240403656,"lng":-79.70876700122597,"city_fetched":"Oil City,US","state":"PA","country":"United States","canonicalUrl":"https://foursquare.com/v/billys/4bc7ba6c92b376b0cb5c503a","categoryId":"4bf58dd8d48988d116941735","category":"Bar","checkinsCount":167,"usersCount":57,"tipCount":1,"visitsCount":174,"tier":"","message":"","currency":"","rating":6.2}]