[{"name":"Empire Slice House","phone":"4055571760","twitter":"empiresliceokc","address":"1734 NW 16th St","lat":35.485841496188016,"lng":-97.54061476502336,"neighborhood":"Central Oklahoma City","city_fetched":"Oklahoma City","state":"OK","country":"United States","canonicalUrl":"https://foursquare.com/v/empire-slice-house/51bbbe5c498e19238f274685","category":"Pizza Place","checkinsCount":2149,"usersCount":1288,"tipCount":42,"visitsCount":3005,"url":"http://empireslicehouse.com","tier":1,"message":"Cheap","currency":"$","rating":9.4},{"name":"Topgolf","phone":"4056077154","twitter":"topgolfokc","address":"13313 Pawnee Dr","lat":35.60271265639225,"lng":-97.535187900121,"neighborhood":"Northwest Oklahoma City","city_fetched":"Oklahoma City","state":"OK","country":"United States","canonicalUrl":"https://foursquare.com/topgolfokc","category":"Golf Course","checkinsCount":386,"usersCount":932,"tipCount":5,"visitsCount":1475,"url":"http://topgolf.com/us/oklahoma-city/","tier":"","message":"","currency":"","rating":9.3},{"name":"Pearl's Oyster Bar","phone":"4058488008","twitter":"pearlsokc","address":"5641 N Classen Blvd","lat":35.52921988236086,"lng":-97.535399517711,"neighborhood":"Central Oklahoma City","city_fetched":"Oklahoma City","state":"OK","country":"United States","canonicalUrl":"https://foursquare.com/v/pearls-oyster-bar/4bdb5d8c2a3a0f4739afaeb6","category":"Seafood Restaurant","checkinsCount":1639,"usersCount":1133,"tipCount":19,"visitsCount":2188,"url":"http://www.funfresh.com","tier":2,"message":"Moderate","currency":"$","rating":9.2},{"name":"The Pump Bar","lat":35.49423570438351,"lng":-97.52126320306418,"neighborhood":"Paseo","city_fetched":"Oklahoma City","state":"OK","country":"United States","canonicalUrl":"https://foursquare.com/v/the-pump-bar/548e5d8e498ea6aa0eb79d3e","category":"Bar","checkinsCount":828,"usersCount":465,"tipCount":5,"visitsCount":1335,"tier":"","message":"","currency":"","rating":9.1},{"name":"FLINT","phone":"4056050657","twitter":"flintokc","address":"15 N Robinson Ave","lat":35.46660336873052,"lng":-97.51656889915466,"neighborhood":"Business District","city_fetched":"Oklahoma City","state":"OK","country":"United States","canonicalUrl":"https://foursquare.com/flintokc","category":"Bar","checkinsCount":1607,"usersCount":1145,"tipCount":25,"visitsCount":2021,"url":"http://flintokc","tier":2,"message":"Moderate","currency":"$","rating":9.1},{"name":"The Patriarch Craft Beer House & Lawn","phone":"4052856670","twitter":"patriarchedmond","address":"9 E Edwards St","lat":35.65862568780968,"lng":-97.48038307567252,"city_fetched":"Oklahoma City","state":"OK","country":"United States","canonicalUrl":"https://foursquare.com/v/the-patriarch-craft-beer-house--lawn/55437988498e93315434ed28","category":"Beer Garden","checkinsCount":247,"usersCount":269,"tipCount":2,"visitsCount":571,"url":"http://thepatriarchedmond.com","tier":"","message":"","currency":"","rating":9},{"name":"Republic Gastropub","phone":"4052864577","twitter":"republicokc","address":"5830 N Classen Blvd","lat":35.53227861372413,"lng":-97.53406763076782,"neighborhood":"Central Oklahoma City","city_fetched":"Oklahoma City","state":"OK","country":"United States","canonicalUrl":"https://foursquare.com/v/republic-gastropub/4bc366adabf49521e8b4c393","category":"Gastropub","checkinsCount":7117,"usersCount":3464,"tipCount":70,"visitsCount":8303,"url":"http://www.republicgastropub.com","tier":2,"message":"Moderate","currency":"$","rating":9},{"name":"James E. McNellie's Public House","phone":"4056017468","twitter":"mcnellies_okc","address":"1100 Classen Dr","lat":35.47925957130617,"lng":-97.5212574005127,"neighborhood":"Midtown","city_fetched":"Oklahoma City","state":"OK","country":"United States","canonicalUrl":"https://foursquare.com/v/james-e-mcnellies-public-house/4b1172cff964a520c87c23e3","category":"Pub","checkinsCount":8818,"usersCount":2904,"tipCount":69,"visitsCount":10140,"url":"http://www.mcnelliesokc.com","tier":2,"message":"Moderate","currency":"$","rating":8.9},{"name":"TapWerks Ale House & Café","phone":"4053199599","twitter":"tapwerks","address":"121 E Sheridan Ave","lat":35.46666050929929,"lng":-97.50962525795626,"neighborhood":"Bricktown","city_fetched":"Oklahoma City","state":"OK","country":"United States","canonicalUrl":"https://foursquare.com/v/tapwerks-ale-house--caf%C3%A9/4b0d56e2f964a5209d4623e3","category":"Pub","checkinsCount":6418,"usersCount":4240,"tipCount":58,"visitsCount":7621,"url":"http://tapwerks.com","tier":2,"message":"Moderate","currency":"$","rating":8.9},{"name":"Anthem Brewing Company","twitter":"anthembrewing","address":"908 SW 4th St","lat":35.46089715962524,"lng":-97.52893924713135,"neighborhood":"Central Oklahoma City","city_fetched":"Oklahoma City","state":"OK","country":"United States","canonicalUrl":"https://foursquare.com/v/anthem-brewing-company/4fa6c702e4b0419376ecaf1f","category":"Brewery","checkinsCount":513,"usersCount":201,"tipCount":3,"visitsCount":681,"url":"http://anthembrewing.com","tier":"","message":"","currency":"","rating":8.9},{"name":"BJ's Restaurant and Brewhouse","phone":"4057486770","twitter":"bjsrestaurants","address":"2425 W Memorial Rd","lat":35.61025266,"lng":-97.55788713,"neighborhood":"Northwest Oklahoma City","city_fetched":"Oklahoma City","state":"OK","country":"United States","canonicalUrl":"https://foursquare.com/v/bjs-restaurant-and-brewhouse/4b1ae56bf964a52029f423e3","category":"American Restaurant","checkinsCount":3607,"usersCount":2637,"tipCount":49,"visitsCount":4959,"url":"http://t.co/bl46gcjDLN","tier":2,"message":"Moderate","currency":"$","rating":8.8},{"name":"Pearl's Crabtown","phone":"4052327227","twitter":"crabtownokc","address":"303 E Sheridan Ave","lat":35.466697086083904,"lng":-97.50730424861784,"neighborhood":"Bricktown","city_fetched":"Oklahoma City","state":"OK","country":"United States","canonicalUrl":"https://foursquare.com/v/pearls-crabtown/4b0d5423f964a5206a4623e3","category":"Seafood Restaurant","checkinsCount":1433,"usersCount":1313,"tipCount":23,"visitsCount":1647,"url":"http://www.pearlsokc.com","tier":2,"message":"Moderate","currency":"$","rating":8.8},{"name":"Phoenix Rising","phone":"4056013711","address":"2120 NW 39th St","lat":35.51120598714533,"lng":-97.54860765595818,"neighborhood":"Central Oklahoma City","city_fetched":"Oklahoma City","state":"OK","country":"United States","canonicalUrl":"https://foursquare.com/v/phoenix-rising/4b80c022f964a520018a30e3","category":"Gay Bar","checkinsCount":2456,"usersCount":537,"tipCount":7,"visitsCount":2833,"tier":1,"message":"Cheap","currency":"$","rating":8.8},{"name":"Power House","phone":"5126191169","twitter":"powerhousebar","address":"1229 SW 2nd St","lat":35.46302938926554,"lng":-97.53381013870239,"neighborhood":"Central Oklahoma City","city_fetched":"Oklahoma City","state":"OK","country":"United States","canonicalUrl":"https://foursquare.com/v/power-house/52edb10c11d2c6c0647d665a","category":"Bar","checkinsCount":629,"usersCount":314,"tipCount":2,"visitsCount":1067,"url":"http://powerhouseokc.com","tier":"","message":"","currency":"","rating":8.8},{"name":"Red PrimeSteak","phone":"4052322626","twitter":"redprimesteak","address":"504 N Broadway Ave","lat":35.472136606760124,"lng":-97.51408249139786,"neighborhood":"Automobile Alley","city_fetched":"Oklahoma City","state":"OK","country":"United States","canonicalUrl":"https://foursquare.com/v/red-primesteak/4b2fe3d5f964a5200cf224e3","category":"Steakhouse","checkinsCount":2192,"usersCount":1187,"tipCount":24,"visitsCount":2456,"url":"http://www.redprimesteak.com","tier":4,"message":"Very Expensive","currency":"$","rating":8.7},{"name":"Whiskey Cake Kitchen And Bar","phone":"4055822253","address":"1845 NW Expressway","lat":35.523105,"lng":-97.54311,"neighborhood":"Central Oklahoma City","city_fetched":"Oklahoma City","state":"OK","country":"United States","canonicalUrl":"https://foursquare.com/v/whiskey-cake-kitchen-and-bar/5179b92de4b069b816cea54c","category":"Gastropub","checkinsCount":2226,"usersCount":2195,"tipCount":61,"visitsCount":3772,"url":"http://whiskeycakeokc.com","tier":2,"message":"Moderate","currency":"$","rating":8.7},{"name":"Skinny Slims Public House","twitter":"skinnyslimsokc","address":"201 E Main St","lat":35.467712455725575,"lng":-97.50887977720127,"neighborhood":"Bricktown","city_fetched":"Oklahoma City","state":"OK","country":"United States","canonicalUrl":"https://foursquare.com/skinnyslimsokc","category":"Bar","checkinsCount":1257,"usersCount":536,"tipCount":11,"visitsCount":1608,"url":"http://skinnyslims.com","tier":2,"message":"Moderate","currency":"$","rating":8.6},{"name":"COOP Ale Works","phone":"4058422667","address":"4745 Council Heights Rd","lat":35.418714445601005,"lng":-97.65734620349981,"neighborhood":"Southwest Oklahoma City","city_fetched":"Oklahoma City","state":"OK","country":"United States","canonicalUrl":"https://foursquare.com/v/coop-ale-works/52a8fc52498e669309677a62","category":"Brewery","checkinsCount":144,"usersCount":144,"tipCount":2,"visitsCount":283,"url":"http://coopaleworks.com","tier":"","message":"","currency":"","rating":8.6},{"name":"Sidecar Barley &Wine bar","lat":35.47822511908919,"lng":-97.51345853078729,"neighborhood":"Automobile Alley","city_fetched":"Oklahoma City","state":"OK","country":"United States","canonicalUrl":"https://foursquare.com/v/sidecar-barley-wine-bar/5542ba8b498e255e05be359c","category":"Lounge","checkinsCount":169,"usersCount":199,"tipCount":2,"visitsCount":309,"tier":"","message":"","currency":"","rating":8.6},{"name":"Iron Star Urban BBQ","phone":"4055245925","twitter":"ironstarbbq","address":"3700 N Shartel Ave","lat":35.507999,"lng":-97.52509,"neighborhood":"Central Oklahoma City","city_fetched":"Oklahoma City","state":"OK","country":"United States","canonicalUrl":"https://foursquare.com/v/iron-star-urban-bbq/4b0b3b15f964a5201a2f23e3","category":"BBQ Joint","checkinsCount":2958,"usersCount":1730,"tipCount":37,"visitsCount":3702,"url":"http://www.ironstarokc.com","tier":2,"message":"Moderate","currency":"$","rating":8.6},{"name":"Deep Deuce Grill","phone":"4052359100","twitter":"deepdeucegrill","address":"307 NE 2nd St","lat":35.46977105456116,"lng":-97.50688129404729,"neighborhood":"Deep Deuce","city_fetched":"Oklahoma City","state":"OK","country":"United States","canonicalUrl":"https://foursquare.com/v/deep-deuce-grill/4b2285acf964a520424824e3","category":"American Restaurant","checkinsCount":2562,"usersCount":1095,"tipCount":20,"visitsCount":3148,"url":"http://deepdeucegrill.com","tier":2,"message":"Moderate","currency":"$","rating":8.6},{"name":"Musashi's Japanese Steakhouse","phone":"4056025623","twitter":"musashis","address":"4315 N Western Ave","lat":35.515344,"lng":-97.529966,"neighborhood":"Central Oklahoma City","city_fetched":"Oklahoma City","state":"OK","country":"United States","canonicalUrl":"https://foursquare.com/v/musashis-japanese-steakhouse/4b058680f964a520386422e3","category":"Japanese Restaurant","checkinsCount":1382,"usersCount":851,"tipCount":16,"visitsCount":1423,"url":"http://www.musashis.com","tier":3,"message":"Expensive","currency":"$","rating":8.5},{"name":"WSKY Lounge and Cigar Bar","phone":"4056067171","twitter":"wskylounge","address":"228 NE 2nd St","lat":35.46952259247232,"lng":-97.50760031835935,"neighborhood":"Deep Deuce","city_fetched":"Oklahoma City","state":"OK","country":"United States","canonicalUrl":"https://foursquare.com/v/wsky-lounge-and-cigar-bar/51f48488498ee80f966e7756","category":"Whisky Bar","checkinsCount":620,"usersCount":358,"tipCount":13,"visitsCount":694,"tier":2,"message":"Moderate","currency":"$","rating":8.4},{"name":"TGI Fridays","phone":"4058422111","twitter":"tgifridays","address":"4239 NW Expressway","lat":35.53968531,"lng":-97.59519211,"neighborhood":"Central Oklahoma City","city_fetched":"Oklahoma City","state":"OK","country":"United States","canonicalUrl":"https://foursquare.com/v/tgi-fridays/4ba915cff964a5200d0a3ae3","category":"American Restaurant","checkinsCount":1674,"usersCount":1208,"tipCount":23,"visitsCount":2083,"url":"http://tgifridays.com","tier":2,"message":"Moderate","currency":"$","rating":8.4},{"name":"The Garage Burgers And Beer","lat":35.46334588244938,"lng":-97.65268378570364,"neighborhood":"Central Oklahoma City","city_fetched":"Oklahoma City","state":"OK","country":"United States","canonicalUrl":"https://foursquare.com/v/the-garage-burgers-and-beer/5665ffe0498ef28acedbedeb","category":"Burger Joint","checkinsCount":101,"usersCount":254,"tipCount":4,"visitsCount":405,"tier":"","message":"","currency":"","rating":8.4},{"name":"Henry Hudson's Public House","address":"27 E Sheridan Ave","lat":35.46665762615471,"lng":-97.51084130766897,"neighborhood":"Bricktown","city_fetched":"Oklahoma City","state":"OK","country":"United States","canonicalUrl":"https://foursquare.com/v/henry-hudsons-public-house/537f8d84498e1120b2bf4113","category":"Pub","checkinsCount":363,"usersCount":254,"tipCount":5,"visitsCount":380,"tier":"","message":"","currency":"","rating":8.3},{"name":"Loony Bin Comedy Club","phone":"4052394242","address":"8503 N Rockwell Ave","lat":35.557123193119715,"lng":-97.63978958129883,"neighborhood":"Northwest Oklahoma City","city_fetched":"Oklahoma City","state":"OK","country":"United States","canonicalUrl":"https://foursquare.com/v/loony-bin-comedy-club/4b91d127f964a5205bd933e3","category":"Comedy Club","checkinsCount":496,"usersCount":303,"tipCount":7,"visitsCount":506,"url":"http://www.loonybincomedy.com/OklahomaCity/","tier":"","message":"","currency":"","rating":8.3},{"name":"The Tree Lounge","phone":"4055282324","twitter":"thetreeloungeok","address":"203 NE 36th St","lat":35.50802707672119,"lng":-97.50756072,"neighborhood":"Central Oklahoma City","city_fetched":"Oklahoma City","state":"OK","country":"United States","canonicalUrl":"https://foursquare.com/v/the-tree-lounge/4bbcc40ca0a0c9b659c21a0f","category":"Nightclub","checkinsCount":541,"usersCount":134,"tipCount":3,"visitsCount":698,"tier":"","message":"","currency":"","rating":8.3},{"name":"Mickey Mantle's Steakhouse","phone":"4052720777","twitter":"mickeys_steaks","address":"7 S Mickey Mantle Dr","lat":35.46564216737206,"lng":-97.50923037528992,"neighborhood":"Bricktown","city_fetched":"Oklahoma City","state":"OK","country":"United States","canonicalUrl":"https://foursquare.com/v/mickey-mantles-steakhouse/4b0d53def964a520674623e3","category":"Steakhouse","checkinsCount":2473,"usersCount":1941,"tipCount":35,"visitsCount":2731,"url":"http://www.mickeymantlesteakhouse.com","tier":4,"message":"Very Expensive","currency":"$","rating":8.3},{"name":"The O Bar","phone":"4056006200","address":"1200 N Walker Ave","lat":35.48023235794291,"lng":-97.5207714192317,"neighborhood":"Midtown","city_fetched":"Oklahoma City","state":"OK","country":"United States","canonicalUrl":"https://foursquare.com/v/the-o-bar/532f56e4498e0d456f5ac78f","category":"Cocktail Bar","checkinsCount":225,"usersCount":153,"tipCount":7,"visitsCount":235,"tier":"","message":"","currency":"","rating":8.2},{"name":"Old Chicago","phone":"4057331096","twitter":"oldchicago1976","address":"7301 SE 29th St","lat":35.43567992589981,"lng":-97.39700123363065,"neighborhood":"Southeast Oklahoma City","city_fetched":"Oklahoma City","state":"OK","country":"United States","canonicalUrl":"https://foursquare.com/v/old-chicago/4b0e352af964a520e95523e3","category":"Pizza Place","checkinsCount":2081,"usersCount":1013,"tipCount":28,"visitsCount":2440,"url":"http://oldchicago.com","tier":2,"message":"Moderate","currency":"$","rating":8.2},{"name":"Bricktown Brewery at Remington Park","phone":"4054194449","address":"1 Remington Pl","lat":35.527765308516464,"lng":-97.4713940745071,"neighborhood":"Central Oklahoma City","city_fetched":"Oklahoma City","state":"OK","country":"United States","canonicalUrl":"https://foursquare.com/v/bricktown-brewery-at-remington-park/4ecdae51775bbb5f2fd1f739","category":"Brewery","checkinsCount":791,"usersCount":283,"tipCount":52,"visitsCount":817,"url":"http://www.bricktownbrewery.com","tier":3,"message":"Expensive","currency":"$","rating":8.2},{"name":"Bricktown Brewery","phone":"4052652739","address":"840 W Danforth Rd","lat":35.66659549448494,"lng":-97.49494975651497,"city_fetched":"Oklahoma City","state":"OK","country":"United States","canonicalUrl":"https://foursquare.com/v/bricktown-brewery/51f4822eccda785899641342","category":"Brewery","checkinsCount":1041,"usersCount":415,"tipCount":4,"visitsCount":1412,"url":"http://www.bricktownbrewery.com","tier":2,"message":"Moderate","currency":"$","rating":8.2},{"name":"BJ's Restaurant and Brewhouse","phone":"4057879900","twitter":"bjsrestaurants","address":"325 Outlet Shoppes Dr","lat":35.46159956,"lng":-97.65225994,"neighborhood":"Central Oklahoma City","city_fetched":"Oklahoma City","state":"OK","country":"United States","canonicalUrl":"https://foursquare.com/v/bjs-restaurant-and-brewhouse/5103edfbe4b0700e0c313fba","category":"American Restaurant","checkinsCount":997,"usersCount":1149,"tipCount":15,"visitsCount":1905,"url":"http://t.co/bl46gcjDLN","tier":2,"message":"Moderate","currency":"$","rating":8.2},{"name":"Flatire Burgers","phone":"4053592006","twitter":"flatireburgers","address":"318 E Ayers St","lat":35.658722,"lng":-97.475882,"city_fetched":"Oklahoma City","state":"OK","country":"United States","canonicalUrl":"https://foursquare.com/v/flatire-burgers/4b0d865bf964a520334a23e3","category":"Burger Joint","checkinsCount":1568,"usersCount":1036,"tipCount":38,"visitsCount":1941,"url":"http://flatireburgers.com","tier":2,"message":"Moderate","currency":"$","rating":8.2},{"name":"The Boom","phone":"4056017200","address":"2218 NW 39th St","lat":35.51105947721637,"lng":-97.54994094371796,"neighborhood":"Central Oklahoma City","city_fetched":"Oklahoma City","state":"OK","country":"United States","canonicalUrl":"https://foursquare.com/v/the-boom/4b99c71af964a520539135e3","category":"Gay Bar","checkinsCount":2804,"usersCount":918,"tipCount":24,"visitsCount":3149,"url":"http://theboomokc.com","tier":2,"message":"Moderate","currency":"$","rating":8.2},{"name":"Red Piano","phone":"4052723040","twitter":"hiltonhotels","address":"1 Park Ave","lat":35.468506069464745,"lng":-97.51416704865215,"neighborhood":"Business District","city_fetched":"Oklahoma City","state":"OK","country":"United States","canonicalUrl":"https://foursquare.com/v/red-piano/4b5a25c2f964a5203eb028e3","category":"Hotel Bar","checkinsCount":804,"usersCount":378,"tipCount":6,"visitsCount":838,"url":"http://www.hilton.com","tier":"","message":"","currency":"","rating":8.1},{"name":"Gabriella's Italian Grill","phone":"4054784955","twitter":"gabriellasokc","address":"1226 NE 63rd St","lat":35.5361610426588,"lng":-97.48813643719565,"city_fetched":"Oklahoma City","state":"OK","country":"United States","canonicalUrl":"https://foursquare.com/v/gabriellas-italian-grill/4fee5672e4b0283e9a71d46c","category":"Italian Restaurant","checkinsCount":482,"usersCount":426,"tipCount":24,"visitsCount":720,"url":"http://gabriellasokc-hub.com","tier":2,"message":"Moderate","currency":"$","rating":8.1},{"name":"Guyutes","lat":35.493094,"lng":-97.525584,"neighborhood":"Central Oklahoma City","city_fetched":"Oklahoma City","state":"OK","country":"United States","canonicalUrl":"https://foursquare.com/v/guyutes/55d66adc498ecaa7a201c95e","category":"Gastropub","checkinsCount":254,"usersCount":327,"tipCount":6,"visitsCount":601,"tier":"","message":"","currency":"","rating":8.1},{"name":"Louie's Grill & Bar","phone":"4053482288","address":"1201 NW 178th St","lat":35.65340148224747,"lng":-97.53331564441345,"neighborhood":"Northwest Oklahoma City","city_fetched":"Oklahoma City","state":"OK","country":"United States","canonicalUrl":"https://foursquare.com/v/louies-grill--bar/4b84728cf964a520fc3531e3","category":"Restaurant","checkinsCount":1482,"usersCount":793,"tipCount":18,"visitsCount":1959,"url":"http://www.ehsrg.com/louies/home/","tier":"","message":"","currency":"","rating":8.1},{"name":"Anchor Down","lat":35.469473925368966,"lng":-97.51056108561862,"neighborhood":"Deep Deuce","city_fetched":"Oklahoma City","state":"OK","country":"United States","canonicalUrl":"https://foursquare.com/v/anchor-down/558b3d31498e811bc6a91c12","category":"Bar","checkinsCount":160,"usersCount":156,"tipCount":2,"visitsCount":259,"tier":"","message":"","currency":"","rating":8},{"name":"Put A Cork In It Bricktown Winery","phone":"4056056656","address":"115 E California Ave","lat":35.46547978735849,"lng":-97.50997949631379,"neighborhood":"Bricktown","city_fetched":"Oklahoma City","state":"OK","country":"United States","canonicalUrl":"https://foursquare.com/v/put-a-cork-in-it-bricktown-winery/4ba1355cf964a52032a237e3","category":"Winery","checkinsCount":522,"usersCount":420,"tipCount":11,"visitsCount":526,"url":"http://putacorkinitwinery.com","tier":"","message":"","currency":"","rating":8},{"name":"Royal Bavaria","phone":"4057997666","address":"3401 S Sooner Rd","lat":35.306061005909086,"lng":-97.42402175534511,"city_fetched":"Oklahoma City","state":"OK","country":"United States","canonicalUrl":"https://foursquare.com/v/royal-bavaria/4ba4062ff964a520eb7838e3","category":"German Restaurant","checkinsCount":1070,"usersCount":605,"tipCount":18,"visitsCount":1317,"url":"http://royal-bavaria.com","tier":2,"message":"Moderate","currency":"$","rating":8},{"name":"Turek's Tavern","lat":35.4350799915973,"lng":-97.24807400521263,"neighborhood":"Southeast Oklahoma City","city_fetched":"Oklahoma City","state":"OK","country":"United States","canonicalUrl":"https://foursquare.com/v/tureks-tavern/50f20f2fe4b050bf95d1127d","category":"Bar","checkinsCount":63,"usersCount":51,"tipCount":2,"visitsCount":63,"tier":"","message":"","currency":"","rating":7.9},{"name":"Saints","phone":"4056026308","twitter":"saintsokc","address":"1715 NW 16th St","lat":35.486145653481664,"lng":-97.53922893074494,"neighborhood":"Central Oklahoma City","city_fetched":"Oklahoma City","state":"OK","country":"United States","canonicalUrl":"https://foursquare.com/v/saints/4de99dd4b0fb8293f7bfad6d","category":"Pub","checkinsCount":2399,"usersCount":892,"tipCount":16,"visitsCount":2576,"url":"http://www.saintsplaza.com","tier":2,"message":"Moderate","currency":"$","rating":7.9},{"name":"Bossa Nova","phone":"4055259779","address":"440 NW 11th St","lat":35.479681491850776,"lng":-97.5209569931002,"neighborhood":"Midtown","city_fetched":"Oklahoma City","state":"OK","country":"United States","canonicalUrl":"https://foursquare.com/v/bossa-nova/4b5127ddf964a5201d4527e3","category":"Bar","checkinsCount":536,"usersCount":253,"tipCount":5,"visitsCount":536,"tier":"","message":"","currency":"","rating":7.9},{"name":"Martini Lounge","lat":35.64912,"lng":-97.478284,"city_fetched":"Oklahoma City","state":"Oklahoma","country":"United States","canonicalUrl":"https://foursquare.com/v/martini-lounge/4d56135ca05c37044586c187","category":"Cocktail Bar","checkinsCount":216,"usersCount":131,"tipCount":2,"visitsCount":223,"tier":"","message":"","currency":"","rating":7.9},{"name":"Louie's Grill & Bar","phone":"4057938700","twitter":"louiesgrillbar","address":"1601 S I 35 Service Rd","lat":35.32374322414398,"lng":-97.49104,"city_fetched":"Oklahoma City","state":"OK","country":"United States","canonicalUrl":"https://foursquare.com/v/louies-grill--bar/4baec7a9f964a52062d73be3","category":"Bar","checkinsCount":2239,"usersCount":1081,"tipCount":7,"visitsCount":2653,"url":"http://louiesgrille.com","tier":2,"message":"Moderate","currency":"$","rating":7.8},{"name":"Bricktown Brewery","phone":"4052322739","address":"1 N Oklahoma Ave","lat":35.466692081568915,"lng":-97.51085716932847,"neighborhood":"Bricktown","city_fetched":"Oklahoma City","state":"OK","country":"United States","canonicalUrl":"https://foursquare.com/v/bricktown-brewery/4b05867ff964a520276422e3","category":"Brewery","checkinsCount":4577,"usersCount":4088,"tipCount":75,"visitsCount":5328,"url":"http://www.bricktownbrewery.com","tier":2,"message":"Moderate","currency":"$","rating":7.8},{"name":"Old Chicago","phone":"4052856873","address":"1150 E 2nd St","lat":35.6517169333161,"lng":-97.46503829956055,"city_fetched":"Oklahoma City","state":"OK","country":"United States","canonicalUrl":"https://foursquare.com/v/old-chicago/4b9a87c5f964a5205bbe35e3","category":"Pizza Place","checkinsCount":1764,"usersCount":807,"tipCount":22,"visitsCount":1887,"url":"http://oldchicago.com","tier":"","message":"","currency":"","rating":7.8},{"name":"La Brasa International Cuisine","phone":"4055242251","address":"1310 NW 25th St","lat":35.4952825902204,"lng":-97.5340901369495,"neighborhood":"Central Oklahoma City","city_fetched":"Oklahoma City","state":"OK","country":"United States","canonicalUrl":"https://foursquare.com/v/la-brasa-international-cuisine/5256de0611d22386c00b9882","category":"Latin American Restaurant","checkinsCount":182,"usersCount":119,"tipCount":25,"visitsCount":198,"url":"http://labrasaokc.com/wp/","tier":2,"message":"Moderate","currency":"$","rating":7.8},{"name":"Wormy Dog Saloon","phone":"4056016276","twitter":"wormydog","address":"311 E Sheridan Ave","lat":35.466741,"lng":-97.506909,"neighborhood":"Bricktown","city_fetched":"Oklahoma City","state":"OK","country":"United States","canonicalUrl":"https://foursquare.com/v/wormy-dog-saloon/4b058680f964a520426422e3","category":"Music Venue","checkinsCount":1095,"usersCount":793,"tipCount":3,"visitsCount":1129,"url":"http://www.wormydog.com","tier":"","message":"","currency":"","rating":7.8},{"name":"Henry Hudson's","phone":"4055775001","address":"601 S Mustang Rd","lat":35.459990622162714,"lng":-97.72504449026763,"neighborhood":"Southwest Oklahoma City","city_fetched":"Oklahoma City","state":"OK","country":"United States","canonicalUrl":"https://foursquare.com/v/henry-hudsons/4bef5c64f2712d7f7ab4fbd8","category":"Bar","checkinsCount":726,"usersCount":268,"tipCount":6,"visitsCount":1005,"url":"http://henryhudsonspub.com","tier":"","message":"","currency":"","rating":7.8},{"name":"Bin 73","phone":"4058430073","address":"7312 N Western Ave","lat":35.546123,"lng":-97.529467,"neighborhood":"Central Oklahoma City","city_fetched":"Oklahoma City","state":"OK","country":"United States","canonicalUrl":"https://foursquare.com/v/bin-73/4b19cecef964a52088e423e3","category":"Wine Bar","checkinsCount":1718,"usersCount":454,"tipCount":4,"visitsCount":2123,"url":"http://bin73.com","tier":2,"message":"Moderate","currency":"$","rating":7.8},{"name":"Dave & Buster's","phone":"4052549900","twitter":"daveandbusters","address":"5501 N May Ave","lat":35.52583332351725,"lng":-97.56722604420628,"neighborhood":"Central Oklahoma City","city_fetched":"Oklahoma City","state":"OK","country":"United States","canonicalUrl":"https://foursquare.com/v/dave--busters/4eefb5b9f790ec12927ce421","category":"Arcade","checkinsCount":3597,"usersCount":2368,"tipCount":29,"visitsCount":4399,"tier":"","message":"","currency":"","rating":7.7},{"name":"Twin Peaks Restaurant","phone":"4054185555","address":"3109 W Memorial Rd","lat":35.610205,"lng":-97.572442,"neighborhood":"Northwest Oklahoma City","city_fetched":"Oklahoma City","state":"OK","country":"United States","canonicalUrl":"https://foursquare.com/v/twin-peaks-restaurant/4c9cb4a203133704629557d5","category":"Sports Bar","checkinsCount":4398,"usersCount":1421,"tipCount":25,"visitsCount":4635,"url":"http://www.twinpeaksrestaurant.com","tier":2,"message":"Moderate","currency":"$","rating":7.7},{"name":"Hi Lo","phone":"4058431722","twitter":"hiloclub","address":"1221 NW 50th St","lat":35.52234571394615,"lng":-97.53262808577763,"neighborhood":"Central Oklahoma City","city_fetched":"Oklahoma City","state":"OK","country":"United States","canonicalUrl":"https://foursquare.com/v/hi-lo/4b0b3bd7f964a520282f23e3","category":"Dive Bar","checkinsCount":2785,"usersCount":656,"tipCount":14,"visitsCount":3135,"url":"http://hilookc.com","tier":1,"message":"Cheap","currency":"$","rating":7.7},{"name":"Purple Martini","phone":"4056007589","address":"315 E Sheridan Ave","lat":35.466597070249385,"lng":-97.50688658096342,"neighborhood":"Bricktown","city_fetched":"Oklahoma City","state":"OK","country":"United States","canonicalUrl":"https://foursquare.com/v/purple-martini/4e3995302271aebfead6cb12","category":"Lounge","checkinsCount":323,"usersCount":185,"tipCount":0,"visitsCount":325,"tier":"","message":"","currency":"","rating":7.7},{"name":"Cookies Bar","phone":"4055219004","address":"2304 N Western Ave","lat":35.4925919,"lng":-97.5298433,"neighborhood":"Central Oklahoma City","city_fetched":"Oklahoma City","state":"OK","country":"United States","canonicalUrl":"https://foursquare.com/v/cookies-bar/4b5a9320f964a5200acc28e3","category":"Karaoke Bar","checkinsCount":927,"usersCount":440,"tipCount":8,"visitsCount":1034,"tier":"","message":"","currency":"","rating":7.7},{"name":"Slaughter's Hall","lat":35.469393278448585,"lng":-97.50747871813326,"neighborhood":"Deep Deuce","city_fetched":"Oklahoma City","state":"OK","country":"United States","canonicalUrl":"https://foursquare.com/v/slaughters-hall/5480f8ed498e023519387e84","category":"Bar","checkinsCount":248,"usersCount":188,"tipCount":2,"visitsCount":354,"tier":"","message":"","currency":"","rating":7.7},{"name":"Lumpy's Sports Grill","phone":"4052863300","address":"12325 N May Ave","lat":35.595634,"lng":-97.56837844848633,"neighborhood":"Quail Creek","city_fetched":"Oklahoma City","state":"OK","country":"United States","canonicalUrl":"https://foursquare.com/v/lumpys-sports-grill/4e822d765c5c535c6e0ff019","category":"Sports Bar","checkinsCount":1511,"usersCount":335,"tipCount":14,"visitsCount":1684,"url":"http://lumpyssportsgrill.com","tier":"","message":"","currency":"","rating":7.7},{"name":"Devon Energy Center","phone":"4052353611","twitter":"vastokc","address":"333 W Sheridan Ave","lat":35.46699963405253,"lng":-97.51784722850985,"neighborhood":"Business District","city_fetched":"Oklahoma City","state":"OK","country":"United States","canonicalUrl":"https://foursquare.com/v/devon-energy-center/4bb369b84019a593d4de37b8","category":"Event Space","checkinsCount":4645,"usersCount":1153,"tipCount":9,"visitsCount":4807,"url":"http://devonenergycenter.net","tier":"","message":"","currency":"","rating":7.6},{"name":"Will's Cafe & The Lobby Bar","phone":"4056044650","twitter":"thelobbybar","address":"4322 N Western Ave","lat":35.515406369801006,"lng":-97.52962935225048,"neighborhood":"Central Oklahoma City","city_fetched":"Oklahoma City","state":"OK","country":"United States","canonicalUrl":"https://foursquare.com/v/wills-cafe--the-lobby-bar/4c8a3a691dcd199c643b521b","category":"Café","checkinsCount":253,"usersCount":120,"tipCount":8,"visitsCount":262,"tier":"","message":"","currency":"","rating":7.6},{"name":"The Hubbly Bubbly","phone":"4056092930","address":"2900 N Classen Blvd","lat":35.498919491359565,"lng":-97.53372289390488,"neighborhood":"Central Oklahoma City","city_fetched":"Oklahoma City","state":"OK","country":"United States","canonicalUrl":"https://foursquare.com/v/the-hubbly-bubbly/50e105f5e4b0fe643d5af2f0","category":"Hookah Bar","checkinsCount":236,"usersCount":114,"tipCount":7,"visitsCount":241,"tier":"","message":"","currency":"","rating":7.6},{"name":"Oak & Ore","phone":"4056062030","twitter":"oakandore","address":"1732 NW 16th St","lat":35.48579659112688,"lng":-97.54034131765366,"neighborhood":"Central Oklahoma City","city_fetched":"Oklahoma City","state":"OK","country":"United States","canonicalUrl":"https://foursquare.com/v/oak--ore/5493563d498e80c1f960a8eb","category":"Bar","checkinsCount":542,"usersCount":312,"tipCount":5,"visitsCount":677,"url":"http://www.oakandore.com","tier":"","message":"","currency":"","rating":7.6},{"name":"The Drunken Fry","phone":"4052861939","twitter":"drunkenfry","address":"5100 N Classen Cir.","lat":35.52253422538255,"lng":-97.5330376625061,"neighborhood":"Central Oklahoma City","city_fetched":"Oklahoma City","state":"OK","country":"United States","canonicalUrl":"https://foursquare.com/v/the-drunken-fry/4b06fb56f964a520c3f422e3","category":"Bar","checkinsCount":3754,"usersCount":780,"tipCount":31,"visitsCount":3793,"url":"http://drunkenfry.com","tier":"","message":"","currency":"","rating":7.6},{"name":"Flip's Wine Bar & Trattoria","phone":"4058431527","address":"5801 N Western Ave","lat":35.532003456439874,"lng":-97.52997840449335,"neighborhood":"Central Oklahoma City","city_fetched":"Oklahoma City","state":"OK","country":"United States","canonicalUrl":"https://foursquare.com/v/flips-wine-bar--trattoria/4b05867ff964a520216422e3","category":"Wine Bar","checkinsCount":2226,"usersCount":966,"tipCount":12,"visitsCount":2616,"url":"http://www.flipswinebar.com","tier":"","message":"","currency":"","rating":7.6},{"name":"Edna's","phone":"4058403339","twitter":"ednasokc","address":"5137 N. Classen Blvd.","lat":35.523285179107816,"lng":-97.53310203552246,"neighborhood":"Central Oklahoma City","city_fetched":"Oklahoma City","state":"OK","country":"United States","canonicalUrl":"https://foursquare.com/ednasokc","category":"Dive Bar","checkinsCount":3268,"usersCount":1610,"tipCount":20,"visitsCount":3836,"url":"http://ednasokc.com","tier":2,"message":"Moderate","currency":"$","rating":7.6},{"name":"Red Rooster Bar & Grill","phone":"4055257631","address":"3100 N Walker Ave","lat":35.500604,"lng":-97.52078533172607,"neighborhood":"Central Oklahoma City","city_fetched":"Oklahoma City","state":"OK","country":"United States","canonicalUrl":"https://foursquare.com/v/red-rooster-bar--grill/4bcd1eb6fb84c9b692b5213e","category":"Bar","checkinsCount":2759,"usersCount":396,"tipCount":10,"visitsCount":2977,"url":"http://redroosterokc.com","tier":1,"message":"Cheap","currency":"$","rating":7.6},{"name":"TGI Fridays","phone":"4057492515","twitter":"tgifridays","address":"2515 W Memorial Rd","lat":35.61021144,"lng":-97.55892942,"neighborhood":"Northwest Oklahoma City","city_fetched":"Oklahoma City","state":"OK","country":"United States","canonicalUrl":"https://foursquare.com/v/tgi-fridays/509d636e5d2463e871548097","category":"American Restaurant","checkinsCount":1529,"usersCount":1164,"tipCount":20,"visitsCount":1849,"url":"http://tgifridays.com","tier":2,"message":"Moderate","currency":"$","rating":7.6},{"name":"Dollhouse Lounge & Burlesque","lat":35.466200438091825,"lng":-97.5085572667453,"neighborhood":"Bricktown","city_fetched":"Oklahoma City","state":"OK","country":"United States","canonicalUrl":"https://foursquare.com/v/dollhouse-lounge--burlesque/4f221527e4b012e02cbc5123","category":"Lounge","checkinsCount":652,"usersCount":421,"tipCount":7,"visitsCount":672,"tier":"","message":"","currency":"","rating":7.5},{"name":"Queen of Sheba","phone":"4056068616","twitter":"queen__sheba","address":"2308 N MacArthur Blvd","lat":35.49209989,"lng":-97.618397,"neighborhood":"Central Oklahoma City","city_fetched":"Oklahoma City","state":"OK","country":"United States","canonicalUrl":"https://foursquare.com/v/queen-of-sheba/4b6e0cf8f964a5208ba62ce3","category":"Ethiopian Restaurant","checkinsCount":320,"usersCount":225,"tipCount":6,"visitsCount":371,"tier":2,"message":"Moderate","currency":"$","rating":7.5},{"name":"Henry Hudson's Public House","address":"Danforth","lat":35.667176951347315,"lng":-97.52994667239848,"neighborhood":"Northwest Oklahoma City","city_fetched":"Oklahoma City","state":"OK","country":"United States","canonicalUrl":"https://foursquare.com/v/henry-hudsons-public-house/56a02ef3498e4df203047d2a","category":"Sports Bar","checkinsCount":45,"usersCount":52,"tipCount":0,"visitsCount":93,"tier":"","message":"","currency":"","rating":7.5},{"name":"Margarita Island","address":"8139 NW 10th St","lat":35.47905864137771,"lng":-97.65802439926004,"neighborhood":"Central Oklahoma City","city_fetched":"Oklahoma City","state":"OK","country":"United States","canonicalUrl":"https://foursquare.com/v/margarita-island/4c0703568a81c9b6b8af2690","category":"Bar","checkinsCount":428,"usersCount":219,"tipCount":4,"visitsCount":628,"url":"http://margaritaislandokc.com","tier":"","message":"","currency":"","rating":7.4},{"name":"Roughtail Taphouse","phone":"4057716517","twitter":"roughtailbeer","address":"1279 N Air Depot Blvd","lat":35.48060062480652,"lng":-97.40725806137833,"city_fetched":"Oklahoma City","state":"OK","country":"United States","canonicalUrl":"https://foursquare.com/v/roughtail-taphouse/514ba148e4b06935e2fc5d49","category":"Brewery","checkinsCount":227,"usersCount":183,"tipCount":2,"visitsCount":478,"tier":"","message":"","currency":"","rating":7.4},{"name":"Groovy's","phone":"4058429248","address":"5705 Mosteller Dr","lat":35.52955448627472,"lng":-97.570309,"neighborhood":"Central Oklahoma City","city_fetched":"Oklahoma City","state":"OK","country":"United States","canonicalUrl":"https://foursquare.com/v/groovys/4b593038f964a520a98028e3","category":"Nightclub","checkinsCount":523,"usersCount":482,"tipCount":3,"visitsCount":753,"tier":"","message":"","currency":"","rating":7.4},{"name":"The Cross Eyed Moose","phone":"4057031119","address":"10601 S Western Ave","lat":35.36220173662291,"lng":-97.53118952366323,"neighborhood":"South Oklahoma City","city_fetched":"Oklahoma City","state":"OK","country":"United States","canonicalUrl":"https://foursquare.com/v/the-cross-eyed-moose/4b971dd9f964a520c4f834e3","category":"Bar","checkinsCount":938,"usersCount":269,"tipCount":8,"visitsCount":966,"tier":"","message":"","currency":"","rating":7.4},{"name":"Slick Willies Family Pool Hall","phone":"4059450505","address":"4000 W Reno Ave","lat":35.46928869390485,"lng":-97.5910472987314,"neighborhood":"Central Oklahoma City","city_fetched":"Oklahoma City","state":"OK","country":"United States","canonicalUrl":"https://foursquare.com/v/slick-willies-family-pool-hall/4baea28df964a52031c93be3","category":"Bar","checkinsCount":542,"usersCount":120,"tipCount":1,"visitsCount":548,"tier":"","message":"","currency":"","rating":7.4},{"name":"Thunder Alley","phone":"8006556837","address":"100 W Reno Ave","lat":35.464182372874134,"lng":-97.5146957980637,"neighborhood":"Downtown Oklahoma City","city_fetched":"Oklahoma City","state":"OK","country":"United States","canonicalUrl":"https://foursquare.com/v/thunder-alley/4db8bf245da3b5fa68c71bee","category":"Other Nightlife","checkinsCount":755,"usersCount":429,"tipCount":1,"visitsCount":779,"tier":"","message":"","currency":"","rating":7.4},{"name":"The Other Room","phone":"4056022002","twitter":"theotherroomokc","address":"3007 Paseo","lat":35.49984176,"lng":-97.52333343029022,"neighborhood":"Paseo","city_fetched":"Oklahoma City","state":"OK","country":"United States","canonicalUrl":"https://foursquare.com/v/the-other-room/4bd2370a462cb713deecdb07","category":"Lounge","checkinsCount":3787,"usersCount":615,"tipCount":12,"visitsCount":3961,"tier":2,"message":"Moderate","currency":"$","rating":7.4},{"name":"Ice Event Center","address":"3601-3657 N Lottie Ave","lat":35.50640296271869,"lng":-97.49043037330415,"neighborhood":"Central Oklahoma City","city_fetched":"Oklahoma City","state":"OK","country":"United States","canonicalUrl":"https://foursquare.com/v/ice-event-center/4cbceb084495721eaa315d7a","category":"Nightlife Spot","checkinsCount":177,"usersCount":182,"tipCount":4,"visitsCount":424,"tier":"","message":"","currency":"","rating":7.3},{"name":"Half Time Sports Grill","phone":"4057452795","address":"6812 SW 55th St","lat":35.40968020340486,"lng":-97.63309443446768,"neighborhood":"Southwest Oklahoma City","city_fetched":"Oklahoma City","state":"OK","country":"United States","canonicalUrl":"https://foursquare.com/v/half-time-sports-grill/4b9bd5d7f964a520232b36e3","category":"Sports Bar","checkinsCount":326,"usersCount":135,"tipCount":3,"visitsCount":368,"url":"http://halftimesportsgrill.net","tier":"","message":"","currency":"","rating":7.3},{"name":"Bellini's Ristorante in OKC","phone":"4058481065","twitter":"bellinisokc","address":"6305 Waterford Blvd","lat":35.535861633259685,"lng":-97.54726398172589,"neighborhood":"Central Oklahoma City","city_fetched":"Oklahoma City","state":"OK","country":"United States","canonicalUrl":"https://foursquare.com/v/bellinis-ristorante-in-okc/4b05867ff964a520266422e3","category":"Italian Restaurant","checkinsCount":625,"usersCount":439,"tipCount":11,"visitsCount":769,"url":"http://www.bellinis.net","tier":2,"message":"Moderate","currency":"$","rating":7.3},{"name":"Urban Johnnie","address":"121 NE 2nd St","lat":35.46970569784138,"lng":-97.50976801050855,"neighborhood":"Deep Deuce","city_fetched":"Oklahoma City","state":"OK","country":"United States","canonicalUrl":"https://foursquare.com/v/urban-johnnie/5317b4be498ee776df1cf10f","category":"Burger Joint","checkinsCount":706,"usersCount":432,"tipCount":13,"visitsCount":865,"url":"https://urbanjohnnie.com","tier":2,"message":"Moderate","currency":"$","rating":7.3},{"name":"Urban Roots","phone":"4052979891","twitter":"urbanrootsokc","address":"322 NE 2nd St","lat":35.46949757,"lng":-97.5063813,"neighborhood":"Deep Deuce","city_fetched":"Oklahoma City","state":"OK","country":"United States","canonicalUrl":"https://foursquare.com/v/urban-roots/4cbb4cf7adcd5481772628a2","category":"Bar","checkinsCount":424,"usersCount":143,"tipCount":9,"visitsCount":439,"url":"http://urbanrootsokc.com","tier":"","message":"","currency":"","rating":7.3},{"name":"Jojos","lat":35.44901548443646,"lng":-97.72529375497807,"neighborhood":"Southwest Oklahoma City","city_fetched":"Oklahoma City","state":"OK","country":"United States","canonicalUrl":"https://foursquare.com/v/jojos/4e98f50ed3e3c8b333cedf55","category":"Bar","checkinsCount":560,"usersCount":232,"tipCount":9,"visitsCount":626,"tier":"","message":"","currency":"","rating":7.3},{"name":"51st Street Speakeasy","phone":"4054630470","address":"5114 NW 51st St","lat":35.523440140264206,"lng":-97.53065007058385,"neighborhood":"Central Oklahoma City","city_fetched":"Oklahoma City","state":"OK","country":"United States","canonicalUrl":"https://foursquare.com/v/51st-street-speakeasy/4b058680f964a5203c6422e3","category":"Speakeasy","checkinsCount":2914,"usersCount":1369,"tipCount":16,"visitsCount":3479,"url":"http://51stspeakeasy.com","tier":1,"message":"Cheap","currency":"$","rating":7.3},{"name":"Brewskeys Bar","phone":"4056011155","address":"2600 S Meridian Ave","lat":35.43961670125921,"lng":-97.60082479122246,"neighborhood":"Central Oklahoma City","city_fetched":"Oklahoma City","state":"OK","country":"United States","canonicalUrl":"https://foursquare.com/v/brewskeys-bar/4d02e2d1e350b60c79cf7942","category":"Bar","checkinsCount":202,"usersCount":180,"tipCount":3,"visitsCount":297,"tier":"","message":"","currency":"","rating":7.3},{"name":"Baker Street Pub & Grill","phone":"4057511547","address":"2701 W Memorial Rd","lat":35.61025142669678,"lng":-97.563126,"neighborhood":"Northwest Oklahoma City","city_fetched":"Oklahoma City","state":"OK","country":"United States","canonicalUrl":"https://foursquare.com/v/baker-street-pub--grill/4b058680f964a5203d6422e3","category":"Pub","checkinsCount":2458,"usersCount":1134,"tipCount":18,"visitsCount":2816,"url":"http://www.bakerstreetpub.com","tier":"","message":"","currency":"","rating":7.3},{"name":"Skinny Slim's Edmond","twitter":"skinnyslimsedm","address":"128 E 5th St","lat":35.649751,"lng":-97.479405,"city_fetched":"Oklahoma City","state":"OK","country":"United States","canonicalUrl":"https://foursquare.com/v/skinny-slims-edmond/53362d31498ee185139365bb","category":"Pub","checkinsCount":84,"usersCount":56,"tipCount":2,"visitsCount":93,"tier":"","message":"","currency":"","rating":7.3},{"name":"Mooney's","phone":"4053647277","address":"6221 N Interstate Dr","lat":35.29405794331691,"lng":-97.48780345281703,"city_fetched":"Oklahoma City","state":"OK","country":"United States","canonicalUrl":"https://foursquare.com/v/mooneys/4b774349f964a520ce8c2ee3","category":"Bar","checkinsCount":535,"usersCount":294,"tipCount":8,"visitsCount":633,"tier":"","message":"","currency":"","rating":7.2},{"name":"Tinker Lanes","lat":35.425925328845565,"lng":-97.41788603122274,"neighborhood":"Southeast Oklahoma City","city_fetched":"Oklahoma City","state":"OK","country":"United States","canonicalUrl":"https://foursquare.com/v/tinker-lanes/4bcdd65bcc8cd13a2a31c3cf","category":"Bowling Alley","checkinsCount":537,"usersCount":120,"tipCount":3,"visitsCount":572,"tier":"","message":"","currency":"","rating":7.2},{"name":"Alibis","address":"1200 N Pennsylvania Ave","lat":35.48098493510146,"lng":-97.54766602325162,"neighborhood":"Central Oklahoma City","city_fetched":"Oklahoma City","state":"OK","country":"United States","canonicalUrl":"https://foursquare.com/v/alibis/4c3806483849c9281ae6beb1","category":"Bar","checkinsCount":439,"usersCount":113,"tipCount":2,"visitsCount":479,"tier":"","message":"","currency":"","rating":7.2},{"name":"Henry Hudsons","phone":"4059465771","address":"3509 NW 58th St","lat":35.53020002863989,"lng":-97.58001155392162,"neighborhood":"Central Oklahoma City","city_fetched":"Oklahoma City","state":"OK","country":"United States","canonicalUrl":"https://foursquare.com/v/henry-hudsons/4bb676bf941ad13a2f7a1fe3","category":"Bar","checkinsCount":1162,"usersCount":525,"tipCount":10,"visitsCount":1362,"url":"http://www.henryhudsonspub.com","tier":"","message":"","currency":"","rating":7.2},{"name":"McFinns Pub","phone":"4056311026","address":"902 Straka Ter","lat":35.38730300656923,"lng":-97.53067122552731,"neighborhood":"South Oklahoma City","city_fetched":"Oklahoma City","state":"OK","country":"United States","canonicalUrl":"https://foursquare.com/v/mcfinns-pub/4c0722568b4520a1e9928697","category":"Bar","checkinsCount":199,"usersCount":87,"tipCount":0,"visitsCount":208,"tier":"","message":"","currency":"","rating":7.2},{"name":"Henry Hudsons Hideout","phone":"4056061011","address":"6728 N Olie Ave","lat":35.54015909542766,"lng":-97.52825960365315,"neighborhood":"Central Oklahoma City","city_fetched":"Oklahoma City","state":"OK","country":"United States","canonicalUrl":"https://foursquare.com/v/henry-hudsons-hideout/4b2adf78f964a5204cb124e3","category":"Sports Bar","checkinsCount":1024,"usersCount":293,"tipCount":9,"visitsCount":1053,"url":"http://www.henryhudsonspub.com","tier":"","message":"","currency":"","rating":7.2},{"name":"Henry Hudson's Pub","phone":"4057521444","address":"1131 W Memorial Rd","lat":35.609318,"lng":-97.53356873989105,"neighborhood":"Northwest Oklahoma City","city_fetched":"Oklahoma City","state":"OK","country":"United States","canonicalUrl":"https://foursquare.com/v/henry-hudsons-pub/4b10c85cf964a520b57523e3","category":"Bar","checkinsCount":860,"usersCount":355,"tipCount":1,"visitsCount":941,"url":"http://www.henryhudsons.com","tier":"","message":"","currency":"","rating":7.2},{"name":"Booger reds","phone":"4057371971","address":"6125 SE 15th St","lat":35.449979431625394,"lng":-97.41592187078973,"city_fetched":"Oklahoma City","state":"OK","country":"United States","canonicalUrl":"https://foursquare.com/v/booger-reds/4c25836f5c5ca59342a844fe","category":"Bar","checkinsCount":201,"usersCount":55,"tipCount":6,"visitsCount":206,"tier":"","message":"","currency":"","rating":7.1},{"name":"Big Dicks Roadhouse","phone":"4055778270","address":"501 N Mustang Rd","lat":35.47116446604478,"lng":-97.72518768478056,"neighborhood":"Southwest Oklahoma City","city_fetched":"Oklahoma City","state":"OK","country":"United States","canonicalUrl":"https://foursquare.com/v/big-dicks-roadhouse/4baeee29f964a52079e23be3","category":"Lounge","checkinsCount":678,"usersCount":256,"tipCount":9,"visitsCount":767,"url":"http://bigdicksroadhouse.com","tier":"","message":"","currency":"","rating":7.1},{"name":"The Alley","phone":"4056320700","address":"605 SE 82nd St","lat":35.38482455702355,"lng":-97.49907824733516,"neighborhood":"South Oklahoma City","city_fetched":"Oklahoma City","state":"OK","country":"United States","canonicalUrl":"https://foursquare.com/v/the-alley/4c579538cc96c9b65c74792e","category":"Karaoke Bar","checkinsCount":213,"usersCount":141,"tipCount":2,"visitsCount":270,"tier":"","message":"","currency":"","rating":7.1},{"name":"The Barrel","phone":"4055256682","twitter":"thebarrelokc","address":"4308 N Western Ave","lat":35.51500659885188,"lng":-97.52956588839561,"neighborhood":"Central Oklahoma City","city_fetched":"Oklahoma City","state":"OK","country":"United States","canonicalUrl":"https://foursquare.com/v/the-barrel/534c844c498e8f0f8089b1ba","category":"Gastropub","checkinsCount":409,"usersCount":241,"tipCount":8,"visitsCount":534,"url":"http://barrelokc.com","tier":2,"message":"Moderate","currency":"$","rating":7},{"name":"Jazmo'z Bourbon St. Cafe","phone":"4052326666","twitter":"bourbonstcafe","address":"100 E California Ave","lat":35.46532477468959,"lng":-97.51051878804944,"neighborhood":"Bricktown","city_fetched":"Oklahoma City","state":"OK","country":"United States","canonicalUrl":"https://foursquare.com/v/jazmoz-bourbon-st-cafe/4bbfcef5f8219c74d8b4b010","category":"Cajun / Creole Restaurant","checkinsCount":1917,"usersCount":1594,"tipCount":35,"visitsCount":1984,"url":"http://www.bourbonstreetcafe.com","tier":2,"message":"Moderate","currency":"$","rating":7},{"name":"Night Trips","phone":"4059424242","twitter":"nighttripsokc","address":"220 S Vermont Ave","lat":35.46350074399609,"lng":-97.59663729401804,"neighborhood":"Central Oklahoma City","city_fetched":"Oklahoma City","state":"OK","country":"United States","canonicalUrl":"https://foursquare.com/v/night-trips/4b89f380f964a5203e5832e3","category":"Strip Club","checkinsCount":537,"usersCount":394,"tipCount":7,"visitsCount":658,"url":"http://www.nighttrips.com","tier":"","message":"","currency":"","rating":7},{"name":"Henry Hudson's Pub","phone":"4056310212","address":"400 W I 240 Service Rd","lat":35.39085287625106,"lng":-97.5196398009098,"neighborhood":"South Oklahoma City","city_fetched":"Oklahoma City","state":"OK","country":"United States","canonicalUrl":"https://foursquare.com/v/henry-hudsons-pub/4bba83b6b35776b00b0fcb01","category":"Bar","checkinsCount":884,"usersCount":328,"tipCount":3,"visitsCount":956,"url":"http://henryhudsonspub.com","tier":"","message":"","currency":"","rating":7},{"name":"Tramps","phone":"4055219888","address":"2201 NW 39th St","lat":35.51170271109146,"lng":-97.54944542593387,"neighborhood":"Central Oklahoma City","city_fetched":"Oklahoma City","state":"OK","country":"United States","canonicalUrl":"https://foursquare.com/v/tramps/4b909231f964a5207e9033e3","category":"Gay Bar","checkinsCount":1694,"usersCount":561,"tipCount":13,"visitsCount":1948,"tier":1,"message":"Cheap","currency":"$","rating":7},{"name":"Belle Isle Restaurant & Brewery","phone":"4058401911","twitter":"belleislebrew","address":"1900 NW Expressway","lat":35.52241255700273,"lng":-97.54580924570499,"neighborhood":"Central Oklahoma City","city_fetched":"Oklahoma City","state":"OK","country":"United States","canonicalUrl":"https://foursquare.com/v/belle-isle-restaurant--brewery/4b05867ff964a5202b6422e3","category":"American Restaurant","checkinsCount":3069,"usersCount":1240,"tipCount":27,"visitsCount":3164,"url":"http://www.belleislerestaurant.com","tier":2,"message":"Moderate","currency":"$","rating":7},{"name":"Lobby Bar","twitter":"thelobbybar","address":"4322 N Western Ave","lat":35.515395406640046,"lng":-97.52965050688174,"neighborhood":"Central Oklahoma City","city_fetched":"Oklahoma City","state":"OK","country":"United States","canonicalUrl":"https://foursquare.com/v/lobby-bar/4b1de204f964a5201e1624e3","category":"Bar","checkinsCount":1077,"usersCount":323,"tipCount":9,"visitsCount":1086,"url":"http://willrogerslobbybar.com","tier":"","message":"","currency":"","rating":7},{"name":"Pelotón Wine Bar & Cafe","address":"900 N Broadway Ave","lat":35.476247,"lng":-97.513625,"neighborhood":"Automobile Alley","city_fetched":"Oklahoma City","state":"OK","country":"United States","canonicalUrl":"https://foursquare.com/v/pelot%C3%B3n-wine-bar--cafe/51b119c2498ee2526a31a772","category":"Wine Bar","checkinsCount":168,"usersCount":96,"tipCount":6,"visitsCount":169,"tier":"","message":"","currency":"","rating":7},{"name":"Granddad's Domestic And Imports","address":"317 NW 23rd St","lat":35.493451330588826,"lng":-97.51832312815213,"neighborhood":"Central Oklahoma City","city_fetched":"Oklahoma City","state":"OK","country":"United States","canonicalUrl":"https://foursquare.com/v/granddads-domestic-and-imports/51036911e4b0e45ff4a07d4d","category":"Dive Bar","checkinsCount":323,"usersCount":175,"tipCount":6,"visitsCount":331,"tier":"","message":"","currency":"","rating":7},{"name":"FlashBack RetroPub","phone":"4056333604","twitter":"flashbackrtropb","address":"814 W Sheridan Ave #A","lat":35.466175198635156,"lng":-97.52636432647705,"neighborhood":"Downtown Oklahoma City","city_fetched":"Oklahoma City","state":"OK","country":"United States","canonicalUrl":"https://foursquare.com/v/flashback-retropub/55cb9574498ea925f25dd433","category":"Pub","checkinsCount":163,"usersCount":163,"tipCount":2,"visitsCount":345,"tier":"","message":"","currency":"","rating":7},{"name":"Cousin's Bar & Grill","phone":"4058405053","address":"6509 N May Ave","lat":35.53778303467093,"lng":-97.56583438623795,"neighborhood":"Lakeside","city_fetched":"Oklahoma City","state":"OK","country":"United States","canonicalUrl":"https://foursquare.com/v/cousins-bar--grill/4b4520aaf964a520970526e3","category":"Bar","checkinsCount":1225,"usersCount":493,"tipCount":10,"visitsCount":1634,"url":"http://cousinsbbq.com","tier":"","message":"","currency":"","rating":6.8},{"name":"The Blue Note","phone":"4056001166","twitter":"blue_note_okc","address":"2408 N Robinson Ave","lat":35.49360289089566,"lng":-97.51556295586155,"neighborhood":"Central Oklahoma City","city_fetched":"Oklahoma City","state":"OK","country":"United States","canonicalUrl":"https://foursquare.com/v/the-blue-note/4b058680f964a5203e6422e3","category":"Bar","checkinsCount":2282,"usersCount":776,"tipCount":14,"visitsCount":2737,"url":"http://www.thebluenotelounge.com","tier":2,"message":"Moderate","currency":"$","rating":6.8}]