[{"name":"Four Mile Brewing","address":"202 E Green St","lat":42.0733015819244,"lng":-78.42752263147278,"city_fetched":"Olean","state":"NY","country":"United States","canonicalUrl":"https://foursquare.com/v/four-mile-brewing/505e1ec4e4b0fa2ebaf954b6","category":"Lounge","checkinsCount":114,"usersCount":127,"tipCount":2,"visitsCount":298,"tier":"","message":"","currency":"","rating":8.1},{"name":"3rd Base Bar & Grill","phone":"7163728779","address":"1302 W State St","lat":42.07748018745357,"lng":-78.44480085397473,"city_fetched":"Olean","state":"NY","country":"United States","canonicalUrl":"https://foursquare.com/v/3rd-base-bar--grill/4b72efb9f964a520bb902de3","category":"Sports Bar","checkinsCount":341,"usersCount":179,"tipCount":10,"visitsCount":357,"tier":"","message":"","currency":"","rating":7.3},{"name":"Good Times Of Olean","phone":"7163798210","twitter":"oleangoodtimes","address":"800R East State Street","lat":42.07383152273754,"lng":-78.41453428743921,"city_fetched":"Olean","state":"NY","country":"United States","canonicalUrl":"https://foursquare.com/v/good-times-of-olean/51b22cc1498e2f05d266d68a","category":"Bowling Alley","checkinsCount":350,"usersCount":219,"tipCount":7,"visitsCount":407,"url":"http://www.goodtimesolean.com","tier":"","message":"","currency":"","rating":7.3},{"name":"Angee's Restaurant & Bar","phone":"7163721030","address":"475 N Union St","lat":42.0847334,"lng":-78.430181,"city_fetched":"Olean","state":"NY","country":"United States","canonicalUrl":"https://foursquare.com/v/angees-restaurant--bar/4ba536ccf964a520d5ec38e3","category":"Italian Restaurant","checkinsCount":373,"usersCount":219,"tipCount":12,"visitsCount":459,"url":"http://www.angees.com","tier":1,"message":"Cheap","currency":"$","rating":7.2}]