[{"name":"Swing Wine Bar","phone":"3603579464","address":"825 Columbia St SW","lat":47.04065144062042,"lng":-122.90254533290863,"neighborhood":"Downtown Olympia","city_fetched":"Olympia,US","state":"WA","country":"United States","canonicalUrl":"https://foursquare.com/v/swing-wine-bar/4b529528f964a5200d8327e3","categoryId":"4bf58dd8d48988d123941735","category":"Wine Bar","checkinsCount":684,"usersCount":359,"tipCount":15,"visitsCount":740,"url":"http://www.swingwinebar.com","tier":2,"message":"Moderate","currency":"$","rating":8.8},{"name":"Northwest Beerwerks","phone":"3604029657","address":"420 Steele St SE","lat":47.04536347358092,"lng":-122.86618108618741,"city_fetched":"Olympia,US","state":"WA","country":"United States","canonicalUrl":"https://foursquare.com/v/northwest-beerwerks/5503638a498e066081aa1ee6","categoryId":"4bf58dd8d48988d116941735","category":"Bar","checkinsCount":239,"usersCount":83,"tipCount":3,"visitsCount":375,"url":"http://northwestbeerwerks.com","tier":"","message":"","currency":"","rating":8.7},{"name":"Skep & Skein","phone":"3602924400","address":"2106 Harrison Ave NW Ste B14","lat":47.046506446611104,"lng":-122.92729424069407,"city_fetched":"Olympia,US","state":"WA","country":"United States","canonicalUrl":"https://foursquare.com/v/skep--skein/4bdd0877b0f5c92879964be3","categoryId":"4bf58dd8d48988d116941735","category":"Bar","checkinsCount":1073,"usersCount":273,"tipCount":9,"visitsCount":1169,"url":"http://skepandskein.com","tier":2,"message":"Moderate","currency":"$","rating":8.1},{"name":"Dillinger's Cocktails & Kitchen","phone":"3605150650","address":"404 Washington St SE","lat":47.04473797424846,"lng":-122.90037772872432,"neighborhood":"Downtown Olympia","city_fetched":"Olympia,US","state":"WA","country":"United States","canonicalUrl":"https://foursquare.com/v/dillingers-cocktails--kitchen/52edd244498ec9c26507bbed","categoryId":"4bf58dd8d48988d11e941735","category":"Cocktail Bar","checkinsCount":199,"usersCount":106,"tipCount":3,"visitsCount":208,"url":"http://dillingers.weebly.com","tier":"","message":"","currency":"","rating":8.1},{"name":"Tug Boat Annie's","phone":"3609431850","address":"2100 West Bay Dr NW","lat":47.06464090088911,"lng":-122.916010868047,"city_fetched":"Olympia,US","state":"WA","country":"United States","canonicalUrl":"https://foursquare.com/v/tug-boat-annies/4c143d3982a3c9b63303fdf8","categoryId":"4bf58dd8d48988d116941735","category":"Bar","checkinsCount":1377,"usersCount":826,"tipCount":28,"visitsCount":1686,"url":"http://tugboatannies.com","tier":2,"message":"Moderate","currency":"$","rating":8},{"name":"Fish Tale Brew Pub","phone":"3609433650","twitter":"fishtalebrewpub","address":"515 Jefferson St SE","lat":47.0438498622697,"lng":-122.89673783871628,"neighborhood":"Downtown Olympia","city_fetched":"Olympia,US","state":"WA","country":"United States","canonicalUrl":"https://foursquare.com/v/fish-tale-brew-pub/4aa0bb84f964a520504020e3","categoryId":"50327c8591d4c4b30a586d5d","category":"Brewery","checkinsCount":4371,"usersCount":2104,"tipCount":77,"visitsCount":4897,"url":"http://www.fishtalebrewpub.com","tier":2,"message":"Moderate","currency":"$","rating":7.9},{"name":"Oly Taproom","address":"312 Columbia St NW","lat":47.046904037523845,"lng":-122.90312061391533,"neighborhood":"Downtown Olympia","city_fetched":"Olympia,US","state":"WA","country":"United States","canonicalUrl":"https://foursquare.com/v/oly-taproom/54e6623d498e308243a6a285","categoryId":"4bf58dd8d48988d117941735","category":"Beer Garden","checkinsCount":253,"usersCount":116,"tipCount":3,"visitsCount":370,"tier":"","message":"","currency":"","rating":7.9},{"name":"Firecreek Ale House","address":"5225 Yelm Hwy SE","lat":46.99556743372333,"lng":-122.81243369955251,"city_fetched":"Olympia,US","state":"WA","country":"United States","canonicalUrl":"https://foursquare.com/v/firecreek-ale-house/4bf70d3592d1952181f5591f","categoryId":"4bf58dd8d48988d116941735","category":"Bar","checkinsCount":610,"usersCount":189,"tipCount":3,"visitsCount":686,"tier":"","message":"","currency":"","rating":7.8},{"name":"Pints & Quarts Pub","phone":"3609435611","address":"625 Black Lake Blvd SW","lat":47.0424648341501,"lng":-122.93582022590572,"city_fetched":"Olympia,US","state":"WA","country":"United States","canonicalUrl":"https://foursquare.com/v/pints--quarts-pub/4b0757bdf964a52054fc22e3","categoryId":"4bf58dd8d48988d11b941735","category":"Pub","checkinsCount":3199,"usersCount":821,"tipCount":17,"visitsCount":3237,"url":"http://pintsandquartspub.com","tier":1,"message":"Cheap","currency":"$","rating":7.8},{"name":"Three Magnets Brewing Co.","phone":"3609722481","twitter":"3magbrewing","address":"600 Franklin St SE","lat":47.04308458308265,"lng":-122.89855644364123,"neighborhood":"Downtown Olympia","city_fetched":"Olympia,US","state":"WA","country":"United States","canonicalUrl":"https://foursquare.com/v/three-magnets-brewing-co/53cf00b4498e4d936479aeeb","categoryId":"50327c8591d4c4b30a586d5d","category":"Brewery","checkinsCount":594,"usersCount":404,"tipCount":8,"visitsCount":900,"url":"http://threemagnetsbrewing.com","tier":"","message":"","currency":"","rating":7.7},{"name":"Character's Corner","phone":"3608669904","address":"6620 Sexton Dr NW","lat":47.079623,"lng":-123.0212277173996,"city_fetched":"Olympia,US","state":"WA","country":"United States","canonicalUrl":"https://foursquare.com/v/characters-corner/4b6b5c97f964a5207d032ce3","categoryId":"4bf58dd8d48988d116941735","category":"Bar","checkinsCount":262,"usersCount":78,"tipCount":5,"visitsCount":276,"tier":"","message":"","currency":"","rating":7.7},{"name":"The Westside Tavern","phone":"3609157839","twitter":"westsidetavern1","address":"1815 Harrison Ave NW","lat":47.04584718021337,"lng":-122.92429362867425,"city_fetched":"Olympia,US","state":"WA","country":"United States","canonicalUrl":"https://foursquare.com/v/the-westside-tavern/4bece5b991380f47f5439f18","categoryId":"4bf58dd8d48988d116941735","category":"Bar","checkinsCount":780,"usersCount":261,"tipCount":17,"visitsCount":990,"url":"http://www.thewestsidetavern.com","tier":1,"message":"Cheap","currency":"$","rating":7.6},{"name":"Ramblin Jacks","phone":"3607548909","address":"520 4th Ave E","lat":47.04544864155905,"lng":-122.89532456516197,"neighborhood":"Downtown Olympia","city_fetched":"Olympia,US","state":"WA","country":"United States","canonicalUrl":"https://foursquare.com/v/ramblin-jacks/4b3c0421f964a520708025e3","categoryId":"4bf58dd8d48988d116941735","category":"Bar","checkinsCount":688,"usersCount":401,"tipCount":8,"visitsCount":695,"url":"http://www.ramblinjacks.com","tier":"","message":"","currency":"","rating":7.6},{"name":"Nisqually Bar & Grill","phone":"3604916123","address":"10323 Martin Way E","lat":47.066652781897545,"lng":-122.72022767692496,"city_fetched":"Olympia,US","state":"WA","country":"United States","canonicalUrl":"https://foursquare.com/v/nisqually-bar--grill/4c437f3536d6a593653c69a8","categoryId":"4bf58dd8d48988d116941735","category":"Bar","checkinsCount":226,"usersCount":170,"tipCount":3,"visitsCount":231,"url":"http://nisquallybarandgrill.net","tier":"","message":"","currency":"","rating":7.5},{"name":"Ben Moore's","phone":"3603577527","twitter":"benmoorescafe","address":"112 4th Ave W","lat":47.04496152708546,"lng":-122.90240057400484,"neighborhood":"Downtown Olympia","city_fetched":"Olympia,US","state":"WA","country":"United States","canonicalUrl":"https://foursquare.com/v/ben-moores/4b6e6910f964a52052bc2ce3","categoryId":"4bf58dd8d48988d11b941735","category":"Pub","checkinsCount":184,"usersCount":127,"tipCount":8,"visitsCount":184,"url":"http://www.benmoores.com","tier":"","message":"","currency":"","rating":7.5},{"name":"Pints Barn","phone":"3606288838","address":"114 E St SW","lat":47.01199941,"lng":-122.905594,"city_fetched":"Olympia,US","state":"WA","country":"United States","canonicalUrl":"https://foursquare.com/v/pints-barn/4d40c24eaae1b1f77a028af5","categoryId":"4bf58dd8d48988d116941735","category":"Bar","checkinsCount":1788,"usersCount":355,"tipCount":10,"visitsCount":1951,"tier":"","message":"","currency":"","rating":7.4},{"name":"Hannahs Bar & Grill","phone":"3603579890","address":"123 5th Ave SW","lat":47.043922583333334,"lng":-122.90265136666666,"neighborhood":"Downtown Olympia","city_fetched":"Olympia,US","state":"WA","country":"United States","canonicalUrl":"https://foursquare.com/v/hannahs-bar--grill/4bb579c8f562ef3baa0d2f97","categoryId":"4bf58dd8d48988d116941735","category":"Bar","checkinsCount":1250,"usersCount":321,"tipCount":14,"visitsCount":1270,"tier":"","message":"","currency":"","rating":7.4},{"name":"The Eastside Club Tavern","phone":"3603579985","address":"410 4th Ave E","lat":47.04529998006631,"lng":-122.89748668670654,"neighborhood":"Downtown Olympia","city_fetched":"Olympia,US","state":"WA","country":"United States","canonicalUrl":"https://foursquare.com/v/the-eastside-club-tavern/4aa345f6f964a520cd4320e3","categoryId":"4bf58dd8d48988d117941735","category":"Beer Garden","checkinsCount":2174,"usersCount":536,"tipCount":20,"visitsCount":2309,"url":"http://www.theeastsideclub.comâ€Ž ","tier":1,"message":"Cheap","currency":"$","rating":7.2},{"name":"The Viking Lounge","phone":"3604561555","address":"6318 Martin Way E","lat":47.050634392908606,"lng":-122.79754158739728,"city_fetched":"Olympia,US","state":"WA","country":"United States","canonicalUrl":"https://foursquare.com/v/the-viking-lounge/4b6e6656f964a520cdbb2ce3","categoryId":"4bf58dd8d48988d120941735","category":"Karaoke Bar","checkinsCount":494,"usersCount":259,"tipCount":5,"visitsCount":671,"tier":"","message":"","currency":"","rating":7.2},{"name":"Obsidian","address":"414 4th Ave E","lat":47.04534961638043,"lng":-122.89708138962855,"neighborhood":"Downtown Olympia","city_fetched":"Olympia,US","state":"WA","country":"United States","canonicalUrl":"https://foursquare.com/v/obsidian/5470e59f498e3b3bd9413e57","categoryId":"4bf58dd8d48988d11e941735","category":"Cocktail Bar","checkinsCount":184,"usersCount":71,"tipCount":1,"visitsCount":196,"tier":"","message":"","currency":"","rating":7.2},{"name":"Frankie's Sports Bar","phone":"3604550352","address":"3663 Pacific Ave SE","lat":47.04093988481118,"lng":-122.84160579672967,"city_fetched":"Olympia,US","state":"WA","country":"United States","canonicalUrl":"https://foursquare.com/v/frankies-sports-bar/4bcbeba6937ca5930a72aa92","categoryId":"4bf58dd8d48988d11d941735","category":"Sports Bar","checkinsCount":416,"usersCount":146,"tipCount":3,"visitsCount":465,"tier":"","message":"","currency":"","rating":7.2},{"name":"The Brotherhood","phone":"3603524153","address":"119 Capitol Way N","lat":47.04542058877746,"lng":-122.90216089879618,"neighborhood":"Downtown Olympia","city_fetched":"Olympia,US","state":"WA","country":"United States","canonicalUrl":"https://foursquare.com/v/the-brotherhood/4a59863ef964a5206eb91fe3","categoryId":"4bf58dd8d48988d116941735","category":"Bar","checkinsCount":2719,"usersCount":865,"tipCount":14,"visitsCount":2885,"url":"http://thebrotherhoodlounge.com","tier":"","message":"","currency":"","rating":7.2},{"name":"South Bay Pub & Eatery","address":"3323 South Bay RD NE","lat":47.079582,"lng":-122.847984,"city_fetched":"Olympia,US","state":"WA","country":"United States","canonicalUrl":"https://foursquare.com/v/south-bay-pub--eatery/4df17c6ed22d8c5470d57a70","categoryId":"4bf58dd8d48988d11b941735","category":"Pub","checkinsCount":368,"usersCount":134,"tipCount":7,"visitsCount":461,"tier":"","message":"","currency":"","rating":7.1},{"name":"The Office Tavern","address":"2030 Mottman Rd SW","lat":47.025663509498706,"lng":-122.92812425262255,"city_fetched":"Olympia,US","state":"WA","country":"United States","canonicalUrl":"https://foursquare.com/v/the-office-tavern/4b4a389ff964a520627f26e3","categoryId":"4bf58dd8d48988d116941735","category":"Bar","checkinsCount":442,"usersCount":233,"tipCount":5,"visitsCount":517,"tier":"","message":"","currency":"","rating":7},{"name":"Fatso's Bar & Grill","address":"3205 Martin Way E","lat":47.046517,"lng":-122.852202,"city_fetched":"Olympia,US","state":"WA","country":"United States","canonicalUrl":"https://foursquare.com/v/fatsos-bar--grill/4bdb817e3904a593addb4a9e","categoryId":"4bf58dd8d48988d11d941735","category":"Sports Bar","checkinsCount":190,"usersCount":146,"tipCount":2,"visitsCount":288,"tier":"","message":"","currency":"","rating":7},{"name":"Buzz's Tavern","phone":"3608668335","address":"5018 Mud Bay Rd NW","lat":47.046681862068944,"lng":-122.98816795508876,"city_fetched":"Olympia,US","state":"WA","country":"United States","canonicalUrl":"https://foursquare.com/v/buzzs-tavern/4b8b74e9f964a520f69f32e3","categoryId":"4bf58dd8d48988d116941735","category":"Bar","checkinsCount":459,"usersCount":188,"tipCount":5,"visitsCount":534,"tier":"","message":"","currency":"","rating":6.8},{"name":"1230 Room","phone":"3603521230","twitter":"1230room","address":"111 Washington St NE","lat":47.04529392224255,"lng":-122.90069045450853,"neighborhood":"Downtown Olympia","city_fetched":"Olympia,US","state":"WA","country":"United States","canonicalUrl":"https://foursquare.com/v/1230-room/4e211063628469a574127c43","categoryId":"4bf58dd8d48988d11f941735","category":"Nightclub","checkinsCount":1720,"usersCount":264,"tipCount":9,"visitsCount":1728,"tier":"","message":"","currency":"","rating":6.6},{"name":"Charlie's Tavern","phone":"3607868181","address":"620 4th Ave E","lat":47.0454911407275,"lng":-122.89451066293819,"neighborhood":"Downtown Olympia","city_fetched":"Olympia,US","state":"WA","country":"United States","canonicalUrl":"https://foursquare.com/v/charlies-tavern/441208e5f964a520ce301fe3","categoryId":"4bf58dd8d48988d11d941735","category":"Sports Bar","checkinsCount":851,"usersCount":234,"tipCount":5,"visitsCount":888,"tier":"","message":"","currency":"","rating":6.6},{"name":"Jake's on 4th Ave","phone":"3609563247","address":"311 4th Ave E","lat":47.04509204474004,"lng":-122.89864508769715,"neighborhood":"Downtown Olympia","city_fetched":"Olympia,US","state":"WA","country":"United States","canonicalUrl":"https://foursquare.com/v/jakes-on-4th-ave/4b0f988ef964a520876323e3","categoryId":"4bf58dd8d48988d11f941735","category":"Nightclub","checkinsCount":1753,"usersCount":660,"tipCount":10,"visitsCount":1800,"url":"http://www.myspace.com/jakeson4th","tier":"","message":"","currency":"","rating":6.6},{"name":"McCoy's Tavern","phone":"3603520696","address":"418 4th Ave E","lat":47.04538822174072,"lng":-122.89702152,"neighborhood":"Downtown Olympia","city_fetched":"Olympia,US","state":"WA","country":"United States","canonicalUrl":"https://foursquare.com/v/mccoys-tavern/4b0f77c5f964a5207f6223e3","categoryId":"4bf58dd8d48988d118941735","category":"Dive Bar","checkinsCount":963,"usersCount":308,"tipCount":11,"visitsCount":966,"tier":"","message":"","currency":"","rating":6.4},{"name":"Westside Lanes","phone":"3609432400","address":"2200 Garfield Ave NW","lat":47.04716848606097,"lng":-122.92825564583393,"city_fetched":"Olympia,US","state":"WA","country":"United States","canonicalUrl":"https://foursquare.com/v/westside-lanes/4d27ee32ebacb1f7d879ec4f","categoryId":"4bf58dd8d48988d116941735","category":"Bar","checkinsCount":754,"usersCount":345,"tipCount":4,"visitsCount":819,"tier":"","message":"","currency":"","rating":6.1},{"name":"Big Whisky","lat":47.04440208639486,"lng":-122.89939043599271,"neighborhood":"Downtown Olympia","city_fetched":"Olympia,US","state":"Washington","country":"United States","canonicalUrl":"https://foursquare.com/v/big-whisky/4e758d671838f91889e73af7","categoryId":"4bf58dd8d48988d116941735","category":"Bar","checkinsCount":502,"usersCount":221,"tipCount":5,"visitsCount":506,"tier":"","message":"","currency":"","rating":5.9},{"name":"China Clipper Club Cafe","phone":"3603527565","address":"406 4th Ave E","lat":47.04538708,"lng":-122.89783948333333,"neighborhood":"Downtown Olympia","city_fetched":"Olympia,US","state":"WA","country":"United States","canonicalUrl":"https://foursquare.com/v/china-clipper-club-cafe/4b0f8014f964a520c16223e3","categoryId":"4bf58dd8d48988d118941735","category":"Dive Bar","checkinsCount":898,"usersCount":315,"tipCount":4,"visitsCount":904,"url":"http://www.theclipper.com","tier":1,"message":"Cheap","currency":"$","rating":5.8},{"name":"Cryptatropa","phone":"3607543867","address":"421 4th Ave E","lat":47.045115,"lng":-122.89697975,"neighborhood":"Downtown Olympia","city_fetched":"Olympia,US","state":"WA","country":"United States","canonicalUrl":"https://foursquare.com/v/cryptatropa/4cad5d3a36fa6dcb32c4e678","categoryId":"4bf58dd8d48988d121941735","category":"Lounge","checkinsCount":555,"usersCount":228,"tipCount":8,"visitsCount":559,"tier":"","message":"","currency":"","rating":5.7}]