[{"name":"Block 16","phone":"4023421220","twitter":"block16omaha","address":"1611 Farnam St","lat":41.25772273100824,"lng":-95.93778469321003,"neighborhood":"Downtown Omaha","city_fetched":"Omaha","state":"NE","country":"United States","canonicalUrl":"https://foursquare.com/v/block-16/4b5f1788f964a52095a529e3","category":"Gastropub","checkinsCount":2941,"usersCount":1171,"tipCount":63,"visitsCount":3327,"url":"http://block16omaha.com","tier":2,"message":"Moderate","currency":"$","rating":9.2},{"name":"Blue Sushi Sake Grill","phone":"4024085566","twitter":"bluesushiomaha","address":"416 S 12th St","lat":41.25589216961399,"lng":-95.93192336274703,"neighborhood":"Old Market","city_fetched":"Omaha","state":"NE","country":"United States","canonicalUrl":"https://foursquare.com/bluesushiomaha","category":"Sushi Restaurant","checkinsCount":15483,"usersCount":5588,"tipCount":126,"visitsCount":15932,"url":"http://www.bluesushisakegrill.com","tier":2,"message":"Moderate","currency":"$","rating":9.2},{"name":"Lot 2","phone":"4025044200","address":"6205 1/2 Maple St","lat":41.28495671157501,"lng":-96.00879517547081,"neighborhood":"Maple Street Corridor","city_fetched":"Omaha","state":"NE","country":"United States","canonicalUrl":"https://foursquare.com/v/lot-2/4f51866ae4b0d9ab797a7d62","category":"American Restaurant","checkinsCount":1576,"usersCount":754,"tipCount":19,"visitsCount":1604,"url":"http://www.lot2benson.com","tier":4,"message":"Very Expensive","currency":"$","rating":9.1},{"name":"Blue Sushi Sake Grill","phone":"4024452583","twitter":"bluesushiomaha","address":"14450 Eagle Run Dr Suite 210","lat":41.28814311962079,"lng":-96.13952432202277,"city_fetched":"Omaha","state":"NE","country":"United States","canonicalUrl":"https://foursquare.com/v/blue-sushi-sake-grill/4b29659bf964a520349e24e3","category":"Sushi Restaurant","checkinsCount":3984,"usersCount":2084,"tipCount":28,"visitsCount":4750,"url":"http://www.bluesushisakegrill.com","tier":2,"message":"Moderate","currency":"$","rating":9},{"name":"Oscar's Pizza & Sports Grille","phone":"4027581910","address":"17330 Lakeside Hills Plz","lat":41.23565862803993,"lng":-96.18539387617645,"neighborhood":"West Omaha","city_fetched":"Omaha","state":"NE","country":"United States","canonicalUrl":"https://foursquare.com/v/oscars-pizza--sports-grille/4c392e3b0a71c9b6f12942c9","category":"Pizza Place","checkinsCount":5640,"usersCount":2231,"tipCount":61,"visitsCount":6622,"url":"http://oscarspizzaandsportsgrille.com","tier":2,"message":"Moderate","currency":"$","rating":9},{"name":"Spirit World & Deli","phone":"4023918680","twitter":"spirit_world","address":"6680 Center St","lat":41.23819192506046,"lng":-96.013708161915,"neighborhood":"Aksarben - Elmwood Park","city_fetched":"Omaha","state":"NE","country":"United States","canonicalUrl":"https://foursquare.com/v/spirit-world--deli/4ad4f297f964a5205fff20e3","category":"Liquor Store","checkinsCount":1096,"usersCount":539,"tipCount":17,"visitsCount":1184,"url":"http://www.spiritworldwine.com","tier":"","message":"","currency":"","rating":8.9},{"name":"Crescent Moon Ale House","phone":"4023451708","twitter":"beercornerusa","address":"3578 Farnam St","lat":41.25795875058855,"lng":-95.9663306777767,"neighborhood":"Midtown","city_fetched":"Omaha","state":"NE","country":"United States","canonicalUrl":"https://foursquare.com/v/crescent-moon-ale-house/4ad4f295f964a52097fe20e3","category":"Bar","checkinsCount":11899,"usersCount":3583,"tipCount":65,"visitsCount":12666,"url":"http://beercornerusa.com/crescentmoon/","tier":2,"message":"Moderate","currency":"$","rating":8.9},{"name":"Wilson & Washburn","phone":"4029916950","twitter":"wilsonwashburn","address":"1407 Harney St","lat":41.256446419301255,"lng":-95.93506550180302,"neighborhood":"Downtown Omaha","city_fetched":"Omaha","state":"NE","country":"United States","canonicalUrl":"https://foursquare.com/v/wilson--washburn/51521eefe4b0f44ebc40cf91","category":"Gastropub","checkinsCount":1648,"usersCount":1228,"tipCount":43,"visitsCount":2564,"url":"http://www.wilsonandwashburn.com","tier":2,"message":"Moderate","currency":"$","rating":8.9},{"name":"Dinker's Bar & Grill","phone":"4023429742","address":"2368 S 29th St","lat":41.23664488728724,"lng":-95.95464434444517,"neighborhood":"Southeast Omaha","city_fetched":"Omaha","state":"NE","country":"United States","canonicalUrl":"https://foursquare.com/v/dinkers-bar--grill/4b6ddbadf964a52057962ce3","category":"Burger Joint","checkinsCount":2476,"usersCount":1419,"tipCount":38,"visitsCount":3035,"url":"http://dinkersbar.com","tier":1,"message":"Cheap","currency":"$","rating":8.9},{"name":"Dante Pizzeria Napoletana","phone":"4029323078","twitter":"dantepizzeria","address":"16901 Wright Plz","lat":41.2326379273667,"lng":-96.17807897517962,"neighborhood":"West Omaha","city_fetched":"Omaha","state":"NE","country":"United States","canonicalUrl":"https://foursquare.com/v/dante-pizzeria-napoletana/4b14846cf964a52022a423e3","category":"Pizza Place","checkinsCount":2894,"usersCount":1160,"tipCount":46,"visitsCount":3054,"url":"http://www.dantepizzeria.com","tier":2,"message":"Moderate","currency":"$","rating":8.8},{"name":"Beercade","phone":"4029323392","twitter":"beercade","address":"6104 Maple St","lat":41.285030454601916,"lng":-96.00749373435974,"neighborhood":"Maple Street Corridor","city_fetched":"Omaha","state":"NE","country":"United States","canonicalUrl":"https://foursquare.com/v/beercade/4f7cf71fe4b083691e632882","category":"Bar","checkinsCount":5669,"usersCount":1919,"tipCount":51,"visitsCount":6289,"url":"http://www.thebeercade.com","tier":2,"message":"Moderate","currency":"$","rating":8.8},{"name":"Blatt Beer & Table","phone":"4026977802","twitter":"blattbeer","address":"2835 S 170th Plz Ste 200","lat":41.23264959249285,"lng":-96.17948801046828,"neighborhood":"West Omaha","city_fetched":"Omaha","state":"NE","country":"United States","canonicalUrl":"https://foursquare.com/blattbeer","category":"Gastropub","checkinsCount":670,"usersCount":473,"tipCount":14,"visitsCount":1099,"url":"http://www.blattbeer.com","tier":2,"message":"Moderate","currency":"$","rating":8.7},{"name":"Barrett's Barleycorn Pub & Grill","phone":"4025545805","address":"4322 Leavenworth St","lat":41.252639,"lng":-95.97805917263031,"neighborhood":"Nebraska Medical Center","city_fetched":"Omaha","state":"NE","country":"United States","canonicalUrl":"https://foursquare.com/v/barretts-barleycorn-pub--grill/4ae9c9aef964a5206eb621e3","category":"Pub","checkinsCount":3170,"usersCount":1533,"tipCount":26,"visitsCount":3889,"url":"http://barrettsomaha.com","tier":2,"message":"Moderate","currency":"$","rating":8.7},{"name":"Slowdown","phone":"4023457569","twitter":"theslowdown","address":"729 N 14th St","lat":41.266459097504566,"lng":-95.93420900763944,"neighborhood":"North Downtown","city_fetched":"Omaha","state":"NE","country":"United States","canonicalUrl":"https://foursquare.com/v/slowdown/4ad4f295f964a520bafe20e3","category":"Bar","checkinsCount":7608,"usersCount":3349,"tipCount":44,"visitsCount":7949,"url":"http://www.theslowdown.com","tier":2,"message":"Moderate","currency":"$","rating":8.6},{"name":"Krug Park","phone":"4029336866","twitter":"krugpark","address":"6205 Maple St","lat":41.28489156605063,"lng":-96.00867635947262,"neighborhood":"Maple Street Corridor","city_fetched":"Omaha","state":"NE","country":"United States","canonicalUrl":"https://foursquare.com/v/krug-park/4e31d7efe4cd681b14d3528d","category":"Bar","checkinsCount":7750,"usersCount":1943,"tipCount":50,"visitsCount":8000,"url":"http://krugpark.com","tier":2,"message":"Moderate","currency":"$","rating":8.6},{"name":"Infusion Brewing Company","phone":"4029169998","twitter":"infusionbrewing","address":"6115 Maple St","lat":41.28493472971663,"lng":-96.00792214159344,"neighborhood":"Maple Street Corridor","city_fetched":"Omaha","state":"NE","country":"United States","canonicalUrl":"https://foursquare.com/v/infusion-brewing-company/4fcaa221e4b0980cf1743dfc","category":"Brewery","checkinsCount":1895,"usersCount":695,"tipCount":27,"visitsCount":2050,"url":"http://infusionbrewing.com","tier":2,"message":"Moderate","currency":"$","rating":8.6},{"name":"The Den","phone":"4026098535","twitter":"thedenomaha","address":"711 N 114th St","lat":41.26551740239707,"lng":-96.0895586013794,"neighborhood":"West Omaha","city_fetched":"Omaha","state":"NE","country":"United States","canonicalUrl":"https://foursquare.com/thedenomaha","category":"Bar","checkinsCount":3157,"usersCount":704,"tipCount":22,"visitsCount":3338,"url":"http://thedenomaha.com","tier":"","message":"","currency":"","rating":8.6},{"name":"The American GI Forum","phone":"4027341147","address":"2002 N St","lat":41.209864600988155,"lng":-95.94212430129774,"city_fetched":"Omaha","state":"NE","country":"United States","canonicalUrl":"https://foursquare.com/v/the-american-gi-forum/4bb5508a941ad13a061d1ee3","category":"Social Club","checkinsCount":1147,"usersCount":476,"tipCount":16,"visitsCount":1430,"url":"http://www.agifomaha.org","tier":"","message":"","currency":"","rating":8.6},{"name":"Reverb Lounge","phone":"4028845707","twitter":"reverb_lounge","address":"6121 Military Ave","lat":41.28541358474172,"lng":-96.00848005528853,"neighborhood":"Maple Street Corridor","city_fetched":"Omaha","state":"NE","country":"United States","canonicalUrl":"https://foursquare.com/v/reverb-lounge/53bd82bb498e8206d94b4d7e","category":"Lounge","checkinsCount":324,"usersCount":136,"tipCount":3,"visitsCount":329,"url":"http://www.reverblounge.com","tier":"","message":"","currency":"","rating":8.6},{"name":"Kona Grill","phone":"4027792900","twitter":"konagrill","address":"295 N 170th St","lat":41.260658390566576,"lng":-96.18108630180359,"neighborhood":"West Omaha","city_fetched":"Omaha","state":"NE","country":"United States","canonicalUrl":"https://foursquare.com/v/kona-grill/4bee220f767dc9b66317d4e9","category":"American Restaurant","checkinsCount":7147,"usersCount":3524,"tipCount":52,"visitsCount":8272,"url":"http://www.konagrill.com","tier":2,"message":"Moderate","currency":"$","rating":8.6},{"name":"Mantra","phone":"4029331666","twitter":"mantraomaha","address":"6913 Maple St","lat":41.28488065514409,"lng":-96.01984091091347,"neighborhood":"Benson","city_fetched":"Omaha","state":"NE","country":"United States","canonicalUrl":"https://foursquare.com/v/mantra/4fdba536e4b049d3735f9b0c","category":"American Restaurant","checkinsCount":878,"usersCount":614,"tipCount":26,"visitsCount":1207,"url":"http://www.mantraomaha.com","tier":2,"message":"Moderate","currency":"$","rating":8.6},{"name":"The Waiting Room Lounge","address":"6212 Maple St","lat":41.2851597,"lng":-96.00856125354767,"neighborhood":"Maple Street Corridor","city_fetched":"Omaha","state":"NE","country":"United States","canonicalUrl":"https://foursquare.com/v/the-waiting-room-lounge/4ad4f295f964a520bcfe20e3","category":"Music Venue","checkinsCount":7683,"usersCount":2526,"tipCount":30,"visitsCount":7822,"tier":"","message":"","currency":"","rating":8.6},{"name":"Jerry's Bar","phone":"4025533343","twitter":"68104ever","address":"6301 Military Ave","lat":41.287370513179745,"lng":-96.01004017445463,"neighborhood":"Benson","city_fetched":"Omaha","state":"NE","country":"United States","canonicalUrl":"https://foursquare.com/v/jerrys-bar/4cd5bf6067adf04dce2b2f91","category":"Bar","checkinsCount":5859,"usersCount":410,"tipCount":18,"visitsCount":6160,"url":"http://www.68104ever.com","tier":1,"message":"Cheap","currency":"$","rating":8.5},{"name":"Upstream Brewing Company","phone":"4023440200","twitter":"upstreambrewing","address":"514 S 11th St","lat":41.254697925427095,"lng":-95.93083474511896,"neighborhood":"Old Market","city_fetched":"Omaha","state":"NE","country":"United States","canonicalUrl":"https://foursquare.com/v/upstream-brewing-company/4ad4f295f964a520a6fe20e3","category":"Brewery","checkinsCount":14604,"usersCount":8528,"tipCount":111,"visitsCount":15686,"url":"http://www.upstreambrewing.com","tier":2,"message":"Moderate","currency":"$","rating":8.5},{"name":"La Buvette Wine & Grocery","phone":"4023448627","address":"551 S 11th St","lat":41.254918,"lng":-95.930586,"neighborhood":"Old Market","city_fetched":"Omaha","state":"NE","country":"United States","canonicalUrl":"https://foursquare.com/v/la-buvette-wine--grocery/4ad4f295f964a520aefe20e3","category":"Wine Bar","checkinsCount":3333,"usersCount":1106,"tipCount":45,"visitsCount":3393,"url":"http://labuvetteomaha.com","tier":2,"message":"Moderate","currency":"$","rating":8.5},{"name":"Wicked Rabbit","lat":41.25673294067383,"lng":-95.93656921386719,"neighborhood":"Downtown Omaha","city_fetched":"Omaha","state":"NE","country":"United States","canonicalUrl":"https://foursquare.com/v/wicked-rabbit/564015a5cd10d9e62f54744e","category":"Speakeasy","checkinsCount":112,"usersCount":77,"tipCount":6,"visitsCount":120,"tier":"","message":"","currency":"","rating":8.5},{"name":"Brix","phone":"4029919463","address":"225 N 170th St","lat":41.2597436425284,"lng":-96.17966932249377,"neighborhood":"West Omaha","city_fetched":"Omaha","state":"NE","country":"United States","canonicalUrl":"https://foursquare.com/v/brix/4b4a3daff964a5204e8026e3","category":"Wine Bar","checkinsCount":3832,"usersCount":2071,"tipCount":23,"visitsCount":5268,"url":"http://brixomaha.com","tier":2,"message":"Moderate","currency":"$","rating":8.5},{"name":"The Drover","phone":"4023917440","address":"2121 S 73rd St","lat":41.239194314375574,"lng":-96.02575208106698,"city_fetched":"Omaha","state":"NE","country":"United States","canonicalUrl":"https://foursquare.com/v/the-drover/4ad4f296f964a520f4fe20e3","category":"Steakhouse","checkinsCount":1976,"usersCount":1713,"tipCount":31,"visitsCount":2502,"url":"http://droverrestaurant.com","tier":2,"message":"Moderate","currency":"$","rating":8.4},{"name":"Roja Mexican Grill + Margarita Bar","phone":"4023337652","twitter":"rojamexgrill","address":"17010 Wright Plz Ste 100","lat":41.233446152731055,"lng":-96.18016663821389,"neighborhood":"West Omaha","city_fetched":"Omaha","state":"NE","country":"United States","canonicalUrl":"https://foursquare.com/v/roja-mexican-grill--margarita-bar/4af4ff0bf964a520eaf721e3","category":"Mexican Restaurant","checkinsCount":5171,"usersCount":2381,"tipCount":35,"visitsCount":5819,"url":"http://rojagrill.com","tier":2,"message":"Moderate","currency":"$","rating":8.4},{"name":"Shuck's Fish House and Oyster Bar","phone":"4026145544","address":"1911 Leavenworth St","lat":41.25237416178434,"lng":-95.94140187168767,"city_fetched":"Omaha","state":"NE","country":"United States","canonicalUrl":"https://foursquare.com/v/shucks-fish-house-and-oyster-bar/4f347d84e4b013b943a75547","category":"Seafood Restaurant","checkinsCount":905,"usersCount":627,"tipCount":18,"visitsCount":1156,"url":"http://www.absolutelyfresh.com/shucks_fish_house.cfm","tier":2,"message":"Moderate","currency":"$","rating":8.4},{"name":"Old Dundee Bar and Grill","phone":"4025580801","address":"4964 Dodge St","lat":41.25979740479406,"lng":-95.99008709968588,"neighborhood":"Dundee","city_fetched":"Omaha","state":"NE","country":"United States","canonicalUrl":"https://foursquare.com/v/old-dundee-bar-and-grill/4ae3e428f964a520809921e3","category":"Bar","checkinsCount":5722,"usersCount":1061,"tipCount":26,"visitsCount":5988,"tier":2,"message":"Moderate","currency":"$","rating":8.3},{"name":"Tracks Lounge","phone":"4029050102","twitter":"trackslounge","address":"1506 S 60th St","lat":41.2447022,"lng":-96.0050657,"neighborhood":"Aksarben - Elmwood Park","city_fetched":"Omaha","state":"NE","country":"United States","canonicalUrl":"https://foursquare.com/v/tracks-lounge/52e5be5d11d2e1f4a93adf07","category":"Bar","checkinsCount":259,"usersCount":167,"tipCount":6,"visitsCount":427,"url":"http://www.trackslounge.com","tier":"","message":"","currency":"","rating":8.3},{"name":"Blatt Beer & Table","phone":"4027188822","twitter":"blattbeer","address":"610 N 12th St","lat":41.26558103133246,"lng":-95.93221744765073,"neighborhood":"North Downtown","city_fetched":"Omaha","state":"NE","country":"United States","canonicalUrl":"https://foursquare.com/v/blatt-beer--table/4faa8ae2a17ce93e06a0656f","category":"Gastropub","checkinsCount":4664,"usersCount":2743,"tipCount":39,"visitsCount":5727,"url":"http://www.blattbeer.com","tier":2,"message":"Moderate","currency":"$","rating":8.3},{"name":"Lazlo's Brewery & Grill","phone":"4022895840","twitter":"lazlosbrewgrill","address":"2425 S 192nd Ave","lat":41.23645516735395,"lng":-96.2160357354537,"neighborhood":"West Omaha","city_fetched":"Omaha","state":"NE","country":"United States","canonicalUrl":"https://foursquare.com/v/lazlos-brewery--grill/4b0c3726f964a5200a3923e3","category":"Brewery","checkinsCount":3047,"usersCount":1699,"tipCount":24,"visitsCount":4001,"url":"http://lazlosbreweryandgrill.com","tier":2,"message":"Moderate","currency":"$","rating":8.3},{"name":"The Havana Garage","phone":"4026143800","address":"1008 Howard St","lat":41.255680506065275,"lng":-95.92977194303687,"neighborhood":"Old Market","city_fetched":"Omaha","state":"NE","country":"United States","canonicalUrl":"https://foursquare.com/v/the-havana-garage/4ba7f95cf964a52048c339e3","category":"Smoke Shop","checkinsCount":4373,"usersCount":1758,"tipCount":27,"visitsCount":4447,"url":"http://www.thehavanagarage.com","tier":"","message":"","currency":"","rating":8.3},{"name":"Magnolia Hotel","phone":"4023412500","twitter":"magnoliaomaha","address":"1615 Howard St","lat":41.255355586156796,"lng":-95.93774857411664,"city_fetched":"Omaha","state":"NE","country":"United States","canonicalUrl":"https://foursquare.com/magnoliaomaha","category":"Hotel","checkinsCount":3915,"usersCount":2089,"tipCount":29,"visitsCount":4515,"url":"http://www.magnoliahotels.com/omaha/magnolia-hotel-omaha.php","tier":"","message":"","currency":"","rating":8.2},{"name":"The Elbow Room","phone":"4029325116","address":"4973 Center St","lat":41.241348252649,"lng":-95.99021104368194,"city_fetched":"Omaha","state":"NE","country":"United States","canonicalUrl":"https://foursquare.com/v/the-elbow-room/4adfc1c3f964a5203f7d21e3","category":"Dive Bar","checkinsCount":3905,"usersCount":485,"tipCount":12,"visitsCount":4289,"tier":1,"message":"Cheap","currency":"$","rating":8.2},{"name":"Max & Joe's Belgian Tavern","phone":"4029052603","address":"3578 Farnam St","lat":41.2579073036232,"lng":-95.9663719762378,"neighborhood":"Midtown","city_fetched":"Omaha","state":"NE","country":"United States","canonicalUrl":"https://foursquare.com/v/max--joes-belgian-tavern/4ba95cd4f964a5200b223ae3","category":"Pub","checkinsCount":1378,"usersCount":300,"tipCount":3,"visitsCount":1383,"url":"http://beercornerusa.com/maxnjoes/","tier":"","message":"","currency":"","rating":8.2},{"name":"Saig√≤n Surface","phone":"4026144496","twitter":"saigonsurface","address":"324 S 14th St","lat":41.256939054062066,"lng":-95.93461145519275,"neighborhood":"Downtown Omaha","city_fetched":"Omaha","state":"NE","country":"United States","canonicalUrl":"https://foursquare.com/v/saig%C3%B2n-surface/4ddbbf9f3151b7f8846611e4","category":"Vietnamese Restaurant","checkinsCount":1557,"usersCount":792,"tipCount":32,"visitsCount":1672,"url":"http://saigonsurface.com","tier":2,"message":"Moderate","currency":"$","rating":8.2},{"name":"Village Bar","phone":"4023316076","address":"5700 S 77th St","lat":41.20074602186103,"lng":-96.0321651094252,"city_fetched":"Omaha","state":"NE","country":"United States","canonicalUrl":"https://foursquare.com/v/village-bar/4ca67a0044a8224b2ace0340","category":"Dive Bar","checkinsCount":1051,"usersCount":282,"tipCount":9,"visitsCount":1322,"tier":"","message":"","currency":"","rating":8.2},{"name":"Varsity Sports Cafe","phone":"4023397003","address":"4900 Dodge St","lat":41.25982504154725,"lng":-95.9880678810527,"neighborhood":"Central Omaha","city_fetched":"Omaha","state":"NE","country":"United States","canonicalUrl":"https://foursquare.com/v/varsity-sports-cafe/50e31870e4b0a3665e69eb4f","category":"Sports Bar","checkinsCount":990,"usersCount":668,"tipCount":9,"visitsCount":1349,"url":"http://varsityromancoinpizza.com","tier":"","message":"","currency":"","rating":8.1},{"name":"The Salty Dog","phone":"7122564851","twitter":"thesaltydogcb","address":"2411 S 24th St","lat":41.237957036729455,"lng":-95.87854232336613,"city_fetched":"Omaha","state":"IA","country":"United States","canonicalUrl":"https://foursquare.com/v/the-salty-dog/4bd292f0462cb71337b9dc07","category":"Bar","checkinsCount":4010,"usersCount":1114,"tipCount":34,"visitsCount":4620,"url":"http://saltydogcb.com","tier":2,"message":"Moderate","currency":"$","rating":8.1},{"name":"FLIXX Lounge & Cabaret Show Bar","phone":"4024081020","address":"1015 S 10th St","lat":41.24965792247097,"lng":-95.92903418365191,"neighborhood":"Little Italy","city_fetched":"Omaha","state":"NE","country":"United States","canonicalUrl":"https://foursquare.com/v/flixx-lounge--cabaret-show-bar/4b591f7ef964a520be7d28e3","category":"Lounge","checkinsCount":6892,"usersCount":1068,"tipCount":19,"visitsCount":7332,"url":"http://www.flixxomaha.com","tier":2,"message":"Moderate","currency":"$","rating":8.1},{"name":"Upstream Brewing Company","phone":"4027780100","twitter":"upstreambrewing","address":"17070 Wright Plz","lat":41.23322840874363,"lng":-96.18183474730495,"neighborhood":"West Omaha","city_fetched":"Omaha","state":"NE","country":"United States","canonicalUrl":"https://foursquare.com/v/upstream-brewing-company/4ae0ea3df964a520a78321e3","category":"Brewery","checkinsCount":5542,"usersCount":3057,"tipCount":39,"visitsCount":6684,"url":"http://upstreambrewing.com","tier":2,"message":"Moderate","currency":"$","rating":8.1},{"name":"Old Chicago Pasta & Pizza","phone":"4023848355","address":"425 N 78th St","lat":41.26286237230202,"lng":-96.03669235940308,"neighborhood":"Central Omaha","city_fetched":"Omaha","state":"NE","country":"United States","canonicalUrl":"https://foursquare.com/v/old-chicago-pasta--pizza/4ae21003f964a520588a21e3","category":"Pizza Place","checkinsCount":6766,"usersCount":2297,"tipCount":34,"visitsCount":7463,"url":"http://oldchicago.com","tier":2,"message":"Moderate","currency":"$","rating":8},{"name":"Varsity Sports Cafe","phone":"4027154333","address":"14529 F St","lat":41.21863652010934,"lng":-96.14122239325117,"neighborhood":"Millard","city_fetched":"Omaha","state":"NE","country":"United States","canonicalUrl":"https://foursquare.com/v/varsity-sports-cafe/4b68f1b7f964a52039942be3","category":"Sports Bar","checkinsCount":2309,"usersCount":1044,"tipCount":13,"visitsCount":2794,"url":"http://varsityromancoinpizza.com","tier":2,"message":"Moderate","currency":"$","rating":8},{"name":"House of Loom","phone":"4025055494","twitter":"thehouseofloom","address":"1012 S 10th St","lat":41.249741433177064,"lng":-95.92944145202637,"neighborhood":"Southeast Omaha","city_fetched":"Omaha","state":"NE","country":"United States","canonicalUrl":"https://foursquare.com/v/house-of-loom/4dbf357fcda12687c82f6791","category":"Nightclub","checkinsCount":6061,"usersCount":1350,"tipCount":12,"visitsCount":6432,"url":"http://www.houseofloom.com","tier":"","message":"","currency":"","rating":8},{"name":"Dundee Dell","phone":"4025539501","twitter":"dundeedell","address":"5007 Underwood Ave","lat":41.264940791684175,"lng":-95.99061727523804,"neighborhood":"Dundee","city_fetched":"Omaha","state":"NE","country":"United States","canonicalUrl":"https://foursquare.com/v/dundee-dell/4ad4f295f964a520a1fe20e3","category":"Bar","checkinsCount":5938,"usersCount":2505,"tipCount":60,"visitsCount":5999,"url":"http://dundeedell.com","tier":2,"message":"Moderate","currency":"$","rating":8},{"name":"Corkscrew Wine & Cheese","phone":"4029912927","twitter":"corkscrewwine","address":"10924 Prairie Brook Rd","lat":41.233422,"lng":-96.08357171,"city_fetched":"Omaha","state":"NE","country":"United States","canonicalUrl":"https://foursquare.com/corkscrewwine","category":"Wine Bar","checkinsCount":1293,"usersCount":600,"tipCount":8,"visitsCount":1433,"url":"http://www.corkscrewwineandcheese.com","tier":"","message":"","currency":"","rating":8},{"name":"Twisted Fork Grill & Bar","phone":"4029329600","twitter":"twistedfork_ne","address":"1014 Howard St","lat":41.25561489671419,"lng":-95.92998347011657,"neighborhood":"Old Market","city_fetched":"Omaha","state":"NE","country":"United States","canonicalUrl":"https://foursquare.com/v/twisted-fork-grill--bar/4b2a657ef964a5204ca824e3","category":"American Restaurant","checkinsCount":2694,"usersCount":2048,"tipCount":41,"visitsCount":2739,"url":"http://twistedforkomaha.com","tier":2,"message":"Moderate","currency":"$","rating":8},{"name":"Brix","address":"220 S 31st Ave Ste 3103","lat":41.25802967306733,"lng":-95.9595735961581,"neighborhood":"Midtown","city_fetched":"Omaha","state":"NE","country":"United States","canonicalUrl":"https://foursquare.com/v/brix/50331290e4b05a5f61aaf67b","category":"Wine Bar","checkinsCount":1831,"usersCount":869,"tipCount":18,"visitsCount":2077,"url":"http://brixomaha.com","tier":2,"message":"Moderate","currency":"$","rating":8},{"name":"Jake's Cigars & Spirits","phone":"4029349633","twitter":"jakescigar","address":"6206 Maple St","lat":41.28526731,"lng":-96.00837815,"neighborhood":"Maple Street Corridor","city_fetched":"Omaha","state":"NE","country":"United States","canonicalUrl":"https://foursquare.com/v/jakes-cigars--spirits/4ad7f259f964a520411021e3","category":"Bar","checkinsCount":9105,"usersCount":1824,"tipCount":20,"visitsCount":9215,"url":"http://jakesomaha.com","tier":2,"message":"Moderate","currency":"$","rating":8},{"name":"The Berry & Rye","phone":"4026131331","twitter":"theberryandrye","address":"1105 Howard St","lat":41.25544706407454,"lng":-95.93120621433289,"neighborhood":"Old Market","city_fetched":"Omaha","state":"NE","country":"United States","canonicalUrl":"https://foursquare.com/v/the-berry--rye/516f8dbfe4b0b51140e1f8a3","category":"Cocktail Bar","checkinsCount":1073,"usersCount":610,"tipCount":25,"visitsCount":1084,"url":"http://theberryandrye.com","tier":"","message":"","currency":"","rating":7.9},{"name":"Dudleys Pizza & Tavern","phone":"4029337511","twitter":"dudleyspizza","address":"2110 S 67th St Ste 108","lat":41.23928873426327,"lng":-96.01504109101585,"neighborhood":"Aksarben - Elmwood Park","city_fetched":"Omaha","state":"NE","country":"United States","canonicalUrl":"https://foursquare.com/dudleyspizza","category":"Pizza Place","checkinsCount":1316,"usersCount":693,"tipCount":19,"visitsCount":1618,"url":"http://www.dudleysomaha.com","tier":2,"message":"Moderate","currency":"$","rating":7.9},{"name":"Tanner's Bar and Grill","address":"1202 S 119th St","lat":41.24741765320641,"lng":-96.09912614737672,"neighborhood":"West Omaha","city_fetched":"Omaha","state":"NE","country":"United States","canonicalUrl":"https://foursquare.com/v/tanners-bar-and-grill/53beb6dd498e6294eed99f2c","category":"Sports Bar","checkinsCount":152,"usersCount":89,"tipCount":0,"visitsCount":169,"tier":"","message":"","currency":"","rating":7.9},{"name":"Brickway Brewery & Distillery","phone":"4029332613","twitter":"borgatabrwdistl","address":"1116 Jackson St","lat":41.25445203975449,"lng":-95.93145847320557,"neighborhood":"Old Market","city_fetched":"Omaha","state":"NE","country":"United States","canonicalUrl":"https://foursquare.com/v/brickway-brewery--distillery/523669c493cd2b4f6e850ce8","category":"Brewery","checkinsCount":1179,"usersCount":785,"tipCount":9,"visitsCount":1417,"url":"http://www.drinkbrickway.com","tier":2,"message":"Moderate","currency":"$","rating":7.9},{"name":"Nite Owl","phone":"4029916767","twitter":"niteowlomaha","address":"3902 Farnam St.","lat":41.25797845569501,"lng":-95.97220050376833,"neighborhood":"Nebraska Medical Center","city_fetched":"Omaha","state":"NE","country":"United States","canonicalUrl":"https://foursquare.com/v/nite-owl/5483b903498e9649b820bbf9","category":"Cocktail Bar","checkinsCount":524,"usersCount":307,"tipCount":5,"visitsCount":681,"url":"http://niteowlomaha.com","tier":"","message":"","currency":"","rating":7.9},{"name":"Skyybox Grill & Bar","phone":"4029347060","address":"6720 S 168th St","lat":41.19205853534764,"lng":-96.17826028306284,"neighborhood":"Millard","city_fetched":"Omaha","state":"NE","country":"United States","canonicalUrl":"https://foursquare.com/v/skyybox-grill--bar/4b78386ff964a52063bd2ee3","category":"Bar","checkinsCount":1381,"usersCount":393,"tipCount":10,"visitsCount":1502,"url":"http://skyyboxomaha.com","tier":"","message":"","currency":"","rating":7.9},{"name":"The Burlington League","address":"1004 Mason","lat":41.2500983648093,"lng":-95.92975130628824,"neighborhood":"Southeast Omaha","city_fetched":"Omaha","state":"NE","country":"United States","canonicalUrl":"https://foursquare.com/v/the-burlington-league/55fce28c498ea5a00264f485","category":"Lounge","checkinsCount":97,"usersCount":87,"tipCount":2,"visitsCount":146,"tier":"","message":"","currency":"","rating":7.9},{"name":"The Dubliner Pub","phone":"4023425887","address":"1205 Harney St","lat":41.256514006353484,"lng":-95.9323464327091,"neighborhood":"Old Market","city_fetched":"Omaha","state":"NE","country":"United States","canonicalUrl":"https://foursquare.com/v/the-dubliner-pub/4ad4f295f964a520b1fe20e3","category":"Pub","checkinsCount":5270,"usersCount":2374,"tipCount":20,"visitsCount":5322,"url":"http://www.dublinerpubomaha.com","tier":1,"message":"Cheap","currency":"$","rating":7.9},{"name":"Barley Street Tavern","phone":"4025545834","address":"2735 N 62nd St","lat":41.28449676666666,"lng":-96.008184,"neighborhood":"Benson","city_fetched":"Omaha","state":"NE","country":"United States","canonicalUrl":"https://foursquare.com/v/barley-street-tavern/4ad4f295f964a520bdfe20e3","category":"Bar","checkinsCount":2054,"usersCount":643,"tipCount":13,"visitsCount":2101,"url":"http://www.barleystreet.com","tier":1,"message":"Cheap","currency":"$","rating":7.9},{"name":"Local Beer, Patio & Kitchen","phone":"4023154301","twitter":"localbeerco","address":"902 Dodge St","lat":41.25974279773933,"lng":-95.92850279610958,"city_fetched":"Omaha","state":"NE","country":"United States","canonicalUrl":"https://foursquare.com/v/local-beer-patio--kitchen/5543b5c0498ecd5cf72cbd13","category":"Gastropub","checkinsCount":647,"usersCount":594,"tipCount":10,"visitsCount":1052,"url":"http://www.localbeer.co","tier":1,"message":"Cheap","currency":"$","rating":7.9},{"name":"Fleming's Prime Steakhouse & Wine Bar","phone":"4023930811","address":"140 Regency Pkwy","lat":41.258264,"lng":-96.072558,"neighborhood":"Central Omaha","city_fetched":"Omaha","state":"NE","country":"United States","canonicalUrl":"https://foursquare.com/v/flemings-prime-steakhouse--wine-bar/4ad4f296f964a52031ff20e3","category":"Steakhouse","checkinsCount":1133,"usersCount":782,"tipCount":11,"visitsCount":1425,"url":"http://www.flemingssteakhouse.com/locations/ne/omaha","tier":4,"message":"Very Expensive","currency":"$","rating":7.9},{"name":"Shevy's Sport and Steaks","phone":"4023159951","address":"2607 N Main St","lat":41.28268,"lng":-96.236715,"neighborhood":"Elkhorn","city_fetched":"Omaha","state":"NE","country":"United States","canonicalUrl":"https://foursquare.com/v/shevys-sport-and-steaks/4e77f5d0b61ce1c8984c39c6","category":"Sports Bar","checkinsCount":675,"usersCount":370,"tipCount":5,"visitsCount":823,"url":"http://shevyssportsandsteaks.com","tier":"","message":"","currency":"","rating":7.9},{"name":"Gusto Cuban Cafe","phone":"4026147800","twitter":"gustocubancafe","address":"7910 Harrison St","lat":41.19126266,"lng":-96.036719,"city_fetched":"Omaha","state":"NE","country":"United States","canonicalUrl":"https://foursquare.com/gustocubancafe","category":"Cuban Restaurant","checkinsCount":723,"usersCount":497,"tipCount":28,"visitsCount":884,"url":"http://www.gustocubancafe.com","tier":2,"message":"Moderate","currency":"$","rating":7.9},{"name":"Old Chicago","phone":"4023309001","address":"2643 S 144th St","lat":41.234332221344005,"lng":-96.13766581611793,"neighborhood":"Montclair Trendwood Parkside and Georgetown","city_fetched":"Omaha","state":"NE","country":"United States","canonicalUrl":"https://foursquare.com/v/old-chicago/4b42bc10f964a5206cd925e3","category":"Italian Restaurant","checkinsCount":7208,"usersCount":2456,"tipCount":39,"visitsCount":8263,"url":"http://oldchicago.com","tier":2,"message":"Moderate","currency":"$","rating":7.9},{"name":"Biaggi's Ristorante Italiano","phone":"4029659800","address":"13655 California St","lat":41.26476599949567,"lng":-96.12909633333334,"neighborhood":"West Omaha","city_fetched":"Omaha","state":"NE","country":"United States","canonicalUrl":"https://foursquare.com/v/biaggis-ristorante-italiano/4ad4f295f964a520b4fe20e3","category":"Italian Restaurant","checkinsCount":2400,"usersCount":1048,"tipCount":16,"visitsCount":2565,"url":"http://www.biaggis.com","tier":2,"message":"Moderate","currency":"$","rating":7.9},{"name":"13th St Brickhouse","address":"2202 S 13th St","lat":41.239325994306576,"lng":-95.93355890571367,"neighborhood":"Southeast Omaha","city_fetched":"Omaha","state":"NE","country":"United States","canonicalUrl":"https://foursquare.com/v/13th-st-brickhouse/50133807e4b001b338cd4d8d","category":"Dive Bar","checkinsCount":533,"usersCount":222,"tipCount":6,"visitsCount":698,"tier":"","message":"","currency":"","rating":7.8},{"name":"Sportsman Food & Spirits","lat":41.363402,"lng":-96.1560560111852,"city_fetched":"Omaha","state":"NE","country":"United States","canonicalUrl":"https://foursquare.com/v/sportsman-food--spirits/4c82cb552f1c236a44553d43","category":"Bar","checkinsCount":163,"usersCount":72,"tipCount":7,"visitsCount":168,"tier":"","message":"","currency":"","rating":7.8},{"name":"Mockingbird Lanes","phone":"4023398858","twitter":"mbirdlanesomaha","address":"4870 S 96th St","lat":41.209583,"lng":-96.0634309738414,"city_fetched":"Omaha","state":"NE","country":"United States","canonicalUrl":"https://foursquare.com/v/mockingbird-lanes/4b6e0f61f964a5206ba72ce3","category":"Bowling Alley","checkinsCount":2959,"usersCount":1045,"tipCount":7,"visitsCount":3424,"url":"http://www.mockingbirdlanesomaha.com","tier":"","message":"","currency":"","rating":7.8},{"name":"Old Chicago","phone":"4023411616","address":"1111 Harney St","lat":41.256371675837215,"lng":-95.9311044216156,"neighborhood":"Old Market","city_fetched":"Omaha","state":"NE","country":"United States","canonicalUrl":"https://foursquare.com/v/old-chicago/4ad4f295f964a5209cfe20e3","category":"Pizza Place","checkinsCount":7045,"usersCount":3055,"tipCount":44,"visitsCount":7571,"url":"http://oldchicago.com","tier":2,"message":"Moderate","currency":"$","rating":7.8},{"name":"Sullivan's Bar","phone":"4029337004","address":"3929 Farnam St","lat":41.25781183166098,"lng":-95.97321758503716,"neighborhood":"Nebraska Medical Center","city_fetched":"Omaha","state":"NE","country":"United States","canonicalUrl":"https://foursquare.com/v/sullivans-bar/4b2a75fdf964a5209fa924e3","category":"Bar","checkinsCount":1935,"usersCount":558,"tipCount":11,"visitsCount":2135,"url":"http://www.sullivansbar.com","tier":"","message":"","currency":"","rating":7.8},{"name":"Funny Bone Comedy Club","phone":"4024938036","twitter":"funnyboneomaha","address":"17305 Davenport St Ste 201","lat":41.26076317770136,"lng":-96.18570990773237,"neighborhood":"West Omaha","city_fetched":"Omaha","state":"NE","country":"United States","canonicalUrl":"https://foursquare.com/v/funny-bone-comedy-club/4d3b761b687ca35dfa4994c4","category":"Comedy Club","checkinsCount":1611,"usersCount":1061,"tipCount":16,"visitsCount":1653,"url":"http://funnyboneomaha.com","tier":"","message":"","currency":"","rating":7.8},{"name":"The Old Mattress Factory Bar and Grill","phone":"4023469116","address":"501 N 13th St","lat":41.26400530053551,"lng":-95.93284249305725,"neighborhood":"North Downtown","city_fetched":"Omaha","state":"NE","country":"United States","canonicalUrl":"https://foursquare.com/v/the-old-mattress-factory-bar-and-grill/4ad60d22f964a520cd0421e3","category":"Bar","checkinsCount":7224,"usersCount":4699,"tipCount":41,"visitsCount":8838,"url":"http://www.themattomaha.com","tier":2,"message":"Moderate","currency":"$","rating":7.8},{"name":"Bella Vita","phone":"4022891804","address":"2620 N Main St","lat":41.28308,"lng":-96.23702386666666,"neighborhood":"Elkhorn","city_fetched":"Omaha","state":"NE","country":"United States","canonicalUrl":"https://foursquare.com/v/bella-vita/4c2e804f7cc0c9b6cf33ea9a","category":"Italian Restaurant","checkinsCount":474,"usersCount":254,"tipCount":9,"visitsCount":511,"url":"http://www.bellavitane.com/ordereze/Default.aspx","tier":2,"message":"Moderate","currency":"$","rating":7.8},{"name":"Corkscrew Wine & Cheese","address":"3908 Farnam St","lat":41.25814762334455,"lng":-95.9724483189522,"neighborhood":"Nebraska Medical Center","city_fetched":"Omaha","state":"NE","country":"United States","canonicalUrl":"https://foursquare.com/v/corkscrew-wine--cheese/54c44630498e50c8109a2968","category":"Wine Bar","checkinsCount":118,"usersCount":91,"tipCount":1,"visitsCount":143,"tier":"","message":"","currency":"","rating":7.8},{"name":"Donohue's Pub","phone":"4027389780","twitter":"donohuespub","address":"3232 L St","lat":41.21246414919099,"lng":-95.9622887270796,"city_fetched":"Omaha","state":"NE","country":"United States","canonicalUrl":"https://foursquare.com/v/donohues-pub/4b9c0fe5f964a5200f4636e3","category":"Dive Bar","checkinsCount":540,"usersCount":190,"tipCount":6,"visitsCount":552,"url":"http://donohuespub.com","tier":"","message":"","currency":"","rating":7.8},{"name":"Omaha Tap House","phone":"4029325131","address":"1403 Farnam St","lat":41.257536225143475,"lng":-95.93479720112109,"neighborhood":"Downtown Omaha","city_fetched":"Omaha","state":"NE","country":"United States","canonicalUrl":"https://foursquare.com/v/omaha-tap-house/50259a46e4b08ea913415662","category":"Bar","checkinsCount":2032,"usersCount":1286,"tipCount":30,"visitsCount":2375,"tier":2,"message":"Moderate","currency":"$","rating":7.8},{"name":"The Homy Inn","phone":"4025545815","address":"1510 N Saddle Creek Rd","lat":41.27357229759691,"lng":-95.98865659770877,"city_fetched":"Omaha","state":"NE","country":"United States","canonicalUrl":"https://foursquare.com/v/the-homy-inn/4ad4f295f964a5209afe20e3","category":"Bar","checkinsCount":3384,"usersCount":1627,"tipCount":22,"visitsCount":3598,"url":"http://www.homyinn.com","tier":2,"message":"Moderate","currency":"$","rating":7.8},{"name":"MVP Lounge","phone":"4023319815","twitter":"bobsmvplounge","address":"5434 S 99th St","lat":41.203654283333336,"lng":-96.0683623,"city_fetched":"Omaha","state":"NE","country":"United States","canonicalUrl":"https://foursquare.com/v/mvp-lounge/4b8338adf964a5200efe30e3","category":"Bar","checkinsCount":777,"usersCount":160,"tipCount":7,"visitsCount":837,"url":"http://bobsmvplounge-hub.com","tier":"","message":"","currency":"","rating":7.8},{"name":"Sean O'Casey's","phone":"4025931746","address":"2523 S 140th Ave","lat":41.234780032923986,"lng":-96.1349325167777,"neighborhood":"Montclair Trendwood Parkside and Georgetown","city_fetched":"Omaha","state":"NE","country":"United States","canonicalUrl":"https://foursquare.com/v/sean-ocaseys/51eec1cd498eb9948a6035f4","category":"Pub","checkinsCount":408,"usersCount":219,"tipCount":5,"visitsCount":570,"url":"http://www.seanocaseyspub.com","tier":2,"message":"Moderate","currency":"$","rating":7.8},{"name":"Nosh Wine Lounge","phone":"4026142121","twitter":"noshwine","address":"1006 Dodge St","lat":41.259816895143295,"lng":-95.92984933090696,"neighborhood":"Downtown Omaha","city_fetched":"Omaha","state":"NE","country":"United States","canonicalUrl":"https://foursquare.com/v/nosh-wine-lounge/4d2f4a345055a35df9609aca","category":"Wine Bar","checkinsCount":1778,"usersCount":978,"tipCount":24,"visitsCount":1852,"url":"http://www.noshwine.com","tier":"","message":"","currency":"","rating":7.7},{"name":"Ice House","phone":"4029342337","address":"10920 Emmet St","lat":41.289385925705226,"lng":-96.08359706434726,"neighborhood":"Northwest Omaha","city_fetched":"Omaha","state":"NE","country":"United States","canonicalUrl":"https://foursquare.com/v/ice-house/4b394e97f964a5204e5a25e3","category":"Sports Bar","checkinsCount":3576,"usersCount":1630,"tipCount":18,"visitsCount":3971,"url":"http://www.icehouseomaha.com","tier":2,"message":"Moderate","currency":"$","rating":7.7},{"name":"The Happy Bar","phone":"4023469677","address":"601 N 16th St","lat":41.26482635720071,"lng":-95.93694879971999,"neighborhood":"North Downtown","city_fetched":"Omaha","state":"NE","country":"United States","canonicalUrl":"https://foursquare.com/v/the-happy-bar/4c1996ec838020a10d10e661","category":"Dive Bar","checkinsCount":385,"usersCount":120,"tipCount":2,"visitsCount":397,"tier":"","message":"","currency":"","rating":7.7},{"name":"The Session Room","phone":"4023424393","twitter":"sessionroomoma","address":"1506 Mike Fahey St","lat":41.26608148238499,"lng":-95.93579301541364,"neighborhood":"North Downtown","city_fetched":"Omaha","state":"NE","country":"United States","canonicalUrl":"https://foursquare.com/v/the-session-room/54c69039498e3fefe9708787","category":"Bar","checkinsCount":193,"usersCount":220,"tipCount":2,"visitsCount":352,"url":"http://sessionroomomaha.com","tier":"","message":"","currency":"","rating":7.7},{"name":"The Trap Room","phone":"4025059368","twitter":"traproom","address":"733 N 14th St","lat":41.266751251572465,"lng":-95.93395829200743,"neighborhood":"North Downtown","city_fetched":"Omaha","state":"NE","country":"United States","canonicalUrl":"https://foursquare.com/v/the-trap-room/51b4cb99498eef5fa36b3db8","category":"Bar","checkinsCount":685,"usersCount":277,"tipCount":10,"visitsCount":701,"url":"http://thetraproom.com","tier":2,"message":"Moderate","currency":"$","rating":7.7},{"name":"Lookout Lounge","phone":"4023912554","twitter":"lookoutlounge","address":"322 S 72nd St","lat":41.25673033110853,"lng":-96.02513200131267,"neighborhood":"Central Omaha","city_fetched":"Omaha","state":"NE","country":"United States","canonicalUrl":"https://foursquare.com/v/lookout-lounge/55536ed0498eb29062c9d16a","category":"Bar","checkinsCount":204,"usersCount":95,"tipCount":0,"visitsCount":264,"url":"http://www.lookoutloungeomaha.com","tier":"","message":"","currency":"","rating":7.7},{"name":"Danny's Bar & Grill","phone":"4025545821","address":"2007 N 72nd St","lat":41.2781732988458,"lng":-96.02362316695178,"neighborhood":"Benson","city_fetched":"Omaha","state":"NE","country":"United States","canonicalUrl":"https://foursquare.com/v/dannys-bar--grill/4b04a62bf964a520ed5522e3","category":"Sports Bar","checkinsCount":1194,"usersCount":527,"tipCount":16,"visitsCount":1293,"url":"http://www.dannysbaromaha.com","tier":"","message":"","currency":"","rating":7.7},{"name":"Harney Street Tavern","phone":"4029335657","address":"1215 Harney St","lat":41.256666,"lng":-95.932404,"neighborhood":"Old Market","city_fetched":"Omaha","state":"NE","country":"United States","canonicalUrl":"https://foursquare.com/v/harney-street-tavern/531404ae498e6faeb117083a","category":"Pub","checkinsCount":410,"usersCount":203,"tipCount":6,"visitsCount":424,"url":"http://www.harneystreettavern.com","tier":"","message":"","currency":"","rating":7.7},{"name":"Crossbones Bar","phone":"4029053651","twitter":"crossbonesbar","address":"5611 S 36th St","lat":41.200591057893575,"lng":-95.96718762661106,"city_fetched":"Omaha","state":"NE","country":"United States","canonicalUrl":"https://foursquare.com/v/crossbones-bar/5470053a498e0e46bdcdbde3","category":"Bar","checkinsCount":251,"usersCount":104,"tipCount":6,"visitsCount":427,"tier":"","message":"","currency":"","rating":7.7},{"name":"Brook Park Lounge","phone":"4025729505","address":"3015 N 90th St","lat":41.28617117002691,"lng":-96.05201825171413,"neighborhood":"Keystone","city_fetched":"Omaha","state":"NE","country":"United States","canonicalUrl":"https://foursquare.com/v/brook-park-lounge/4d02fe2c347da1cd06f0228f","category":"Bar","checkinsCount":378,"usersCount":102,"tipCount":4,"visitsCount":394,"tier":"","message":"","currency":"","rating":7.7},{"name":"Paloozas Food & Spirits","phone":"4029336692","twitter":"paloozainc","address":"12221 Mary Plz","lat":41.31997809386106,"lng":-96.10552310943604,"city_fetched":"Omaha","state":"NE","country":"United States","canonicalUrl":"https://foursquare.com/paloozainc","category":"American Restaurant","checkinsCount":554,"usersCount":322,"tipCount":8,"visitsCount":813,"url":"https://www.paloozasfoodandspirits.com","tier":1,"message":"Cheap","currency":"$","rating":7.7},{"name":"Jimi D's","phone":"4023912011","address":"6303 Center St Ste 106","lat":41.237593275975264,"lng":-96.01052578262681,"city_fetched":"Omaha","state":"NE","country":"United States","canonicalUrl":"https://foursquare.com/v/jimi-ds/4b230d6ef964a520b45224e3","category":"Bar","checkinsCount":3440,"usersCount":1455,"tipCount":22,"visitsCount":3700,"url":"http://www.jimids.com","tier":2,"message":"Moderate","currency":"$","rating":7.7},{"name":"The Max","phone":"4023464110","address":"1417 Jackson St","lat":41.25434315114311,"lng":-95.93570709228516,"city_fetched":"Omaha","state":"NE","country":"United States","canonicalUrl":"https://foursquare.com/v/the-max/4ad4f295f964a520c5fe20e3","category":"Gay Bar","checkinsCount":10956,"usersCount":2436,"tipCount":46,"visitsCount":12164,"url":"http://www.themaxomaha.com","tier":2,"message":"Moderate","currency":"$","rating":7.6},{"name":"Alderman's","phone":"4023415190","address":"3216 Leavenworth St","lat":41.25270187854767,"lng":-95.960966,"neighborhood":"Leavenworth","city_fetched":"Omaha","state":"NE","country":"United States","canonicalUrl":"https://foursquare.com/v/aldermans/4c0add5cbbc676b013a94ad5","category":"Bar","checkinsCount":778,"usersCount":359,"tipCount":5,"visitsCount":998,"tier":1,"message":"Cheap","currency":"$","rating":7.6},{"name":"Winners","phone":"4026145444","address":"5413 S 72nd St Ste 110","lat":41.20318830013275,"lng":-96.02327585220337,"city_fetched":"Omaha","state":"NE","country":"United States","canonicalUrl":"https://foursquare.com/v/winners/4c9587c3f244b1f7d4fe2c1d","category":"Sports Bar","checkinsCount":196,"usersCount":85,"tipCount":5,"visitsCount":196,"tier":"","message":"","currency":"","rating":7.6},{"name":"Dundee Cork & Bottle","phone":"4029342118","address":"614 N 50th St","lat":41.2646183,"lng":-95.990344,"neighborhood":"Dundee","city_fetched":"Omaha","state":"NE","country":"United States","canonicalUrl":"https://foursquare.com/v/dundee-cork--bottle/4b2aa386f964a520c3ac24e3","category":"Bar","checkinsCount":2224,"usersCount":647,"tipCount":11,"visitsCount":2244,"tier":2,"message":"Moderate","currency":"$","rating":7.6},{"name":"Cunningham's Pub & Grill","phone":"4029344385","address":"10904 W Dodge Rd","lat":41.26494482394461,"lng":-96.08500957489014,"neighborhood":"West Omaha","city_fetched":"Omaha","state":"NE","country":"United States","canonicalUrl":"https://foursquare.com/v/cunninghams-pub--grill/4c141048a5eb76b06d24c1b7","category":"Bar","checkinsCount":3909,"usersCount":1271,"tipCount":30,"visitsCount":4781,"url":"http://cunninghamspub.com","tier":2,"message":"Moderate","currency":"$","rating":7.6},{"name":"O'Leaver's Pub","phone":"4025561238","twitter":"oleavers","address":"1322 S Saddle Creek Rd","lat":41.246018684462804,"lng":-95.98974823951721,"neighborhood":"Aksarben - Elmwood Park","city_fetched":"Omaha","state":"NE","country":"United States","canonicalUrl":"https://foursquare.com/v/oleavers-pub/4ad4f295f964a520bffe20e3","category":"Dive Bar","checkinsCount":2592,"usersCount":731,"tipCount":14,"visitsCount":3034,"url":"http://www.oleavers.com","tier":1,"message":"Cheap","currency":"$","rating":7.6},{"name":"Sake Bombers Lounge","phone":"4024085566","address":"416 S 12th St","lat":41.25589907169342,"lng":-95.9320135,"neighborhood":"Old Market","city_fetched":"Omaha","state":"NE","country":"United States","canonicalUrl":"https://foursquare.com/v/sake-bombers-lounge/4af4a6aff964a520b1f421e3","category":"Sake Bar","checkinsCount":2460,"usersCount":887,"tipCount":7,"visitsCount":2465,"url":"http://www.bluesushisakegrill.com","tier":"","message":"","currency":"","rating":7.6},{"name":"Maloney's Irish Pub","phone":"4025021880","twitter":"maloneysomaha","address":"1830 N 72nd St","lat":41.27626811908727,"lng":-96.02417089017123,"neighborhood":"Central Omaha","city_fetched":"Omaha","state":"NE","country":"United States","canonicalUrl":"https://foursquare.com/v/maloneys-irish-pub/4bb80f803db7b713f1fd209a","category":"Pub","checkinsCount":3490,"usersCount":718,"tipCount":15,"visitsCount":3775,"url":"http://www.maloneysomaha.com","tier":1,"message":"Cheap","currency":"$","rating":7.6},{"name":"The Sydney","phone":"4029329262","twitter":"thesydneybenson","address":"5918 Maple St","lat":41.2850667337696,"lng":-96.00441724061966,"neighborhood":"Maple Street Corridor","city_fetched":"Omaha","state":"NE","country":"United States","canonicalUrl":"https://foursquare.com/v/the-sydney/4ae3867ef964a520369621e3","category":"Bar","checkinsCount":7880,"usersCount":1049,"tipCount":10,"visitsCount":8313,"url":"http://www.thesydneybenson.com","tier":1,"message":"Cheap","currency":"$","rating":7.6},{"name":"Grane","address":"120 S 31st Ave","lat":41.259205516892926,"lng":-95.95959940481447,"neighborhood":"Midtown","city_fetched":"Omaha","state":"NE","country":"United States","canonicalUrl":"https://foursquare.com/v/grane/53cc9ef8498ec6ddfb2b1bbe","category":"Whisky Bar","checkinsCount":362,"usersCount":187,"tipCount":5,"visitsCount":387,"tier":"","message":"","currency":"","rating":7.6},{"name":"The Tavern","phone":"4023410191","twitter":"tavern_omaha","address":"514 S 10th St","lat":41.25458109268851,"lng":-95.92939853668213,"neighborhood":"Old Market","city_fetched":"Omaha","state":"NE","country":"United States","canonicalUrl":"https://foursquare.com/v/the-tavern/4b27098ef964a520498424e3","category":"Bar","checkinsCount":5533,"usersCount":1273,"tipCount":19,"visitsCount":5768,"url":"http://www.thetavernomaha.com","tier":"","message":"","currency":"","rating":7.6},{"name":"The Warehouse","phone":"4022383000","address":"15409 s 2nd","lat":41.37219716979103,"lng":-96.16235901927789,"city_fetched":"Omaha","state":"NE","country":"United States","canonicalUrl":"https://foursquare.com/v/the-warehouse/4d7c2c4c6152b60c4a828d26","category":"Bar","checkinsCount":332,"usersCount":205,"tipCount":5,"visitsCount":441,"url":"http://www.benningtonwarehouse.com","tier":"","message":"","currency":"","rating":7.5},{"name":"1912 Bar","address":"6201 Maple St","lat":41.28492731031031,"lng":-96.00843872817262,"neighborhood":"Maple Street Corridor","city_fetched":"Omaha","state":"NE","country":"United States","canonicalUrl":"https://foursquare.com/v/1912-bar/53bdf218498e62336eb68119","category":"Bar","checkinsCount":772,"usersCount":375,"tipCount":9,"visitsCount":846,"tier":"","message":"","currency":"","rating":7.5},{"name":"Pig & Finch","phone":"4029330457","twitter":"801restaurant","address":"10387 Pacific St","lat":41.248274678829965,"lng":-96.07494449139938,"city_fetched":"Omaha","state":"NE","country":"United States","canonicalUrl":"https://foursquare.com/v/pig--finch/53506ad8498efdf67984eff8","category":"Gastropub","checkinsCount":503,"usersCount":414,"tipCount":12,"visitsCount":673,"url":"http://801restaurantgroup.com/pig-and-finch/pig-finch-omaha/","tier":3,"message":"Expensive","currency":"$","rating":7.5},{"name":"Tailgaters Sports Bar","phone":"4023302292","address":"7402 F St","lat":41.23526432232537,"lng":-96.10016086977105,"neighborhood":"West Omaha","city_fetched":"Omaha","state":"NE","country":"United States","canonicalUrl":"https://foursquare.com/v/tailgaters-sports-bar/4e97a2d3722ed8d43b57fabc","category":"Sports Bar","checkinsCount":281,"usersCount":145,"tipCount":1,"visitsCount":282,"url":"http://www.americandreambar.com","tier":"","message":"","currency":"","rating":7.5},{"name":"Benson Brewery","phone":"4029348668","twitter":"bensonbrewery","address":"6059 Maple St","lat":41.28478878250331,"lng":-96.00647055679718,"neighborhood":"Maple Street Corridor","city_fetched":"Omaha","state":"NE","country":"United States","canonicalUrl":"https://foursquare.com/v/benson-brewery/51ce2205498e2165f89fe697","category":"Brewery","checkinsCount":1612,"usersCount":970,"tipCount":29,"visitsCount":1846,"url":"http://bensonbrewery.com","tier":2,"message":"Moderate","currency":"$","rating":7.5},{"name":"Huber-Haus German Bier Hall","phone":"4023451708","address":"3578 Farnam St","lat":41.257903924611725,"lng":-95.96605707618274,"neighborhood":"Midtown","city_fetched":"Omaha","state":"NE","country":"United States","canonicalUrl":"https://foursquare.com/v/huberhaus-german-bier-hall/4aff749bf964a520c33822e3","category":"Bar","checkinsCount":3008,"usersCount":1015,"tipCount":18,"visitsCount":3036,"tier":2,"message":"Moderate","currency":"$","rating":7.5},{"name":"Pageturner's Lounge","phone":"4029333973","address":"5004 Dodge St","lat":41.259882663564504,"lng":-95.99073264410454,"neighborhood":"Central Omaha","city_fetched":"Omaha","state":"NE","country":"United States","canonicalUrl":"https://foursquare.com/v/pageturners-lounge/50498993e4b005d18c64e7eb","category":"Bar","checkinsCount":1035,"usersCount":407,"tipCount":11,"visitsCount":1070,"url":"http://www.pageturnerslounge.com","tier":"","message":"","currency":"","rating":7.5},{"name":"Mr. Toad","phone":"4023454488","address":"1002 Howard St","lat":41.255526,"lng":-95.92952133333333,"neighborhood":"Old Market","city_fetched":"Omaha","state":"NE","country":"United States","canonicalUrl":"https://foursquare.com/v/mr-toad/4ab45b4ef964a520ff7020e3","category":"Pub","checkinsCount":3269,"usersCount":1885,"tipCount":18,"visitsCount":3417,"url":"http://mrtoadspub.com","tier":2,"message":"Moderate","currency":"$","rating":7.5},{"name":"Tanner's Bar & Grill","phone":"4028845100","address":"15505 Ruggles St","lat":41.29549170802562,"lng":-96.15748587051368,"city_fetched":"Omaha","state":"NE","country":"United States","canonicalUrl":"https://foursquare.com/v/tanners-bar--grill/4ae3ad34f964a520089821e3","category":"American Restaurant","checkinsCount":3611,"usersCount":1400,"tipCount":27,"visitsCount":4095,"url":"http://tannersbarandgrill.com","tier":2,"message":"Moderate","currency":"$","rating":7.4},{"name":"The Blue Jay","phone":"4024499128","twitter":"bluejaybar","address":"2416 Davenport St","lat":41.26185,"lng":-95.94781458377838,"neighborhood":"Downtown Omaha","city_fetched":"Omaha","state":"NE","country":"United States","canonicalUrl":"https://foursquare.com/bluejaybar","category":"Sports Bar","checkinsCount":1839,"usersCount":632,"tipCount":14,"visitsCount":2099,"url":"http://thebluejaybar.com","tier":"","message":"","currency":"","rating":7.4},{"name":"Farnam House Brewing Company","address":"3558 Farnam St","lat":41.25790453252232,"lng":-95.96609837445739,"neighborhood":"Midtown","city_fetched":"Omaha","state":"NE","country":"United States","canonicalUrl":"https://foursquare.com/v/farnam-house-brewing-company/5361b5e5498e77bcb4dc4d70","category":"Brewery","checkinsCount":880,"usersCount":476,"tipCount":16,"visitsCount":1136,"url":"http://www.farnamhousebrewing.com","tier":"","message":"","currency":"","rating":7.4},{"name":"Varsity Sports Cafe & Roman Coin Pizza","phone":"4023397003","address":"9735 Q St","lat":41.20398797662125,"lng":-96.06473675381002,"city_fetched":"Omaha","state":"NE","country":"United States","canonicalUrl":"https://foursquare.com/v/varsity-sports-cafe--roman-coin-pizza/4b8472b9f964a5200b3631e3","category":"Sports Bar","checkinsCount":2026,"usersCount":737,"tipCount":16,"visitsCount":2115,"url":"http://varsityromancoinpizza.com","tier":1,"message":"Cheap","currency":"$","rating":7.4},{"name":"The Office West Lounge","phone":"4023301122","address":"1266 S 119th Ct","lat":41.2472229442894,"lng":-96.09979354132055,"neighborhood":"West Omaha","city_fetched":"Omaha","state":"NE","country":"United States","canonicalUrl":"https://foursquare.com/v/the-office-west-lounge/4ba59b31f964a5200d1639e3","category":"Lounge","checkinsCount":1101,"usersCount":459,"tipCount":12,"visitsCount":1144,"tier":"","message":"","currency":"","rating":7.4},{"name":"Legend's Patio Grill & Bar","phone":"4028841006","twitter":"legendsomaha","address":"6910 N 102nd Cir","lat":41.32167092932027,"lng":-96.07352233862652,"neighborhood":"North Central Omaha","city_fetched":"Omaha","state":"NE","country":"United States","canonicalUrl":"https://foursquare.com/v/legends-patio-grill--bar/4ae2371bf964a520e58b21e3","category":"Sports Bar","checkinsCount":1549,"usersCount":869,"tipCount":10,"visitsCount":1762,"url":"http://www.legendsomaha.com","tier":"","message":"","currency":"","rating":7.4},{"name":"The O Bar","phone":"4026144204","address":"15660 W Center Rd","lat":41.234684591867435,"lng":-96.15951587074291,"neighborhood":"West Omaha","city_fetched":"Omaha","state":"NE","country":"United States","canonicalUrl":"https://foursquare.com/v/the-o-bar/4df98d7845dd2b6764bc3fae","category":"Bar","checkinsCount":1070,"usersCount":203,"tipCount":7,"visitsCount":1123,"tier":"","message":"","currency":"","rating":7.4},{"name":"Alpine Inn","phone":"4024519988","address":"10405 Calhoun Rd","lat":41.35368273220388,"lng":-95.97349638186658,"city_fetched":"Omaha","state":"NE","country":"United States","canonicalUrl":"https://foursquare.com/v/alpine-inn/4bb2c2354019a593cb4d37b8","category":"American Restaurant","checkinsCount":1253,"usersCount":414,"tipCount":15,"visitsCount":1360,"url":"http://alpineinn.freeservers.com","tier":"","message":"","currency":"","rating":7.3},{"name":"Spencer's for Steaks and Chops","phone":"4022808888","address":"102 S. 10th St","lat":41.25944134317144,"lng":-95.92937468686405,"neighborhood":"Downtown Omaha","city_fetched":"Omaha","state":"NE","country":"United States","canonicalUrl":"https://foursquare.com/v/spencers-for-steaks-and-chops/4ae62826f964a5202ca521e3","category":"Steakhouse","checkinsCount":1097,"usersCount":612,"tipCount":17,"visitsCount":1112,"url":"http://www.spencersomahaforsteaksandchops.com","tier":3,"message":"Expensive","currency":"$","rating":7.3},{"name":"Beer Corner USA","phone":"4023451708","address":"3578 Farnam St","lat":41.25792885,"lng":-95.96641355,"neighborhood":"Midtown","city_fetched":"Omaha","state":"NE","country":"United States","canonicalUrl":"https://foursquare.com/v/beer-corner-usa/4e40014a483b04e17ab6638c","category":"Bar","checkinsCount":654,"usersCount":107,"tipCount":1,"visitsCount":657,"tier":"","message":"","currency":"","rating":7.3},{"name":"Hookah 402","phone":"4028302246","address":"312 S 72nd St","lat":41.256744897052094,"lng":-96.02448092436589,"neighborhood":"Central Omaha","city_fetched":"Omaha","state":"NE","country":"United States","canonicalUrl":"https://foursquare.com/v/hookah-402/4ffdbbc1e4b0f8e8b0dce8fc","category":"Hookah Bar","checkinsCount":1002,"usersCount":161,"tipCount":4,"visitsCount":1194,"url":"http://www.hookah402.com","tier":"","message":"","currency":"","rating":7.3},{"name":"Deja Vu","phone":"4025029995","address":"1021 S 178th St","lat":41.24893947089666,"lng":-96.19286508797052,"neighborhood":"West Omaha","city_fetched":"Omaha","state":"NE","country":"United States","canonicalUrl":"https://foursquare.com/v/deja-vu/509c7e88e4b0c4d83af7011f","category":"Lounge","checkinsCount":550,"usersCount":216,"tipCount":3,"visitsCount":749,"url":"http://dejavuloungeomaha.com","tier":"","message":"","currency":"","rating":7.3},{"name":"Rose & Crown Pub","phone":"4023468242","address":"515 S 20th St","lat":41.2547742233381,"lng":-95.942041737477,"city_fetched":"Omaha","state":"NE","country":"United States","canonicalUrl":"https://foursquare.com/v/rose--crown-pub/4b47ad05f964a5202e3a26e3","category":"Pub","checkinsCount":1666,"usersCount":588,"tipCount":12,"visitsCount":1680,"tier":1,"message":"Cheap","currency":"$","rating":7.3},{"name":"Thomasville Lounge","phone":"4025938106","address":"5820 S 99th St","lat":41.20013964897712,"lng":-96.06933364449496,"city_fetched":"Omaha","state":"NE","country":"United States","canonicalUrl":"https://foursquare.com/v/thomasville-lounge/4ad9192cf964a520141821e3","category":"Bar","checkinsCount":1191,"usersCount":374,"tipCount":1,"visitsCount":1363,"tier":"","message":"","currency":"","rating":7.3},{"name":"Clancy's Pub","phone":"4025054400","address":"2905 S 168th St","lat":41.232139767020705,"lng":-96.17621412503382,"neighborhood":"West Omaha","city_fetched":"Omaha","state":"NE","country":"United States","canonicalUrl":"https://foursquare.com/v/clancys-pub/4aeb2e13f964a52057bf21e3","category":"Sports Bar","checkinsCount":3248,"usersCount":853,"tipCount":2,"visitsCount":3660,"url":"http://clancysomaha.com","tier":"","message":"","currency":"","rating":7.3},{"name":"The Good Life","phone":"4029332947","address":"1203 S 180th St","lat":41.2475433114502,"lng":-96.19566832092977,"neighborhood":"West Omaha","city_fetched":"Omaha","state":"NE","country":"United States","canonicalUrl":"https://foursquare.com/v/the-good-life/522140ce11d2e0c82c385d2e","category":"Cocktail Bar","checkinsCount":573,"usersCount":327,"tipCount":4,"visitsCount":921,"tier":"","message":"","currency":"","rating":7.3},{"name":"Cantina Laredo","phone":"4023456000","twitter":"cantinaomaha","address":"120 S 31st Ave","lat":41.25927947847734,"lng":-95.96004847719583,"neighborhood":"Midtown","city_fetched":"Omaha","state":"NE","country":"United States","canonicalUrl":"https://foursquare.com/cantinaomaha","category":"Mexican Restaurant","checkinsCount":3564,"usersCount":1798,"tipCount":68,"visitsCount":3657,"url":"http://www.cantinalaredo.com","tier":2,"message":"Moderate","currency":"$","rating":7.3},{"name":"Report In Pub","phone":"4029164438","twitter":"reportinpub","address":"12100 W Center Rd","lat":41.23523268846282,"lng":-96.1027994909627,"neighborhood":"West Omaha","city_fetched":"Omaha","state":"NE","country":"United States","canonicalUrl":"https://foursquare.com/v/report-in-pub/4bf4a861ff90c9b6e1935528","category":"Dive Bar","checkinsCount":468,"usersCount":170,"tipCount":4,"visitsCount":666,"url":"http://www.reportinpubomaha.com","tier":"","message":"","currency":"","rating":7.3},{"name":"Addy's Sports Bar & Grill","phone":"4029912663","address":"14110 S St","lat":41.204211563809615,"lng":-96.13422850481838,"neighborhood":"Millard","city_fetched":"Omaha","state":"NE","country":"United States","canonicalUrl":"https://foursquare.com/v/addys-sports-bar--grill/4bec702e75b2c9b6a27b438d","category":"Sports Bar","checkinsCount":2735,"usersCount":960,"tipCount":10,"visitsCount":3272,"url":"http://addysbar.com","tier":2,"message":"Moderate","currency":"$","rating":7.3},{"name":"Villagio Pizzeria","phone":"4025024400","address":"6922 North 102 Circle","lat":41.32170840103902,"lng":-96.07320171238909,"neighborhood":"North Central Omaha","city_fetched":"Omaha","state":"NE","country":"United States","canonicalUrl":"https://foursquare.com/v/villagio-pizzeria/4f860405e4b0dc6fc4352dd3","category":"Pizza Place","checkinsCount":317,"usersCount":134,"tipCount":3,"visitsCount":345,"url":"http://villagiopizzeriaomaha.com","tier":"","message":"","currency":"","rating":7.3},{"name":"Marcus Midtown Cinema","phone":"4023466900","twitter":"marcus_theatres","address":"3201 Farnam St","lat":41.25774006837201,"lng":-95.96037366961933,"neighborhood":"Midtown","city_fetched":"Omaha","state":"NE","country":"United States","canonicalUrl":"https://foursquare.com/v/marcus-midtown-cinema/4af4c4abf964a520f7f521e3","category":"Movie Theater","checkinsCount":5144,"usersCount":2008,"tipCount":28,"visitsCount":5204,"url":"http://www.marcustheatres.com","tier":"","message":"","currency":"","rating":7.2},{"name":"Louie's Wine Dive","phone":"4028848966","address":"16920 Wright Plz Ste 118","lat":41.23356098802352,"lng":-96.17783032523513,"neighborhood":"West Omaha","city_fetched":"Omaha","state":"NE","country":"United States","canonicalUrl":"https://foursquare.com/v/louies-wine-dive/50a284c8e4b07e886c118a24","category":"American Restaurant","checkinsCount":922,"usersCount":563,"tipCount":17,"visitsCount":1103,"url":"http://www.louieswinedive.com","tier":2,"message":"Moderate","currency":"$","rating":7.2},{"name":"Omaha Baseball Village","lat":41.26442763340391,"lng":-95.93247541804276,"neighborhood":"North Downtown","city_fetched":"Omaha","state":"NE","country":"United States","canonicalUrl":"https://foursquare.com/v/omaha-baseball-village/4dfb8a112271baece24378ca","category":"Beer Garden","checkinsCount":427,"usersCount":313,"tipCount":0,"visitsCount":445,"tier":"","message":"","currency":"","rating":7.2},{"name":"St. Andrews Pub","phone":"4028849047","address":"6102 Maple St","lat":41.285054,"lng":-96.00734,"neighborhood":"Maple Street Corridor","city_fetched":"Omaha","state":"NE","country":"United States","canonicalUrl":"https://foursquare.com/v/st-andrews-pub/539a4c97498e718f8994120e","category":"Pub","checkinsCount":485,"usersCount":179,"tipCount":4,"visitsCount":499,"url":"http://www.standrewsbar.com","tier":"","message":"","currency":"","rating":7.2},{"name":"The Brothers Lounge","phone":"4025584096","address":"3812 Farnam St","lat":41.25778008948839,"lng":-95.96929391378784,"neighborhood":"Southeast Omaha","city_fetched":"Omaha","state":"NE","country":"United States","canonicalUrl":"https://foursquare.com/v/the-brothers-lounge/4aff8e7ef964a520733922e3","category":"Bar","checkinsCount":2122,"usersCount":706,"tipCount":16,"visitsCount":2374,"url":"http://brothersloungeomaha.com","tier":1,"message":"Cheap","currency":"$","rating":7.2},{"name":"Lighthouse Bar & Grill","phone":"4024983824","address":"15676 W Maple Rd","lat":41.29273236979884,"lng":-96.15960390798134,"city_fetched":"Omaha","state":"NE","country":"United States","canonicalUrl":"https://foursquare.com/v/lighthouse-bar--grill/4b4d24f6f964a52091cc26e3","category":"Bar","checkinsCount":1103,"usersCount":460,"tipCount":12,"visitsCount":1308,"url":"http://www.omahalighthouse.com","tier":"","message":"","currency":"","rating":7.2},{"name":"The Cabin","phone":"4024536300","address":"9226 Mormon Bridge Rd","lat":41.343360410217784,"lng":-95.98441176859379,"city_fetched":"Omaha","state":"NE","country":"United States","canonicalUrl":"https://foursquare.com/v/the-cabin/4bf0846117880f47836e2937","category":"Sports Bar","checkinsCount":652,"usersCount":328,"tipCount":5,"visitsCount":757,"url":"http://thecabinbarandgrill.com/index.html","tier":"","message":"","currency":"","rating":7.2},{"name":"Saints Pub + Patio","address":"4915 N 120th St","lat":41.304595947265625,"lng":-96.09992218017578,"neighborhood":"Northwest Omaha","city_fetched":"Omaha","state":"NE","country":"United States","canonicalUrl":"https://foursquare.com/v/saints-pub--patio/54bfe265498e78d9c54ae37c","category":"Sports Bar","checkinsCount":192,"usersCount":179,"tipCount":0,"visitsCount":332,"url":"http://rileydrive.com/saints-pub/","tier":"","message":"","currency":"","rating":7.2},{"name":"JD Tucker's Bar","phone":"4029345190","twitter":"stadclubjdtucks","address":"418 S 10th St","lat":41.25581437726544,"lng":-95.92951914335195,"neighborhood":"Old Market","city_fetched":"Omaha","state":"NE","country":"United States","canonicalUrl":"https://foursquare.com/v/jd-tuckers-bar/4af4c04ff964a520c2f521e3","category":"Bar","checkinsCount":4191,"usersCount":1090,"tipCount":18,"visitsCount":4214,"tier":1,"message":"Cheap","currency":"$","rating":7.2},{"name":"Jazz, A Louisiana Kitchen","phone":"4023423662","twitter":"jazzomahane","address":"1421 Farnam St","lat":41.257561501009775,"lng":-95.93576721690891,"neighborhood":"Downtown Omaha","city_fetched":"Omaha","state":"NE","country":"United States","canonicalUrl":"https://foursquare.com/jazzomahane","category":"Cajun / Creole Restaurant","checkinsCount":3137,"usersCount":1634,"tipCount":59,"visitsCount":3189,"url":"http://omaha.jazzkitchens.com","tier":2,"message":"Moderate","currency":"$","rating":7.2},{"name":"Tiger Tom's Pub","phone":"4025728400","address":"7103 Military Ave","lat":41.29641663491342,"lng":-96.02236755590096,"city_fetched":"Omaha","state":"NE","country":"United States","canonicalUrl":"https://foursquare.com/v/tiger-toms-pub/4b46f318f964a520e22926e3","category":"Pub","checkinsCount":1209,"usersCount":380,"tipCount":10,"visitsCount":1421,"url":"http://tigertomsomaha.com","tier":"","message":"","currency":"","rating":7.2},{"name":"Twin Peaks Restaurant","phone":"4023338001","address":"17330 W Center Rd","lat":41.234759,"lng":-96.18540143,"neighborhood":"West Omaha","city_fetched":"Omaha","state":"NE","country":"United States","canonicalUrl":"https://foursquare.com/v/twin-peaks-restaurant/4d9112c6608fa1cd5ec89083","category":"Sports Bar","checkinsCount":6014,"usersCount":2169,"tipCount":25,"visitsCount":6465,"url":"http://www.twinpeaksrestaurant.com","tier":2,"message":"Moderate","currency":"$","rating":7.1},{"name":"Chrome Lounge","phone":"4023398660","address":"8552 Park Dr","lat":41.20269928834607,"lng":-96.04436257759524,"city_fetched":"Omaha","state":"NE","country":"United States","canonicalUrl":"https://foursquare.com/v/chrome-lounge/4ad4f295f964a520befe20e3","category":"Beer Garden","checkinsCount":851,"usersCount":402,"tipCount":5,"visitsCount":925,"tier":"","message":"","currency":"","rating":7.1},{"name":"Finnegan's Pub & Grill","phone":"4023336181","address":"4309 S 120th St","lat":41.21735379431155,"lng":-96.09940552070115,"neighborhood":"Millard","city_fetched":"Omaha","state":"NE","country":"United States","canonicalUrl":"https://foursquare.com/v/finnegans-pub--grill/4baecbc4f964a520bad83be3","category":"Pub","checkinsCount":1320,"usersCount":530,"tipCount":7,"visitsCount":1609,"tier":1,"message":"Cheap","currency":"$","rating":7.1},{"name":"Burke's Pub","phone":"4025581365","address":"6117 Maple St","lat":41.284985254944914,"lng":-96.00801512685383,"neighborhood":"Maple Street Corridor","city_fetched":"Omaha","state":"NE","country":"United States","canonicalUrl":"https://foursquare.com/v/burkes-pub/4b647f25f964a52013b82ae3","category":"Pub","checkinsCount":1858,"usersCount":667,"tipCount":11,"visitsCount":1895,"tier":1,"message":"Cheap","currency":"$","rating":7.1},{"name":"Down Under Bar","address":"3805 Leavenworth St","lat":41.25256296724877,"lng":-95.9648439519206,"neighborhood":"Southeast Omaha","city_fetched":"Omaha","state":"NE","country":"United States","canonicalUrl":"https://foursquare.com/v/down-under-bar/4be61573cf200f479635143c","category":"Bar","checkinsCount":249,"usersCount":167,"tipCount":5,"visitsCount":353,"tier":"","message":"","currency":"","rating":7.1},{"name":"Rookies Bar & Grill","phone":"4024930351","address":"1702 N 120th St","lat":41.27559505930368,"lng":-96.1018940689266,"neighborhood":"West Omaha","city_fetched":"Omaha","state":"NE","country":"United States","canonicalUrl":"https://foursquare.com/v/rookies-bar--grill/4bba6c44935e95213c232890","category":"Bar","checkinsCount":1431,"usersCount":312,"tipCount":6,"visitsCount":1549,"url":"http://rookiespub.com","tier":1,"message":"Cheap","currency":"$","rating":7.1},{"name":"The Hive Lounge","phone":"4025044929","twitter":"hiveloungeomaha","address":"1951 Saint Marys Ave","lat":41.256585720316366,"lng":-95.9324393021216,"neighborhood":"Old Market","city_fetched":"Omaha","state":"NE","country":"United States","canonicalUrl":"https://foursquare.com/v/the-hive-lounge/4de52bb3d164df85753b95b3","category":"Bar","checkinsCount":1292,"usersCount":652,"tipCount":30,"visitsCount":1323,"url":"http://www.thehiveomaha.com","tier":"","message":"","currency":"","rating":7.1},{"name":"Dr. Jacks Drinkery","address":"3014 Maple St.","lat":41.28644850530595,"lng":-96.07256563628188,"neighborhood":"Maple Village","city_fetched":"Omaha","state":"NE","country":"United States","canonicalUrl":"https://foursquare.com/v/dr-jacks-drinkery/51a50973498e3a8303029426","category":"Bar","checkinsCount":113,"usersCount":49,"tipCount":5,"visitsCount":119,"tier":"","message":"","currency":"","rating":7.1},{"name":"Glo Lounge","phone":"4023424505","address":"3201 Farnam St","lat":41.25770463463885,"lng":-95.96033237524657,"neighborhood":"Midtown","city_fetched":"Omaha","state":"NE","country":"United States","canonicalUrl":"https://foursquare.com/v/glo-lounge/4af4e168f964a52035f721e3","category":"Lounge","checkinsCount":2017,"usersCount":514,"tipCount":11,"visitsCount":2021,"tier":"","message":"","currency":"","rating":7.1},{"name":"Cheeseburger in Paradise","phone":"4022894210","twitter":"cometoparadise","address":"17304 Davenport St Ste 100","lat":41.26139122,"lng":-96.18584729,"neighborhood":"West Omaha","city_fetched":"Omaha","state":"NE","country":"United States","canonicalUrl":"https://foursquare.com/v/cheeseburger-in-paradise/4b37a400f964a520824325e3","category":"Burger Joint","checkinsCount":4915,"usersCount":2577,"tipCount":36,"visitsCount":5118,"url":"http://t.co/dy5nvw8gq8","tier":2,"message":"Moderate","currency":"$","rating":7.1},{"name":"Library Pub","phone":"4025716262","address":"9101 Redman Plaza","lat":41.304931,"lng":-96.053365,"neighborhood":"Maple Village","city_fetched":"Omaha","state":"NE","country":"United States","canonicalUrl":"https://foursquare.com/v/library-pub/4b514721f964a520994927e3","category":"Pub","checkinsCount":1363,"usersCount":510,"tipCount":14,"visitsCount":1530,"url":"http://librarypubomaha.com","tier":"","message":"","currency":"","rating":7},{"name":"Cove Lounge & Grille","phone":"4029323135","twitter":"thecoveomaha","address":"3525 N 147th St #201","lat":41.29067363821312,"lng":-96.14015579223633,"city_fetched":"Omaha","state":"NE","country":"United States","canonicalUrl":"https://foursquare.com/v/cove-lounge--grille/4b65142cf964a52025e32ae3","category":"Lounge","checkinsCount":1597,"usersCount":566,"tipCount":13,"visitsCount":1686,"url":"http://www.thecoveomaha.com","tier":"","message":"","currency":"","rating":7},{"name":"The Union Pizzeria & Sports Bar","address":"3636 N 156th St","lat":41.291335816059835,"lng":-96.1587442556278,"city_fetched":"Omaha","state":"NE","country":"United States","canonicalUrl":"https://foursquare.com/v/the-union-pizzeria--sports-bar/5414eca2498e038f806d510c","category":"Bar","checkinsCount":248,"usersCount":193,"tipCount":6,"visitsCount":397,"tier":"","message":"","currency":"","rating":7},{"name":"Beer City Bar","phone":"4027334782","address":"4147 L St","lat":41.21242578333333,"lng":-95.97599321,"city_fetched":"Omaha","state":"NE","country":"United States","canonicalUrl":"https://foursquare.com/v/beer-city-bar/4b833841f964a520fefd30e3","category":"Karaoke Bar","checkinsCount":552,"usersCount":289,"tipCount":8,"visitsCount":628,"url":"http://www.beercitybar.com","tier":"","message":"","currency":"","rating":7},{"name":"Blind Dave's Bar","phone":"4028959990","address":"5082 S 136th St","lat":41.20561,"lng":-96.12239956855774,"neighborhood":"Millard","city_fetched":"Omaha","state":"NE","country":"United States","canonicalUrl":"https://foursquare.com/v/blind-daves-bar/4d07fef00ead8cfa62fcec76","category":"Dive Bar","checkinsCount":550,"usersCount":161,"tipCount":4,"visitsCount":587,"tier":"","message":"","currency":"","rating":7},{"name":"The Nest Lounge","phone":"4023304855","address":"2638 S 158th Plz","lat":41.23432330910426,"lng":-96.16322908003092,"neighborhood":"West Omaha","city_fetched":"Omaha","state":"NE","country":"United States","canonicalUrl":"https://foursquare.com/v/the-nest-lounge/4bca6529511f9521efccafc7","category":"Bar","checkinsCount":684,"usersCount":341,"tipCount":0,"visitsCount":753,"tier":"","message":"","currency":"","rating":6.9},{"name":"Ko-Zee Lounge","phone":"4025728984","address":"5813 N 60th St","lat":41.31169423111191,"lng":-96.00383520126343,"city_fetched":"Omaha","state":"NE","country":"United States","canonicalUrl":"https://foursquare.com/v/kozee-lounge/4c963bfa38dd8cfa7588d962","category":"Bar","checkinsCount":1328,"usersCount":196,"tipCount":4,"visitsCount":1498,"tier":"","message":"","currency":"","rating":6.9},{"name":"Scriptown Brewing Company","lat":41.25791325371011,"lng":-95.97303172119635,"neighborhood":"Nebraska Medical Center","city_fetched":"Omaha","state":"NE","country":"United States","canonicalUrl":"https://foursquare.com/v/scriptown-brewing-company/544588c4498e1a99f77832ed","category":"Brewery","checkinsCount":310,"usersCount":182,"tipCount":3,"visitsCount":343,"tier":"","message":"","currency":"","rating":6.9},{"name":"The Nifty Bar","phone":"4029339300","address":"4721 NW Radial Hwy","lat":41.28114627643254,"lng":-95.98486102478286,"city_fetched":"Omaha","state":"NE","country":"United States","canonicalUrl":"https://foursquare.com/v/the-nifty-bar/4b1dd6a6f964a520cd1524e3","category":"Bar","checkinsCount":1180,"usersCount":241,"tipCount":14,"visitsCount":1374,"tier":"","message":"","currency":"","rating":6.9},{"name":"Choo Choo Bar & Grill","phone":"4028956617","twitter":"choochoobarne","address":"14240 U St","lat":41.202789306640625,"lng":-96.13639068603516,"neighborhood":"Millard","city_fetched":"Omaha","state":"NE","country":"United States","canonicalUrl":"https://foursquare.com/v/choo-choo-bar--grill/4ff09f55e4b05e4a2ef361bc","category":"American Restaurant","checkinsCount":867,"usersCount":274,"tipCount":8,"visitsCount":998,"url":"http://www.choochoobarandgrill.com","tier":1,"message":"Cheap","currency":"$","rating":6.9},{"name":"DJ's Dugout","phone":"4024988855","twitter":"djsdugout","address":"777 N 114th St","lat":41.26633869968184,"lng":-96.0902541203006,"neighborhood":"West Omaha","city_fetched":"Omaha","state":"NE","country":"United States","canonicalUrl":"https://foursquare.com/v/djs-dugout/55e342a0498e95ee49729926","category":"Sports Bar","checkinsCount":240,"usersCount":191,"tipCount":3,"visitsCount":424,"url":"http://djsdugout.com","tier":"","message":"","currency":"","rating":6.9},{"name":"Mai Tai Lounge","phone":"4023975049","address":"7215 Blondo St","lat":41.27735241675138,"lng":-96.02478579286323,"neighborhood":"Central Omaha","city_fetched":"Omaha","state":"NE","country":"United States","canonicalUrl":"https://foursquare.com/v/mai-tai-lounge/4af4f7a2f964a520bdf721e3","category":"Lounge","checkinsCount":653,"usersCount":457,"tipCount":10,"visitsCount":663,"tier":3,"message":"Expensive","currency":"$","rating":6.9},{"name":"Leavenworth Bar","phone":"4025514850","address":"4556 Leavenworth St","lat":41.25259551,"lng":-95.982858,"neighborhood":"Nebraska Medical Center","city_fetched":"Omaha","state":"NE","country":"United States","canonicalUrl":"https://foursquare.com/v/leavenworth-bar/4b70ba48f964a520cf2b2de3","category":"Bar","checkinsCount":973,"usersCount":239,"tipCount":6,"visitsCount":999,"tier":"","message":"","currency":"","rating":6.8},{"name":"Holiday Lounge","phone":"4023914442","address":"7846 Dodge St","lat":41.26021580113945,"lng":-96.0378448979723,"neighborhood":"Central Omaha","city_fetched":"Omaha","state":"NE","country":"United States","canonicalUrl":"https://foursquare.com/v/holiday-lounge/4b52b14ff964a520198627e3","category":"Bar","checkinsCount":1322,"usersCount":603,"tipCount":9,"visitsCount":1354,"tier":"","message":"","currency":"","rating":6.8}]