[{"name":"My Father's Place","phone":"6074321280","address":"5690 State Highway 7","lat":42.46392633498908,"lng":-75.00918748435045,"city_fetched":"Oneonta,US","state":"NY","country":"United States","canonicalUrl":"https://foursquare.com/v/my-fathers-place/4e28e6b7b0fba988bb715fe2","categoryId":"4bf58dd8d48988d116941735","category":"Bar","checkinsCount":481,"usersCount":102,"tipCount":11,"visitsCount":513,"url":"http://myfathersplaceoneonta.com","tier":"","message":"","currency":"","rating":7.7},{"name":"The Red Jug","address":"195 Main St","lat":42.45412228838742,"lng":-75.06165936325627,"city_fetched":"Oneonta,US","state":"NY","country":"United States","canonicalUrl":"https://foursquare.com/v/the-red-jug/51328dd7e4b0c827f72bf5e3","categoryId":"4bf58dd8d48988d116941735","category":"Bar","checkinsCount":609,"usersCount":235,"tipCount":1,"visitsCount":689,"tier":"","message":"","currency":"","rating":7},{"name":"Sip & Sail Tavern","phone":"6074332900","address":"Water Street","lat":42.453311413325586,"lng":-75.06222973928963,"city_fetched":"Oneonta,US","state":"NY","country":"United States","canonicalUrl":"https://foursquare.com/v/sip--sail-tavern/4cbcb83f7148f04db832e9ab","categoryId":"4bf58dd8d48988d116941735","category":"Bar","checkinsCount":3187,"usersCount":474,"tipCount":10,"visitsCount":3240,"tier":"","message":"","currency":"","rating":6.5},{"name":"Legends Filling Station","phone":"6074413099","address":"84 S Main St","lat":42.451322502121386,"lng":-75.06372981852937,"city_fetched":"Oneonta,US","state":"NY","country":"United States","canonicalUrl":"https://foursquare.com/v/legends-filling-station/4e4e6883bd4101d0d7a9819a","categoryId":"4bf58dd8d48988d116941735","category":"Bar","checkinsCount":670,"usersCount":258,"tipCount":2,"visitsCount":726,"tier":"","message":"","currency":"","rating":6.3},{"name":"Roots Brewing Company","address":"175 Main St","lat":42.45373203480796,"lng":-75.06240655544619,"city_fetched":"Oneonta,US","state":"NY","country":"United States","canonicalUrl":"https://foursquare.com/v/roots-brewing-company/53e6824b498ed822e0710929","categoryId":"50327c8591d4c4b30a586d5d","category":"Brewery","checkinsCount":84,"usersCount":64,"tipCount":3,"visitsCount":90,"tier":"","message":"","currency":"","rating":6.1},{"name":"Black Oak Tavern","phone":"6074329566","address":"14 Water St","lat":42.452910145388856,"lng":-75.06291418783968,"city_fetched":"Oneonta,US","state":"NY","country":"United States","canonicalUrl":"https://foursquare.com/v/black-oak-tavern/4c45124fdcd61b8d42507c56","categoryId":"4bf58dd8d48988d116941735","category":"Bar","checkinsCount":586,"usersCount":279,"tipCount":5,"visitsCount":605,"tier":"","message":"","currency":"","rating":6},{"name":"Jimmy T's","address":"222 Main St","lat":42.454082505973496,"lng":-75.06092357516354,"city_fetched":"Oneonta,US","state":"NY","country":"United States","canonicalUrl":"https://foursquare.com/v/jimmy-ts/50428a3ee4b09fb67b30df65","categoryId":"4bf58dd8d48988d11e941735","category":"Cocktail Bar","checkinsCount":255,"usersCount":103,"tipCount":5,"visitsCount":263,"tier":"","message":"","currency":"","rating":5.9},{"name":"Copper Fox","phone":"6074323705","address":"7 Market St","lat":42.45190126666666,"lng":-75.0632488,"city_fetched":"Oneonta,US","state":"NY","country":"United States","canonicalUrl":"https://foursquare.com/v/copper-fox/4bc9f3d33740b7133fa15f65","categoryId":"4bf58dd8d48988d116941735","category":"Bar","checkinsCount":709,"usersCount":344,"tipCount":6,"visitsCount":786,"url":"http://www.thecopperfox.net","tier":"","message":"","currency":"","rating":5.9}]