[{"name":"The Gnarly Barley","phone":"4078544999","twitter":"gnarlybarley407","address":"7431 S Orange Ave","lat":28.45845170214803,"lng":-81.3654923615348,"city_fetched":"Orlando","state":"FL","country":"United States","canonicalUrl":"https://foursquare.com/v/the-gnarly-barley/4f126305e4b0297e5749e262","category":"Beer Bar","checkinsCount":3575,"usersCount":1446,"tipCount":65,"visitsCount":4376,"url":"http://www.thegnarlybarley.com","tier":1,"message":"Cheap","currency":"$","rating":9.5},{"name":"Total Wine & More","phone":"4078946553","twitter":"totalwine","address":"2712 East Colonial Drive","lat":28.552512,"lng":-81.348464,"neighborhood":"Colonial Town Center","city_fetched":"Orlando","state":"FL","country":"United States","canonicalUrl":"https://foursquare.com/v/total-wine--more/4b05869df964a520f36722e3","category":"Wine Shop","checkinsCount":11797,"usersCount":5005,"tipCount":50,"visitsCount":14049,"url":"http://www.totalwine.com","tier":"","message":"","currency":"","rating":9.5},{"name":"Nona Blue Modern Tavern","phone":"4073130027","twitter":"nonabluetavern","address":"9685 Lake Nona Village Pl","lat":28.425185741841563,"lng":-81.25235383618121,"neighborhood":"Lake Nona","city_fetched":"Orlando","state":"FL","country":"United States","canonicalUrl":"https://foursquare.com/v/nona-blue-modern-tavern/510c1d61e4b0eaff6eda5764","category":"American Restaurant","checkinsCount":2282,"usersCount":1572,"tipCount":53,"visitsCount":3915,"url":"http://www.nonablue.com","tier":2,"message":"Moderate","currency":"$","rating":9.3},{"name":"Yard House","phone":"4073518220","twitter":"yardhouse","address":"8367 International Dr","lat":28.44343901,"lng":-81.46991628,"neighborhood":"I-Drive","city_fetched":"Orlando","state":"FL","country":"United States","canonicalUrl":"https://foursquare.com/v/yard-house/53276e42498ee2957fa357d5","category":"American Restaurant","checkinsCount":4592,"usersCount":3765,"tipCount":80,"visitsCount":6411,"url":"http://www.yardhouse.com","tier":2,"message":"Moderate","currency":"$","rating":9.3},{"name":"Teak Neighborhood Grill","phone":"4073135111","twitter":"teakorlando","address":"6400 Time Square Ave","lat":28.50907860550759,"lng":-81.47040367126465,"neighborhood":"Metro West","city_fetched":"Orlando","state":"FL","country":"United States","canonicalUrl":"https://foursquare.com/teakorlando","category":"American Restaurant","checkinsCount":14062,"usersCount":3509,"tipCount":116,"visitsCount":16236,"url":"http://www.teakorlando.com","tier":2,"message":"Moderate","currency":"$","rating":9.3},{"name":"The Wine Room on Park Avenue","phone":"4076969463","twitter":"wineroomonline","address":"270 S Park Ave","lat":28.596137941303102,"lng":-81.35094965590683,"city_fetched":"Orlando","state":"FL","country":"United States","canonicalUrl":"https://foursquare.com/v/the-wine-room-on-park-avenue/4b058690f964a520036622e3","category":"Wine Bar","checkinsCount":8372,"usersCount":5054,"tipCount":80,"visitsCount":9171,"url":"http://www.thewineroomonline.com","tier":3,"message":"Expensive","currency":"$","rating":9.2},{"name":"Total Wine & More","phone":"4073526330","twitter":"totalwine","address":"4625 Millenia Plaza Way","lat":28.496461,"lng":-81.427427,"neighborhood":"Millenia","city_fetched":"Orlando","state":"FL","country":"United States","canonicalUrl":"https://foursquare.com/v/total-wine--more/4e8de817e5fa18aa8d4bc5f5","category":"Wine Shop","checkinsCount":5398,"usersCount":2982,"tipCount":25,"visitsCount":6611,"url":"http://www.totalwine.com","tier":"","message":"","currency":"","rating":9.2},{"name":"Eddie V's Prime Seafood","phone":"4073553011","twitter":"eddievs","address":"7488 W Sand Lake Rd","lat":28.44986439,"lng":-81.48463547,"city_fetched":"Orlando","state":"FL","country":"United States","canonicalUrl":"https://foursquare.com/v/eddie-vs-prime-seafood/52406269049314797d793a41","category":"Seafood Restaurant","checkinsCount":1056,"usersCount":1052,"tipCount":38,"visitsCount":1391,"url":"http://eddiev.com","tier":"","message":"","currency":"","rating":9.2},{"name":"Café Tu Tu Tango","phone":"4072482222","twitter":"cafetututangofl","address":"8625 International Dr","lat":28.440378047231366,"lng":-81.470082517044,"city_fetched":"Orlando","state":"FL","country":"United States","canonicalUrl":"https://foursquare.com/cafetututangofl","category":"Tapas Restaurant","checkinsCount":13465,"usersCount":8956,"tipCount":205,"visitsCount":15131,"url":"http://www.cafetututango.com","tier":2,"message":"Moderate","currency":"$","rating":9.2},{"name":"The Ravenous Pig","phone":"4076282333","twitter":"ravpig","address":"1234 Orange Ave","lat":28.588030983912457,"lng":-81.36231876501964,"city_fetched":"Orlando","state":"FL","country":"United States","canonicalUrl":"https://foursquare.com/v/the-ravenous-pig/4b30f95ef964a52088fd24e3","category":"Gastropub","checkinsCount":5858,"usersCount":3979,"tipCount":137,"visitsCount":6709,"url":"http://www.theravenouspig.com","tier":2,"message":"Moderate","currency":"$","rating":9.2},{"name":"Corona Cigar Company & Drew Estate Lounge","phone":"4072481212","twitter":"coronacigarco","address":"7792 W Sand Lake Rd","lat":28.448842585030643,"lng":-81.48929346897407,"city_fetched":"Orlando","state":"FL","country":"United States","canonicalUrl":"https://foursquare.com/coronacigarco","category":"Smoke Shop","checkinsCount":4218,"usersCount":1662,"tipCount":38,"visitsCount":4336,"url":"http://www.coronacigar.com","tier":"","message":"","currency":"","rating":9.2},{"name":"Tap & Grind","phone":"4074551100","address":"59 W Central Blvd","lat":28.542000962066847,"lng":-81.38052621963668,"neighborhood":"Central Business District","city_fetched":"Orlando","state":"FL","country":"United States","canonicalUrl":"https://foursquare.com/v/tap--grind/4ee3ea936c25be962ff15e2c","category":"Bar","checkinsCount":2196,"usersCount":776,"tipCount":28,"visitsCount":2288,"url":"http://tapandgrind.com","tier":2,"message":"Moderate","currency":"$","rating":9},{"name":"Moe's Tavern","twitter":"universalorl","address":"Universal Studios Florida","lat":28.478813260633235,"lng":-81.46802333651014,"city_fetched":"Orlando","state":"FL","country":"United States","canonicalUrl":"https://foursquare.com/v/moes-tavern/519fc1fd498e354d07a9d8f9","category":"Bar","checkinsCount":7142,"usersCount":6470,"tipCount":76,"visitsCount":7306,"url":"http://www.universalorlando.com","tier":2,"message":"Moderate","currency":"$","rating":9},{"name":"Corona Cigar Company & Diamond Crown Lounge","phone":"4072481212","twitter":"coronacigarco","address":"121 S Orange Ave","lat":28.541019211178345,"lng":-81.37902296717631,"neighborhood":"Central Business District","city_fetched":"Orlando","state":"FL","country":"United States","canonicalUrl":"https://foursquare.com/v/corona-cigar-company--diamond-crown-lounge/4b298639f964a52061a024e3","category":"Smoke Shop","checkinsCount":4991,"usersCount":2425,"tipCount":39,"visitsCount":5026,"url":"http://www.coronacigar.com","tier":"","message":"","currency":"","rating":9},{"name":"Seasons 52","phone":"4073545212","twitter":"seasons52","address":"7700 W Sand Lake Rd","lat":28.44830872,"lng":-81.4879532,"city_fetched":"Orlando","state":"FL","country":"United States","canonicalUrl":"https://foursquare.com/v/seasons-52/4b05868df964a520a96522e3","category":"New American Restaurant","checkinsCount":6820,"usersCount":5556,"tipCount":99,"visitsCount":8278,"url":"http://seasons52.com","tier":3,"message":"Expensive","currency":"$","rating":9},{"name":"Lil' Indie's","phone":"4078985070","address":"1036 N Mills Ave","lat":28.559839,"lng":-81.364606,"neighborhood":"Park Lake- Highland","city_fetched":"Orlando","state":"FL","country":"United States","canonicalUrl":"https://foursquare.com/v/lil-indies/4e3c81912271d21e86ea176f","category":"Speakeasy","checkinsCount":1478,"usersCount":555,"tipCount":10,"visitsCount":1682,"tier":2,"message":"Moderate","currency":"$","rating":9},{"name":"Geek Easy","phone":"4073329636","twitter":"mygeekeasy","address":"114 S Semoran Blvd Ste 6","lat":28.596240942577804,"lng":-81.30792617797852,"city_fetched":"Orlando","state":"FL","country":"United States","canonicalUrl":"https://foursquare.com/mygeekeasy","category":"Gaming Cafe","checkinsCount":2659,"usersCount":642,"tipCount":29,"visitsCount":2887,"url":"http://www.acomicshop.com/geekeasy.htm","tier":"","message":"","currency":"","rating":9},{"name":"Olive Garden","phone":"4078510344","twitter":"olivegarden","address":"1555 Sand Lake Rd","lat":28.45097519495656,"lng":-81.39939488391684,"city_fetched":"Orlando","state":"FL","country":"United States","canonicalUrl":"https://foursquare.com/v/olive-garden/4b05868cf964a5208f6522e3","category":"Italian Restaurant","checkinsCount":3537,"usersCount":3125,"tipCount":42,"visitsCount":4482,"url":"http://www.olivegarden.com/italian-restaurant/fl/orlando/1084/?cmpid=og_ll_google&cmpid=og_ll_%20foursquare","tier":2,"message":"Moderate","currency":"$","rating":9},{"name":"Hard Rock Cafe Orlando","phone":"4073517625","twitter":"hardrock","address":"6050 Universal Blvd","lat":28.473746450090992,"lng":-81.46724939346313,"city_fetched":"Orlando","state":"FL","country":"United States","canonicalUrl":"https://foursquare.com/v/hard-rock-cafe-orlando/4b058690f964a5200f6622e3","category":"Theme Restaurant","checkinsCount":32151,"usersCount":28468,"tipCount":332,"visitsCount":35145,"url":"http://www.facebook.com/hardrock","tier":3,"message":"Expensive","currency":"$","rating":9},{"name":"K Restaurant and Wine Bar","phone":"4076499770","twitter":"cheffonzo","address":"1710 Edgewater Dr","lat":28.567076945745438,"lng":-81.38960952859073,"neighborhood":"College Park","city_fetched":"Orlando","state":"FL","country":"United States","canonicalUrl":"https://foursquare.com/v/k-restaurant-and-wine-bar/4b05868cf964a5206d6522e3","category":"Wine Bar","checkinsCount":1471,"usersCount":1013,"tipCount":46,"visitsCount":1719,"url":"http://kwinebar.com","tier":"","message":"","currency":"","rating":9},{"name":"Eola Wine Co.","phone":"4074819100","twitter":"eolawinecodt","address":"500 E Central Blvd","lat":28.54239293582754,"lng":-81.37160827772544,"neighborhood":"South Eola","city_fetched":"Orlando","state":"FL","country":"United States","canonicalUrl":"https://foursquare.com/v/eola-wine-co/4aa1cb1df964a5209a4120e3","category":"Wine Bar","checkinsCount":3927,"usersCount":1904,"tipCount":32,"visitsCount":4007,"url":"http://www.eolawinecompany.com","tier":2,"message":"Moderate","currency":"$","rating":9},{"name":"The Imperial at Washburn","phone":"4072284403","address":"1800 N Orange Ave","lat":28.567830770903008,"lng":-81.37304187635691,"neighborhood":"North Orange","city_fetched":"Orlando","state":"FL","country":"United States","canonicalUrl":"https://foursquare.com/v/the-imperial-at-washburn/4b3bad83f964a5209d7825e3","category":"Bar","checkinsCount":4684,"usersCount":2025,"tipCount":35,"visitsCount":5296,"url":"http://imperialwinebar.com","tier":2,"message":"Moderate","currency":"$","rating":8.9},{"name":"SAK Comedy Lab","phone":"4076480001","twitter":"sakcomedylab","address":"29 S Orange Ave","lat":28.541373187647824,"lng":-81.37885653383135,"neighborhood":"Central Business District","city_fetched":"Orlando","state":"FL","country":"United States","canonicalUrl":"https://foursquare.com/v/sak-comedy-lab/4bb4f592310276b0b898cf90","category":"Comedy Club","checkinsCount":5324,"usersCount":1716,"tipCount":31,"visitsCount":5391,"url":"http://www.sak.com","tier":"","message":"","currency":"","rating":8.9},{"name":"Brick House Tavern + Tap","phone":"4073550321","address":"8440 International Dr","lat":28.443623031647746,"lng":-81.47091904311696,"city_fetched":"Orlando","state":"FL","country":"United States","canonicalUrl":"https://foursquare.com/v/brick-house-tavern--tap/4cffe4ee21ea6ea87d1d3f9f","category":"American Restaurant","checkinsCount":10219,"usersCount":6749,"tipCount":153,"visitsCount":11235,"url":"http://brickhousetavernandtap.com","tier":2,"message":"Moderate","currency":"$","rating":8.9},{"name":"White Wolf Cafe & Bar","phone":"4078959911","twitter":"whitewolfcafe","address":"1829 North Orange Avenue","lat":28.57053,"lng":-81.37267,"neighborhood":"North Orange","city_fetched":"Orlando","state":"FL","country":"United States","canonicalUrl":"https://foursquare.com/v/white-wolf-cafe--bar/4b05868cf964a520746522e3","category":"Restaurant","checkinsCount":6006,"usersCount":3438,"tipCount":93,"visitsCount":6315,"url":"http://www.whitewolfcafe.com/#6YYAX","tier":2,"message":"Moderate","currency":"$","rating":8.9},{"name":"Player 1 Video Game Bar","phone":"4075047521","twitter":"player1orlando","address":"8562 Palm Pkwy","lat":28.384273766014616,"lng":-81.50158526980125,"neighborhood":"Vista Center","city_fetched":"Orlando","state":"FL","country":"United States","canonicalUrl":"https://foursquare.com/v/player-1-video-game-bar/5168675de4b0383aca86809a","category":"Arcade","checkinsCount":3026,"usersCount":1859,"tipCount":38,"visitsCount":3800,"url":"http://player1orlando.com","tier":"","message":"","currency":"","rating":8.9},{"name":"Oblivion Taproom","phone":"4077044757","twitter":"obliviontaproom","address":"5101 E Colonial Dr","lat":28.554119448412425,"lng":-81.32245232666943,"city_fetched":"Orlando","state":"FL","country":"United States","canonicalUrl":"https://foursquare.com/v/oblivion-taproom/4cdbf8e2930af04de5a28d97","category":"Bar","checkinsCount":7440,"usersCount":2753,"tipCount":119,"visitsCount":8437,"url":"http://obliviontaproom.com","tier":2,"message":"Moderate","currency":"$","rating":8.9},{"name":"Pharmacy","phone":"4079852972","address":"8060 Via Dellagio Way","lat":28.45047200443496,"lng":-81.49483119192504,"city_fetched":"Orlando","state":"FL","country":"United States","canonicalUrl":"https://foursquare.com/v/pharmacy/5116fdb4e4b034e6d8e3b854","category":"Cocktail Bar","checkinsCount":1437,"usersCount":1213,"tipCount":37,"visitsCount":1729,"url":"http://thepharmacyorlando.com","tier":3,"message":"Expensive","currency":"$","rating":8.9},{"name":"Pulse Orlando","phone":"4076493888","twitter":"pulseorlando","address":"1912 S Orange Ave","lat":28.519569457488302,"lng":-81.37667676035655,"neighborhood":"South Orange","city_fetched":"Orlando","state":"FL","country":"United States","canonicalUrl":"https://foursquare.com/v/pulse-orlando/4b42b767f964a5201ed925e3","category":"Gay Bar","checkinsCount":14987,"usersCount":5249,"tipCount":43,"visitsCount":16821,"url":"http://www.pulseorlando.net","tier":1,"message":"Cheap","currency":"$","rating":8.9},{"name":"Redlight Redlight","phone":"4078939832","twitter":"redlightx2","address":"2810 Corrine Dr","lat":28.567581176974976,"lng":-81.34766578674316,"neighborhood":"Audubon Park","city_fetched":"Orlando","state":"FL","country":"United States","canonicalUrl":"https://foursquare.com/v/redlight-redlight/4b36c24df964a520f73b25e3","category":"Bar","checkinsCount":9511,"usersCount":3297,"tipCount":83,"visitsCount":10142,"url":"http://redlightredlightbeerparlour.com","tier":1,"message":"Cheap","currency":"$","rating":8.9},{"name":"Ollie's Public House","phone":"4079998934","twitter":"olliesorlando","address":"3400 Edgewater Dr","lat":28.582281907517228,"lng":-81.39020538157449,"neighborhood":"College Park","city_fetched":"Orlando","state":"FL","country":"United States","canonicalUrl":"https://foursquare.com/olliesorlando","category":"Pub","checkinsCount":3863,"usersCount":1328,"tipCount":27,"visitsCount":4793,"url":"http://olliespublichouse.com","tier":2,"message":"Moderate","currency":"$","rating":8.9},{"name":"The Harp & Celt Restaurant & Irish Pub","phone":"4074812928","twitter":"theceltpub","address":"25 S Magnolia Ave","lat":28.54157830855772,"lng":-81.37739083094418,"neighborhood":"Central Business District","city_fetched":"Orlando","state":"FL","country":"United States","canonicalUrl":"https://foursquare.com/v/the-harp--celt-restaurant--irish-pub/4b058690f964a5201c6622e3","category":"Pub","checkinsCount":6290,"usersCount":2509,"tipCount":59,"visitsCount":6633,"url":"http://www.harpandcelt.com","tier":2,"message":"Moderate","currency":"$","rating":8.9},{"name":"Nona Tap Room","phone":"4074404594","twitter":"nonataproom","address":"9145 Narcoossee Rd","lat":28.43473227476625,"lng":-81.25636010924671,"neighborhood":"LaVina","city_fetched":"Orlando","state":"FL","country":"United States","canonicalUrl":"https://foursquare.com/v/nona-tap-room/4c880e997223b1f7648528a8","category":"Sports Bar","checkinsCount":4741,"usersCount":1380,"tipCount":49,"visitsCount":5758,"url":"http://nonataproom.com","tier":2,"message":"Moderate","currency":"$","rating":8.9},{"name":"Dragonfly Robata Grill & Sushi","phone":"4073703359","twitter":"dflyorlando","address":"7972 Via Dellagio Way","lat":28.45178,"lng":-81.49449,"city_fetched":"Orlando","state":"FL","country":"United States","canonicalUrl":"https://foursquare.com/v/dragonfly-robata-grill--sushi/4c46442cf1d80f47ed8aa33c","category":"Japanese Restaurant","checkinsCount":4114,"usersCount":2805,"tipCount":90,"visitsCount":4430,"url":"http://www.dragonflyrestaurants.com/orlando-florida/#p3pqn3","tier":3,"message":"Expensive","currency":"$","rating":8.9},{"name":"Hog's Head","twitter":"universalorl","address":"Wizarding World","lat":28.472614720490967,"lng":-81.47280693054199,"city_fetched":"Orlando","state":"FL","country":"United States","canonicalUrl":"https://foursquare.com/v/hogs-head/4b6a190cf964a52065c72be3","category":"Pub","checkinsCount":8277,"usersCount":6097,"tipCount":114,"visitsCount":8296,"url":"http://www.universalorlando.com","tier":2,"message":"Moderate","currency":"$","rating":8.8},{"name":"Rogue Pub","twitter":"roguepub","address":"3076 Curry Ford Rd","lat":28.523653887474833,"lng":-81.34402102740121,"city_fetched":"Orlando","state":"FL","country":"United States","canonicalUrl":"https://foursquare.com/v/rogue-pub/50f89f95e4b05404c12a9c62","category":"Bar","checkinsCount":764,"usersCount":369,"tipCount":18,"visitsCount":981,"tier":1,"message":"Cheap","currency":"$","rating":8.8},{"name":"Luma on Park","phone":"4075994111","twitter":"luma0npark","address":"290 S Park Ave","lat":28.595992014486335,"lng":-81.35093891433313,"city_fetched":"Orlando","state":"FL","country":"United States","canonicalUrl":"https://foursquare.com/v/luma-on-park/4b05868df964a520af6522e3","category":"Bar","checkinsCount":4309,"usersCount":2360,"tipCount":58,"visitsCount":4364,"url":"http://www.lumaonpark.com","tier":2,"message":"Moderate","currency":"$","rating":8.7},{"name":"Mad Cow Theatre","phone":"4072978788","twitter":"madcowtheatre","address":"54 W Church St","lat":28.540226366498256,"lng":-81.3803544208558,"neighborhood":"Central Business District","city_fetched":"Orlando","state":"FL","country":"United States","canonicalUrl":"https://foursquare.com/v/mad-cow-theatre/4b05869bf964a520a96722e3","category":"Theater","checkinsCount":1522,"usersCount":523,"tipCount":8,"visitsCount":1536,"url":"http://www.madcowtheatre.com","tier":"","message":"","currency":"","rating":8.7},{"name":"World of Beer","phone":"4073553315","address":"7800 Dr Phillips Blvd","lat":28.45054325172374,"lng":-81.48921305374029,"city_fetched":"Orlando","state":"FL","country":"United States","canonicalUrl":"https://foursquare.com/v/world-of-beer/4c9bc7be03133704c6584fd5","category":"Bar","checkinsCount":16698,"usersCount":5627,"tipCount":84,"visitsCount":17427,"url":"http://worldofbeer.com/Locations/DrPhillips","tier":2,"message":"Moderate","currency":"$","rating":8.7},{"name":"Quantum Leap Winery","phone":"4077303082","twitter":"quantumleapwine","address":"1312 Wilfred Drive, Orlando, FL, 32803","lat":28.563012586112134,"lng":-81.3656534542862,"neighborhood":"Park Lake- Highland","city_fetched":"Orlando","state":"FL","country":"United States","canonicalUrl":"https://foursquare.com/v/quantum-leap-winery/506636dae4b0cdb22f5e8418","category":"Wine Bar","checkinsCount":522,"usersCount":445,"tipCount":11,"visitsCount":645,"url":"http://www.quantumleapwinery.com","tier":"","message":"","currency":"","rating":8.7},{"name":"World of Beer","phone":"4072705541","twitter":"woborlando","address":"431 E Central Blvd Ste D","lat":28.542994646155034,"lng":-81.37160827772544,"neighborhood":"South Eola","city_fetched":"Orlando","state":"FL","country":"United States","canonicalUrl":"https://foursquare.com/v/world-of-beer/4fe8f60da17c169244a69bf4","category":"Bar","checkinsCount":2542,"usersCount":1705,"tipCount":14,"visitsCount":3629,"url":"http://worldofbeer.com/Locations/DowntownOrlando","tier":"","message":"","currency":"","rating":8.7},{"name":"Improv Comedy Club and Dinner Theatre","phone":"4074805233","twitter":"improvorlando","address":"9101 International Dr","lat":28.433007522673616,"lng":-81.4700020813569,"city_fetched":"Orlando","state":"FL","country":"United States","canonicalUrl":"https://foursquare.com/v/improv-comedy-club-and-dinner-theatre/4d69a9271b63a1cd61cd422d","category":"Comedy Club","checkinsCount":7008,"usersCount":4141,"tipCount":47,"visitsCount":7169,"url":"http://theimprovorlando.com","tier":"","message":"","currency":"","rating":8.7},{"name":"The Hammered Lamb","phone":"4077043200","address":"1235 N Orange Ave","lat":28.562605930469104,"lng":-81.37295059934449,"neighborhood":"Park Lake- Highland","city_fetched":"Orlando","state":"FL","country":"United States","canonicalUrl":"https://foursquare.com/v/the-hammered-lamb/50f440d0e4b0a0fda42b71fb","category":"Bar","checkinsCount":3532,"usersCount":1926,"tipCount":39,"visitsCount":4954,"url":"http://thehammeredlamb.com","tier":2,"message":"Moderate","currency":"$","rating":8.7},{"name":"CityWalk's Rising Star","phone":"4073638000","twitter":"universalorl","address":"6000 Universal Blvd #717","lat":28.472652445006304,"lng":-81.46542549133301,"city_fetched":"Orlando","state":"FL","country":"United States","canonicalUrl":"https://foursquare.com/v/citywalks-rising-star/4b0dd3abf964a520e05023e3","category":"Karaoke Bar","checkinsCount":6758,"usersCount":4484,"tipCount":41,"visitsCount":6800,"url":"http://www.universalorlando.com","tier":2,"message":"Moderate","currency":"$","rating":8.7},{"name":"Fleming's Prime Steakhouse & Wine Bar","phone":"4076999463","address":"933 N Orlando Ave","lat":28.605604,"lng":-81.365508,"city_fetched":"Orlando","state":"FL","country":"United States","canonicalUrl":"https://foursquare.com/v/flemings-prime-steakhouse--wine-bar/4b05868df964a5209e6522e3","category":"Steakhouse","checkinsCount":1999,"usersCount":1095,"tipCount":14,"visitsCount":2217,"url":"http://www.flemingssteakhouse.com/locations/fl/winter-park","tier":4,"message":"Very Expensive","currency":"$","rating":8.6},{"name":"Duff Gardens","twitter":"universalorl","lat":28.47897860463561,"lng":-81.46811449933469,"city_fetched":"Orlando","state":"FL","country":"United States","canonicalUrl":"https://foursquare.com/v/duff-gardens/51fbde1b498e686ce60ba673","category":"Bar","checkinsCount":1177,"usersCount":881,"tipCount":9,"visitsCount":1184,"url":"http://www.universalorlando.com","tier":"","message":"","currency":"","rating":8.6},{"name":"Duffy's Sports Grill","phone":"4079302960","twitter":"duffysmvp","address":"4158 Conroy Rd","lat":28.490553308327176,"lng":-81.43035833699163,"neighborhood":"Millenia","city_fetched":"Orlando","state":"FL","country":"United States","canonicalUrl":"https://foursquare.com/v/duffys-sports-grill/53dbe024498e4accb669f3d3","category":"Sports Bar","checkinsCount":1142,"usersCount":1093,"tipCount":20,"visitsCount":2000,"url":"http://duffysmvp.com","tier":2,"message":"Moderate","currency":"$","rating":8.6},{"name":"Miller's Ale House","phone":"4073706688","address":"8963 International Dr","lat":28.434944789151384,"lng":-81.47173941135406,"city_fetched":"Orlando","state":"FL","country":"United States","canonicalUrl":"https://foursquare.com/v/millers-ale-house/4b566f12f964a5202f1028e3","category":"Sports Bar","checkinsCount":18334,"usersCount":11538,"tipCount":178,"visitsCount":20951,"url":"http://www.millersalehouse.com","tier":2,"message":"Moderate","currency":"$","rating":8.6},{"name":"BJ's Restaurant and Brewhouse","phone":"4078279105","twitter":"bjsrestaurants","address":"8761 Vineland Ave","lat":28.37549264,"lng":-81.50220168,"city_fetched":"Orlando","state":"FL","country":"United States","canonicalUrl":"https://foursquare.com/v/bjs-restaurant-and-brewhouse/5253305b11d24b95e6bc7fc1","category":"American Restaurant","checkinsCount":2415,"usersCount":3128,"tipCount":53,"visitsCount":4363,"url":"http://t.co/bl46gcjDLN","tier":2,"message":"Moderate","currency":"$","rating":8.6},{"name":"The Woods","phone":"4076508786","address":"49 N Orange Ave","lat":28.543108,"lng":-81.378999,"neighborhood":"Central Business District","city_fetched":"Orlando","state":"FL","country":"United States","canonicalUrl":"https://foursquare.com/v/the-woods/50494dd6e4b02370b590e38b","category":"Bar","checkinsCount":2106,"usersCount":1072,"tipCount":22,"visitsCount":2161,"url":"http://thewoodsorlando.com","tier":2,"message":"Moderate","currency":"$","rating":8.6},{"name":"Cheers","phone":"4072480105","address":"6923 Municipal Dr","lat":28.46175809364685,"lng":-81.45189651324917,"city_fetched":"Orlando","state":"FL","country":"United States","canonicalUrl":"https://foursquare.com/v/cheers/4c621780edd320a1c455ac29","category":"Bar","checkinsCount":10286,"usersCount":1238,"tipCount":31,"visitsCount":10903,"url":"http://cheerssportsbar.com","tier":1,"message":"Cheap","currency":"$","rating":8.6},{"name":"Hanson's Shoe Repair","phone":"4074769446","address":"27 E Pine St","lat":28.54135048541386,"lng":-81.3783787070479,"neighborhood":"Central Business District","city_fetched":"Orlando","state":"FL","country":"United States","canonicalUrl":"https://foursquare.com/v/hansons-shoe-repair/50dfca64e4b0e03a2c464ec0","category":"Bar","checkinsCount":962,"usersCount":667,"tipCount":25,"visitsCount":969,"tier":"","message":"","currency":"","rating":8.6},{"name":"Cobb Plaza Cinema Café 12","phone":"4079825444","twitter":"cobbtheatres","address":"155 S Orange Ave","lat":28.540789704657694,"lng":-81.3789907542992,"neighborhood":"Central Business District","city_fetched":"Orlando","state":"FL","country":"United States","canonicalUrl":"https://foursquare.com/v/cobb-plaza-cinema-caf%C3%A9-12/4b05869bf964a520ae6722e3","category":"Movie Theater","checkinsCount":15915,"usersCount":5806,"tipCount":101,"visitsCount":16623,"url":"http://www.facebook.com/cobbtheatres","tier":"","message":"","currency":"","rating":8.6},{"name":"The Smiling Bison","address":"745 Bennett Rd Orlando‎ Florida‎ 32803 United States","lat":28.555198749825767,"lng":-81.33322937853346,"neighborhood":"Colonial Town Center","city_fetched":"Orlando","state":"FL","country":"United States","canonicalUrl":"https://foursquare.com/v/the-smiling-bison/51fc40d7498e18436fc18c84","category":"Gastropub","checkinsCount":971,"usersCount":709,"tipCount":25,"visitsCount":1250,"url":"http://thesmilingbison.com","tier":3,"message":"Expensive","currency":"$","rating":8.6},{"name":"Will's Pub","phone":"4078985040","twitter":"willspub","address":"1040 N Mills Ave","lat":28.55993296070105,"lng":-81.36463856427679,"neighborhood":"Park Lake- Highland","city_fetched":"Orlando","state":"FL","country":"United States","canonicalUrl":"https://foursquare.com/v/wills-pub/4b2714a6f964a520a58424e3","category":"Pub","checkinsCount":6670,"usersCount":1913,"tipCount":37,"visitsCount":6909,"url":"http://www.willspub.org","tier":1,"message":"Cheap","currency":"$","rating":8.5},{"name":"Ember","phone":"4078495200","twitter":"emberorlando","address":"42 W Central Blvd","lat":28.54199508286076,"lng":-81.38004303457858,"neighborhood":"Central Business District","city_fetched":"Orlando","state":"FL","country":"United States","canonicalUrl":"https://foursquare.com/v/ember/4b05868ff964a520f36522e3","category":"Cocktail Bar","checkinsCount":14514,"usersCount":6047,"tipCount":67,"visitsCount":15875,"url":"http://emberorlando.com","tier":2,"message":"Moderate","currency":"$","rating":8.5},{"name":"Wall Street Plaza","phone":"4078491532","twitter":"wallstplaza","address":"19 N Orange Ave","lat":28.542608219444315,"lng":-81.3786506652832,"neighborhood":"Central Business District","city_fetched":"Orlando","state":"FL","country":"United States","canonicalUrl":"https://foursquare.com/v/wall-street-plaza/4b058693f964a520736622e3","category":"Bar","checkinsCount":12747,"usersCount":5572,"tipCount":24,"visitsCount":12886,"url":"http://www.wallstplaza.net","tier":2,"message":"Moderate","currency":"$","rating":8.5},{"name":"The Social","phone":"4072461419","address":"54 N Orange Ave","lat":28.543175290039724,"lng":-81.37916255615322,"neighborhood":"Central Business District","city_fetched":"Orlando","state":"FL","country":"United States","canonicalUrl":"https://foursquare.com/v/the-social/4adf851ff964a520667b21e3","category":"Music Venue","checkinsCount":9174,"usersCount":4181,"tipCount":58,"visitsCount":9264,"tier":"","message":"","currency":"","rating":8.5},{"name":"Ocean Sun Brewing","phone":"4077455551","address":"3030 Curry Ford Rd","lat":28.523483,"lng":-81.344348,"city_fetched":"Orlando","state":"FL","country":"United States","canonicalUrl":"https://foursquare.com/v/ocean-sun-brewing/56f04ca7498e917f6d216c64","category":"Brewery","checkinsCount":278,"usersCount":146,"tipCount":2,"visitsCount":306,"tier":"","message":"","currency":"","rating":8.5},{"name":"The Courtesy","phone":"4074502041","address":"114 N Orange Ave","lat":28.543779832113437,"lng":-81.37908739288973,"neighborhood":"Central Business District","city_fetched":"Orlando","state":"FL","country":"United States","canonicalUrl":"https://foursquare.com/v/the-courtesy/50551cf8e4b0ff6b62148ccf","category":"Cocktail Bar","checkinsCount":2812,"usersCount":1317,"tipCount":47,"visitsCount":2981,"url":"http://www.thecourtesybar.com","tier":2,"message":"Moderate","currency":"$","rating":8.5},{"name":"Cask & Larder","phone":"3212804200","twitter":"casklarder","address":"565 W Fairbanks Ave","lat":28.59333000311607,"lng":-81.35604099189183,"city_fetched":"Orlando","state":"FL","country":"United States","canonicalUrl":"https://foursquare.com/v/cask--larder/500b30dde4b07957c306d869","category":"Brewery","checkinsCount":4074,"usersCount":2652,"tipCount":82,"visitsCount":4480,"url":"http://www.caskandlarder.com","tier":3,"message":"Expensive","currency":"$","rating":8.5},{"name":"NBC Sports Grill & Brew","phone":"4072243663","address":"6000 Universal Blvd","lat":28.47413374325273,"lng":-81.46587293448565,"city_fetched":"Orlando","state":"FL","country":"United States","canonicalUrl":"https://foursquare.com/v/nbc-sports-grill--brew/56056823498e9d36762fe26c","category":"Sports Bar","checkinsCount":1679,"usersCount":1618,"tipCount":28,"visitsCount":2027,"url":"https://www.universalorlando.com/Restaurants/CityWalk/NBC-Sports-Grill-Brew.aspx","tier":2,"message":"Moderate","currency":"$","rating":8.5},{"name":"Twin Peaks","phone":"4076802811","address":"8350 International Dr","lat":28.44494016051489,"lng":-81.47139072418213,"city_fetched":"Orlando","state":"FL","country":"United States","canonicalUrl":"https://foursquare.com/v/twin-peaks/519aa6e8498e3840fd0dd2f1","category":"Sports Bar","checkinsCount":3615,"usersCount":3152,"tipCount":61,"visitsCount":5533,"url":"http://www.twinpeaksrestaurant.com","tier":2,"message":"Moderate","currency":"$","rating":8.5},{"name":"Avenue Gastrobar","phone":"4078395039","twitter":"avenuegastrobar","address":"13 S Orange Ave","lat":28.541745839843465,"lng":-81.37894034385681,"neighborhood":"Central Business District","city_fetched":"Orlando","state":"FL","country":"United States","canonicalUrl":"https://foursquare.com/avenuegastrobar","category":"Bar","checkinsCount":2356,"usersCount":1308,"tipCount":37,"visitsCount":2422,"url":"http://www.avenuegastrobar.com","tier":2,"message":"Moderate","currency":"$","rating":8.5},{"name":"Lizzy McCormack's Irish Bar","phone":"4074268007","twitter":"lizzymccormacks","address":"55 N Orange Ave","lat":28.543160257318736,"lng":-81.37890485322698,"neighborhood":"Central Business District","city_fetched":"Orlando","state":"FL","country":"United States","canonicalUrl":"https://foursquare.com/v/lizzy-mccormacks-irish-bar/4b05868ef964a520ce6522e3","category":"Pub","checkinsCount":7152,"usersCount":2330,"tipCount":40,"visitsCount":7232,"url":"http://www.lizzymccormacks.com","tier":1,"message":"Cheap","currency":"$","rating":8.5},{"name":"BJ's Restaurant and Brewhouse","phone":"4073520225","twitter":"bjsrestaurants","address":"4151 Conroy Rd","lat":28.48871915,"lng":-81.42857707,"neighborhood":"Millenia","city_fetched":"Orlando","state":"FL","country":"United States","canonicalUrl":"https://foursquare.com/v/bjs-restaurant-and-brewhouse/4b1eccc4f964a520b21f24e3","category":"American Restaurant","checkinsCount":12146,"usersCount":6816,"tipCount":136,"visitsCount":13394,"url":"http://t.co/bl46gcjDLN","tier":2,"message":"Moderate","currency":"$","rating":8.5},{"name":"Dexter's","phone":"4076482777","twitter":"dexterstp","address":"808 E Washington St","lat":28.543572114941377,"lng":-81.36717844882271,"neighborhood":"Thornton Park","city_fetched":"Orlando","state":"FL","country":"United States","canonicalUrl":"https://foursquare.com/v/dexters/4b05868cf964a5206f6522e3","category":"American Restaurant","checkinsCount":11235,"usersCount":5188,"tipCount":102,"visitsCount":12295,"url":"http://www.dexwine.com","tier":2,"message":"Moderate","currency":"$","rating":8.5},{"name":"Margaritaville","phone":"4072242155","twitter":"margaritaville","address":"6000 Universal Studios Plaza, Suite 704","lat":28.47259063583042,"lng":-81.466511090095,"city_fetched":"Orlando","state":"FL","country":"United States","canonicalUrl":"https://foursquare.com/v/margaritaville/4b05868cf964a5207c6522e3","category":"American Restaurant","checkinsCount":29672,"usersCount":22999,"tipCount":258,"visitsCount":30243,"url":"http://www.margaritavilleorlando.com","tier":2,"message":"Moderate","currency":"$","rating":8.5},{"name":"BART","phone":"4077962522","twitter":"bartcade","address":"1205 N Mills Ave","lat":28.561483,"lng":-81.364298,"neighborhood":"Colonialtown North","city_fetched":"Orlando","state":"FL","country":"United States","canonicalUrl":"https://foursquare.com/bartcade","category":"Bar","checkinsCount":1598,"usersCount":887,"tipCount":15,"visitsCount":1825,"url":"http://www.bartcade.com","tier":2,"message":"Moderate","currency":"$","rating":8.5},{"name":"Kres Chophouse","phone":"4074097227","twitter":"kres_chophouse","address":"17 W Church St","lat":28.540336,"lng":-81.379372,"neighborhood":"Central Business District","city_fetched":"Orlando","state":"FL","country":"United States","canonicalUrl":"https://foursquare.com/v/kres-chophouse/4b058697f964a520206722e3","category":"Steakhouse","checkinsCount":2042,"usersCount":1445,"tipCount":34,"visitsCount":2060,"url":"http://kresrestaurant.com","tier":3,"message":"Expensive","currency":"$","rating":8.4},{"name":"Tanqueray's Bar & Grille","phone":"4076498540","address":"100 S Orange Ave","lat":28.54127559311567,"lng":-81.379119605726,"neighborhood":"Central Business District","city_fetched":"Orlando","state":"FL","country":"United States","canonicalUrl":"https://foursquare.com/v/tanquerays-bar--grille/4b058696f964a520f36622e3","category":"Lounge","checkinsCount":4331,"usersCount":2061,"tipCount":43,"visitsCount":4372,"tier":2,"message":"Moderate","currency":"$","rating":8.4},{"name":"Tin Roof","phone":"4072707926","twitter":"tinrooforlando","address":"8371 International Dr","lat":28.443598926801823,"lng":-81.46956772716787,"city_fetched":"Orlando","state":"FL","country":"United States","canonicalUrl":"https://foursquare.com/v/tin-roof/54a32b24498e51ca1d585c83","category":"Bar","checkinsCount":1023,"usersCount":691,"tipCount":9,"visitsCount":1137,"url":"http://www.tinrooforlando.com","tier":"","message":"","currency":"","rating":8.4},{"name":"Q Karaoke and Billiards","phone":"4074768280","twitter":"qkaraoke","address":"4519 S Orange Blossom Trl","lat":28.49968856379683,"lng":-81.39694195356897,"city_fetched":"Orlando","state":"FL","country":"United States","canonicalUrl":"https://foursquare.com/v/q-karaoke-and-billiards/4d0c322e257d6dcb883a9467","category":"Bar","checkinsCount":796,"usersCount":239,"tipCount":6,"visitsCount":820,"url":"http://www.qkaraokeandbilliards.com","tier":"","message":"","currency":"","rating":8.4},{"name":"Finnegan's Bar & Grill","twitter":"universalorl","address":"New York","lat":28.4766228749216,"lng":-81.46927982568741,"city_fetched":"Orlando","state":"FL","country":"United States","canonicalUrl":"https://foursquare.com/v/finnegans-bar--grill/4b1ae68af964a52046f423e3","category":"Bar","checkinsCount":8662,"usersCount":5319,"tipCount":94,"visitsCount":8883,"url":"http://www.universalorlando.com","tier":2,"message":"Moderate","currency":"$","rating":8.4},{"name":"The Whiskey","phone":"4079306517","twitter":"whiskeyorlando","address":"7563 W Sand Lake Rd","lat":28.45047754614746,"lng":-81.48610359899854,"neighborhood":"Dr. Phillips","city_fetched":"Orlando","state":"FL","country":"United States","canonicalUrl":"https://foursquare.com/v/the-whiskey/55342bf7498ef98dad9fb577","category":"American Restaurant","checkinsCount":492,"usersCount":363,"tipCount":6,"visitsCount":630,"url":"http://downatthewhiskey.com","tier":2,"message":"Moderate","currency":"$","rating":8.4},{"name":"Miller's Orlando Ale House","phone":"4072404080","address":"1667 Florida Mall Ave","lat":28.444787053222882,"lng":-81.40209999331886,"city_fetched":"Orlando","state":"FL","country":"United States","canonicalUrl":"https://foursquare.com/v/millers-orlando-ale-house/4b63d041f964a520c2922ae3","category":"American Restaurant","checkinsCount":3706,"usersCount":2999,"tipCount":41,"visitsCount":4653,"url":"http://www.millersalehouse.com","tier":2,"message":"Moderate","currency":"$","rating":8.4},{"name":"Fleming's Prime Steakhouse & Wine Bar","phone":"4073525706","address":"8030 Via Dellagio Way","lat":28.450683,"lng":-81.494288,"city_fetched":"Orlando","state":"FL","country":"United States","canonicalUrl":"https://foursquare.com/v/flemings-prime-steakhouse--wine-bar/4b7b3f72f964a520635a2fe3","category":"Steakhouse","checkinsCount":1746,"usersCount":1147,"tipCount":15,"visitsCount":1876,"url":"http://www.flemingssteakhouse.com/locations/fl/orlando","tier":3,"message":"Expensive","currency":"$","rating":8.4},{"name":"310 Lakeside","phone":"4074479310","twitter":"310lakeside","address":"301 E Pine St","lat":28.542042159242094,"lng":-81.3741479302972,"neighborhood":"Central Business District","city_fetched":"Orlando","state":"FL","country":"United States","canonicalUrl":"https://foursquare.com/v/310-lakeside/4ad3a209f964a5204fe520e3","category":"American Restaurant","checkinsCount":6267,"usersCount":2850,"tipCount":42,"visitsCount":7082,"url":"http://www.310parksouth.net","tier":2,"message":"Moderate","currency":"$","rating":8.4},{"name":"Vanbarry's Public House","address":"4120 S Orange Ave","lat":28.497873694088035,"lng":-81.37624724099287,"city_fetched":"Orlando","state":"FL","country":"United States","canonicalUrl":"https://foursquare.com/v/vanbarrys-public-house/532b4e52498eabd4eb7d26a9","category":"American Restaurant","checkinsCount":1094,"usersCount":919,"tipCount":17,"visitsCount":2014,"url":"http://orlandopublichouses.com","tier":"","message":"","currency":"","rating":8.4},{"name":"Cuba Libre Restaurant & Rum Bar","phone":"4072261600","twitter":"cubalibreorl","address":"9101 International Dr","lat":28.431541747242033,"lng":-81.470034255642,"city_fetched":"Orlando","state":"FL","country":"United States","canonicalUrl":"https://foursquare.com/v/cuba-libre-restaurant--rum-bar/4b058690f964a520056622e3","category":"Cuban Restaurant","checkinsCount":5611,"usersCount":4635,"tipCount":70,"visitsCount":5911,"url":"http://www.cubalibrerestaurant.com","tier":3,"message":"Expensive","currency":"$","rating":8.4},{"name":"Carmel Cafe And Wine Bar","phone":"4075134912","twitter":"carmelcafe","address":"17-92","lat":28.598286349415478,"lng":-81.36496075304319,"city_fetched":"Orlando","state":"FL","country":"United States","canonicalUrl":"https://foursquare.com/v/carmel-cafe-and-wine-bar/515d811be4b020711b6c2f9f","category":"Café","checkinsCount":1269,"usersCount":967,"tipCount":33,"visitsCount":1605,"url":"http://carmel-kitchen.com","tier":2,"message":"Moderate","currency":"$","rating":8.4},{"name":"Bento Cafe","phone":"4079998989","address":"151 S Orange Ave","lat":28.54097001203747,"lng":-81.37821764116515,"neighborhood":"Central Business District","city_fetched":"Orlando","state":"FL","country":"United States","canonicalUrl":"https://foursquare.com/v/bento-cafe/4b058697f964a520296722e3","category":"Japanese Restaurant","checkinsCount":9080,"usersCount":3565,"tipCount":86,"visitsCount":9285,"url":"http://www.bentocafesushi.com/orange.html","tier":2,"message":"Moderate","currency":"$","rating":8.4},{"name":"The Matador","address":"724 Virginia Dr","lat":28.563893,"lng":-81.367396,"neighborhood":"Park Lake- Highland","city_fetched":"Orlando","state":"FL","country":"United States","canonicalUrl":"https://foursquare.com/v/the-matador/515511bfe4b05db79c5f090f","category":"Cocktail Bar","checkinsCount":1101,"usersCount":546,"tipCount":10,"visitsCount":1206,"tier":"","message":"","currency":"","rating":8.4},{"name":"The Hen House","phone":"4078499904","twitter":"wallstplaza","address":"11 Wall St","lat":28.542600047732943,"lng":-81.37869546895804,"neighborhood":"Central Business District","city_fetched":"Orlando","state":"FL","country":"United States","canonicalUrl":"https://foursquare.com/v/the-hen-house/4f4e99e6e4b04078842d9452","category":"Bar","checkinsCount":507,"usersCount":253,"tipCount":7,"visitsCount":507,"url":"http://www.wallstplaza.net","tier":"","message":"","currency":"","rating":8.4},{"name":"Miller's Orlando Ale House","phone":"4072480000","twitter":"millersalehouse","address":"5573 S Kirkman Rd","lat":28.481437174654097,"lng":-81.45781874656677,"city_fetched":"Orlando","state":"FL","country":"United States","canonicalUrl":"https://foursquare.com/v/millers-orlando-ale-house/4b68f2ccf964a5206b942be3","category":"Sports Bar","checkinsCount":14893,"usersCount":7522,"tipCount":119,"visitsCount":16364,"url":"http://www.millersalehouse.com","tier":2,"message":"Moderate","currency":"$","rating":8.3},{"name":"The Lodge","twitter":"thelodgeorlando","address":"49 N Orange Ave","lat":28.543094887966763,"lng":-81.37904444242017,"neighborhood":"Central Business District","city_fetched":"Orlando","state":"FL","country":"United States","canonicalUrl":"https://foursquare.com/v/the-lodge/4b058691f964a520326622e3","category":"Bar","checkinsCount":12044,"usersCount":3320,"tipCount":33,"visitsCount":12266,"url":"http://downtownlodge.com","tier":2,"message":"Moderate","currency":"$","rating":8.3},{"name":"Orlando Brewing","phone":"4078721117","twitter":"breworlando","address":"1301 Atlanta Ave","lat":28.52643662647065,"lng":-81.38284546528101,"city_fetched":"Orlando","state":"FL","country":"United States","canonicalUrl":"https://foursquare.com/v/orlando-brewing/4b05868ef964a520cc6522e3","category":"Brewery","checkinsCount":3793,"usersCount":2703,"tipCount":58,"visitsCount":4347,"url":"http://www.orlandobrewing.com/index2.php","tier":2,"message":"Moderate","currency":"$","rating":8.3},{"name":"Claddagh Cottage Irish Pub","phone":"4078951555","address":"4308 Curry Ford Rd","lat":28.52398302020304,"lng":-81.33196949958801,"city_fetched":"Orlando","state":"FL","country":"United States","canonicalUrl":"https://foursquare.com/v/claddagh-cottage-irish-pub/4b058690f964a520006622e3","category":"Pub","checkinsCount":1551,"usersCount":607,"tipCount":18,"visitsCount":1641,"tier":"","message":"","currency":"","rating":8.3},{"name":"Stonewall","phone":"4073730888","address":"741 W Church St","lat":28.54035640970537,"lng":-81.39071534213771,"city_fetched":"Orlando","state":"FL","country":"United States","canonicalUrl":"https://foursquare.com/v/stonewall/4ba17358f964a52019b837e3","category":"Gay Bar","checkinsCount":4152,"usersCount":820,"tipCount":29,"visitsCount":4839,"url":"http://stonewallorlando.com","tier":2,"message":"Moderate","currency":"$","rating":8.3},{"name":"Jimmy John's","phone":"4074235700","twitter":"jimmyjohns","address":"2323 S Orange Ave","lat":28.51616807756869,"lng":-81.37619891991305,"city_fetched":"Orlando","state":"FL","country":"United States","canonicalUrl":"https://foursquare.com/v/jimmy-johns/4b6308a7f964a520d75e2ae3","category":"Sandwich Place","checkinsCount":1724,"usersCount":651,"tipCount":13,"visitsCount":1768,"url":"http://www.jimmyjohns.com","tier":"","message":"","currency":"","rating":8.3},{"name":"T.G.I. Friday's","phone":"4074386713","twitter":"tgifridays","address":"1800 Sand Lake Rd","lat":28.44978807,"lng":-81.40378527,"city_fetched":"Orlando","state":"FL","country":"United States","canonicalUrl":"https://foursquare.com/v/tgi-fridays/4b26859df964a520d47c24e3","category":"American Restaurant","checkinsCount":2706,"usersCount":1985,"tipCount":33,"visitsCount":3273,"url":"http://tgifridays.com","tier":2,"message":"Moderate","currency":"$","rating":8.3},{"name":"One80 Grey Goose Lounge","phone":"4074407180","twitter":"nomadicpr","address":"400 W Church St Ste 200","lat":28.539880324312982,"lng":-81.38320515677944,"city_fetched":"Orlando","state":"FL","country":"United States","canonicalUrl":"https://foursquare.com/v/one80-grey-goose-lounge/4d3a34500333a0939a575234","category":"Lounge","checkinsCount":4412,"usersCount":2618,"tipCount":35,"visitsCount":4481,"url":"http://www.180downtown.com","tier":"","message":"","currency":"","rating":8.3},{"name":"Stardust Lounge","phone":"4078390080","twitter":"stardustorlando","address":"431 E Central Blvd","lat":28.542396697773118,"lng":-81.37154384569367,"neighborhood":"South Eola","city_fetched":"Orlando","state":"FL","country":"United States","canonicalUrl":"https://foursquare.com/v/stardust-lounge/4b1726e5f964a52015c323e3","category":"Lounge","checkinsCount":6061,"usersCount":2297,"tipCount":22,"visitsCount":6111,"url":"http://stardustorlando.com","tier":2,"message":"Moderate","currency":"$","rating":8.3},{"name":"Olive Garden","phone":"4077407117","twitter":"olivegarden","address":"665 N Orlando Ave","lat":28.602994475906094,"lng":-81.36541181503162,"city_fetched":"Orlando","state":"FL","country":"United States","canonicalUrl":"https://foursquare.com/v/olive-garden/4b05868df964a520956522e3","category":"Italian Restaurant","checkinsCount":3263,"usersCount":2100,"tipCount":24,"visitsCount":3781,"url":"http://www.olivegarden.com/italian-restaurant/fl/winter%20park/1275/?cmpid=og_ll_google&cmpid=og_ll_%20foursquare","tier":2,"message":"Moderate","currency":"$","rating":8.3},{"name":"Bar Louie","phone":"4076085190","twitter":"barlouie","address":"7335 West Sand Lake Road, Suite 101","lat":28.450792856727247,"lng":-81.4793481353308,"city_fetched":"Orlando","state":"FL","country":"United States","canonicalUrl":"https://foursquare.com/v/bar-louie/4b0da65ff964a5201f4d23e3","category":"Restaurant","checkinsCount":9431,"usersCount":4395,"tipCount":88,"visitsCount":9824,"url":"http://t.co/6m5uO0JOqN","tier":2,"message":"Moderate","currency":"$","rating":8.3},{"name":"Frank & Steins Eatery & Pub","phone":"4074129230","twitter":"frank_n_steins","address":"150 S Magnolia Ave","lat":28.540377639212572,"lng":-81.37755189857351,"neighborhood":"Central Business District","city_fetched":"Orlando","state":"FL","country":"United States","canonicalUrl":"https://foursquare.com/v/frank--steins-eatery--pub/4e0095561838cb6a1acb01cd","category":"Beer Garden","checkinsCount":7689,"usersCount":3961,"tipCount":52,"visitsCount":8646,"url":"http://frankandsteins.com","tier":2,"message":"Moderate","currency":"$","rating":8.3},{"name":"Velvet Bar","phone":"8888327155","address":"5800 Universal Blvd","lat":28.47704435053317,"lng":-81.464848656663,"city_fetched":"Orlando","state":"FL","country":"United States","canonicalUrl":"https://foursquare.com/v/velvet-bar/4b05868ef964a520c26522e3","category":"Hotel Bar","checkinsCount":1515,"usersCount":905,"tipCount":17,"visitsCount":1524,"url":"http://hardrockhotelorlando.com/dining_and_nightlife/velvet_bar/","tier":"","message":"","currency":"","rating":8.3},{"name":"Lucky Leprechaun Irish Pub","phone":"4073527031","address":"7032 International Dr","lat":28.456918449174115,"lng":-81.47231323266914,"city_fetched":"Orlando","state":"FL","country":"United States","canonicalUrl":"https://foursquare.com/v/lucky-leprechaun-irish-pub/4b05868ff964a520eb6522e3","category":"Karaoke Bar","checkinsCount":956,"usersCount":514,"tipCount":13,"visitsCount":1084,"url":"http://luckyleprechaunirishpub.com","tier":1,"message":"Cheap","currency":"$","rating":8.2},{"name":"Sloppy Taco Palace","phone":"4075746474","address":"4892 S Kirkman Rd","lat":28.49155073297387,"lng":-81.46010398864746,"neighborhood":"Kirkman South","city_fetched":"Orlando","state":"FL","country":"United States","canonicalUrl":"https://foursquare.com/v/sloppy-taco-palace/4b621b0df964a520d0352ae3","category":"Dive Bar","checkinsCount":8567,"usersCount":2282,"tipCount":81,"visitsCount":9290,"url":"http://www.sloppytacopalace.com","tier":1,"message":"Cheap","currency":"$","rating":8.2},{"name":"Friendly Confines","phone":"4074780506","address":"3088 Aloma Ave","lat":28.60331604910113,"lng":-81.30914277906601,"city_fetched":"Orlando","state":"FL","country":"United States","canonicalUrl":"https://foursquare.com/v/friendly-confines/4ac43947f964a520789e20e3","category":"American Restaurant","checkinsCount":6224,"usersCount":2118,"tipCount":30,"visitsCount":7147,"url":"http://myfriendlyconfines.com","tier":2,"message":"Moderate","currency":"$","rating":8.2},{"name":"The Thirsty Topher","phone":"4072709515","twitter":"thirstytopherfl","address":"601 Virginia Dr","lat":28.564227267086814,"lng":-81.36985248539796,"city_fetched":"Orlando","state":"FL","country":"United States","canonicalUrl":"https://foursquare.com/v/the-thirsty-topher/5669cb7a498e603297dc4fe0","category":"Bar","checkinsCount":272,"usersCount":236,"tipCount":2,"visitsCount":503,"tier":"","message":"","currency":"","rating":8.2},{"name":"TGI Fridays","phone":"4073458822","twitter":"tgifridays","address":"6424 Carrier Dr","lat":28.455699824795683,"lng":-81.4690314839865,"city_fetched":"Orlando","state":"FL","country":"United States","canonicalUrl":"https://foursquare.com/v/tgi-fridays/4bb7f14198c7ef3be89e3002","category":"American Restaurant","checkinsCount":4722,"usersCount":3586,"tipCount":50,"visitsCount":5367,"url":"http://tgifridays.com","tier":2,"message":"Moderate","currency":"$","rating":8.2},{"name":"Graffiti Junktion","phone":"4074269503","address":"900 E Washington St","lat":28.543555708424925,"lng":-81.36653408865125,"neighborhood":"Thornton Park","city_fetched":"Orlando","state":"FL","country":"United States","canonicalUrl":"https://foursquare.com/v/graffiti-junktion/4b085027f964a520c60823e3","category":"Burger Joint","checkinsCount":11970,"usersCount":5318,"tipCount":94,"visitsCount":12998,"url":"http://www.graffitijunktion.com","tier":2,"message":"Moderate","currency":"$","rating":8.2},{"name":"Hurricane Grill & Wings","phone":"4079389090","twitter":"hurricaneflavor","address":"13520 State Road 535","lat":28.36961030385353,"lng":-81.50376681489226,"city_fetched":"Orlando","state":"FL","country":"United States","canonicalUrl":"https://foursquare.com/v/hurricane-grill--wings/551f212c498eb45ee213031e","category":"Restaurant","checkinsCount":352,"usersCount":483,"tipCount":10,"visitsCount":674,"tier":2,"message":"Moderate","currency":"$","rating":8.2},{"name":"Lucky Lure","lat":28.56542912283463,"lng":-81.37260159799573,"neighborhood":"North Orange","city_fetched":"Orlando","state":"FL","country":"United States","canonicalUrl":"https://foursquare.com/v/lucky-lure/51ce68b9498ef748677c170a","category":"Bar","checkinsCount":1200,"usersCount":673,"tipCount":10,"visitsCount":1694,"tier":2,"message":"Moderate","currency":"$","rating":8.2},{"name":"The Guesthouse","address":"1321 N Mills Ave","lat":28.562948577969443,"lng":-81.36416601829306,"neighborhood":"Colonialtown North","city_fetched":"Orlando","state":"FL","country":"United States","canonicalUrl":"https://foursquare.com/v/the-guesthouse/55f4e7ee498e1074632fb4d9","category":"Lounge","checkinsCount":309,"usersCount":181,"tipCount":2,"visitsCount":360,"tier":"","message":"","currency":"","rating":8.2},{"name":"Fiddler's Green Irish Pub & Eatery","phone":"4076452050","address":"544 W Fairbanks Ave","lat":28.592885076604674,"lng":-81.35641692097323,"city_fetched":"Orlando","state":"FL","country":"United States","canonicalUrl":"https://foursquare.com/v/fiddlers-green-irish-pub--eatery/4b05868cf964a520796522e3","category":"Pub","checkinsCount":6022,"usersCount":3114,"tipCount":68,"visitsCount":6522,"url":"http://www.fiddlersgreenorlando.com","tier":2,"message":"Moderate","currency":"$","rating":8.2},{"name":"The Hopping Pot","twitter":"universalorl","address":"Diagon Alley","lat":28.479887286449745,"lng":-81.46951410302087,"city_fetched":"Orlando","state":"FL","country":"United States","canonicalUrl":"https://foursquare.com/v/the-hopping-pot/53bc18b2498e186a8456be61","category":"Brewery","checkinsCount":494,"usersCount":410,"tipCount":11,"visitsCount":497,"url":"http://www.universalorlando.com","tier":"","message":"","currency":"","rating":8.2},{"name":"The Thirsty Topher","phone":"4078973655","address":"1609 Alden Rd","lat":28.565644477545543,"lng":-81.37184452804306,"city_fetched":"Orlando","state":"FL","country":"United States","canonicalUrl":"https://foursquare.com/v/the-thirsty-topher/527165c111d2a70318800ae9","category":"Beer Garden","checkinsCount":1013,"usersCount":533,"tipCount":15,"visitsCount":1373,"tier":2,"message":"Moderate","currency":"$","rating":8.2},{"name":"Bob Marley: A Tribute To Freedom","phone":"4073638000","twitter":"universalorl","address":"6000 Universal Blvd","lat":28.473067413785838,"lng":-81.46512508392334,"city_fetched":"Orlando","state":"FL","country":"United States","canonicalUrl":"https://foursquare.com/v/bob-marley-a-tribute-to-freedom/4beded76e24d20a144417214","category":"Caribbean Restaurant","checkinsCount":5854,"usersCount":4603,"tipCount":72,"visitsCount":5886,"url":"http://www.universalorlando.com","tier":2,"message":"Moderate","currency":"$","rating":8.1},{"name":"The Pub Orlando","phone":"4073522305","twitter":"puborlando","address":"9101 International Dr Ste 1003","lat":28.431347181679374,"lng":-81.47025411289047,"city_fetched":"Orlando","state":"FL","country":"United States","canonicalUrl":"https://foursquare.com/v/the-pub-orlando/4f25e539e4b063d40209db0c","category":"Pub","checkinsCount":7652,"usersCount":5484,"tipCount":87,"visitsCount":8084,"url":"http://www.experiencethepub.com","tier":2,"message":"Moderate","currency":"$","rating":8.1},{"name":"The Milk Bar","phone":"4076928501","address":"2424 E Robinson St","lat":28.54581,"lng":-81.350773,"city_fetched":"Orlando","state":"FL","country":"United States","canonicalUrl":"https://foursquare.com/v/the-milk-bar/4bbcaed0f57ba5935310adb9","category":"Beer Garden","checkinsCount":2626,"usersCount":903,"tipCount":24,"visitsCount":2645,"url":"http://themilkbarorlando.com","tier":1,"message":"Cheap","currency":"$","rating":8.1},{"name":"Hannibal's","phone":"4076294865","address":"511 W New England Ave","lat":28.595897,"lng":-81.356391,"city_fetched":"Orlando","state":"FL","country":"United States","canonicalUrl":"https://foursquare.com/v/hannibals/4bef4c0ff2712d7f469dfbd8","category":"Lounge","checkinsCount":422,"usersCount":338,"tipCount":7,"visitsCount":422,"url":"http://hannibalslounge.com","tier":"","message":"","currency":"","rating":8.1},{"name":"Dave & Buster's","phone":"4075413300","twitter":"dnborlando","address":"8986 International Dr","lat":28.436053336073286,"lng":-81.47289276123047,"city_fetched":"Orlando","state":"FL","country":"United States","canonicalUrl":"https://foursquare.com/v/dave--busters/4d0e5d5abdbfa35df69f6e72","category":"American Restaurant","checkinsCount":22826,"usersCount":14492,"tipCount":192,"visitsCount":25760,"url":"http://daveandbusters.com","tier":2,"message":"Moderate","currency":"$","rating":8.1},{"name":"Bikes, Beans & Bordeaux","phone":"4074271440","address":"3022 Corrine Dr","lat":28.567655422707574,"lng":-81.34531012210172,"neighborhood":"Audubon Park","city_fetched":"Orlando","state":"FL","country":"United States","canonicalUrl":"https://foursquare.com/v/bikes-beans--bordeaux/4b058690f964a520fe6522e3","category":"American Restaurant","checkinsCount":2038,"usersCount":960,"tipCount":35,"visitsCount":2378,"url":"http://bikesbeansandbordeaux.com","tier":2,"message":"Moderate","currency":"$","rating":8.1},{"name":"Broken Cauldron Taproom","address":"1012 W Church St","lat":28.540004,"lng":-81.393965,"city_fetched":"Orlando","state":"FL","country":"United States","canonicalUrl":"https://foursquare.com/v/broken-cauldron-taproom/5713b6ac498eb938816313f0","category":"Brewery","checkinsCount":87,"usersCount":107,"tipCount":3,"visitsCount":140,"tier":"","message":"","currency":"","rating":8.1},{"name":"The Brass Tap","lat":28.566092081028206,"lng":-81.36491779461956,"city_fetched":"Orlando","state":"FL","country":"United States","canonicalUrl":"https://foursquare.com/v/the-brass-tap/54c2e2ed498e215fada4bc38","category":"Beer Garden","checkinsCount":1000,"usersCount":633,"tipCount":7,"visitsCount":1490,"tier":"","message":"","currency":"","rating":8.1},{"name":"Barley & Vine Biergarten","phone":"4079300960","address":"2406 E Washington St","lat":28.54403090389748,"lng":-81.35161563052861,"city_fetched":"Orlando","state":"FL","country":"United States","canonicalUrl":"https://foursquare.com/v/barley--vine-biergarten/52b1fd3e11d2ada7a3d24662","category":"Bar","checkinsCount":660,"usersCount":340,"tipCount":13,"visitsCount":795,"url":"http://barleyandvineorlando.com","tier":"","message":"","currency":"","rating":8.1},{"name":"Aku Aku","address":"431 E Central Blvd","lat":28.54247040868944,"lng":-81.37135054927184,"neighborhood":"South Eola","city_fetched":"Orlando","state":"FL","country":"United States","canonicalUrl":"https://foursquare.com/v/aku-aku/52670530498e67e737b73fcf","category":"Bar","checkinsCount":540,"usersCount":296,"tipCount":9,"visitsCount":562,"tier":"","message":"","currency":"","rating":8.1},{"name":"Savoy","phone":"4078986766","twitter":"savoyorlando","address":"1913 N Orange Ave","lat":28.5692015835553,"lng":-81.37260159799573,"neighborhood":"North Orange","city_fetched":"Orlando","state":"FL","country":"United States","canonicalUrl":"https://foursquare.com/v/savoy/4b058691f964a5202f6622e3","category":"Gay Bar","checkinsCount":14298,"usersCount":2572,"tipCount":43,"visitsCount":15222,"url":"http://savoyorlando.com","tier":1,"message":"Cheap","currency":"$","rating":8.1},{"name":"The Abbey","phone":"4077046261","twitter":"theorlandoabbey","address":"100 S Eola Dr","lat":28.541370732395624,"lng":-81.37050755637382,"neighborhood":"South Eola","city_fetched":"Orlando","state":"FL","country":"United States","canonicalUrl":"https://foursquare.com/v/the-abbey/4cae350e9cba9521764a91d9","category":"Cocktail Bar","checkinsCount":2951,"usersCount":1541,"tipCount":23,"visitsCount":3188,"url":"http://abbeyorlando.com","tier":2,"message":"Moderate","currency":"$","rating":8.1},{"name":"Casey's On Central","phone":"4076484218","twitter":"caseysoncentral","address":"50 E Central Blvd #D","lat":28.542055698396318,"lng":-81.37790624616038,"neighborhood":"Central Business District","city_fetched":"Orlando","state":"FL","country":"United States","canonicalUrl":"https://foursquare.com/v/caseys-on-central/4b05868ef964a520c46522e3","category":"Dive Bar","checkinsCount":10968,"usersCount":2624,"tipCount":46,"visitsCount":11311,"url":"http://www.caseysoncentral.com","tier":1,"message":"Cheap","currency":"$","rating":8.1},{"name":"Giraffas","phone":"4077308301","twitter":"giraffasusa","address":"1430 N Mills Ave #170","lat":28.56442075290466,"lng":-81.36494464363716,"city_fetched":"Orlando","state":"FL","country":"United States","canonicalUrl":"https://foursquare.com/v/giraffas/536c31d111d28e1410db69a5","category":"Brazilian Restaurant","checkinsCount":287,"usersCount":141,"tipCount":8,"visitsCount":311,"url":"http://www.giraffas.com/giraffasusa","tier":1,"message":"Cheap","currency":"$","rating":8},{"name":"Parliament House","phone":"4074257571","address":"410 N Orange Blossom Trl","lat":28.547903524516652,"lng":-81.39783996437342,"neighborhood":"Rock Lake","city_fetched":"Orlando","state":"FL","country":"United States","canonicalUrl":"https://foursquare.com/v/parliament-house/4b3ec174f964a520c1a125e3","category":"Resort","checkinsCount":23098,"usersCount":6575,"tipCount":89,"visitsCount":27860,"url":"http://www.parliamenthouse.com","tier":"","message":"","currency":"","rating":8},{"name":"Ten 10 Brewing Company","phone":"4079308993","address":"1010 Virginia Dr","lat":28.564036674382347,"lng":-81.36579843747178,"neighborhood":"Park Lake- Highland","city_fetched":"Orlando","state":"FL","country":"United States","canonicalUrl":"https://foursquare.com/v/ten-10-brewing-company/55ae875f498ed6f72b7159e7","category":"Brewery","checkinsCount":754,"usersCount":547,"tipCount":15,"visitsCount":1174,"url":"http://ten10brewing.com","tier":1,"message":"Cheap","currency":"$","rating":8},{"name":"Florida Tap Room","phone":"4072969690","address":"6409 Raleigh St","lat":28.527106733532786,"lng":-81.47093513006611,"neighborhood":"Metro West","city_fetched":"Orlando","state":"FL","country":"United States","canonicalUrl":"https://foursquare.com/v/florida-tap-room/4b6f77eaf964a520c1f12ce3","category":"Pub","checkinsCount":3319,"usersCount":632,"tipCount":23,"visitsCount":3854,"tier":1,"message":"Cheap","currency":"$","rating":8},{"name":"Thirsty Gator","phone":"4076780148","address":"3040 N Goldenrod Rd","lat":28.584136033839275,"lng":-81.28659134192284,"city_fetched":"Orlando","state":"FL","country":"United States","canonicalUrl":"https://foursquare.com/v/thirsty-gator/4b761f6af964a5203e3e2ee3","category":"Sports Bar","checkinsCount":782,"usersCount":313,"tipCount":21,"visitsCount":870,"url":"http://thirstygator.net","tier":"","message":"","currency":"","rating":8},{"name":"Sea Dog Brewing Co.","phone":"3213295306","address":"8496 Palm Pkwy","lat":28.384611230245696,"lng":-81.49923749227435,"neighborhood":"Vista Center","city_fetched":"Orlando","state":"FL","country":"United States","canonicalUrl":"https://foursquare.com/v/sea-dog-brewing-co/515cbfc3e4b0b53530e6a683","category":"Brewery","checkinsCount":5996,"usersCount":3893,"tipCount":96,"visitsCount":7085,"url":"http://seadogbrewing.com","tier":2,"message":"Moderate","currency":"$","rating":8},{"name":"Cowboys","phone":"4074227115","address":"1108 S Orange Blossom Trl","lat":28.528879994520622,"lng":-81.39757096767426,"city_fetched":"Orlando","state":"FL","country":"United States","canonicalUrl":"https://foursquare.com/v/cowboys/4b10aa9af964a520927423e3","category":"Bar","checkinsCount":9604,"usersCount":3585,"tipCount":31,"visitsCount":10831,"url":"http://www.cowboysorlando.com","tier":2,"message":"Moderate","currency":"$","rating":8},{"name":"B.B. King's Blues Club","phone":"4073704550","twitter":"bbkingsorlando","address":"9101 International Dr","lat":28.432087994374957,"lng":-81.47022193869893,"city_fetched":"Orlando","state":"FL","country":"United States","canonicalUrl":"https://foursquare.com/v/bb-kings-blues-club/4b05868ef964a520c96522e3","category":"Jazz Club","checkinsCount":6158,"usersCount":5154,"tipCount":79,"visitsCount":6255,"url":"http://www.bbkingclubs.com","tier":"","message":"","currency":"","rating":8},{"name":"Tapa Toro","phone":"4072262929","twitter":"tapatoroorlando","address":"8441 International Dr","lat":28.44568,"lng":-81.47094,"city_fetched":"Orlando","state":"FL","country":"United States","canonicalUrl":"https://foursquare.com/v/tapa-toro/54ece606498e7a6fbe2eb098","category":"Spanish Restaurant","checkinsCount":221,"usersCount":204,"tipCount":6,"visitsCount":221,"url":"http://tapatoro.restaurant/#xxJe6x","tier":"","message":"","currency":"","rating":8},{"name":"TGI Fridays","phone":"4075756507","twitter":"tgifridays","address":"8955 International Dr","lat":28.43645666,"lng":-81.47202909,"city_fetched":"Orlando","state":"FL","country":"United States","canonicalUrl":"https://foursquare.com/v/tgi-fridays/4b5a870af964a520d6c928e3","category":"American Restaurant","checkinsCount":6242,"usersCount":4183,"tipCount":41,"visitsCount":6553,"url":"http://tgifridays.com","tier":2,"message":"Moderate","currency":"$","rating":8},{"name":"Friendly Confines","address":"4757 S. Orange Ave.","lat":28.494329766377717,"lng":-81.37409423872873,"city_fetched":"Orlando","state":"FL","country":"United States","canonicalUrl":"https://foursquare.com/v/friendly-confines/52e04fd6498e1e356cbd24dd","category":"American Restaurant","checkinsCount":944,"usersCount":358,"tipCount":9,"visitsCount":1357,"url":"http://myfriendlyconfines.com","tier":2,"message":"Moderate","currency":"$","rating":8},{"name":"Locker Room","phone":"4078986766","address":"1915 N Orange Ave","lat":28.569240465180656,"lng":-81.37262307504791,"neighborhood":"North Orange","city_fetched":"Orlando","state":"FL","country":"United States","canonicalUrl":"https://foursquare.com/v/locker-room/4b9adf64f964a52031de35e3","category":"Gay Bar","checkinsCount":3102,"usersCount":486,"tipCount":9,"visitsCount":3249,"url":"http://lockerroomsavoyorlando.com","tier":1,"message":"Cheap","currency":"$","rating":8},{"name":"Cleo's Lounge","phone":"4078414545","address":"11 S Court Ave","lat":28.541785895882906,"lng":-81.37799084186554,"neighborhood":"Central Business District","city_fetched":"Orlando","state":"FL","country":"United States","canonicalUrl":"https://foursquare.com/v/cleos-lounge/4b0f579bf964a520a16123e3","category":"Bar","checkinsCount":8228,"usersCount":1838,"tipCount":31,"visitsCount":8300,"tier":1,"message":"Cheap","currency":"$","rating":7.9},{"name":"Tommy Bahama's Restaurant & Bar","phone":"3212815888","twitter":"tommybahama","address":"9101 International Dr","lat":28.431453051291737,"lng":-81.47037208480901,"city_fetched":"Orlando","state":"FL","country":"United States","canonicalUrl":"https://foursquare.com/v/tommy-bahamas-restaurant--bar/4a974093f964a520192920e3","category":"American Restaurant","checkinsCount":3738,"usersCount":2794,"tipCount":51,"visitsCount":3933,"url":"http://www.tommybahama.com","tier":2,"message":"Moderate","currency":"$","rating":7.9},{"name":"Dexter's","phone":"4076291150","twitter":"dexterswp","address":"558 W New England Ave","lat":28.595856,"lng":-81.35669068,"city_fetched":"Orlando","state":"FL","country":"United States","canonicalUrl":"https://foursquare.com/v/dexters/4b12e631f964a5206e9023e3","category":"Wine Bar","checkinsCount":4599,"usersCount":3144,"tipCount":47,"visitsCount":5516,"url":"http://winterpark.dexwine.com","tier":2,"message":"Moderate","currency":"$","rating":7.9},{"name":"Loving Hut","phone":"4078945673","twitter":"lovinghutfl","address":"2101 E Colonial Dr","lat":28.553314921384235,"lng":-81.3548218948597,"neighborhood":"Colonialtown North","city_fetched":"Orlando","state":"FL","country":"United States","canonicalUrl":"https://foursquare.com/v/loving-hut/4b12faf7f964a5200c9223e3","category":"Vegetarian / Vegan Restaurant","checkinsCount":879,"usersCount":496,"tipCount":35,"visitsCount":885,"url":"http://www.lovinghut.us/florida/","tier":2,"message":"Moderate","currency":"$","rating":7.9},{"name":"Ceviche Tapas Bar & Restaurant","phone":"3212818140","twitter":"cevichetapas","address":"125 W Church St","lat":28.540489607646496,"lng":-81.38134762720651,"neighborhood":"Central Business District","city_fetched":"Orlando","state":"FL","country":"United States","canonicalUrl":"https://foursquare.com/v/ceviche-tapas-bar--restaurant/4b05868ff964a520d96522e3","category":"Tapas Restaurant","checkinsCount":6986,"usersCount":4812,"tipCount":96,"visitsCount":7027,"url":"http://www.ceviche.com/3133","tier":2,"message":"Moderate","currency":"$","rating":7.9},{"name":"Johnny's Other Side","phone":"4078946900","twitter":"johnnysfillin","address":"2631 S Fern Creek Ave","lat":28.51350915656835,"lng":-81.35919336847333,"city_fetched":"Orlando","state":"FL","country":"United States","canonicalUrl":"https://foursquare.com/v/johnnys-other-side/4c33b76c7cc0c9b6fe45f29a","category":"American Restaurant","checkinsCount":2668,"usersCount":1086,"tipCount":31,"visitsCount":2925,"url":"http://johnnysotherside.com","tier":2,"message":"Moderate","currency":"$","rating":7.9},{"name":"Taverna Opa Orlando","phone":"4073518660","address":"9101 International Dr","lat":28.43283,"lng":-81.47014,"city_fetched":"Orlando","state":"FL","country":"United States","canonicalUrl":"https://foursquare.com/v/taverna-opa-orlando/4b05868ef964a520ba6522e3","category":"Greek Restaurant","checkinsCount":5856,"usersCount":4817,"tipCount":94,"visitsCount":5911,"url":"http://opaorlando.com/#q0wjQD","tier":2,"message":"Moderate","currency":"$","rating":7.9},{"name":"The Local","address":"3231 Edgewater Dr","lat":28.580557406671726,"lng":-81.38931965248068,"neighborhood":"College Park","city_fetched":"Orlando","state":"FL","country":"United States","canonicalUrl":"https://foursquare.com/v/the-local/4f9c8ea5e4b0a3d1dc75080c","category":"Bar","checkinsCount":929,"usersCount":209,"tipCount":9,"visitsCount":971,"url":"http://the-localbar.com","tier":"","message":"","currency":"","rating":7.9},{"name":"Park Plaza Gardens","phone":"4076452475","twitter":"ppgwinterpark","address":"319 S Park Ave","lat":28.59567766067164,"lng":-81.35123967782634,"city_fetched":"Orlando","state":"FL","country":"United States","canonicalUrl":"https://foursquare.com/ppgwinterpark","category":"American Restaurant","checkinsCount":2185,"usersCount":1268,"tipCount":31,"visitsCount":2217,"url":"http://www.parkplazagardens.com","tier":4,"message":"Very Expensive","currency":"$","rating":7.9},{"name":"Spacebar","phone":"4072280804","twitter":"covertskateshop","address":"2428 E Robinston St","lat":28.545842043995194,"lng":-81.35055758748851,"city_fetched":"Orlando","state":"FL","country":"United States","canonicalUrl":"https://foursquare.com/v/spacebar/4e556775e4cd779e83357231","category":"Bar","checkinsCount":1155,"usersCount":412,"tipCount":12,"visitsCount":1197,"tier":"","message":"","currency":"","rating":7.9},{"name":"Lone Palm Airport","phone":"4072242155","twitter":"mvilleorl","address":"6000 Universal Blvd","lat":28.47252511348838,"lng":-81.46675777065226,"city_fetched":"Orlando","state":"FL","country":"United States","canonicalUrl":"https://foursquare.com/v/lone-palm-airport/4b62f284f964a5202c5a2ae3","category":"Bar","checkinsCount":2451,"usersCount":1307,"tipCount":26,"visitsCount":2464,"url":"http://www.margaritavilleorlando.com/lonepalm.html","tier":2,"message":"Moderate","currency":"$","rating":7.9},{"name":"The Oasis Tiki Bar","phone":"4073514430","address":"6323 International Dr","lat":28.46142493,"lng":-81.46836084,"city_fetched":"Orlando","state":"FL","country":"United States","canonicalUrl":"https://foursquare.com/v/the-oasis-tiki-bar/4c7a73514dc1ef3bdeab339e","category":"Hotel Bar","checkinsCount":1217,"usersCount":278,"tipCount":21,"visitsCount":1219,"url":"http://www.oasistikibar.com","tier":"","message":"","currency":"","rating":7.9},{"name":"Vines Grille & Wine Bar","phone":"4073511227","twitter":"vinesgrille","address":"7563 W Sand Lake Rd","lat":28.450567168742104,"lng":-81.48498845299235,"city_fetched":"Orlando","state":"FL","country":"United States","canonicalUrl":"https://foursquare.com/v/vines-grille--wine-bar/4b058698f964a5203c6722e3","category":"Wine Bar","checkinsCount":2843,"usersCount":1855,"tipCount":52,"visitsCount":3075,"url":"http://www.vinesgrille.com","tier":"","message":"","currency":"","rating":7.9},{"name":"Maxine's On Shine","phone":"4076746841","address":"337 N Shine Ave","lat":28.547203704873876,"lng":-81.3621630352301,"neighborhood":"Colonialtown South","city_fetched":"Orlando","state":"FL","country":"United States","canonicalUrl":"https://foursquare.com/v/maxines-on-shine/4f07a29ce4b08f5247edd231","category":"American Restaurant","checkinsCount":1540,"usersCount":1137,"tipCount":30,"visitsCount":2090,"url":"http://maxinesonshine.com","tier":2,"message":"Moderate","currency":"$","rating":7.8},{"name":"Gatorville Poolside Bar","phone":"4073553664","address":"Wyndham Resort","lat":28.448280515609028,"lng":-81.46796434874157,"city_fetched":"Orlando","state":"FL","country":"United States","canonicalUrl":"https://foursquare.com/v/gatorville-poolside-bar/4d890992f607a093f85ee286","category":"Bar","checkinsCount":560,"usersCount":339,"tipCount":4,"visitsCount":586,"tier":"","message":"","currency":"","rating":7.8},{"name":"Swizzle Lounge","address":"6550 Adventure Way","lat":28.465901345322184,"lng":-81.47354653276165,"city_fetched":"Orlando","state":"FL","country":"United States","canonicalUrl":"https://foursquare.com/v/swizzle-lounge/5340b259498e5823087cbb4b","category":"Hotel Bar","checkinsCount":174,"usersCount":137,"tipCount":1,"visitsCount":174,"tier":"","message":"","currency":"","rating":7.8},{"name":"Southern Nights Nightclub","phone":"4074125039","address":"375 S Bumby Ave","lat":28.539151,"lng":-81.351609,"city_fetched":"Orlando","state":"FL","country":"United States","canonicalUrl":"https://foursquare.com/v/southern-nights-nightclub/53ebe2a7498e9b6c560cce3f","category":"Gay Bar","checkinsCount":1529,"usersCount":869,"tipCount":6,"visitsCount":2871,"tier":"","message":"","currency":"","rating":7.8},{"name":"Fat Tuesday","phone":"4072242236","twitter":"fat_tues_day","address":"6000 Universal Blvd","lat":28.472765618471453,"lng":-81.46572589874268,"city_fetched":"Orlando","state":"FL","country":"United States","canonicalUrl":"https://foursquare.com/v/fat-tuesday/4bbd2695a8cf76b0a581b1fd","category":"Bar","checkinsCount":3271,"usersCount":2023,"tipCount":34,"visitsCount":3280,"url":"http://www.fat-tuesday.com","tier":"","message":"","currency":"","rating":7.8},{"name":"Sideshow","phone":"4074201515","twitter":"sideshowwallst","address":"15 N Orange Ave","lat":28.542490118004334,"lng":-81.37891559086631,"neighborhood":"Central Business District","city_fetched":"Orlando","state":"FL","country":"United States","canonicalUrl":"https://foursquare.com/v/sideshow/53dbd1cb498ef8cefb6d5776","category":"Bar","checkinsCount":678,"usersCount":424,"tipCount":6,"visitsCount":705,"tier":"","message":"","currency":"","rating":7.8},{"name":"Vixen","phone":"4079999040","address":"118 S Orange Ave","lat":28.54092628497003,"lng":-81.37914644974586,"neighborhood":"Central Business District","city_fetched":"Orlando","state":"FL","country":"United States","canonicalUrl":"https://foursquare.com/v/vixen/4b05868ff964a520e96522e3","category":"Bar","checkinsCount":3331,"usersCount":1080,"tipCount":33,"visitsCount":3381,"url":"http://vixenfitnessonline.com","tier":"","message":"","currency":"","rating":7.8},{"name":"Independent Bar","phone":"4078390457","twitter":"ibar_orlando","address":"70 N Orange Ave","lat":28.5433395,"lng":-81.3791842,"neighborhood":"Central Business District","city_fetched":"Orlando","state":"FL","country":"United States","canonicalUrl":"https://foursquare.com/v/independent-bar/4b05868df964a520a56522e3","category":"Bar","checkinsCount":15531,"usersCount":4594,"tipCount":80,"visitsCount":15852,"url":"http://www.independentbar.net","tier":2,"message":"Moderate","currency":"$","rating":7.8},{"name":"Ritz Lobby Bar","lat":28.405113506467615,"lng":-81.4298593727413,"city_fetched":"Orlando","state":"FL","country":"United States","canonicalUrl":"https://foursquare.com/v/ritz-lobby-bar/4e6bf1917d8b2c711b11f6e2","category":"Hotel Bar","checkinsCount":582,"usersCount":418,"tipCount":11,"visitsCount":602,"tier":3,"message":"Expensive","currency":"$","rating":7.8},{"name":"The Rusty Spoon","phone":"4074018811","twitter":"the_rusty_spoon","address":"55 W Church St Ste 101","lat":28.540446270574883,"lng":-81.38062822497965,"neighborhood":"Central Business District","city_fetched":"Orlando","state":"FL","country":"United States","canonicalUrl":"https://foursquare.com/v/the-rusty-spoon/4da3a6d822a5f04d71712955","category":"Gastropub","checkinsCount":3372,"usersCount":2078,"tipCount":75,"visitsCount":3413,"url":"http://www.therustyspoon.com","tier":3,"message":"Expensive","currency":"$","rating":7.8},{"name":"Hooters","phone":"4073545350","twitter":"hooters","address":"5300 S Kirkman Rd","lat":28.485416704338057,"lng":-81.45939588546753,"neighborhood":"Windhover","city_fetched":"Orlando","state":"FL","country":"United States","canonicalUrl":"https://foursquare.com/v/hooters/4b478eadf964a520733526e3","category":"Wings Joint","checkinsCount":3574,"usersCount":2712,"tipCount":37,"visitsCount":4135,"url":"http://www.hooters.com","tier":1,"message":"Cheap","currency":"$","rating":7.8},{"name":"House of Beer","phone":"9418221452","twitter":"beerorlando","address":"13526 Village Park Dr","lat":28.369774862518987,"lng":-81.4270269870758,"neighborhood":"Hunters Creek New Village Town Center","city_fetched":"Orlando","state":"FL","country":"United States","canonicalUrl":"https://foursquare.com/v/house-of-beer/4c991140db10b60ccdf4866d","category":"Bar","checkinsCount":5417,"usersCount":1372,"tipCount":46,"visitsCount":5637,"url":"http://hobflorida.com","tier":2,"message":"Moderate","currency":"$","rating":7.8},{"name":"Smokey Bones Bar & Fire Grill","phone":"4078941511","twitter":"smokeybonesbar","address":"3400 E Colonial Dr","lat":28.552786592714916,"lng":-81.34084224700928,"neighborhood":"Colonial Town Center","city_fetched":"Orlando","state":"FL","country":"United States","canonicalUrl":"https://foursquare.com/v/smokey-bones-bar--fire-grill/4b0d3c55f964a520f44423e3","category":"BBQ Joint","checkinsCount":9614,"usersCount":3879,"tipCount":71,"visitsCount":10882,"url":"http://www.smokeybones.com","tier":2,"message":"Moderate","currency":"$","rating":7.8},{"name":"Big Daddy's","phone":"4076442844","twitter":"bigdaddysorl","address":"3001 Corrine Dr","lat":28.568007938850073,"lng":-81.34605671284588,"city_fetched":"Orlando","state":"FL","country":"United States","canonicalUrl":"https://foursquare.com/v/big-daddys/52d8ac28498e88fdd2618c32","category":"Karaoke Bar","checkinsCount":250,"usersCount":96,"tipCount":1,"visitsCount":275,"url":"http://www.bigdaddysorlando.com","tier":"","message":"","currency":"","rating":7.8},{"name":"LongHorn Steakhouse","phone":"4074382082","address":"5449 Gateway Village Cir","lat":28.458261082772136,"lng":-81.31068502097753,"neighborhood":"Airport North","city_fetched":"Orlando","state":"FL","country":"United States","canonicalUrl":"https://foursquare.com/v/longhorn-steakhouse/4bbfadfbb492d13aed17a360","category":"Steakhouse","checkinsCount":3466,"usersCount":2443,"tipCount":29,"visitsCount":4244,"url":"http://www.longhornsteakhouse.com/locator_g/default.aspx?q=32812&restaurantid=5359&cmpid=lh_ll_%20foursquare","tier":2,"message":"Moderate","currency":"$","rating":7.8},{"name":"Johnny's Fillin' Station Restaurant","phone":"4078946900","twitter":"johnnysfillin","address":"2631 S Fern Creek Ave","lat":28.513348790656213,"lng":-81.3595583411045,"city_fetched":"Orlando","state":"FL","country":"United States","canonicalUrl":"https://foursquare.com/v/johnnys-fillin-station-restaurant/4b05868cf964a520716522e3","category":"Sports Bar","checkinsCount":4945,"usersCount":2364,"tipCount":54,"visitsCount":5419,"url":"http://www.johnnysfillinstation.com","tier":2,"message":"Moderate","currency":"$","rating":7.7},{"name":"Footlight Theatre","phone":"4074257571","address":"410 N Orange Blossom Trl","lat":28.548037852193417,"lng":-81.39766656922983,"neighborhood":"Rock Lake","city_fetched":"Orlando","state":"FL","country":"United States","canonicalUrl":"https://foursquare.com/v/footlight-theatre/4c142026b7b9c92828dfaa37","category":"Theater","checkinsCount":2025,"usersCount":556,"tipCount":10,"visitsCount":2064,"tier":"","message":"","currency":"","rating":7.7},{"name":"Sportstown Billiards","phone":"4078946258","address":"2414 E Robinson St","lat":28.545827865600586,"lng":-81.351036,"city_fetched":"Orlando","state":"FL","country":"United States","canonicalUrl":"https://foursquare.com/v/sportstown-billiards/4b05868df964a520a16522e3","category":"Sports Bar","checkinsCount":6319,"usersCount":1956,"tipCount":40,"visitsCount":6707,"url":"http://sportstownbilliards.com","tier":1,"message":"Cheap","currency":"$","rating":7.7},{"name":"Aqua Lounge","address":"2869 Wilshire Dr","lat":28.512524787679677,"lng":-81.46326126677066,"neighborhood":"Metro West","city_fetched":"Orlando","state":"FL","country":"United States","canonicalUrl":"https://foursquare.com/v/aqua-lounge/4c1c2969b4e62d7fd1b2da93","category":"Nightclub","checkinsCount":480,"usersCount":135,"tipCount":4,"visitsCount":480,"tier":"","message":"","currency":"","rating":7.7},{"name":"Murphy's Arms Pub","phone":"4073520734","address":"6582 International Dr","lat":28.457805629008103,"lng":-81.46986588835716,"city_fetched":"Orlando","state":"FL","country":"United States","canonicalUrl":"https://foursquare.com/v/murphys-arms-pub/4b833c51f964a520a8fe30e3","category":"Pub","checkinsCount":1073,"usersCount":441,"tipCount":20,"visitsCount":1094,"url":"http://www.murphysarmspub.com","tier":"","message":"","currency":"","rating":7.7},{"name":"Buffalo Wild Wings","phone":"4074135115","twitter":"bwwings","address":"8363 International Dr","lat":28.443928,"lng":-81.469718,"city_fetched":"Orlando","state":"FL","country":"United States","canonicalUrl":"https://foursquare.com/v/buffalo-wild-wings/56831320498ec17ae99e1b3c","category":"Sports Bar","checkinsCount":248,"usersCount":203,"tipCount":3,"visitsCount":249,"url":"http://www.buffalowildwings.com","tier":"","message":"","currency":"","rating":7.7},{"name":"Blue Martini","phone":"4074472583","twitter":"bluemartiniorl","address":"9101 International Dr Ste 1182","lat":28.486534151936056,"lng":-81.43158674240112,"neighborhood":"Millenia","city_fetched":"Orlando","state":"FL","country":"United States","canonicalUrl":"https://foursquare.com/v/blue-martini/4b071158f964a5209af622e3","category":"Cocktail Bar","checkinsCount":8148,"usersCount":4775,"tipCount":82,"visitsCount":8202,"url":"http://orlando.bluemartinilounge.com","tier":2,"message":"Moderate","currency":"$","rating":7.7},{"name":"Bull & Bush English Pub","phone":"4078967546","twitter":"thebullnbush","address":"2408 E Robinson St","lat":28.545784,"lng":-81.351306,"city_fetched":"Orlando","state":"FL","country":"United States","canonicalUrl":"https://foursquare.com/v/bull--bush-english-pub/4bf1fb373506ef3b7c76bd22","category":"Pub","checkinsCount":1768,"usersCount":454,"tipCount":12,"visitsCount":1788,"url":"http://bullandbushorlando.com","tier":"","message":"","currency":"","rating":7.7},{"name":"The Plaza Live","phone":"4072281220","address":"425 N Bumby Ave","lat":28.548757247287053,"lng":-81.35145987891919,"neighborhood":"Colonial Town Center","city_fetched":"Orlando","state":"FL","country":"United States","canonicalUrl":"https://foursquare.com/v/the-plaza-live/4a861379f964a520530020e3","category":"Rock Club","checkinsCount":4458,"usersCount":2586,"tipCount":26,"visitsCount":4746,"url":"http://www.plazaliveorlando.com","tier":"","message":"","currency":"","rating":7.7},{"name":"Harry's Poolside and Grill","lat":28.42405520176682,"lng":-81.464848656663,"city_fetched":"Orlando","state":"Florida","country":"United States","canonicalUrl":"https://foursquare.com/v/harrys-poolside-and-grill/53b3412e498ed1abc9431c63","category":"Cocktail Bar","checkinsCount":200,"usersCount":139,"tipCount":4,"visitsCount":202,"tier":"","message":"","currency":"","rating":7.7},{"name":"Elixir Bar Room & Hash House","phone":"4079853507","twitter":"elixirdowntown","address":"9 W Washington St","lat":28.543564033051663,"lng":-81.37924845693506,"neighborhood":"Central Business District","city_fetched":"Orlando","state":"FL","country":"United States","canonicalUrl":"https://foursquare.com/v/elixir-bar-room--hash-house/504fad00e4b070cfcc754504","category":"Bar","checkinsCount":2043,"usersCount":798,"tipCount":15,"visitsCount":2097,"url":"http://elixirorlando.net","tier":"","message":"","currency":"","rating":7.7},{"name":"St. Matthew's Tavern","twitter":"stmatthewsatobg","address":"1300 N Mills Ave","lat":28.56217,"lng":-81.364632,"neighborhood":"Park Lake- Highland","city_fetched":"Orlando","state":"FL","country":"United States","canonicalUrl":"https://foursquare.com/stmatthewsatobg","category":"Bar","checkinsCount":800,"usersCount":353,"tipCount":5,"visitsCount":1006,"url":"http://www.orlandobeergarden.com","tier":1,"message":"Cheap","currency":"$","rating":7.7},{"name":"Blue Martini","address":"9101 International Dr","lat":28.432338602101687,"lng":-81.47048469419587,"city_fetched":"Orlando","state":"FL","country":"United States","canonicalUrl":"https://foursquare.com/v/blue-martini/556b89c4498e2c0de864a295","category":"Cocktail Bar","checkinsCount":572,"usersCount":524,"tipCount":5,"visitsCount":640,"url":"http://bluemartinilounge.com","tier":"","message":"","currency":"","rating":7.7},{"name":"Crafted Block & Brew","phone":"4076016887","twitter":"craftedorlando","address":"2417 S Hiawassee Rd","lat":28.515630774033966,"lng":-81.48284912109374,"neighborhood":"Metro West","city_fetched":"Orlando","state":"FL","country":"United States","canonicalUrl":"https://foursquare.com/v/crafted-block--brew/53c672e2498ef5c4dfa89055","category":"Gastropub","checkinsCount":843,"usersCount":436,"tipCount":20,"visitsCount":1072,"url":"http://www.craftedorlando.com","tier":2,"message":"Moderate","currency":"$","rating":7.6},{"name":"Olde 64","lat":28.543164698852323,"lng":-81.37909276169671,"neighborhood":"Central Business District","city_fetched":"Orlando","state":"FL","country":"United States","canonicalUrl":"https://foursquare.com/v/olde-64/54126928498edb7c42367bac","category":"Bar","checkinsCount":328,"usersCount":135,"tipCount":5,"visitsCount":332,"tier":"","message":"","currency":"","rating":7.6},{"name":"The Hideaway","phone":"4078985892","address":"516 Virginia Dr","lat":28.564003513040404,"lng":-81.3710283874805,"neighborhood":"Park Lake- Highland","city_fetched":"Orlando","state":"FL","country":"United States","canonicalUrl":"https://foursquare.com/v/the-hideaway/4b05868ff964a520ea6522e3","category":"Sports Bar","checkinsCount":3867,"usersCount":1219,"tipCount":36,"visitsCount":4375,"url":"http://thehideawaybar.net","tier":2,"message":"Moderate","currency":"$","rating":7.6},{"name":"Itta Bena Orlando","twitter":"ittabenaorlando","lat":28.432632027653078,"lng":-81.47008787942009,"city_fetched":"Orlando","state":"Florida","country":"United States","canonicalUrl":"https://foursquare.com/v/itta-bena-orlando/5475e564498e2e7d12410cf9","category":"Speakeasy","checkinsCount":93,"usersCount":74,"tipCount":2,"visitsCount":93,"url":"http://ittabenafinedining.com/orlando/","tier":"","message":"","currency":"","rating":7.6},{"name":"Kush Hookah Lounge","phone":"4078435874","address":"23 S Court Ave","lat":28.5416,"lng":-81.37802302837372,"neighborhood":"Central Business District","city_fetched":"Orlando","state":"FL","country":"United States","canonicalUrl":"https://foursquare.com/v/kush-hookah-lounge/4b8f33b9f964a520854d33e3","category":"Hookah Bar","checkinsCount":1313,"usersCount":603,"tipCount":19,"visitsCount":1314,"tier":"","message":"","currency":"","rating":7.6},{"name":"ICEBAR Orlando","phone":"4074267555","twitter":"icebarorlando","address":"8967 International Dr","lat":28.43458465696991,"lng":-81.47193787647299,"city_fetched":"Orlando","state":"FL","country":"United States","canonicalUrl":"https://foursquare.com/v/icebar-orlando/4b05868ff964a520e36522e3","category":"Bar","checkinsCount":4747,"usersCount":3546,"tipCount":57,"visitsCount":4804,"url":"http://www.icebarorlando.com","tier":"","message":"","currency":"","rating":7.6},{"name":"Hilton Orlando Executive Lounge","phone":"4073134300","twitter":"hilton_orlando","address":"6001 Destination Pkwy","lat":28.424849819817165,"lng":-81.45715808601295,"city_fetched":"Orlando","state":"FL","country":"United States","canonicalUrl":"https://foursquare.com/v/hilton-orlando-executive-lounge/4fc0ea17e4b06f6d22fbbaf0","category":"Hotel Bar","checkinsCount":619,"usersCount":288,"tipCount":3,"visitsCount":625,"url":"http://www.facebook.com/thehiltonorlando","tier":"","message":"","currency":"","rating":7.6},{"name":"The Beacham","phone":"4076488363","twitter":"beachamorlando","address":"46 N Orange Ave","lat":28.543053060387265,"lng":-81.37929140728968,"neighborhood":"Central Business District","city_fetched":"Orlando","state":"FL","country":"United States","canonicalUrl":"https://foursquare.com/v/the-beacham/4d3bc5fb05b8721ed78f8637","category":"Nightclub","checkinsCount":6962,"usersCount":3583,"tipCount":44,"visitsCount":7023,"url":"http://www.thebeacham.com","tier":3,"message":"Expensive","currency":"$","rating":7.6},{"name":"Field House Orlando","phone":"4072483473","twitter":"orlfieldhouse","address":"7958 Via Dellagio Way. Suite 100","lat":28.45048211393587,"lng":-81.49314793868865,"city_fetched":"Orlando","state":"FL","country":"United States","canonicalUrl":"https://foursquare.com/orlfieldhouse","category":"American Restaurant","checkinsCount":4373,"usersCount":1657,"tipCount":53,"visitsCount":5061,"url":"http://fieldhouseorlando.com","tier":2,"message":"Moderate","currency":"$","rating":7.6},{"name":"Finnhenry's","phone":"4076480100","twitter":"finnhenrys","address":"39 N Orange Ave","lat":28.542918569072413,"lng":-81.37917329375625,"neighborhood":"Central Business District","city_fetched":"Orlando","state":"FL","country":"United States","canonicalUrl":"https://foursquare.com/finnhenrys","category":"Bar","checkinsCount":12056,"usersCount":3815,"tipCount":47,"visitsCount":12167,"url":"http://www.finnhenrys.com","tier":2,"message":"Moderate","currency":"$","rating":7.6},{"name":"Wildside BBQ","phone":"4078728665","twitter":"wildsidebbq","address":"700 E Washington St","lat":28.543534113555022,"lng":-81.36840271816097,"neighborhood":"Thornton Park","city_fetched":"Orlando","state":"FL","country":"United States","canonicalUrl":"https://foursquare.com/v/wildside-bbq/4b058699f964a520666722e3","category":"BBQ Joint","checkinsCount":10026,"usersCount":4692,"tipCount":76,"visitsCount":10399,"url":"http://www.wildsidebbqorlando.com","tier":2,"message":"Moderate","currency":"$","rating":7.6},{"name":"The Falcon","phone":"4074233060","twitter":"thefalconbar","address":"819 E Washington St","lat":28.54381459654799,"lng":-81.3668167591095,"neighborhood":"Thornton Park","city_fetched":"Orlando","state":"FL","country":"United States","canonicalUrl":"https://foursquare.com/v/the-falcon/4e3d78b68130b2d2c414018d","category":"Bar","checkinsCount":1969,"usersCount":714,"tipCount":13,"visitsCount":2029,"url":"http://thefalconbar","tier":2,"message":"Moderate","currency":"$","rating":7.6},{"name":"Dancer's Royale","phone":"4072810120","twitter":"dancersroyale1","address":"5221 E Colonial Dr","lat":28.554181330188264,"lng":-81.31986737251282,"city_fetched":"Orlando","state":"FL","country":"United States","canonicalUrl":"https://foursquare.com/dancersroyale1","category":"Strip Club","checkinsCount":3693,"usersCount":1305,"tipCount":16,"visitsCount":4394,"url":"http://dancersroyaleorlando.com","tier":"","message":"","currency":"","rating":7.6},{"name":"ABC Fine Wine & Spirits","phone":"4076711211","twitter":"abcwinecountry","address":"399 N. Semoran Blvd.","lat":28.601136008122477,"lng":-81.30715447720122,"city_fetched":"Orlando","state":"FL","country":"United States","canonicalUrl":"https://foursquare.com/v/abc-fine-wine--spirits/4b1c3a7af964a520ac0424e3","category":"Liquor Store","checkinsCount":1022,"usersCount":642,"tipCount":9,"visitsCount":1281,"url":"http://t.co/Diqktj0ytJ","tier":"","message":"","currency":"","rating":7.6},{"name":"Tilted Kilt Orlando I-Drive","phone":"4072266886","twitter":"tiltedkiltidriv","address":"7653 International Dr","lat":28.45203940323107,"lng":-81.47048469419587,"city_fetched":"Orlando","state":"FL","country":"United States","canonicalUrl":"https://foursquare.com/v/tilted-kilt-orlando-idrive/4be83ddd947820a1f8a5b4db","category":"Pub","checkinsCount":5286,"usersCount":3531,"tipCount":78,"visitsCount":5432,"url":"http://www.tiltedkilt.com","tier":2,"message":"Moderate","currency":"$","rating":7.6},{"name":"Pat O'Brien's","phone":"4072243663","twitter":"universalorl","address":"6000 Universal Blvd","lat":28.472782122924997,"lng":-81.4651358127594,"city_fetched":"Orlando","state":"FL","country":"United States","canonicalUrl":"https://foursquare.com/v/pat-obriens/4b4d4154f964a52071cf26e3","category":"Piano Bar","checkinsCount":9070,"usersCount":6859,"tipCount":84,"visitsCount":9186,"url":"http://www.universalorlando.com","tier":"","message":"","currency":"","rating":7.5},{"name":"McCoy's Bar & Grill","phone":"4078251234","address":"9300 Airport Blvd","lat":28.43114928857382,"lng":-81.30654185489387,"neighborhood":"Orlando International Airport","city_fetched":"Orlando","state":"FL","country":"United States","canonicalUrl":"https://foursquare.com/v/mccoys-bar--grill/4b05868ff964a520ec6522e3","category":"Bar","checkinsCount":1197,"usersCount":886,"tipCount":22,"visitsCount":1197,"url":"http://orlandoairport.hyatt.com/en/hotel/dining/McCoysBarandGrill.html","tier":3,"message":"Expensive","currency":"$","rating":7.5},{"name":"Uptown Park Wine Bar","phone":"3213190997","address":"1784 Jake St","lat":28.56765655806648,"lng":-81.32597208023071,"neighborhood":"Baldwin Park","city_fetched":"Orlando","state":"FL","country":"United States","canonicalUrl":"https://foursquare.com/v/uptown-park-wine-bar/4b246768f964a520226724e3","category":"Wine Bar","checkinsCount":616,"usersCount":321,"tipCount":9,"visitsCount":617,"tier":"","message":"","currency":"","rating":7.5},{"name":"Alchemy Lounge","phone":"4073091973","twitter":"alchemylounge","address":"5389 S Kirkman Rd","lat":28.484658317233716,"lng":-81.45860079794342,"city_fetched":"Orlando","state":"FL","country":"United States","canonicalUrl":"https://foursquare.com/v/alchemy-lounge/51930006498eb5f68af4ffb3","category":"Hookah Bar","checkinsCount":72,"usersCount":50,"tipCount":2,"visitsCount":79,"tier":"","message":"","currency":"","rating":7.5},{"name":"Cheyenne Saloon","phone":"3212025855","address":"120 W Church St","lat":28.540302847803687,"lng":-81.38135299585431,"neighborhood":"Central Business District","city_fetched":"Orlando","state":"FL","country":"United States","canonicalUrl":"https://foursquare.com/v/cheyenne-saloon/4f32c69a19836c91c7f94b5d","category":"Bar","checkinsCount":325,"usersCount":226,"tipCount":2,"visitsCount":330,"tier":"","message":"","currency":"","rating":7.5},{"name":"Wall Street Cantina","phone":"4074201515","twitter":"wallstplaza","address":"19 N Orange Ave","lat":28.54264591893795,"lng":-81.37888669967651,"neighborhood":"Central Business District","city_fetched":"Orlando","state":"FL","country":"United States","canonicalUrl":"https://foursquare.com/v/wall-street-cantina/4b155280f964a520eaaa23e3","category":"Bar","checkinsCount":10745,"usersCount":5296,"tipCount":55,"visitsCount":10863,"url":"http://www.wallstplaza.net","tier":2,"message":"Moderate","currency":"$","rating":7.5},{"name":"Tier Nightclub","phone":"4073179129","twitter":"tiernightclub","address":"20 E Central Blvd","lat":28.54201884662413,"lng":-81.37869546895804,"neighborhood":"Central Business District","city_fetched":"Orlando","state":"FL","country":"United States","canonicalUrl":"https://foursquare.com/v/tier-nightclub/4f34979ae4b0aa70b2875401","category":"Nightclub","checkinsCount":1997,"usersCount":1180,"tipCount":4,"visitsCount":2089,"url":"http://www.tiernightclub.com","tier":"","message":"","currency":"","rating":7.5},{"name":"Duff Brewery","lat":28.47890732394804,"lng":-81.46808232423268,"city_fetched":"Orlando","state":"FL","country":"United States","canonicalUrl":"https://foursquare.com/v/duff-brewery/525eb67f498ed8c4772fcf1a","category":"Brewery","checkinsCount":841,"usersCount":786,"tipCount":10,"visitsCount":845,"tier":"","message":"","currency":"","rating":7.5},{"name":"Confisco Grille & Backwater Bar","phone":"4072244406","twitter":"universalorl","address":"Port of Entry","lat":28.47211823918384,"lng":-81.46951946543729,"city_fetched":"Orlando","state":"FL","country":"United States","canonicalUrl":"https://foursquare.com/v/confisco-grille--backwater-bar/4b92bb5af964a520391634e3","category":"American Restaurant","checkinsCount":3161,"usersCount":2343,"tipCount":43,"visitsCount":3216,"url":"http://www.universalorlando.com","tier":2,"message":"Moderate","currency":"$","rating":7.5},{"name":"The Bear Den","phone":"4074257571","address":"410 N Orange Blossom Trl","lat":28.547886017266816,"lng":-81.39830589294434,"neighborhood":"Rock Lake","city_fetched":"Orlando","state":"FL","country":"United States","canonicalUrl":"https://foursquare.com/v/the-bear-den/4c50c50c9426c92881d79a72","category":"Gay Bar","checkinsCount":2905,"usersCount":609,"tipCount":6,"visitsCount":2994,"tier":3,"message":"Expensive","currency":"$","rating":7.5},{"name":"Colonial Lanes Bowling","phone":"4078961443","address":"400 N Primrose Dr","lat":28.548177691840728,"lng":-81.34862406998698,"neighborhood":"Colonial Town Center","city_fetched":"Orlando","state":"FL","country":"United States","canonicalUrl":"https://foursquare.com/v/colonial-lanes-bowling/4b3285baf964a520b60d25e3","category":"Bowling Alley","checkinsCount":5938,"usersCount":1701,"tipCount":17,"visitsCount":6649,"url":"http://www.coloniallanes.net","tier":"","message":"","currency":"","rating":7.5},{"name":"Gator's Dockside","phone":"4079851790","address":"13701 S John Young Pkwy","lat":28.367688536605485,"lng":-81.42514944076538,"city_fetched":"Orlando","state":"FL","country":"United States","canonicalUrl":"https://foursquare.com/v/gators-dockside/51fd0df9498ebdc463d9f1a9","category":"Sports Bar","checkinsCount":1762,"usersCount":1103,"tipCount":37,"visitsCount":2679,"url":"http://www.gatorsdockside.com","tier":2,"message":"Moderate","currency":"$","rating":7.5},{"name":"Che'z Alcatraz","address":"Universal Orlando","lat":28.478401020464318,"lng":-81.46919235734023,"city_fetched":"Orlando","state":"FL","country":"United States","canonicalUrl":"https://foursquare.com/v/chez-alcatraz/4bd3462e046076b0faa57571","category":"Bar","checkinsCount":505,"usersCount":330,"tipCount":14,"visitsCount":506,"tier":"","message":"","currency":"","rating":7.5},{"name":"Muldoons Saloon","address":"7439 Aloma Ave","lat":28.60967605915175,"lng":-81.28737075605986,"city_fetched":"Orlando","state":"FL","country":"United States","canonicalUrl":"https://foursquare.com/v/muldoons-saloon/4c7f08c5fb13a1cda0ab9fa4","category":"Bar","checkinsCount":971,"usersCount":309,"tipCount":7,"visitsCount":1068,"tier":"","message":"","currency":"","rating":7.4},{"name":"Dewey's Indoor Golf & Sports Grill","phone":"4072032222","twitter":"deweysgolf","address":"7720 Turkey Lake Rd","lat":28.4526806,"lng":-81.4780789,"city_fetched":"Orlando","state":"FL","country":"United States","canonicalUrl":"https://foursquare.com/v/deweys-indoor-golf--sports-grill/52dc0bc011d2d7b05ef53beb","category":"Sports Bar","checkinsCount":620,"usersCount":567,"tipCount":10,"visitsCount":880,"url":"http://www.deweysgolf.com/?utm_source=google&utm_medium=organic&utm_campaign=yext","tier":"","message":"","currency":"","rating":7.4},{"name":"Gilt Nightclub","phone":"4075047699","address":"740 Bennett Rd","lat":28.55497278540254,"lng":-81.33421245384437,"neighborhood":"Colonial Town Center","city_fetched":"Orlando","state":"FL","country":"United States","canonicalUrl":"https://foursquare.com/v/gilt-nightclub/544fedac498e59da3cb86661","category":"Nightclub","checkinsCount":260,"usersCount":379,"tipCount":2,"visitsCount":587,"url":"http://giltnightclub.com","tier":"","message":"","currency":"","rating":7.4},{"name":"Kitty O'Shea's Irish Pub","phone":"4072389769","twitter":"kittyosheas","address":"8470 Palm Pkwy","lat":28.385048161746372,"lng":-81.49968266487122,"neighborhood":"Vista Center","city_fetched":"Orlando","state":"FL","country":"United States","canonicalUrl":"https://foursquare.com/v/kitty-osheas-irish-pub/4b05868cf964a5208b6522e3","category":"Beer Garden","checkinsCount":5985,"usersCount":2028,"tipCount":46,"visitsCount":6309,"url":"http://www.kittyosheaspub.com","tier":1,"message":"Cheap","currency":"$","rating":7.4},{"name":"Burtons Bar & Grill","phone":"4073768401","twitter":"burtonsbargrill","address":"801 E Washington St","lat":28.54369,"lng":-81.367474,"neighborhood":"Thornton Park","city_fetched":"Orlando","state":"FL","country":"United States","canonicalUrl":"https://foursquare.com/v/burtons-bar--grill/4b2e7735f964a520a2e024e3","category":"Dive Bar","checkinsCount":4800,"usersCount":1382,"tipCount":32,"visitsCount":4962,"tier":1,"message":"Cheap","currency":"$","rating":7.4},{"name":"The Attic","phone":"4074031161","twitter":"atticorlando","address":"68 E Pine St","lat":28.54127588819178,"lng":-81.37761632552997,"neighborhood":"Central Business District","city_fetched":"Orlando","state":"FL","country":"United States","canonicalUrl":"https://foursquare.com/v/the-attic/4cb9142f9552b60c6c6bd18b","category":"Bar","checkinsCount":2188,"usersCount":1276,"tipCount":11,"visitsCount":2219,"tier":"","message":"","currency":"","rating":7.4},{"name":"Grande Cove Bar & Food Court","phone":"4072384161","address":"5925 Avenida Vis","lat":28.397671,"lng":-81.4550116,"neighborhood":"Grande Vista Condominiums","city_fetched":"Orlando","state":"FL","country":"United States","canonicalUrl":"https://foursquare.com/v/grande-cove-bar--food-court/4bb0c522f964a520535b3ce3","category":"Cocktail Bar","checkinsCount":333,"usersCount":177,"tipCount":6,"visitsCount":335,"tier":"","message":"","currency":"","rating":7.4},{"name":"Howl At The Moon","phone":"4073545999","twitter":"_howlatthemoon","address":"8815 International Dr","lat":28.437594072891898,"lng":-81.47159469203405,"city_fetched":"Orlando","state":"FL","country":"United States","canonicalUrl":"https://foursquare.com/v/howl-at-the-moon/4b05868df964a5209f6522e3","category":"Piano Bar","checkinsCount":10498,"usersCount":7739,"tipCount":60,"visitsCount":11096,"url":"http://www.howlatthemoon.com","tier":"","message":"","currency":"","rating":7.4},{"name":"Hilton Poolside Bar","lat":28.40567081918928,"lng":-81.46916018269687,"city_fetched":"Orlando","state":"FL","country":"United States","canonicalUrl":"https://foursquare.com/v/hilton-poolside-bar/4dd87b50b0fb8af380a1b587","category":"Cocktail Bar","checkinsCount":478,"usersCount":241,"tipCount":2,"visitsCount":479,"tier":"","message":"","currency":"","rating":7.4},{"name":"Graffiti Junktion","phone":"4073771961","address":"2401 Edgewater Dr","lat":28.572848300800747,"lng":-81.38931512832642,"neighborhood":"College Park","city_fetched":"Orlando","state":"FL","country":"United States","canonicalUrl":"https://foursquare.com/v/graffiti-junktion/4c8b95921eafb1f732d48435","category":"Burger Joint","checkinsCount":6786,"usersCount":2904,"tipCount":48,"visitsCount":7841,"url":"http://www.graffitijunktion.com","tier":2,"message":"Moderate","currency":"$","rating":7.3},{"name":"VIP Lounge - Rosen Shingle Creek Hotel","address":"9939 Universal Blvd","lat":28.425497,"lng":-81.434397,"city_fetched":"Orlando","state":"FL","country":"United States","canonicalUrl":"https://foursquare.com/v/vip-lounge--rosen-shingle-creek-hotel/4e0fb9b181dc6d4808223227","category":"Lounge","checkinsCount":377,"usersCount":229,"tipCount":1,"visitsCount":380,"url":"http://rosenshinglecreek.com","tier":"","message":"","currency":"","rating":7.2},{"name":"David's Club Bar and Grill at Hilton Orlando","phone":"4073138581","twitter":"hilton_orlando","address":"6001 Destination Pkwy","lat":28.424467267901726,"lng":-81.45941734313965,"city_fetched":"Orlando","state":"FL","country":"United States","canonicalUrl":"https://foursquare.com/v/davids-club-bar-and-grill-at-hilton-orlando/4bc26812b492d13a9a8ca760","category":"American Restaurant","checkinsCount":2409,"usersCount":1194,"tipCount":29,"visitsCount":2428,"url":"http://www.facebook.com/thehiltonorlando","tier":2,"message":"Moderate","currency":"$","rating":7.1}]