[{"name":"Dublin's Irish Pub","phone":"9203850277","twitter":"dublinsirishpub","address":"2070 W 9th Ave","lat":44.01162526465832,"lng":-88.58591113769467,"city_fetched":"Oshkosh,US","state":"WI","country":"United States","canonicalUrl":"https://foursquare.com/dublinsirishpub","categoryId":"4bf58dd8d48988d11b941735","category":"Pub","checkinsCount":5902,"usersCount":1277,"tipCount":24,"visitsCount":6829,"url":"http://www.dublinsirishpuboshkosh.com","tier":2,"message":"Moderate","currency":"$","rating":8.8},{"name":"Mabel Murphy's","phone":"9202317735","address":"701 N Main St","lat":44.02508496306762,"lng":-88.53778839111328,"city_fetched":"Oshkosh,US","state":"WI","country":"United States","canonicalUrl":"https://foursquare.com/v/mabel-murphys/4b52fbe0f964a520f68b27e3","categoryId":"4bf58dd8d48988d116941735","category":"Bar","checkinsCount":8383,"usersCount":1010,"tipCount":33,"visitsCount":8791,"tier":2,"message":"Moderate","currency":"$","rating":8.3},{"name":"Pete's Garage","phone":"9202359897","address":"1514 Oregon St","lat":44.004056,"lng":-88.542188,"city_fetched":"Oshkosh,US","state":"WI","country":"United States","canonicalUrl":"https://foursquare.com/v/petes-garage/4c2ea4137cc0c9b67d80ea9a","categoryId":"4bf58dd8d48988d116941735","category":"Bar","checkinsCount":2568,"usersCount":639,"tipCount":25,"visitsCount":3025,"url":"http://petesgaragebar.com","tier":1,"message":"Cheap","currency":"$","rating":8.3},{"name":"Gardina's Wine Bar And Cafe","phone":"9202313516","address":"448 N Main St","lat":44.01916502054641,"lng":-88.53740587777449,"city_fetched":"Oshkosh,US","state":"WI","country":"United States","canonicalUrl":"https://foursquare.com/v/gardinas-wine-bar-and-cafe/4bb3df7e4019a593fe9338b8","categoryId":"4bf58dd8d48988d123941735","category":"Wine Bar","checkinsCount":1644,"usersCount":739,"tipCount":21,"visitsCount":1854,"url":"http://gardinas.com","tier":2,"message":"Moderate","currency":"$","rating":8.1},{"name":"Peabody's Ale House","phone":"9202301110","twitter":"peabsosh","address":"544 N Main St","lat":44.02085345538708,"lng":-88.53745579719543,"city_fetched":"Oshkosh,US","state":"WI","country":"United States","canonicalUrl":"https://foursquare.com/v/peabodys-ale-house/4b50b2a8f964a520122e27e3","categoryId":"4bf58dd8d48988d116941735","category":"Bar","checkinsCount":10824,"usersCount":2002,"tipCount":30,"visitsCount":11467,"url":"http://www.peabodysalehouse.com","tier":1,"message":"Cheap","currency":"$","rating":8.1},{"name":"Kuf's Coogan & Benders","phone":"9202332400","address":"2126 Algoma Blvd","lat":44.04379328618564,"lng":-88.56286163123158,"city_fetched":"Oshkosh,US","state":"WI","country":"United States","canonicalUrl":"https://foursquare.com/v/kufs-coogan--benders/4d17cb29bb488cfa4ec0afd4","categoryId":"4bf58dd8d48988d116941735","category":"Bar","checkinsCount":2536,"usersCount":165,"tipCount":5,"visitsCount":2734,"tier":"","message":"","currency":"","rating":8},{"name":"Deb's Spare Time Bar & Grill","phone":"9202356577","address":"1303 Harrison St","lat":44.0333733616976,"lng":-88.53666930857976,"city_fetched":"Oshkosh,US","state":"WI","country":"United States","canonicalUrl":"https://foursquare.com/v/debs-spare-time-bar--grill/4bc685f204e8b7136a3e362d","categoryId":"4bf58dd8d48988d116941735","category":"Bar","checkinsCount":2510,"usersCount":216,"tipCount":12,"visitsCount":2757,"url":"http://www.debsparetime.com","tier":"","message":"","currency":"","rating":7.9},{"name":"Woodchucks Bar & Grill","phone":"9202306746","address":"351 Rosalia St","lat":44.01652134387754,"lng":-88.52057933807373,"city_fetched":"Oshkosh,US","state":"WI","country":"United States","canonicalUrl":"https://foursquare.com/v/woodchucks-bar--grill/4b91c719f964a520b5d633e3","categoryId":"4bf58dd8d48988d116941735","category":"Bar","checkinsCount":855,"usersCount":176,"tipCount":9,"visitsCount":964,"tier":"","message":"","currency":"","rating":7.8},{"name":"Holidays Pub & Grill","phone":"9208860069","twitter":"holidayspub","address":"1395 West American Dr","lat":44.22166,"lng":-88.494048,"city_fetched":"Oshkosh,US","state":"WI","country":"United States","canonicalUrl":"https://foursquare.com/v/holidays-pub--grill/4b61f067f964a5205f2c2ae3","categoryId":"4bf58dd8d48988d11d941735","category":"Sports Bar","checkinsCount":2619,"usersCount":1115,"tipCount":24,"visitsCount":3153,"url":"http://www.holidayspub.com","tier":2,"message":"Moderate","currency":"$","rating":7.8},{"name":"Bar 430 Bar & Grill","phone":"9202301114","address":"430 N Main St","lat":44.018619930742304,"lng":-88.53733777999878,"city_fetched":"Oshkosh,US","state":"WI","country":"United States","canonicalUrl":"https://foursquare.com/v/bar-430-bar--grill/52d9f1cb11d255faa0539475","categoryId":"4bf58dd8d48988d116941735","category":"Bar","checkinsCount":1209,"usersCount":447,"tipCount":10,"visitsCount":1394,"url":"http://bar430.com","tier":2,"message":"Moderate","currency":"$","rating":7.8},{"name":"Back Again Stadium Bar","phone":"9206518744","address":"301 Knapp St","lat":44.015788364052696,"lng":-88.5625746846199,"city_fetched":"Oshkosh,US","state":"WI","country":"United States","canonicalUrl":"https://foursquare.com/v/back-again-stadium-bar/4d32310b8250f04d334cf1e0","categoryId":"4bf58dd8d48988d116941735","category":"Bar","checkinsCount":2328,"usersCount":170,"tipCount":7,"visitsCount":2532,"tier":"","message":"","currency":"","rating":7.8},{"name":"Evil Roy Slades","phone":"9204262616","address":"110 W 7th Ave","lat":44.011768387286,"lng":-88.54100704193115,"city_fetched":"Oshkosh,US","state":"WI","country":"United States","canonicalUrl":"https://foursquare.com/v/evil-roy-slades/4ba5170bf964a520badb38e3","categoryId":"4bf58dd8d48988d11d941735","category":"Sports Bar","checkinsCount":6113,"usersCount":384,"tipCount":11,"visitsCount":6329,"url":"http://www.evilroyslades.com","tier":1,"message":"Cheap","currency":"$","rating":7.7},{"name":"O'Marro's Public House","phone":"9204107735","address":"2211 Oregon St","lat":43.99441948448396,"lng":-88.54432711820566,"city_fetched":"Oshkosh,US","state":"WI","country":"United States","canonicalUrl":"https://foursquare.com/v/omarros-public-house/4b9335c1f964a520533b34e3","categoryId":"4bf58dd8d48988d11b941735","category":"Pub","checkinsCount":1932,"usersCount":414,"tipCount":12,"visitsCount":2116,"url":"http://www.omarrospublichouse.com/index.asp","tier":"","message":"","currency":"","rating":7.7},{"name":"Willie Beamons‎ Bar & Grill","phone":"9209670391","address":"2590 County Ro. II","lat":44.20045115681328,"lng":-88.52834701538086,"city_fetched":"Oshkosh,US","state":"WI","country":"United States","canonicalUrl":"https://foursquare.com/v/willie-beamons-bar--grill/4bb7f3ceb35776b06174c801","categoryId":"4bf58dd8d48988d116941735","category":"Bar","checkinsCount":1887,"usersCount":841,"tipCount":6,"visitsCount":2309,"tier":"","message":"","currency":"","rating":7.6},{"name":"Bob's Trails End","phone":"9202356550","address":"500 Merritt Ave","lat":44.019843750651006,"lng":-88.5313269495964,"city_fetched":"Oshkosh,US","state":"WI","country":"United States","canonicalUrl":"https://foursquare.com/v/bobs-trails-end/4b91bb4df964a52050d333e3","categoryId":"4bf58dd8d48988d116941735","category":"Bar","checkinsCount":500,"usersCount":185,"tipCount":7,"visitsCount":570,"url":"http://www.guidespot.com/yp/0142005564_trails_end","tier":"","message":"","currency":"","rating":7.6},{"name":"Fisher's Westward Ho","phone":"9202332511","address":"4905 County Rd S","lat":44.089947,"lng":-88.614572,"city_fetched":"Oshkosh,US","state":"WI","country":"United States","canonicalUrl":"https://foursquare.com/v/fishers-westward-ho/4cdf5f34f8a4a1435232debc","categoryId":"4bf58dd8d48988d116941735","category":"Bar","checkinsCount":315,"usersCount":181,"tipCount":5,"visitsCount":361,"tier":"","message":"","currency":"","rating":7.6},{"name":"Nigl's Chieftan","phone":"9202353559","address":"556 W 9th Ave","lat":44.01059071977506,"lng":-88.55237530610894,"city_fetched":"Oshkosh,US","state":"WI","country":"United States","canonicalUrl":"https://foursquare.com/v/nigls-chieftan/4b6b6385f964a5206c052ce3","categoryId":"4bf58dd8d48988d116941735","category":"Bar","checkinsCount":1160,"usersCount":298,"tipCount":3,"visitsCount":1282,"tier":"","message":"","currency":"","rating":7.5},{"name":"Cheatin' Heart","phone":"9202315089","address":"2839 Harrison St","lat":44.053106189294134,"lng":-88.52960515315411,"city_fetched":"Oshkosh,US","state":"WI","country":"United States","canonicalUrl":"https://foursquare.com/v/cheatin-heart/4c6e898ba437224be71130b1","categoryId":"4bf58dd8d48988d116941735","category":"Bar","checkinsCount":1389,"usersCount":123,"tipCount":1,"visitsCount":1709,"tier":"","message":"","currency":"","rating":7.4},{"name":"Greene's Pour House","phone":"9204861049","twitter":"greenesph","address":"134 W Wisconsin Ave","lat":44.18714309496018,"lng":-88.46333132111305,"city_fetched":"Oshkosh,US","state":"WI","country":"United States","canonicalUrl":"https://foursquare.com/v/greenes-pour-house/4fadbf7de4b08a2bb91e29de","categoryId":"4bf58dd8d48988d11d941735","category":"Sports Bar","checkinsCount":1817,"usersCount":764,"tipCount":15,"visitsCount":2079,"url":"http://www.greenespourhouse.com.","tier":2,"message":"Moderate","currency":"$","rating":7.4},{"name":"Waverly Beach","phone":"9207339721","address":"N8770 Firelane 1","lat":44.209249641509714,"lng":-88.40320587158203,"city_fetched":"Oshkosh,US","state":"WI","country":"United States","canonicalUrl":"https://foursquare.com/v/waverly-beach/4b6dd921f964a52062952ce3","categoryId":"4bf58dd8d48988d116941735","category":"Bar","checkinsCount":2467,"usersCount":1515,"tipCount":17,"visitsCount":2954,"url":"http://www.waverlybeach.com","tier":1,"message":"Cheap","currency":"$","rating":7.4},{"name":"Roy's","phone":"9202320967","address":"3229 Jackson St","lat":44.060288,"lng":-88.54325,"city_fetched":"Oshkosh,US","state":"WI","country":"United States","canonicalUrl":"https://foursquare.com/v/roys/4f067eaa30f824dd646fc4de","categoryId":"4bf58dd8d48988d116941735","category":"Bar","checkinsCount":842,"usersCount":142,"tipCount":6,"visitsCount":1119,"tier":"","message":"","currency":"","rating":7.3},{"name":"Barley & Hops","phone":"9204263677","address":"663 N Main St","lat":44.0238657253,"lng":-88.53788747383324,"city_fetched":"Oshkosh,US","state":"WI","country":"United States","canonicalUrl":"https://foursquare.com/v/barley--hops/4bc019bdf8219c74003bb110","categoryId":"4bf58dd8d48988d116941735","category":"Bar","checkinsCount":5006,"usersCount":942,"tipCount":11,"visitsCount":5470,"tier":1,"message":"Cheap","currency":"$","rating":7.2},{"name":"Chester V's","phone":"9203851772","address":"2505 Oregon St","lat":43.99161038458452,"lng":-88.54246616363525,"city_fetched":"Oshkosh,US","state":"WI","country":"United States","canonicalUrl":"https://foursquare.com/v/chester-vs/564b843c498eadc17fd5d95d","categoryId":"4bf58dd8d48988d11b941735","category":"Pub","checkinsCount":119,"usersCount":118,"tipCount":1,"visitsCount":240,"tier":"","message":"","currency":"","rating":7.2},{"name":"Oblio's Lounge","phone":"9204261063","address":"434 N Main St","lat":44.018635361253004,"lng":-88.53744506835938,"city_fetched":"Oshkosh,US","state":"WI","country":"United States","canonicalUrl":"https://foursquare.com/v/oblios-lounge/4b638cd8f964a520b9822ae3","categoryId":"4bf58dd8d48988d116941735","category":"Bar","checkinsCount":4453,"usersCount":1132,"tipCount":9,"visitsCount":4739,"tier":2,"message":"Moderate","currency":"$","rating":7.2},{"name":"The Bar","phone":"9202323566","address":"825 N Washburn St","lat":44.027815803097404,"lng":-88.58392238616943,"city_fetched":"Oshkosh,US","state":"WI","country":"United States","canonicalUrl":"https://foursquare.com/v/the-bar/4b6b641bf964a5208e052ce3","categoryId":"4bf58dd8d48988d116941735","category":"Bar","checkinsCount":4362,"usersCount":1615,"tipCount":19,"visitsCount":5048,"url":"http://meetatthebar.com","tier":2,"message":"Moderate","currency":"$","rating":7.1},{"name":"The Strip","phone":"9202352966","address":"2090 W 9th Ave","lat":44.01120385566701,"lng":-88.58592057005598,"city_fetched":"Oshkosh,US","state":"WI","country":"United States","canonicalUrl":"https://foursquare.com/v/the-strip/504c01e2e4b0c450c2a5e7ab","categoryId":"4bf58dd8d48988d116941735","category":"Bar","checkinsCount":261,"usersCount":104,"tipCount":6,"visitsCount":265,"tier":"","message":"","currency":"","rating":7.1},{"name":"Jerry's Bar","phone":"9202317380","address":"1210 Ceape Ave","lat":44.01231408119202,"lng":-88.52205455303192,"city_fetched":"Oshkosh,US","state":"WI","country":"United States","canonicalUrl":"https://foursquare.com/v/jerrys-bar/4b530325f964a520908c27e3","categoryId":"4bf58dd8d48988d116941735","category":"Bar","checkinsCount":758,"usersCount":225,"tipCount":7,"visitsCount":1024,"tier":"","message":"","currency":"","rating":7.1},{"name":"City Limits","phone":"9207279494","address":"544 4th St","lat":44.20657886361981,"lng":-88.44395393431628,"city_fetched":"Oshkosh,US","state":"WI","country":"United States","canonicalUrl":"https://foursquare.com/v/city-limits/4b7f482af964a520b32430e3","categoryId":"4bf58dd8d48988d118941735","category":"Dive Bar","checkinsCount":720,"usersCount":206,"tipCount":5,"visitsCount":827,"tier":"","message":"","currency":"","rating":7},{"name":"Oregon Club","phone":"9202306969","address":"1013 Oregon St","lat":44.00902964944043,"lng":-88.54265592563796,"city_fetched":"Oshkosh,US","state":"WI","country":"United States","canonicalUrl":"https://foursquare.com/v/oregon-club/4d4f132fe0f2a1cd01cf938d","categoryId":"4bf58dd8d48988d116941735","category":"Bar","checkinsCount":353,"usersCount":132,"tipCount":4,"visitsCount":374,"tier":"","message":"","currency":"","rating":7},{"name":"ICU Bar & Grill","phone":"9207257401","address":"129 N Green Bay Rd","lat":44.19060118540465,"lng":-88.4848084180222,"city_fetched":"Oshkosh,US","state":"WI","country":"United States","canonicalUrl":"https://foursquare.com/v/icu-bar--grill/4c3cfbf4b169c9b66e7d4668","categoryId":"4bf58dd8d48988d11d941735","category":"Sports Bar","checkinsCount":753,"usersCount":267,"tipCount":8,"visitsCount":810,"tier":"","message":"","currency":"","rating":6.9},{"name":"The Lyons Den Pub","phone":"9202351223","address":"760 W 6th Ave","lat":44.01264635,"lng":-88.55828835,"city_fetched":"Oshkosh,US","state":"WI","country":"United States","canonicalUrl":"https://foursquare.com/v/the-lyons-den-pub/4cf1c20f7e0da1cde9c09397","categoryId":"4bf58dd8d48988d116941735","category":"Bar","checkinsCount":423,"usersCount":126,"tipCount":3,"visitsCount":521,"url":"http://lyonsdentavern.com","tier":"","message":"","currency":"","rating":6.9},{"name":"Fountain Tavern","phone":"9202358685","address":"3696 Stearns Dr","lat":44.067865232627234,"lng":-88.57695400714874,"city_fetched":"Oshkosh,US","state":"WI","country":"United States","canonicalUrl":"https://foursquare.com/v/fountain-tavern/4c79e694566db60cb2b6460e","categoryId":"4bf58dd8d48988d116941735","category":"Bar","checkinsCount":245,"usersCount":175,"tipCount":4,"visitsCount":296,"tier":"","message":"","currency":"","rating":6.8},{"name":"Lu¢ky Penny","phone":"9202307277","twitter":"theluckypennywi","address":"1029 S Main St","lat":44.00836320132862,"lng":-88.53847293622906,"city_fetched":"Oshkosh,US","state":"WI","country":"United States","canonicalUrl":"https://foursquare.com/v/luky-penny/4dbb7eebffcbcd48566576a7","categoryId":"4bf58dd8d48988d11b941735","category":"Pub","checkinsCount":1383,"usersCount":235,"tipCount":23,"visitsCount":1509,"url":"http://theluckypennyoshkosh.com","tier":"","message":"","currency":"","rating":6.8},{"name":"Bottoms Up","phone":"9202312230","address":"702 Oregon St","lat":44.01165472900607,"lng":-88.5424293182131,"city_fetched":"Oshkosh,US","state":"WI","country":"United States","canonicalUrl":"https://foursquare.com/v/bottoms-up/4c142bf6a9c220a1f12c579d","categoryId":"4bf58dd8d48988d116941735","category":"Bar","checkinsCount":489,"usersCount":185,"tipCount":5,"visitsCount":506,"tier":"","message":"","currency":"","rating":6.7},{"name":"Retro's Pub","phone":"9203857506","address":"2015 Harrison St","lat":44.042702,"lng":-88.532863,"city_fetched":"Oshkosh,US","state":"WI","country":"United States","canonicalUrl":"https://foursquare.com/v/retros-pub/4cf04febf98ba090c0b8c673","categoryId":"4bf58dd8d48988d116941735","category":"Bar","checkinsCount":892,"usersCount":241,"tipCount":11,"visitsCount":1096,"tier":"","message":"","currency":"","rating":6.6},{"name":"Bare Bones Brewery","phone":"9207448045","twitter":"barebonesbrew","address":"4362 County Road S","lat":44.08128882185945,"lng":-88.59330075105812,"city_fetched":"Oshkosh,US","state":"WI","country":"United States","canonicalUrl":"https://foursquare.com/v/bare-bones-brewery/556a2c47498e0aec1196230f","categoryId":"50327c8591d4c4b30a586d5d","category":"Brewery","checkinsCount":118,"usersCount":113,"tipCount":2,"visitsCount":200,"url":"http://www.barebonesbrewery.us","tier":"","message":"","currency":"","rating":6.6},{"name":"Stars Cabaret","phone":"9208866566","address":"1413 Green Valley Rd","lat":44.12813310923355,"lng":-88.49878907203674,"city_fetched":"Oshkosh,US","state":"WI","country":"United States","canonicalUrl":"https://foursquare.com/v/stars-cabaret/4bc5361d4a9aa5934d49067b","categoryId":"4bf58dd8d48988d1d6941735","category":"Strip Club","checkinsCount":719,"usersCount":423,"tipCount":3,"visitsCount":832,"tier":"","message":"","currency":"","rating":6.5},{"name":"Magnet Billiards","phone":"9202354880","twitter":"magbilliards","address":"519 N Main St","lat":44.02037023309524,"lng":-88.53776471456987,"city_fetched":"Oshkosh,US","state":"WI","country":"United States","canonicalUrl":"https://foursquare.com/v/magnet-billiards/4b6ba935f964a520aa142ce3","categoryId":"4bf58dd8d48988d116941735","category":"Bar","checkinsCount":7516,"usersCount":1163,"tipCount":29,"visitsCount":7872,"url":"http://www.magnetbilliards.com","tier":1,"message":"Cheap","currency":"$","rating":6.5},{"name":"Park Ave Bar","phone":"9202337275","address":"358 W South Park Ave","lat":44.00658676768325,"lng":-88.54736387729645,"city_fetched":"Oshkosh,US","state":"WI","country":"United States","canonicalUrl":"https://foursquare.com/v/park-ave-bar/4dbb7d79ffcbcd4856656ebe","categoryId":"4bf58dd8d48988d116941735","category":"Bar","checkinsCount":342,"usersCount":115,"tipCount":3,"visitsCount":370,"tier":"","message":"","currency":"","rating":6.4},{"name":"The Reptile Palace","phone":"9202311296","address":"141 High Ave","lat":44.0178522577657,"lng":-88.54004681110382,"city_fetched":"Oshkosh,US","state":"WI","country":"United States","canonicalUrl":"https://foursquare.com/v/the-reptile-palace/4b50b467f964a520742e27e3","categoryId":"4bf58dd8d48988d116941735","category":"Bar","checkinsCount":438,"usersCount":207,"tipCount":6,"visitsCount":464,"tier":"","message":"","currency":"","rating":6.4},{"name":"Varsity Club","phone":"9206510806","address":"570 N Main St","lat":44.02166426181793,"lng":-88.53728950023651,"city_fetched":"Oshkosh,US","state":"WI","country":"United States","canonicalUrl":"https://foursquare.com/v/varsity-club/4b9d4b5bf964a5200ba136e3","categoryId":"4bf58dd8d48988d116941735","category":"Bar","checkinsCount":3196,"usersCount":1050,"tipCount":23,"visitsCount":3410,"url":"http://www.varsityclubbilliards.com","tier":1,"message":"Cheap","currency":"$","rating":6.3},{"name":"Kelly's Bar","phone":"9202331510","twitter":"_kellysbar","address":"219 Wisconsin St","lat":44.02164037666798,"lng":-88.54732096195221,"city_fetched":"Oshkosh,US","state":"WI","country":"United States","canonicalUrl":"https://foursquare.com/v/kellys-bar/4b480413f964a520644626e3","categoryId":"4bf58dd8d48988d116941735","category":"Bar","checkinsCount":4957,"usersCount":971,"tipCount":15,"visitsCount":5033,"tier":2,"message":"Moderate","currency":"$","rating":6.3},{"name":"Leroy's Bar","phone":"9202359659","address":"701 Knapp St","lat":44.0117646808715,"lng":-88.56268703759457,"city_fetched":"Oshkosh,US","state":"WI","country":"United States","canonicalUrl":"https://foursquare.com/v/leroys-bar/4bcf51ba77b29c744bdc8882","categoryId":"4bf58dd8d48988d116941735","category":"Bar","checkinsCount":380,"usersCount":157,"tipCount":2,"visitsCount":466,"tier":"","message":"","currency":"","rating":6.3},{"name":"Fratellos Fieldhouse","phone":"9202322337","address":"1501 Arboretum Dr","lat":44.03487237578387,"lng":-88.56208775128617,"city_fetched":"Oshkosh,US","state":"WI","country":"United States","canonicalUrl":"https://foursquare.com/v/fratellos-fieldhouse/4e9a0bfbe5fa3f633d06f110","categoryId":"4bf58dd8d48988d11d941735","category":"Sports Bar","checkinsCount":987,"usersCount":328,"tipCount":10,"visitsCount":1006,"url":"http://www.fratellosfieldhouse.com","tier":"","message":"","currency":"","rating":6.3},{"name":"Trailside Taven","address":"977 Plank Rd","lat":44.209225284321086,"lng":-88.42595957967661,"city_fetched":"Oshkosh,US","state":"WI","country":"United States","canonicalUrl":"https://foursquare.com/v/trailside-taven/4e40c99eb0fb1399f6e5ca90","categoryId":"4bf58dd8d48988d11b941735","category":"Pub","checkinsCount":406,"usersCount":139,"tipCount":4,"visitsCount":451,"tier":"","message":"","currency":"","rating":6.2},{"name":"Short Branch Saloon","phone":"9207221880","address":"1102 Harrison St","lat":44.17734889134219,"lng":-88.47205680293072,"city_fetched":"Oshkosh,US","state":"WI","country":"United States","canonicalUrl":"https://foursquare.com/v/short-branch-saloon/4bd11156b221c9b68c16d5d0","categoryId":"4bf58dd8d48988d118941735","category":"Dive Bar","checkinsCount":524,"usersCount":223,"tipCount":2,"visitsCount":703,"tier":"","message":"","currency":"","rating":6.2},{"name":"Acee Deucee Lounge","phone":"9202356050","address":"1329 Oregon St","lat":44.0056105816743,"lng":-88.54270219802856,"city_fetched":"Oshkosh,US","state":"WI","country":"United States","canonicalUrl":"https://foursquare.com/v/acee-deucee-lounge/4c4cc44b7711e21e71a346a0","categoryId":"4bf58dd8d48988d116941735","category":"Bar","checkinsCount":222,"usersCount":98,"tipCount":3,"visitsCount":227,"tier":"","message":"","currency":"","rating":6.1},{"name":"Ohio Street Station","phone":"9202330730","address":"815 Ohio St","lat":44.010610953817974,"lng":-88.55258345603943,"city_fetched":"Oshkosh,US","state":"WI","country":"United States","canonicalUrl":"https://foursquare.com/v/ohio-street-station/4b6b9452f964a5200a112ce3","categoryId":"4bf58dd8d48988d116941735","category":"Bar","checkinsCount":592,"usersCount":179,"tipCount":4,"visitsCount":613,"tier":"","message":"","currency":"","rating":6.1},{"name":"Molly McGuire's","phone":"9202333301","twitter":"mollymcguires","address":"539 Campus Pl","lat":44.02051785342851,"lng":-88.54701519012451,"city_fetched":"Oshkosh,US","state":"WI","country":"United States","canonicalUrl":"https://foursquare.com/v/molly-mcguires/4b6c8183f964a5206c3f2ce3","categoryId":"4bf58dd8d48988d116941735","category":"Bar","checkinsCount":5685,"usersCount":1148,"tipCount":19,"visitsCount":5774,"url":"http://www.mollysoshkosh.com","tier":2,"message":"Moderate","currency":"$","rating":6.1},{"name":"Witzke's Tavern","phone":"9202311925","address":"1700 Oregon St","lat":44.0011403705796,"lng":-88.54227036237717,"city_fetched":"Oshkosh,US","state":"WI","country":"United States","canonicalUrl":"https://foursquare.com/v/witzkes-tavern/4b6b6323f964a52059052ce3","categoryId":"4bf58dd8d48988d116941735","category":"Bar","checkinsCount":880,"usersCount":445,"tipCount":7,"visitsCount":1064,"url":"http://witzkesbar.com","tier":"","message":"","currency":"","rating":6},{"name":"Legends Sports Bar & Grill","phone":"9202320440","twitter":"bar_legends","address":"600 N Main St","lat":44.0222151311992,"lng":-88.53733777999878,"city_fetched":"Oshkosh,US","state":"WI","country":"United States","canonicalUrl":"https://foursquare.com/v/legends-sports-bar--grill/4e318a2418380c94acabf3c1","categoryId":"4bf58dd8d48988d11d941735","category":"Sports Bar","checkinsCount":3692,"usersCount":1007,"tipCount":15,"visitsCount":3810,"url":"http://www.legendsoshkosh.com","tier":1,"message":"Cheap","currency":"$","rating":6},{"name":"Washington Hall","address":"405 Washington Ave","lat":44.01749842417322,"lng":-88.53246684365422,"city_fetched":"Oshkosh,US","state":"WI","country":"United States","canonicalUrl":"https://foursquare.com/v/washington-hall/5136352ce4b06f716367f260","categoryId":"4bf58dd8d48988d121941735","category":"Lounge","checkinsCount":109,"usersCount":56,"tipCount":2,"visitsCount":109,"tier":"","message":"","currency":"","rating":5.9},{"name":"Calhoun Beach Club","phone":"9202316990","twitter":"calhoun_b_club","address":"695 N Main St","lat":44.02482267237508,"lng":-88.53782057762146,"city_fetched":"Oshkosh,US","state":"WI","country":"United States","canonicalUrl":"https://foursquare.com/v/calhoun-beach-club/4b52fa81f964a520d48b27e3","categoryId":"4bf58dd8d48988d116941735","category":"Bar","checkinsCount":2677,"usersCount":630,"tipCount":10,"visitsCount":2740,"url":"http://www.cbcbar.com","tier":"","message":"","currency":"","rating":5.7},{"name":"Sami's on Main","phone":"9202306263","address":"668 N Main St","lat":44.02436929304657,"lng":-88.53758057501246,"city_fetched":"Oshkosh,US","state":"WI","country":"United States","canonicalUrl":"https://foursquare.com/v/samis-on-main/4b5b5933f964a5209ff628e3","categoryId":"4bf58dd8d48988d116941735","category":"Bar","checkinsCount":1178,"usersCount":425,"tipCount":9,"visitsCount":1225,"tier":"","message":"","currency":"","rating":5.6},{"name":"Distillery Pub","phone":"9202359756","address":"515 N Main St","lat":44.02023625491708,"lng":-88.53784739971161,"city_fetched":"Oshkosh,US","state":"WI","country":"United States","canonicalUrl":"https://foursquare.com/v/distillery-pub/4b91caeff964a520cad733e3","categoryId":"4bf58dd8d48988d116941735","category":"Bar","checkinsCount":3840,"usersCount":854,"tipCount":27,"visitsCount":3853,"tier":1,"message":"Cheap","currency":"$","rating":5.5},{"name":"Jabroni","phone":"9202329390","address":"14 W Irving Ave","lat":44.02500743304519,"lng":-88.53834545719819,"city_fetched":"Oshkosh,US","state":"WI","country":"United States","canonicalUrl":"https://foursquare.com/v/jabroni/4bc01a1ef8219c747c3bb110","categoryId":"4bf58dd8d48988d116941735","category":"Bar","checkinsCount":477,"usersCount":254,"tipCount":4,"visitsCount":486,"url":"http://www.jabronioshkosh.com","tier":"","message":"","currency":"","rating":5.4},{"name":"The French Quarter","phone":"9202320067","address":"539 High Ave","lat":44.020718443333294,"lng":-88.5468864440918,"city_fetched":"Oshkosh,US","state":"WI","country":"United States","canonicalUrl":"https://foursquare.com/v/the-french-quarter/4b99e939f964a520bd9635e3","categoryId":"4bf58dd8d48988d116941735","category":"Bar","checkinsCount":3609,"usersCount":807,"tipCount":13,"visitsCount":3682,"tier":1,"message":"Cheap","currency":"$","rating":5.4},{"name":"Terry's Lounge","phone":"9202358280","address":"688 N Main St","lat":44.02461178335186,"lng":-88.53766556259926,"city_fetched":"Oshkosh,US","state":"WI","country":"United States","canonicalUrl":"https://foursquare.com/v/terrys-lounge/4b52fe56f964a520208c27e3","categoryId":"4bf58dd8d48988d116941735","category":"Bar","checkinsCount":2976,"usersCount":845,"tipCount":18,"visitsCount":3087,"tier":1,"message":"Cheap","currency":"$","rating":5.3},{"name":"Stitch's Sports Bar","phone":"9206518700","address":"120 Wisconsin St","lat":44.02054485595522,"lng":-88.54748725891113,"city_fetched":"Oshkosh,US","state":"WI","country":"United States","canonicalUrl":"https://foursquare.com/v/stitchs-sports-bar/4c36b69e3849c928ff93bcb1","categoryId":"4bf58dd8d48988d116941735","category":"Bar","checkinsCount":2229,"usersCount":664,"tipCount":12,"visitsCount":2243,"url":"http://www.oshkoshdarkhorse.com","tier":1,"message":"Cheap","currency":"$","rating":5.2}]