[{"name":"Plaza Morena Campestre Grill","phone":"5074130819","address":"160 26th St NE","lat":44.110171994997586,"lng":-93.2235040035044,"city_fetched":"Owatonna","state":"MN","country":"United States","canonicalUrl":"https://foursquare.com/v/plaza-morena-campestre-grill/4ee7973930f888bdafcd7b1f","category":"Bar","checkinsCount":478,"usersCount":255,"tipCount":13,"visitsCount":696,"tier":"","message":"","currency":"","rating":8.6},{"name":"Elk's Lodge #1395","phone":"5074511395","address":"126 E Vine St","lat":44.086142531789534,"lng":-93.22499592594004,"city_fetched":"Owatonna","state":"MN","country":"United States","canonicalUrl":"https://foursquare.com/v/elks-lodge-1395/4cf853ef6cee236ad57de603","category":"Bar","checkinsCount":2080,"usersCount":65,"tipCount":5,"visitsCount":2171,"tier":"","message":"","currency":"","rating":6.9},{"name":"Four Seasons Arena","phone":"5074511093","address":"1525 S Elm Ave","lat":44.0682875473449,"lng":-93.22492231027601,"city_fetched":"Owatonna","state":"MN","country":"United States","canonicalUrl":"https://foursquare.com/v/four-seasons-arena/4eac156f991107f63cda3368","category":"Hockey Arena","checkinsCount":517,"usersCount":236,"tipCount":3,"visitsCount":667,"url":"http://www.co.steele.mn.us/departments/four_seasons_centre/index.html","tier":"","message":"","currency":"","rating":6.6},{"name":"Wings Tavern & Grille","phone":"5074519335","address":"1805 S Elm Ave","lat":44.066040287710294,"lng":-93.22445608031688,"city_fetched":"Owatonna","state":"MN","country":"United States","canonicalUrl":"https://foursquare.com/v/wings-tavern--grille/4e6a5c84aeb7c31e43064510","category":"Bar","checkinsCount":158,"usersCount":89,"tipCount":2,"visitsCount":196,"tier":"","message":"","currency":"","rating":6.3},{"name":"Southside at Spare Time Entertainment","phone":"5074512524","address":"333 18th St SE","lat":44.06587888118037,"lng":-93.21987254093783,"city_fetched":"Owatonna","state":"MN","country":"United States","canonicalUrl":"https://foursquare.com/v/southside-at-spare-time-entertainment/50ad7bdae4b0892bb7092575","category":"Bar","checkinsCount":204,"usersCount":95,"tipCount":3,"visitsCount":343,"tier":"","message":"","currency":"","rating":6},{"name":"Reggies Brewhouse","address":"220 N Cedar Ave","lat":44.08645373634337,"lng":-93.22619833084407,"city_fetched":"Owatonna","state":"MN","country":"United States","canonicalUrl":"https://foursquare.com/v/reggies-brewhouse/4cdc41664006a143609cddb2","category":"General Entertainment","checkinsCount":173,"usersCount":92,"tipCount":1,"visitsCount":173,"tier":"","message":"","currency":"","rating":5.5}]