[{"name":"Beef O'Brady's","phone":"2706854969","address":"3189 Fairview Dr","lat":37.752122,"lng":-87.060215,"city_fetched":"Owensboro,US","state":"KY","country":"United States","canonicalUrl":"https://foursquare.com/v/beef-obradys/4baaa48cf964a5202f7c3ae3","categoryId":"4bf58dd8d48988d11d941735","category":"Sports Bar","checkinsCount":517,"usersCount":262,"tipCount":6,"visitsCount":667,"url":"http://beefobradys.com","tier":"","message":"","currency":"","rating":8.6},{"name":"Gambrinus Libation Emporium","phone":"2706855464","twitter":"kinggambrinus","address":"116A W 2nd St","lat":37.77487269361355,"lng":-87.11195438657332,"neighborhood":"Old Owensboro","city_fetched":"Owensboro,US","state":"KY","country":"United States","canonicalUrl":"https://foursquare.com/kinggambrinus","categoryId":"4bf58dd8d48988d121941735","category":"Lounge","checkinsCount":1887,"usersCount":345,"tipCount":12,"visitsCount":2042,"url":"http://kinggambrinus.com","tier":2,"message":"Moderate","currency":"$","rating":8.5},{"name":"CYO","address":"119 E 2nd St","lat":37.77492151173976,"lng":-87.11048744209225,"neighborhood":"Old Owensboro","city_fetched":"Owensboro,US","state":"KY","country":"United States","canonicalUrl":"https://foursquare.com/v/cyo/5510ba1a498ecad5717714f1","categoryId":"4bf58dd8d48988d11b941735","category":"Pub","checkinsCount":42,"usersCount":38,"tipCount":3,"visitsCount":56,"tier":"","message":"","currency":"","rating":7.5},{"name":"McGrady's Bar","phone":"2702404854","twitter":"mcgradysbar","address":"1006 E 4th St","lat":37.77336777569319,"lng":-87.10003232462923,"neighborhood":"Old Owensboro","city_fetched":"Owensboro,US","state":"KY","country":"United States","canonicalUrl":"https://foursquare.com/v/mcgradys-bar/4f4071ae00391c1771989748","categoryId":"4bf58dd8d48988d116941735","category":"Bar","checkinsCount":733,"usersCount":79,"tipCount":2,"visitsCount":797,"url":"http://www.mcgradysbar.com","tier":"","message":"","currency":"","rating":6.8},{"name":"Boiler Room","phone":"2706844999","address":"1100 Walnut St","lat":37.764875292778015,"lng":-87.118209,"city_fetched":"Owensboro,US","state":"KY","country":"United States","canonicalUrl":"https://foursquare.com/v/boiler-room/4bca7d1bfb84c9b6c3631d3e","categoryId":"4bf58dd8d48988d116941735","category":"Bar","checkinsCount":240,"usersCount":154,"tipCount":2,"visitsCount":289,"tier":"","message":"","currency":"","rating":6.6},{"name":"Taylors Bar","phone":"2706835577","address":"2509 W Parrish Ave","lat":37.758528038138955,"lng":-87.14331958661772,"city_fetched":"Owensboro,US","state":"KY","country":"United States","canonicalUrl":"https://foursquare.com/v/taylors-bar/4bdce8bf462b2d7faadd113c","categoryId":"4bf58dd8d48988d116941735","category":"Bar","checkinsCount":141,"usersCount":80,"tipCount":3,"visitsCount":149,"tier":"","message":"","currency":"","rating":5.4},{"name":"Show-Me's","phone":"2706837788","address":"5000 Frederica St","lat":37.72039648049373,"lng":-87.12700622708924,"city_fetched":"Owensboro,US","state":"KY","country":"United States","canonicalUrl":"https://foursquare.com/v/showmes/4eaa0bbd93ad72a2da45a63e","categoryId":"4bf58dd8d48988d116941735","category":"Bar","checkinsCount":247,"usersCount":128,"tipCount":4,"visitsCount":249,"tier":"","message":"","currency":"","rating":5}]