[{"name":"Jumbo's","phone":"9897290707","address":"200 S Washington St","lat":42.99641971467146,"lng":-84.17095435577964,"city_fetched":"Owosso","state":"MI","country":"United States","canonicalUrl":"https://foursquare.com/v/jumbos/4ba561def964a520770139e3","category":"Bar","checkinsCount":1405,"usersCount":421,"tipCount":14,"visitsCount":1550,"tier":2,"message":"Moderate","currency":"$","rating":8.6},{"name":"Chip's Place","phone":"9897256868","address":"715 S Chipman St","lat":42.99109195462238,"lng":-84.18635769758234,"city_fetched":"Owosso","state":"MI","country":"United States","canonicalUrl":"https://foursquare.com/v/chips-place/4d2993b0d86aa09079ea20c0","category":"Bar","checkinsCount":660,"usersCount":216,"tipCount":4,"visitsCount":782,"url":"http://www.chipsplaceowosso.com","tier":"","message":"","currency":"","rating":7.8},{"name":"Fortune House Restaurant","phone":"9897235673","address":"212 W Main St","lat":42.99770902370422,"lng":-84.1726952194854,"city_fetched":"Owosso","state":"MI","country":"United States","canonicalUrl":"https://foursquare.com/v/fortune-house-restaurant/4d3a21cb039eb60c6154e89c","category":"Chinese Restaurant","checkinsCount":287,"usersCount":115,"tipCount":6,"visitsCount":292,"tier":2,"message":"Moderate","currency":"$","rating":7.5},{"name":"Rainbow Bar","phone":"9897259880","address":"905 W Main St","lat":42.99753676666667,"lng":-84.1832435131073,"city_fetched":"Owosso","state":"MI","country":"United States","canonicalUrl":"https://foursquare.com/v/rainbow-bar/4d23c2a8e704b60c32765ba9","category":"Bar","checkinsCount":447,"usersCount":121,"tipCount":3,"visitsCount":505,"tier":1,"message":"Cheap","currency":"$","rating":6.8}]