[{"name":"Mac and Joe's","phone":"5135238018","address":"21 E High St","lat":39.510055,"lng":-84.741658,"city_fetched":"Oxford,US","state":"OH","country":"United States","canonicalUrl":"https://foursquare.com/v/mac-and-joes/4b54b6dcf964a52087c827e3","categoryId":"4bf58dd8d48988d116941735","category":"Bar","checkinsCount":3978,"usersCount":1360,"tipCount":26,"visitsCount":4097,"url":"http://macjoes.com","tier":2,"message":"Moderate","currency":"$","rating":8.7},{"name":"Skipper's Pub","phone":"5135230066","address":"121 E High St","lat":39.51035134533456,"lng":-84.7397308179294,"city_fetched":"Oxford,US","state":"OH","country":"United States","canonicalUrl":"https://foursquare.com/v/skippers-pub/4b4bb6dff964a520ffa426e3","categoryId":"4bf58dd8d48988d116941735","category":"Bar","checkinsCount":4448,"usersCount":1348,"tipCount":16,"visitsCount":4542,"url":"http://skippers-pub.com","tier":1,"message":"Cheap","currency":"$","rating":8},{"name":"Quarter Barrel Brewery","phone":"5135232525","address":"107 E Church St","lat":39.51136176013935,"lng":-84.74031230265288,"city_fetched":"Oxford,US","state":"OH","country":"United States","canonicalUrl":"https://foursquare.com/v/quarter-barrel-brewery/4cbc9475adcd548194372fa2","categoryId":"50327c8591d4c4b30a586d5d","category":"Brewery","checkinsCount":2295,"usersCount":796,"tipCount":24,"visitsCount":2433,"url":"http://quarterbrewpub.webs.com","tier":"","message":"","currency":"","rating":7.8},{"name":"O' Pub","lat":39.51087959491704,"lng":-84.7433930529507,"city_fetched":"Oxford,US","state":"OH","country":"United States","canonicalUrl":"https://foursquare.com/v/o-pub/502dd28de4b0265f8ab71b3b","categoryId":"4bf58dd8d48988d11b941735","category":"Pub","checkinsCount":766,"usersCount":328,"tipCount":4,"visitsCount":920,"tier":"","message":"","currency":"","rating":7.6},{"name":"Circle Bar","phone":"5135242437","address":"15 E High St.","lat":39.51007957693618,"lng":-84.74185779911586,"city_fetched":"Oxford,US","state":"OH","country":"United States","canonicalUrl":"https://foursquare.com/v/circle-bar/4b64d8fbf964a520afd42ae3","categoryId":"4bf58dd8d48988d116941735","category":"Bar","checkinsCount":870,"usersCount":390,"tipCount":6,"visitsCount":871,"url":"http://steinkellercircle.com","tier":"","message":"","currency":"","rating":7.4},{"name":"Oxford Hookah Lounge","address":"15 N Beech St","lat":39.511140763555574,"lng":-84.74347976040998,"city_fetched":"Oxford,US","state":"OH","country":"United States","canonicalUrl":"https://foursquare.com/v/oxford-hookah-lounge/4c185d011436a5937d4f8d75","categoryId":"4bf58dd8d48988d119941735","category":"Hookah Bar","checkinsCount":319,"usersCount":107,"tipCount":8,"visitsCount":319,"tier":"","message":"","currency":"","rating":7.4},{"name":"CJ's Pub","address":"14 E High St.","lat":39.510003,"lng":-84.741623,"city_fetched":"Oxford,US","state":"OH","country":"United States","canonicalUrl":"https://foursquare.com/v/cjs-pub/4b63cc1bf964a5200e922ae3","categoryId":"4bf58dd8d48988d118941735","category":"Dive Bar","checkinsCount":844,"usersCount":380,"tipCount":5,"visitsCount":848,"tier":"","message":"","currency":"","rating":7.2},{"name":"The Woods","address":"17 N Poplar St","lat":39.51107907726011,"lng":-84.7406489490027,"city_fetched":"Oxford,US","state":"OH","country":"United States","canonicalUrl":"https://foursquare.com/v/the-woods/4c63804f79d1e21ed1edd815","categoryId":"4bf58dd8d48988d116941735","category":"Bar","checkinsCount":3362,"usersCount":887,"tipCount":9,"visitsCount":3431,"tier":2,"message":"Moderate","currency":"$","rating":7.1},{"name":"Brick Street","phone":"5135231335","twitter":"brickstoxford","address":"36 E High St","lat":39.51075151059782,"lng":-84.74106210317979,"city_fetched":"Oxford,US","state":"OH","country":"United States","canonicalUrl":"https://foursquare.com/v/brick-street/4b63cbb8f964a520f9912ae3","categoryId":"4bf58dd8d48988d116941735","category":"Bar","checkinsCount":6706,"usersCount":1661,"tipCount":19,"visitsCount":7054,"url":"http://www.brickstreetbar.com","tier":2,"message":"Moderate","currency":"$","rating":6.9},{"name":"MIA Oxford","address":"77 S Main St","lat":39.509723,"lng":-84.742182,"city_fetched":"Oxford,US","state":"OH","country":"United States","canonicalUrl":"https://foursquare.com/v/mia-oxford/4e6051761495676d54d1b08c","categoryId":"4bf58dd8d48988d11e941735","category":"Cocktail Bar","checkinsCount":253,"usersCount":117,"tipCount":3,"visitsCount":253,"tier":"","message":"","currency":"","rating":6.8},{"name":"45 East Bar & Grill","phone":"5135233737","twitter":"45eastoxfordoh","address":"45 E High St","lat":39.510292,"lng":-84.741018,"city_fetched":"Oxford,US","state":"OH","country":"United States","canonicalUrl":"https://foursquare.com/v/45-east-bar--grill/4b47f63ef964a520304526e3","categoryId":"4bf58dd8d48988d116941735","category":"Bar","checkinsCount":4592,"usersCount":1519,"tipCount":18,"visitsCount":4758,"url":"http://www.45eastbarandgrill.com","tier":2,"message":"Moderate","currency":"$","rating":6.5},{"name":"Decibel","phone":"5135233737","address":"45 E High St","lat":39.510295,"lng":-84.741017,"city_fetched":"Oxford,US","state":"OH","country":"United States","canonicalUrl":"https://foursquare.com/v/decibel/4c9d6250ca44236a80a02099","categoryId":"4bf58dd8d48988d11f941735","category":"Nightclub","checkinsCount":755,"usersCount":248,"tipCount":2,"visitsCount":757,"tier":"","message":"","currency":"","rating":6.4},{"name":"DiPaolo's MIA ThreeTrees","address":"77 S Main St","lat":39.509723353718734,"lng":-84.7421485314093,"city_fetched":"Oxford,US","state":"OH","country":"United States","canonicalUrl":"https://foursquare.com/v/dipaolos-mia-threetrees/4e8782bb5c5cfd1dcc6dde4d","categoryId":"4bf58dd8d48988d121941735","category":"Lounge","checkinsCount":341,"usersCount":173,"tipCount":3,"visitsCount":341,"tier":"","message":"","currency":"","rating":6.2}]