[{"name":"Four Brix Winery and Tasting Room","phone":"8052566006","twitter":"fourbrixwine","address":"2290 Eastman Ave.","lat":34.25267,"lng":-119.2298,"city_fetched":"Oxnard","state":"CA","country":"United States","canonicalUrl":"https://foursquare.com/fourbrixwine","category":"Winery","checkinsCount":163,"usersCount":118,"tipCount":5,"visitsCount":183,"url":"http://fourbrixwine.com/#z8rOvl","tier":"","message":"","currency":"","rating":9},{"name":"O-Sabi Japanese Restaurant","phone":"8056661367","address":"5795 Walker St","lat":34.253953108608144,"lng":-119.21142876148224,"city_fetched":"Oxnard","state":"CA","country":"United States","canonicalUrl":"https://foursquare.com/v/osabi-japanese-restaurant/49e55059f964a520b8631fe3","category":"Japanese Restaurant","checkinsCount":1487,"usersCount":612,"tipCount":18,"visitsCount":1602,"url":"http://www.o-sabi.com","tier":"","message":"","currency":"","rating":8.8},{"name":"Yard House","phone":"8059818707","twitter":"yardhouse","address":"501 Collection Blvd","lat":34.24002176331322,"lng":-119.1757879615241,"neighborhood":"Town Center","city_fetched":"Oxnard","state":"CA","country":"United States","canonicalUrl":"https://foursquare.com/v/yard-house/51b79b2d8bbdfb27deff4b7a","category":"American Restaurant","checkinsCount":2344,"usersCount":1178,"tipCount":24,"visitsCount":2734,"url":"http://www.yardhouse.com","tier":2,"message":"Moderate","currency":"$","rating":8.5},{"name":"Rudder Room","address":"2929 Ocean Dr","lat":34.15929868349363,"lng":-119.22538414708369,"neighborhood":"Hollywood","city_fetched":"Oxnard","state":"CA","country":"United States","canonicalUrl":"https://foursquare.com/v/rudder-room/4b385295f964a520944d25e3","category":"Dive Bar","checkinsCount":481,"usersCount":330,"tipCount":9,"visitsCount":662,"tier":"","message":"","currency":"","rating":8.1},{"name":"BJ's Restaurant and Brewhouse","phone":"8054851124","twitter":"bjsrestaurants","address":"461 W Esplanade Dr","lat":34.23646152,"lng":-119.1798779,"city_fetched":"Oxnard","state":"CA","country":"United States","canonicalUrl":"https://foursquare.com/v/bjs-restaurant-and-brewhouse/44f1a9bdf964a52006381fe3","category":"American Restaurant","checkinsCount":5392,"usersCount":2854,"tipCount":49,"visitsCount":6493,"url":"http://t.co/bl46gcjDLN","tier":2,"message":"Moderate","currency":"$","rating":8},{"name":"Poseidon Brewing Co.","phone":"8054770239","address":"5777 Olivas Park Dr","lat":34.24429011993472,"lng":-119.20974129513579,"city_fetched":"Oxnard","state":"CA","country":"United States","canonicalUrl":"https://foursquare.com/v/poseidon-brewing-co/53bed137498e37b651b2850a","category":"Brewery","checkinsCount":157,"usersCount":102,"tipCount":2,"visitsCount":173,"url":"http://poseidonbrewingco.com","tier":"","message":"","currency":"","rating":8},{"name":"MadeWest Brewing","address":"1744 Donlon St","lat":34.255905,"lng":-119.237878,"city_fetched":"Oxnard","state":"CA","country":"United States","canonicalUrl":"https://foursquare.com/v/madewest-brewing/55da2aea498ec866ff51430c","category":"Brewery","checkinsCount":107,"usersCount":140,"tipCount":2,"visitsCount":248,"tier":"","message":"","currency":"","rating":7.9},{"name":"The Tower Club","phone":"8059837777","address":"300 E Esplanade Dr","lat":34.22835418153841,"lng":-119.17482845965938,"city_fetched":"Oxnard","state":"CA","country":"United States","canonicalUrl":"https://foursquare.com/v/the-tower-club/4bdcc00dafe8c9b648de5085","category":"Cocktail Bar","checkinsCount":600,"usersCount":219,"tipCount":3,"visitsCount":653,"url":"http://towercluboxnard.com","tier":"","message":"","currency":"","rating":7.8},{"name":"Surf Brewery","phone":"8056442739","twitter":"surfbrewery","address":"4561 Market St","lat":34.25772479755486,"lng":-119.23124128129717,"city_fetched":"Oxnard","state":"CA","country":"United States","canonicalUrl":"https://foursquare.com/v/surf-brewery/4de6e56a7d8b79dc4577f8d3","category":"Brewery","checkinsCount":909,"usersCount":562,"tipCount":11,"visitsCount":1100,"tier":"","message":"","currency":"","rating":7.5},{"name":"Bar Rincon","address":"650 Town Center Dr","lat":34.24028825086341,"lng":-119.17937610357208,"neighborhood":"Town Center","city_fetched":"Oxnard","state":"CA","country":"United States","canonicalUrl":"https://foursquare.com/v/bar-rincon/51c28aab498e5911e0a3a840","category":"Bar","checkinsCount":272,"usersCount":66,"tipCount":5,"visitsCount":275,"tier":"","message":"","currency":"","rating":7.4},{"name":"The Waterside Restaurant & Wine Bar","phone":"8059854677","address":"3500 Harbor Blvd Ste 1-111","lat":34.1689121392243,"lng":-119.22873273062713,"neighborhood":"Hollywood","city_fetched":"Oxnard","state":"CA","country":"United States","canonicalUrl":"https://foursquare.com/v/the-waterside-restaurant--wine-bar/506e4334e4b042ad0c444ff1","category":"Wine Bar","checkinsCount":145,"usersCount":100,"tipCount":6,"visitsCount":155,"url":"http://www.thewatersiderestaurantandwinebar.com","tier":"","message":"","currency":"","rating":7.4},{"name":"Andres 805 Bar & Grilled Cheese","phone":"8056429463","address":"1575 Spinnaker Dr","lat":34.24124092391393,"lng":-119.2646656760652,"city_fetched":"Oxnard","state":"CA","country":"United States","canonicalUrl":"https://foursquare.com/v/andres-805-bar--grilled-cheese/51d1f69f498ec6b82432df2e","category":"Bistro","checkinsCount":134,"usersCount":102,"tipCount":6,"visitsCount":137,"url":"http://www.805barandgrilledcheese.com","tier":"","message":"","currency":"","rating":7.1},{"name":"The Q Club","phone":"8052781231","address":"2362 N Oxnard Blvd","lat":34.2285116085888,"lng":-119.17764365673065,"city_fetched":"Oxnard","state":"CA","country":"United States","canonicalUrl":"https://foursquare.com/v/the-q-club/4b73998df964a5208cb52de3","category":"Sports Bar","checkinsCount":417,"usersCount":261,"tipCount":5,"visitsCount":498,"url":"https://qcluboxnard.wordpress.com","tier":"","message":"","currency":"","rating":7}]