[{"name":"Coyotes Bar & Grill","address":"807 N Main St","lat":37.05475234875081,"lng":-93.29489739535023,"city_fetched":"Ozark,US","state":"MO","country":"United States","canonicalUrl":"https://foursquare.com/v/coyotes-bar--grill/4bba851998c7ef3b873d3302","categoryId":"4bf58dd8d48988d116941735","category":"Bar","checkinsCount":1591,"usersCount":263,"tipCount":10,"visitsCount":1811,"tier":1,"message":"Cheap","currency":"$","rating":8.1},{"name":"Galloway Grill","phone":"4178825300","address":"4211 S Lone Pine Ave","lat":37.13589571977327,"lng":-93.2379638308828,"city_fetched":"Ozark,US","state":"MO","country":"United States","canonicalUrl":"https://foursquare.com/v/galloway-grill/52a10c0f498ed2386671fcd4","categoryId":"4bf58dd8d48988d116941735","category":"Bar","checkinsCount":233,"usersCount":253,"tipCount":5,"visitsCount":503,"url":"http://www.gallowaygrill.com","tier":1,"message":"Cheap","currency":"$","rating":8.1},{"name":"Bair's All-American Sports Grill","address":"3821 S Campbell Ave","lat":37.14444546942509,"lng":-93.29692840576172,"city_fetched":"Ozark,US","state":"MO","country":"United States","canonicalUrl":"https://foursquare.com/v/bairs-allamerican-sports-grill/4d44dedabbb1a143ec354c72","categoryId":"4bf58dd8d48988d11d941735","category":"Sports Bar","checkinsCount":1370,"usersCount":676,"tipCount":17,"visitsCount":1447,"url":"http://bairsburgers.com","tier":1,"message":"Cheap","currency":"$","rating":7.7},{"name":"TymeOut Sports Bar","phone":"4177194526","twitter":"tymeoutmo","address":"2902 S Campbell Ste D","lat":37.161394343236395,"lng":-93.29460251225828,"city_fetched":"Ozark,US","state":"MO","country":"United States","canonicalUrl":"https://foursquare.com/v/tymeout-sports-bar/53b32a91498e580342ba3ad4","categoryId":"4bf58dd8d48988d11d941735","category":"Sports Bar","checkinsCount":188,"usersCount":119,"tipCount":3,"visitsCount":314,"tier":"","message":"","currency":"","rating":7.5},{"name":"Parlor 88 Southside","phone":"4178828882","twitter":"parlor88","address":"1111 E Republic Rd","lat":37.13879274060019,"lng":-93.27978200702,"city_fetched":"Ozark,US","state":"MO","country":"United States","canonicalUrl":"https://foursquare.com/v/parlor-88-southside/4af9f635f964a520951522e3","categoryId":"4bf58dd8d48988d121941735","category":"Lounge","checkinsCount":2687,"usersCount":678,"tipCount":11,"visitsCount":2938,"url":"http://www.parlor88.com","tier":"","message":"","currency":"","rating":7.5},{"name":"Skybox Grille & Lounge","phone":"4178779595","address":"1271 E Montclair St","lat":37.15820101378963,"lng":-93.27562560119931,"city_fetched":"Ozark,US","state":"MO","country":"United States","canonicalUrl":"https://foursquare.com/v/skybox-grille--lounge/4b4d5378f964a520c8d026e3","categoryId":"4bf58dd8d48988d116941735","category":"Bar","checkinsCount":1200,"usersCount":361,"tipCount":6,"visitsCount":1281,"url":"http://skyboxspringfield.com","tier":"","message":"","currency":"","rating":6.9},{"name":"Flo Eatery & Wine Bar","phone":"4178860356","address":"2925 E Battlefield St","lat":37.15879332736362,"lng":-93.2377674705275,"neighborhood":"Southern Hills","city_fetched":"Ozark,US","state":"MO","country":"United States","canonicalUrl":"https://foursquare.com/v/flo-eatery--wine-bar/4cd614a9b2a4370414bb8244","categoryId":"4bf58dd8d48988d116941735","category":"Bar","checkinsCount":1273,"usersCount":585,"tipCount":11,"visitsCount":1424,"tier":"","message":"","currency":"","rating":6.1},{"name":"W.F. Codys South","phone":"4178830253","address":"1440 E Republic Rd","lat":37.136937975883484,"lng":-93.27086269855499,"city_fetched":"Ozark,US","state":"MO","country":"United States","canonicalUrl":"https://foursquare.com/v/wf-codys-south/4b6a2d1bf964a520a4cb2be3","categoryId":"4bf58dd8d48988d116941735","category":"Bar","checkinsCount":244,"usersCount":121,"tipCount":9,"visitsCount":244,"tier":"","message":"","currency":"","rating":6.1},{"name":"Barley Wheat And Rye Social House","address":"2144 E Republic Rd","lat":37.1361357210224,"lng":-93.25510422185297,"city_fetched":"Ozark,US","state":"MO","country":"United States","canonicalUrl":"https://foursquare.com/v/barley-wheat-and-rye-social-house/529d2d2711d228cb001dafa7","categoryId":"4bf58dd8d48988d122941735","category":"Whisky Bar","checkinsCount":145,"usersCount":94,"tipCount":1,"visitsCount":153,"tier":"","message":"","currency":"","rating":6},{"name":"Challenger's Bar and Grill","address":"5739 S Campbell Ave","lat":37.11047695836447,"lng":-93.29806750055653,"city_fetched":"Ozark,US","state":"MO","country":"United States","canonicalUrl":"https://foursquare.com/v/challengers-bar-and-grill/4ef3b8e8c5123a724d6ea863","categoryId":"4bf58dd8d48988d116941735","category":"Bar","checkinsCount":290,"usersCount":114,"tipCount":4,"visitsCount":298,"tier":"","message":"","currency":"","rating":5.9}]