[{"name":"Dry Ground Brewing","address":"3121 Broadway St.","lat":37.07135489783207,"lng":-88.63776216475964,"city_fetched":"Paducah,US","state":"KY","country":"United States","canonicalUrl":"https://foursquare.com/v/dry-ground-brewing/54deac7f498edfbffd1851ce","categoryId":"50327c8591d4c4b30a586d5d","category":"Brewery","checkinsCount":160,"usersCount":161,"tipCount":5,"visitsCount":360,"tier":"","message":"","currency":"","rating":8.7},{"name":"Fat Moe's Bar & Grill","phone":"2704426637","twitter":"fatmoespaducah","address":"902 Broadway St","lat":37.083943,"lng":-88.604435,"city_fetched":"Paducah,US","state":"KY","country":"United States","canonicalUrl":"https://foursquare.com/v/fat-moes-bar--grill/4b982ae3f964a520fb3035e3","categoryId":"4bf58dd8d48988d116941735","category":"Bar","checkinsCount":776,"usersCount":335,"tipCount":9,"visitsCount":869,"tier":"","message":"","currency":"","rating":7.9},{"name":"Paducah Beer Werks","phone":"2709331249","address":"301 N 4th St","lat":37.08888480638843,"lng":-88.59962357956813,"city_fetched":"Paducah,US","state":"KY","country":"United States","canonicalUrl":"https://foursquare.com/v/paducah-beer-werks/5511f444498eaf802b7b68dc","categoryId":"50327c8591d4c4b30a586d5d","category":"Brewery","checkinsCount":91,"usersCount":119,"tipCount":4,"visitsCount":205,"tier":"","message":"","currency":"","rating":7.7},{"name":"Cardinal Lanes","phone":"2704436441","address":"816 Joe Clifton Dr","lat":37.08195260501815,"lng":-88.63594390363261,"city_fetched":"Paducah,US","state":"KY","country":"United States","canonicalUrl":"https://foursquare.com/v/cardinal-lanes/4c12af3b127f9521488b2425","categoryId":"4bf58dd8d48988d116941735","category":"Bar","checkinsCount":239,"usersCount":114,"tipCount":6,"visitsCount":240,"tier":"","message":"","currency":"","rating":6.2}]