[{"name":"Patches Pub","phone":"8502338879","address":"4723 Thomas Dr","lat":30.137930970292118,"lng":-85.74917721992558,"city_fetched":"Panama City,US","state":"FL","country":"United States","canonicalUrl":"https://foursquare.com/v/patches-pub/4b4f5637f964a520df0127e3","categoryId":"4bf58dd8d48988d116941735","category":"Bar","checkinsCount":667,"usersCount":537,"tipCount":19,"visitsCount":1123,"url":"http://patchespub.com","tier":1,"message":"Cheap","currency":"$","rating":8.6},{"name":"Mosey's","phone":"8502150425","twitter":"moseysdowntown","address":"425 Grace Ave","lat":30.15600793326056,"lng":-85.66159112763447,"city_fetched":"Panama City,US","state":"FL","country":"United States","canonicalUrl":"https://foursquare.com/v/moseys/5436ded8498e1891c570da96","categoryId":"4bf58dd8d48988d116941735","category":"Bar","checkinsCount":94,"usersCount":48,"tipCount":2,"visitsCount":143,"tier":"","message":"","currency":"","rating":8.3},{"name":"Time Out! Sports Bar & Grill","phone":"8502490086","address":"2903 Thomas Dr","lat":30.154171701666385,"lng":-85.75043920480788,"city_fetched":"Panama City,US","state":"FL","country":"United States","canonicalUrl":"https://foursquare.com/v/time-out-sports-bar--grill/4b7b5061f964a520db5d2fe3","categoryId":"4bf58dd8d48988d11d941735","category":"Sports Bar","checkinsCount":699,"usersCount":258,"tipCount":11,"visitsCount":825,"url":"http://timeoutsportsbars.com","tier":"","message":"","currency":"","rating":7.9},{"name":"Splash Bar Florida","phone":"8502363450","twitter":"splashbarfl","address":"6520 Thomas Dr","lat":30.153519529300585,"lng":-85.7674329994469,"city_fetched":"Panama City,US","state":"FL","country":"United States","canonicalUrl":"https://foursquare.com/v/splash-bar-florida/4bc00215abf49521aac6be93","categoryId":"4bf58dd8d48988d11f941735","category":"Nightclub","checkinsCount":1047,"usersCount":432,"tipCount":13,"visitsCount":1265,"url":"http://www.splashbarflorida.com","tier":"","message":"","currency":"","rating":7.9},{"name":"Hofbr√§u Beer Garden","phone":"8502354632","address":"701 Pier Park Dr","lat":30.216753810096247,"lng":-85.87556719779968,"city_fetched":"Panama City,US","state":"FL","country":"United States","canonicalUrl":"https://foursquare.com/v/hofbr%C3%A4u-beer-garden/4bd0e83741b9ef3bd820fbe5","categoryId":"4bf58dd8d48988d117941735","category":"Beer Garden","checkinsCount":3226,"usersCount":2134,"tipCount":48,"visitsCount":3373,"url":"http://www.hofbraupcb.com","tier":2,"message":"Moderate","currency":"$","rating":7.8},{"name":"Sandpiper Tiki Bar","address":"17403 Front Beach Rd","lat":30.227077340032046,"lng":-85.90020994233005,"city_fetched":"Panama City,US","state":"FL","country":"United States","canonicalUrl":"https://foursquare.com/v/sandpiper-tiki-bar/4c185025834e2d7feec62880","categoryId":"4bf58dd8d48988d116941735","category":"Bar","checkinsCount":945,"usersCount":575,"tipCount":7,"visitsCount":1001,"url":"http://sandpiperbeacon.com","tier":"","message":"","currency":"","rating":7.7},{"name":"Mehdi's Sports Bar","phone":"8502347333","address":"11840 Front Beach Rd","lat":30.18828679333599,"lng":-85.82653811894586,"city_fetched":"Panama City,US","state":"FL","country":"United States","canonicalUrl":"https://foursquare.com/v/mehdis-sports-bar/4c1d777fb306c928a7b065b7","categoryId":"4bf58dd8d48988d11d941735","category":"Sports Bar","checkinsCount":151,"usersCount":87,"tipCount":4,"visitsCount":157,"tier":"","message":"","currency":"","rating":7.7},{"name":"Beef 'O' Brady's","phone":"8502710064","twitter":"beefobrady","address":"2310 S Highway 77 #350","lat":30.223597613146616,"lng":-85.65106104388373,"city_fetched":"Panama City,US","state":"FL","country":"United States","canonicalUrl":"https://foursquare.com/v/beef-o-bradys/4b75ff8cf964a52070352ee3","categoryId":"4bf58dd8d48988d11b941735","category":"Pub","checkinsCount":1136,"usersCount":460,"tipCount":8,"visitsCount":1323,"url":"http://www.beefobradys.com","tier":"","message":"","currency":"","rating":7.6},{"name":"Club La Vela","phone":"8502351061","twitter":"clublavela","address":"8813 Thomas Dr","lat":30.169364028660798,"lng":-85.79424942199634,"city_fetched":"Panama City,US","state":"FL","country":"United States","canonicalUrl":"https://foursquare.com/clublavela","categoryId":"4bf58dd8d48988d11f941735","category":"Nightclub","checkinsCount":6027,"usersCount":3309,"tipCount":41,"visitsCount":6768,"url":"http://www.clublavela.com","tier":2,"message":"Moderate","currency":"$","rating":7.5},{"name":"Brass Tap","twitter":"brasstap","lat":30.223580734980107,"lng":-85.87233348237034,"city_fetched":"Panama City,US","state":"FL","country":"United States","canonicalUrl":"https://foursquare.com/v/brass-tap/55e4cdf6498ed665343d478a","categoryId":"56aa371ce4b08b9a8d57356c","category":"Beer Bar","checkinsCount":134,"usersCount":105,"tipCount":4,"visitsCount":246,"url":"http://www.brasstapbeerbar.com","tier":"","message":"","currency":"","rating":7.3},{"name":"No Name Lounge","phone":"8507639153","address":"5555 W Highway 98","lat":30.185980008043476,"lng":-85.73444682633428,"city_fetched":"Panama City,US","state":"FL","country":"United States","canonicalUrl":"https://foursquare.com/v/no-name-lounge/4d1bf5621356224b45b40bbe","categoryId":"4bf58dd8d48988d118941735","category":"Dive Bar","checkinsCount":1517,"usersCount":496,"tipCount":7,"visitsCount":1584,"tier":"","message":"","currency":"","rating":7.3},{"name":"The Caterpillar Den Hookah Lounge","phone":"8502494737","twitter":"caterpillarden","address":"928 Thomas Dr","lat":30.176388287712772,"lng":-85.76047391595758,"city_fetched":"Panama City,US","state":"FL","country":"United States","canonicalUrl":"https://foursquare.com/caterpillarden","categoryId":"4bf58dd8d48988d119941735","category":"Hookah Bar","checkinsCount":346,"usersCount":116,"tipCount":5,"visitsCount":349,"url":"http://thecaterpillarden.com","tier":2,"message":"Moderate","currency":"$","rating":7.2},{"name":"Blue Moon Bar & Grille","phone":"8502718866","lat":30.237097358169947,"lng":-85.65250096392401,"city_fetched":"Panama City,US","state":"FL","country":"United States","canonicalUrl":"https://foursquare.com/v/blue-moon-bar--grille/4e3dab9118a83d5b2847cf2f","categoryId":"4bf58dd8d48988d116941735","category":"Bar","checkinsCount":503,"usersCount":116,"tipCount":5,"visitsCount":572,"tier":"","message":"","currency":"","rating":7.1},{"name":"Matty's Irish Pub","lat":30.198657863061488,"lng":-85.8450570198359,"city_fetched":"Panama City,US","state":"FL","country":"United States","canonicalUrl":"https://foursquare.com/v/mattys-irish-pub/4f42d276e4b03c8ff5df2627","categoryId":"4bf58dd8d48988d11b941735","category":"Pub","checkinsCount":428,"usersCount":250,"tipCount":9,"visitsCount":428,"tier":"","message":"","currency":"","rating":7},{"name":"Sweet Dreams Karoake Bar","lat":30.194863730216575,"lng":-85.83776823256207,"city_fetched":"Panama City,US","state":"FL","country":"United States","canonicalUrl":"https://foursquare.com/v/sweet-dreams-karoake-bar/4c1d70a4fcf8c9b604d9ab0b","categoryId":"4bf58dd8d48988d120941735","category":"Karaoke Bar","checkinsCount":488,"usersCount":330,"tipCount":8,"visitsCount":508,"tier":"","message":"","currency":"","rating":6.9},{"name":"The Wine Dog","phone":"8507856835","address":"103 W 23rd St","lat":30.18954,"lng":-85.66175,"city_fetched":"Panama City,US","state":"FL","country":"United States","canonicalUrl":"https://foursquare.com/v/the-wine-dog/4e14caedc65bedaeefc0a1ec","categoryId":"4bf58dd8d48988d123941735","category":"Wine Bar","checkinsCount":210,"usersCount":83,"tipCount":3,"visitsCount":210,"url":"http://www.thewinedog.net","tier":"","message":"","currency":"","rating":6.8},{"name":"Harpoon Harry's","phone":"8502346060","address":"12627 Front Beach Rd","lat":30.19283093900207,"lng":-85.83570839169762,"city_fetched":"Panama City,US","state":"FL","country":"United States","canonicalUrl":"https://foursquare.com/v/harpoon-harrys/4b9a7f1cf964a520c8ba35e3","categoryId":"4bf58dd8d48988d11f941735","category":"Nightclub","checkinsCount":1685,"usersCount":1463,"tipCount":26,"visitsCount":1925,"url":"http://harpoonharry.com","tier":"","message":"","currency":"","rating":6.8},{"name":"Golden Nugget","phone":"8507843500","address":"3901 W Highway 98","lat":30.18039896099857,"lng":-85.71103804955378,"city_fetched":"Panama City,US","state":"FL","country":"United States","canonicalUrl":"https://foursquare.com/v/golden-nugget/4bc5457c6c26b713cd2eebf3","categoryId":"4bf58dd8d48988d1d6941735","category":"Strip Club","checkinsCount":512,"usersCount":416,"tipCount":3,"visitsCount":693,"tier":"","message":"","currency":"","rating":6.5},{"name":"Hammerhead Fred's","phone":"8502333907","address":"8752 Thomas Dr","lat":30.169263750824502,"lng":-85.79105198764474,"city_fetched":"Panama City,US","state":"FL","country":"United States","canonicalUrl":"https://foursquare.com/v/hammerhead-freds/4b9a7ec6f964a520a2ba35e3","categoryId":"4bf58dd8d48988d116941735","category":"Bar","checkinsCount":2672,"usersCount":2335,"tipCount":50,"visitsCount":2982,"url":"http://www.hammerheadfreds.com","tier":3,"message":"Expensive","currency":"$","rating":6.3},{"name":"Player's Saloon","address":"4300 Highway 98","lat":30.181200102429667,"lng":-85.71650035516753,"city_fetched":"Panama City,US","state":"FL","country":"United States","canonicalUrl":"https://foursquare.com/v/players-saloon/519712e6498e336c7bdcb338","categoryId":"4bf58dd8d48988d116941735","category":"Bar","checkinsCount":201,"usersCount":89,"tipCount":2,"visitsCount":268,"tier":"","message":"","currency":"","rating":6.2},{"name":"Foghorns","address":"8503 Thomas Dr","lat":30.165889189042684,"lng":-85.78697860537498,"city_fetched":"Panama City,US","state":"FL","country":"United States","canonicalUrl":"https://foursquare.com/v/foghorns/4dcf43f8b0fb25f6e35a37c1","categoryId":"4bf58dd8d48988d116941735","category":"Bar","checkinsCount":449,"usersCount":195,"tipCount":4,"visitsCount":480,"tier":"","message":"","currency":"","rating":6.2},{"name":"The Watershed","address":"1118 Bayview Ave","lat":30.169090519875766,"lng":-85.7025026961357,"city_fetched":"Panama City,US","state":"FL","country":"United States","canonicalUrl":"https://foursquare.com/v/the-watershed/4cbc6189558576b0a1a74a0e","categoryId":"4bf58dd8d48988d116941735","category":"Bar","checkinsCount":480,"usersCount":161,"tipCount":4,"visitsCount":482,"tier":"","message":"","currency":"","rating":6},{"name":"Toy Box","phone":"8507698891","address":"4606 U.S. 98","lat":30.181218375880484,"lng":-85.72112533496016,"city_fetched":"Panama City,US","state":"FL","country":"United States","canonicalUrl":"https://foursquare.com/v/toy-box/4bb8fb7f7421a593a059c240","categoryId":"4bf58dd8d48988d1d6941735","category":"Strip Club","checkinsCount":125,"usersCount":90,"tipCount":4,"visitsCount":125,"tier":"","message":"","currency":"","rating":6},{"name":"Surfs Up Bar","address":"Northwest Forida Beaches Airport","lat":30.35526005492416,"lng":-85.79914277171711,"neighborhood":"Southport","city_fetched":"Panama City,US","state":"FL","country":"United States","canonicalUrl":"https://foursquare.com/v/surfs-up-bar/4c8c37a5c37a6dcbd58af57a","categoryId":"4bf58dd8d48988d116941735","category":"Bar","checkinsCount":589,"usersCount":424,"tipCount":7,"visitsCount":590,"tier":"","message":"","currency":"","rating":5.9},{"name":"The Buccaneer Bar and Grill","phone":"8506401828","address":"711 W Beach Dr","lat":30.159160065105535,"lng":-85.66936068184485,"city_fetched":"Panama City,US","state":"FL","country":"United States","canonicalUrl":"https://foursquare.com/v/the-buccaneer-bar-and-grill/4c1a736fb4e62d7f16d4d793","categoryId":"4bf58dd8d48988d116941735","category":"Bar","checkinsCount":411,"usersCount":237,"tipCount":3,"visitsCount":534,"url":"http://buccaneerbeachmotel.com","tier":"","message":"","currency":"","rating":5.8},{"name":"Hooters","phone":"8502309464","address":"12709 Front Beach Rd","lat":30.193554823191963,"lng":-85.83658933639526,"city_fetched":"Panama City,US","state":"FL","country":"United States","canonicalUrl":"https://foursquare.com/v/hooters/4b9d7b7cf964a52095af36e3","categoryId":"4bf58dd8d48988d11d941735","category":"Sports Bar","checkinsCount":2338,"usersCount":1931,"tipCount":29,"visitsCount":2750,"url":"http://hootersonline.net","tier":2,"message":"Moderate","currency":"$","rating":5.8},{"name":"Gracie Rae Bar and Grill","phone":"8507858761","address":"1201 Beck Ave","lat":30.17012147737671,"lng":-85.70273326396665,"city_fetched":"Panama City,US","state":"FL","country":"United States","canonicalUrl":"https://foursquare.com/v/gracie-rae-bar-and-grill/4b9858e6f964a5201f3d35e3","categoryId":"4bf58dd8d48988d116941735","category":"Bar","checkinsCount":971,"usersCount":512,"tipCount":13,"visitsCount":974,"url":"http://gracierae.theshrimpboatrestaurant.com","tier":"","message":"","currency":"","rating":5.7}]