[{"name":"Buffalo Bar & Grill","phone":"9284743900","address":"311 S Beeline Hwy","lat":34.23694953357033,"lng":-111.32282080811392,"city_fetched":"Payson","state":"AZ","country":"United States","canonicalUrl":"https://foursquare.com/v/buffalo-bar--grill/4bb0021ff964a5207b313ce3","category":"Dive Bar","checkinsCount":1064,"usersCount":841,"tipCount":23,"visitsCount":1308,"tier":"","message":"","currency":"","rating":8.3},{"name":"Mazatzal Hotel And Casino","phone":"8007777529","twitter":"777play","address":"Mazatzal Hotel and Casino","lat":34.22039017370273,"lng":-111.33004188537598,"city_fetched":"Payson","state":"AZ","country":"United States","canonicalUrl":"https://foursquare.com/v/mazatzal-hotel-and-casino/4c1c3bfcb4e62d7f5dd7da93","category":"Casino","checkinsCount":1461,"usersCount":1069,"tipCount":13,"visitsCount":1999,"url":"http://www.777play.com","tier":"","message":"","currency":"","rating":6.8},{"name":"Macky's Bar & Grill","phone":"9284747411","address":"201 W Main St","lat":34.230688712595224,"lng":-111.3275483950942,"city_fetched":"Payson","state":"AZ","country":"United States","canonicalUrl":"https://foursquare.com/v/mackys-bar--grill/4bfe0ec755539c7430c8bcf3","category":"American Restaurant","checkinsCount":633,"usersCount":451,"tipCount":18,"visitsCount":700,"url":"http://mackysgrill.com","tier":1,"message":"Cheap","currency":"$","rating":6.5}]