[{"name":"The Fish House","phone":"8504700003","address":"600 S Barracks St","lat":30.40692907104583,"lng":-87.21026288633963,"neighborhood":"Downtown Pensacola","city_fetched":"Pensacola","state":"FL","country":"United States","canonicalUrl":"https://foursquare.com/v/the-fish-house/4bc1f022b492d13ad6a1a660","category":"Seafood Restaurant","checkinsCount":5820,"usersCount":3703,"tipCount":88,"visitsCount":6948,"url":"http://fishhouse.goodgrits.com/index.php","tier":3,"message":"Expensive","currency":"$","rating":9.3},{"name":"OZONE Pizza Pub","phone":"8504337336","address":"1010 N 12th Ave.","lat":30.426357545679714,"lng":-87.20253646373749,"city_fetched":"Pensacola","state":"FL","country":"United States","canonicalUrl":"https://foursquare.com/v/ozone-pizza-pub/4b57da74f964a520e44328e3","category":"Pizza Place","checkinsCount":2541,"usersCount":1064,"tipCount":31,"visitsCount":2843,"url":"http://ozonepizza.wordpress.com","tier":2,"message":"Moderate","currency":"$","rating":9},{"name":"The Bridge Bar","phone":"8506770616","address":"33 Gulf Breeze Pkwy","lat":30.371354116666666,"lng":-87.17683017253876,"neighborhood":"Gulf Breeze","city_fetched":"Pensacola","state":"FL","country":"United States","canonicalUrl":"https://foursquare.com/v/the-bridge-bar/4c81c178d92ea09312914472","category":"Wine Bar","checkinsCount":927,"usersCount":361,"tipCount":10,"visitsCount":1045,"url":"http://www.thebridgegb.com","tier":"","message":"","currency":"","rating":8.9},{"name":"World of Beer","phone":"8503327952","address":"200 S Palafox St","lat":30.41032,"lng":-87.21479,"neighborhood":"Downtown Pensacola","city_fetched":"Pensacola","state":"FL","country":"United States","canonicalUrl":"https://foursquare.com/v/world-of-beer/4f7e2c11e4b05c076a1e85f4","category":"Bar","checkinsCount":4332,"usersCount":1845,"tipCount":26,"visitsCount":5185,"url":"http://worldofbeer.com/Locations/Palafox","tier":2,"message":"Moderate","currency":"$","rating":8.9},{"name":"Tin Cow","phone":"8504662103","twitter":"thetincow","address":"102 S. Palafox St","lat":30.41122948031634,"lng":-87.2149169198633,"neighborhood":"Downtown Pensacola","city_fetched":"Pensacola","state":"FL","country":"United States","canonicalUrl":"https://foursquare.com/v/tin-cow/4f5573a5e4b0a348f9a8f138","category":"Burger Joint","checkinsCount":3018,"usersCount":2082,"tipCount":64,"visitsCount":3892,"url":"http://www.thetincow.com","tier":2,"message":"Moderate","currency":"$","rating":8.7},{"name":"Pensacola Bay Brewery","phone":"8504343353","twitter":"pbbrew","address":"225 E Zaragoza St","lat":30.408463938962267,"lng":-87.21048660169457,"neighborhood":"Downtown Pensacola","city_fetched":"Pensacola","state":"FL","country":"United States","canonicalUrl":"https://foursquare.com/v/pensacola-bay-brewery/4c2a45b1197e9521a76a628d","category":"Brewery","checkinsCount":2154,"usersCount":1272,"tipCount":27,"visitsCount":2545,"url":"http://pbbrew.com","tier":1,"message":"Cheap","currency":"$","rating":8.6},{"name":"Old Hickory Whiskey Bar","phone":"8506199994","address":"123 Palafox St","lat":30.410614121906903,"lng":-87.21499472634363,"neighborhood":"Downtown Pensacola","city_fetched":"Pensacola","state":"FL","country":"United States","canonicalUrl":"https://foursquare.com/v/old-hickory-whiskey-bar/5149cccfe4b0351529600372","category":"Bar","checkinsCount":884,"usersCount":400,"tipCount":13,"visitsCount":1024,"url":"http://oldhickorywhiskeybar.com","tier":"","message":"","currency":"","rating":8.5},{"name":"Oar House","phone":"8505494444","twitter":"theoarhousefl","address":"1000 S Pace Blvd","lat":30.400198752422362,"lng":-87.24235519034568,"neighborhood":"South Pensacola","city_fetched":"Pensacola","state":"FL","country":"United States","canonicalUrl":"https://foursquare.com/theoarhousefl","category":"Pub","checkinsCount":1809,"usersCount":1261,"tipCount":26,"visitsCount":2258,"url":"http://www.the-oar-house.com/#5233j","tier":2,"message":"Moderate","currency":"$","rating":8.4},{"name":"Atlas Oyster House","phone":"8504700003","address":"600 S Barracks St","lat":30.40702797087376,"lng":-87.21028233989087,"neighborhood":"Downtown Pensacola","city_fetched":"Pensacola","state":"FL","country":"United States","canonicalUrl":"https://foursquare.com/v/atlas-oyster-house/4b4fba9cf964a520e91227e3","category":"Seafood Restaurant","checkinsCount":2392,"usersCount":1116,"tipCount":21,"visitsCount":2451,"url":"http://www.goodgrits.com","tier":2,"message":"Moderate","currency":"$","rating":8.4},{"name":"Hub Stacey's","phone":"8504691001","address":"217 S Alcaniz St","lat":30.410142166666667,"lng":-87.209491,"neighborhood":"Seville Historic District","city_fetched":"Pensacola","state":"FL","country":"United States","canonicalUrl":"https://foursquare.com/v/hub-staceys/4b7772c4f964a520179b2ee3","category":"Karaoke Bar","checkinsCount":2501,"usersCount":1244,"tipCount":31,"visitsCount":2978,"url":"http://www.hubstaceys.com","tier":1,"message":"Cheap","currency":"$","rating":8.4},{"name":"Seville Quarter Oyster Bar","phone":"8504346211","address":"130 E Government St","lat":30.4097618327129,"lng":-87.21293281124879,"neighborhood":"Downtown Pensacola","city_fetched":"Pensacola","state":"FL","country":"United States","canonicalUrl":"https://foursquare.com/v/seville-quarter-oyster-bar/4b455d9bf964a5206d0b26e3","category":"Nightclub","checkinsCount":8611,"usersCount":2525,"tipCount":38,"visitsCount":8798,"url":"http://sevillequarter.com","tier":"","message":"","currency":"","rating":8.4},{"name":"Hopjack's Pizza Kitchen & Taproom","phone":"8504976073","twitter":"hopjacks","address":"10 S. Palafox St.","lat":30.41238849259359,"lng":-87.21519896774382,"neighborhood":"Downtown Pensacola","city_fetched":"Pensacola","state":"FL","country":"United States","canonicalUrl":"https://foursquare.com/v/hopjacks-pizza-kitchen--taproom/4c43c669f05e952188dce3b3","category":"Pizza Place","checkinsCount":7223,"usersCount":2781,"tipCount":68,"visitsCount":7489,"url":"http://www.hopjacks.com","tier":2,"message":"Moderate","currency":"$","rating":8.3},{"name":"City Grocery","phone":"8504698100","address":"2050 N 12th Ave","lat":30.4360194,"lng":-87.2051427,"city_fetched":"Pensacola","state":"FL","country":"United States","canonicalUrl":"https://foursquare.com/v/city-grocery/4ba7e33cf964a520f4bb39e3","category":"Restaurant","checkinsCount":1007,"usersCount":389,"tipCount":11,"visitsCount":1173,"url":"http://citygrocerypensacola.com","tier":"","message":"","currency":"","rating":8.2},{"name":"Cabaret","phone":"8506072020","address":"101 S Jefferson St","lat":30.41130477679348,"lng":-87.21409021808311,"neighborhood":"Downtown Pensacola","city_fetched":"Pensacola","state":"FL","country":"United States","canonicalUrl":"https://foursquare.com/v/cabaret/4c43c15ff05e95219bdae3b3","category":"Bar","checkinsCount":1677,"usersCount":482,"tipCount":17,"visitsCount":1745,"tier":2,"message":"Moderate","currency":"$","rating":8.1},{"name":"TGI Fridays","phone":"8504775666","twitter":"tgifridays","address":"1240 Airport Blvd","lat":30.48127358,"lng":-87.21482452,"neighborhood":"Northeast Pensacola","city_fetched":"Pensacola","state":"FL","country":"United States","canonicalUrl":"https://foursquare.com/v/tgi-fridays/509d636e5d2463e871548087","category":"American Restaurant","checkinsCount":4395,"usersCount":1653,"tipCount":32,"visitsCount":4727,"url":"http://tgifridays.com","tier":2,"message":"Moderate","currency":"$","rating":8},{"name":"Vinyl Music Hall","phone":"8506076758","twitter":"vinylmusichall","address":"5 E Garden St","lat":30.41267752098533,"lng":-87.2153108138501,"neighborhood":"Downtown Pensacola","city_fetched":"Pensacola","state":"FL","country":"United States","canonicalUrl":"https://foursquare.com/v/vinyl-music-hall/4c447e1959d99c749bd4fbad","category":"Concert Hall","checkinsCount":2633,"usersCount":1000,"tipCount":14,"visitsCount":2647,"url":"http://www.vinylmusichall.com","tier":"","message":"","currency":"","rating":8},{"name":"Pot Roast & Pinot","phone":"8506077336","twitter":"potroastpinot","address":"321 E Cervantes St","lat":30.42188419156955,"lng":-87.21250485531202,"neighborhood":"Downtown Pensacola","city_fetched":"Pensacola","state":"FL","country":"United States","canonicalUrl":"https://foursquare.com/v/pot-roast--pinot/51edd828454ad4127bf5b2d0","category":"American Restaurant","checkinsCount":276,"usersCount":211,"tipCount":14,"visitsCount":326,"url":"http://www.potroastpinot.com","tier":2,"message":"Moderate","currency":"$","rating":8},{"name":"Twin Peaks Pensacola","address":"4952 Bayou Blvd","lat":30.47098827141852,"lng":-87.2068194814254,"neighborhood":"Northeast Pensacola","city_fetched":"Pensacola","state":"FL","country":"United States","canonicalUrl":"https://foursquare.com/v/twin-peaks-pensacola/541ba8a7498ec391c3b109e1","category":"Bar","checkinsCount":300,"usersCount":298,"tipCount":7,"visitsCount":643,"url":"http://twinpeaksrestaurant.com","tier":"","message":"","currency":"","rating":7.8},{"name":"The Deck Bar","address":"601 S Barracks St","lat":30.406760573387146,"lng":-87.210135,"neighborhood":"Downtown Pensacola","city_fetched":"Pensacola","state":"FL","country":"United States","canonicalUrl":"https://foursquare.com/v/the-deck-bar/4c783fce2d3ba143d1538ad0","category":"Bar","checkinsCount":471,"usersCount":159,"tipCount":1,"visitsCount":473,"tier":"","message":"","currency":"","rating":7.7},{"name":"5 1/2 Bar","phone":"8502210718","address":"2 Palafox Pl","lat":30.41276648467469,"lng":-87.21490412950516,"neighborhood":"Downtown Pensacola","city_fetched":"Pensacola","state":"FL","country":"United States","canonicalUrl":"https://foursquare.com/v/5-12-bar/4e5ad404cc3f85b29cb29b3e","category":"Cocktail Bar","checkinsCount":1659,"usersCount":405,"tipCount":13,"visitsCount":1672,"url":"http://fiveandahalfbar.com","tier":"","message":"","currency":"","rating":7.6},{"name":"Play","phone":"8504663080","address":"16 S Palafox St","lat":30.41226391053159,"lng":-87.21505308111965,"neighborhood":"Downtown Pensacola","city_fetched":"Pensacola","state":"FL","country":"United States","canonicalUrl":"https://foursquare.com/v/play/4cac6494d971b1f74ed82fe1","category":"Bar","checkinsCount":2790,"usersCount":811,"tipCount":22,"visitsCount":2825,"url":"http://iplaypensacola.com","tier":2,"message":"Moderate","currency":"$","rating":7.6},{"name":"Babe's","phone":"8504388281","address":"4024 N Davis Hwy","lat":30.455731673516127,"lng":-87.22269207038836,"city_fetched":"Pensacola","state":"FL","country":"United States","canonicalUrl":"https://foursquare.com/v/babes/4bfc32391be376b0fc4bf8b4","category":"Strip Club","checkinsCount":3065,"usersCount":387,"tipCount":14,"visitsCount":3160,"tier":"","message":"","currency":"","rating":7.6},{"name":"Sluggo's","phone":"8507916501","address":"101 S Jefferson St","lat":30.411251692849756,"lng":-87.21409021808311,"neighborhood":"Downtown Pensacola","city_fetched":"Pensacola","state":"FL","country":"United States","canonicalUrl":"https://foursquare.com/v/sluggos/4bcf8139462cb713e8dbd607","category":"Vegetarian / Vegan Restaurant","checkinsCount":1421,"usersCount":532,"tipCount":17,"visitsCount":1515,"url":"http://sluggospcola.blogspot.com","tier":2,"message":"Moderate","currency":"$","rating":7.6},{"name":"Hot Spot BBQ","phone":"8504976060","address":"901 E La Rua St","lat":30.420089,"lng":-87.206214,"city_fetched":"Pensacola","state":"FL","country":"United States","canonicalUrl":"https://foursquare.com/v/hot-spot-bbq/51bcaf1e498e2d7744d20a16","category":"BBQ Joint","checkinsCount":122,"usersCount":175,"tipCount":11,"visitsCount":287,"tier":2,"message":"Moderate","currency":"$","rating":7.6},{"name":"Blend Lounge","lat":30.410295486450195,"lng":-87.2144546508789,"neighborhood":"Downtown Pensacola","city_fetched":"Pensacola","state":"FL","country":"United States","canonicalUrl":"https://foursquare.com/v/blend-lounge/4fef5d4be4b038983ce30efb","category":"Lounge","checkinsCount":1374,"usersCount":296,"tipCount":7,"visitsCount":1446,"tier":"","message":"","currency":"","rating":7.4},{"name":"Arety's Angels","phone":"8504357500","address":"11 E Fairfield Dr","lat":30.447602361672004,"lng":-87.22776297542484,"city_fetched":"Pensacola","state":"FL","country":"United States","canonicalUrl":"https://foursquare.com/v/aretys-angels/4bfc41cf2fcf952196c035b4","category":"Strip Club","checkinsCount":2038,"usersCount":329,"tipCount":6,"visitsCount":2138,"tier":"","message":"","currency":"","rating":7.4},{"name":"Cordova Lanes","phone":"8504772300","address":"2111 Airport Blvd","lat":30.475285143951112,"lng":-87.20405679414586,"neighborhood":"Northeast Pensacola","city_fetched":"Pensacola","state":"FL","country":"United States","canonicalUrl":"https://foursquare.com/v/cordova-lanes/4c0806407e3fc9281daaef82","category":"Bowling Alley","checkinsCount":1076,"usersCount":618,"tipCount":14,"visitsCount":1311,"url":"http://www.cordovalanes.com","tier":"","message":"","currency":"","rating":7.4},{"name":"Emerald City","phone":"8504339491","twitter":"emcitypensacola","address":"406 E Wright St","lat":30.417961657621735,"lng":-87.2109317779541,"neighborhood":"Downtown Pensacola","city_fetched":"Pensacola","state":"FL","country":"United States","canonicalUrl":"https://foursquare.com/v/emerald-city/4c04a01b9a7920a1978dd179","category":"Gay Bar","checkinsCount":3236,"usersCount":1093,"tipCount":21,"visitsCount":3704,"url":"http://www.emeraldcitypensacola.com","tier":1,"message":"Cheap","currency":"$","rating":7.3},{"name":"The Roundup","phone":"8504338482","address":"560 E Heinberg St","lat":30.418779942943186,"lng":-87.20324449441456,"city_fetched":"Pensacola","state":"FL","country":"United States","canonicalUrl":"https://foursquare.com/v/the-roundup/4bfde238f61dc9b609c59fde","category":"Bar","checkinsCount":3844,"usersCount":511,"tipCount":22,"visitsCount":4157,"url":"http://www.theroundup.net","tier":"","message":"","currency":"","rating":7.3},{"name":"Rosie O'Gradys","address":"government st","lat":30.40979695,"lng":-87.21285725,"neighborhood":"Downtown Pensacola","city_fetched":"Pensacola","state":"FL","country":"United States","canonicalUrl":"https://foursquare.com/v/rosie-ogradys/4b777ef4f964a520089e2ee3","category":"American Restaurant","checkinsCount":551,"usersCount":247,"tipCount":0,"visitsCount":552,"tier":2,"message":"Moderate","currency":"$","rating":7.1},{"name":"Nick's Boathouse","phone":"8509128775","twitter":"nicksboathouse","address":"455 W Main St","lat":30.4045876771227,"lng":-87.22141818108298,"neighborhood":"Downtown Pensacola","city_fetched":"Pensacola","state":"FL","country":"United States","canonicalUrl":"https://foursquare.com/v/nicks-boathouse/4f74b7e6e4b04d68f0de4993","category":"Seafood Restaurant","checkinsCount":734,"usersCount":744,"tipCount":57,"visitsCount":1052,"url":"http://nicksboathouse.com","tier":2,"message":"Moderate","currency":"$","rating":7.1},{"name":"Apple Annie's","phone":"8504346211","address":"130 E Government St","lat":30.409864,"lng":-87.21300458333333,"neighborhood":"Downtown Pensacola","city_fetched":"Pensacola","state":"FL","country":"United States","canonicalUrl":"https://foursquare.com/v/apple-annies/4c3fda66d691c9b6bd728a0a","category":"Nightclub","checkinsCount":601,"usersCount":231,"tipCount":2,"visitsCount":610,"tier":"","message":"","currency":"","rating":7},{"name":"Coyotes","phone":"8508571500","address":"5030 Bayou Blvd","lat":30.47350609348374,"lng":-87.2100051260286,"neighborhood":"Northeast Pensacola","city_fetched":"Pensacola","state":"FL","country":"United States","canonicalUrl":"https://foursquare.com/v/coyotes/4c3d1b6da97bbe9ae882fbdd","category":"Sports Bar","checkinsCount":2236,"usersCount":318,"tipCount":13,"visitsCount":2249,"tier":"","message":"","currency":"","rating":7},{"name":"The Spanish Trail Pub & Eatery","phone":"8504789966","address":"4299 Creighton Rd","lat":30.49473521596892,"lng":-87.16683231762786,"neighborhood":"Northeast Pensacola","city_fetched":"Pensacola","state":"FL","country":"United States","canonicalUrl":"https://foursquare.com/v/the-spanish-trail-pub--eatery/4b7b284af964a520c7542fe3","category":"Dive Bar","checkinsCount":802,"usersCount":184,"tipCount":10,"visitsCount":861,"tier":"","message":"","currency":"","rating":7},{"name":"Rosie O’Grady’s Good Time Emporium","address":"130 E Government St","lat":30.409735104146154,"lng":-87.21283068575293,"neighborhood":"Downtown Pensacola","city_fetched":"Pensacola","state":"FL","country":"United States","canonicalUrl":"https://foursquare.com/v/rosie-ogradys-good-time-emporium/4edaf58030f83fb79d6373bc","category":"Bar","checkinsCount":1190,"usersCount":482,"tipCount":4,"visitsCount":1234,"url":"http://www.sevillequarter.com/rooms/rosie-ogradys","tier":1,"message":"Cheap","currency":"$","rating":7},{"name":"New York Nick's","phone":"8504691984","address":"9 Palafox Pl","lat":30.412456,"lng":-87.215289,"neighborhood":"Downtown Pensacola","city_fetched":"Pensacola","state":"FL","country":"United States","canonicalUrl":"https://foursquare.com/v/new-york-nicks/4b5213eff964a520176627e3","category":"Sports Bar","checkinsCount":2031,"usersCount":794,"tipCount":20,"visitsCount":2059,"url":"http://www.newyorknicks.net","tier":"","message":"","currency":"","rating":6.9},{"name":"Ticket Sports Bar","phone":"8504730717","address":"7250 Plantation Rd","lat":30.501621695855672,"lng":-87.22648922317369,"neighborhood":"North Central Pensacola","city_fetched":"Pensacola","state":"FL","country":"United States","canonicalUrl":"https://foursquare.com/v/ticket-sports-bar/4c54e52afd2ea59385dccd2a","category":"Sports Bar","checkinsCount":909,"usersCount":276,"tipCount":11,"visitsCount":933,"url":"http://theticketsportsbar.com","tier":"","message":"","currency":"","rating":6.9},{"name":"Hot Ticket Sports Bar","phone":"8504338060","address":"820 E Gregory St","lat":30.418594835715847,"lng":-87.19975193275033,"city_fetched":"Pensacola","state":"FL","country":"United States","canonicalUrl":"https://foursquare.com/v/hot-ticket-sports-bar/4bbbdb7aafe1b7130cd12f4b","category":"Sports Bar","checkinsCount":565,"usersCount":182,"tipCount":3,"visitsCount":567,"url":"http://www.ticketsportsbar.com","tier":"","message":"","currency":"","rating":6.9}]