[{"name":"Mi Margarita Mexican Restaurant","phone":"8152235655","address":"4341 Venture Dr","lat":41.360536009650694,"lng":-89.12665278927153,"city_fetched":"Peru","state":"IL","country":"United States","canonicalUrl":"https://foursquare.com/v/mi-margarita-mexican-restaurant/4b44b60cf964a52016fa25e3","category":"Mexican Restaurant","checkinsCount":364,"usersCount":189,"tipCount":7,"visitsCount":371,"url":"http://www.mimargarita.net","tier":"","message":"","currency":"","rating":8},{"name":"Edge's Tap","address":"1805 4th St","lat":41.328066680875466,"lng":-89.12943531447553,"city_fetched":"Peru","state":"IL","country":"United States","canonicalUrl":"https://foursquare.com/v/edges-tap/4c6f49379c6d6dcb8651cf7a","category":"Bar","checkinsCount":837,"usersCount":99,"tipCount":2,"visitsCount":845,"tier":"","message":"","currency":"","rating":7.9},{"name":"Waterstreet Pub and Eatery","phone":"8152230400","address":"1525 Water St","lat":41.32369129340702,"lng":-89.12597649142421,"city_fetched":"Peru","state":"IL","country":"United States","canonicalUrl":"https://foursquare.com/v/waterstreet-pub-and-eatery/4b809b42f964a520848030e3","category":"Pub","checkinsCount":711,"usersCount":288,"tipCount":12,"visitsCount":935,"url":"http://waterstreetpub.com","tier":2,"message":"Moderate","currency":"$","rating":7.8},{"name":"Brandy's Fine Food and Cocktails","phone":"8152201744","address":"1519 Water St","lat":41.323410592265866,"lng":-89.12598609924316,"city_fetched":"Peru","state":"IL","country":"United States","canonicalUrl":"https://foursquare.com/v/brandys-fine-food-and-cocktails/4d29d9370fdc6a3154f88e0b","category":"American Restaurant","checkinsCount":236,"usersCount":106,"tipCount":3,"visitsCount":237,"tier":"","message":"","currency":"","rating":7.1},{"name":"Cabin Fever Bar & Grill","phone":"8152241099","address":"5220 Trompeter Rd","lat":41.36953353881836,"lng":-89.12782,"city_fetched":"Peru","state":"IL","country":"United States","canonicalUrl":"https://foursquare.com/v/cabin-fever-bar--grill/4bf744d55ec320a133cf86d3","category":"American Restaurant","checkinsCount":315,"usersCount":249,"tipCount":9,"visitsCount":385,"tier":"","message":"","currency":"","rating":6.1}]