[{"name":"Tria","phone":"2156299200","twitter":"triaphilly","address":"1137 Spruce St","lat":39.946607,"lng":-75.161088,"neighborhood":"Washington Square West","city_fetched":"Philadelphia","state":"PA","country":"United States","canonicalUrl":"https://foursquare.com/v/tria/4a0b643bf964a520f2741fe3","category":"Wine Bar","checkinsCount":8820,"usersCount":4085,"tipCount":78,"visitsCount":9559,"url":"http://www.triacafe.com","tier":2,"message":"Moderate","currency":"$","rating":9.5},{"name":"Yards Brewing Company","phone":"2156342600","twitter":"yardsbrew","address":"901 N Delaware Ave","lat":39.96238803853491,"lng":-75.13588231735324,"neighborhood":"Northern Liberties - Fishtown","city_fetched":"Philadelphia","state":"PA","country":"United States","canonicalUrl":"https://foursquare.com/v/yards-brewing-company/49f73908f964a520716c1fe3","category":"Brewery","checkinsCount":8327,"usersCount":5962,"tipCount":63,"visitsCount":9524,"url":"http://www.yardsbrewing.com","tier":1,"message":"Cheap","currency":"$","rating":9.4},{"name":"Tria","phone":"2159728742","address":"123 S 18th St","lat":39.950976,"lng":-75.170306,"neighborhood":"Center City West","city_fetched":"Philadelphia","state":"PA","country":"United States","canonicalUrl":"https://foursquare.com/v/tria/46e290eff964a520a44a1fe3","category":"Wine Bar","checkinsCount":8382,"usersCount":4717,"tipCount":95,"visitsCount":8432,"url":"http://triacafe.com","tier":3,"message":"Expensive","currency":"$","rating":9.4},{"name":"Kraftwork","phone":"2157391700","twitter":"kraftworkbar","address":"541 E Girard Ave","lat":39.97144701521308,"lng":-75.12730121612549,"neighborhood":"North Philadelphia","city_fetched":"Philadelphia","state":"PA","country":"United States","canonicalUrl":"https://foursquare.com/v/kraftwork/4be2f897cbdbef3be88160d8","category":"Bar","checkinsCount":11221,"usersCount":4175,"tipCount":93,"visitsCount":12520,"url":"http://kraftworkbar.com","tier":2,"message":"Moderate","currency":"$","rating":9.4},{"name":"Frankford Hall","phone":"2156343338","twitter":"starrrestaurant","address":"1210 Frankford Ave","lat":39.969448991172705,"lng":-75.13469874858856,"neighborhood":"Northern Liberties - Fishtown","city_fetched":"Philadelphia","state":"PA","country":"United States","canonicalUrl":"https://foursquare.com/v/frankford-hall/4dc81f4c315170a4221e250a","category":"Beer Garden","checkinsCount":24359,"usersCount":12114,"tipCount":125,"visitsCount":25735,"url":"http://frankfordhall.com","tier":2,"message":"Moderate","currency":"$","rating":9.3},{"name":"Monk's Cafe","phone":"2155457005","address":"264 S 16th St","lat":39.9477629747096,"lng":-75.16807079315186,"neighborhood":"Rittenhouse Square","city_fetched":"Philadelphia","state":"PA","country":"United States","canonicalUrl":"https://foursquare.com/v/monks-cafe/40b28c80f964a520d3f81ee3","category":"Gastropub","checkinsCount":15736,"usersCount":11789,"tipCount":212,"visitsCount":17806,"url":"http://monkscafe.com","tier":2,"message":"Moderate","currency":"$","rating":9.3},{"name":"Nick's Old Original Roast Beef","phone":"2154634114","address":"2149 S 20th St","lat":39.92432694939479,"lng":-75.17939283083703,"neighborhood":"South Philadelphia","city_fetched":"Philadelphia","state":"PA","country":"United States","canonicalUrl":"https://foursquare.com/v/nicks-old-original-roast-beef/4b1d8a7ef964a520ed1124e3","category":"Sandwich Place","checkinsCount":1410,"usersCount":914,"tipCount":25,"visitsCount":1787,"url":"http://nicksroastbeef.com","tier":1,"message":"Cheap","currency":"$","rating":9.3},{"name":"Memphis Taproom","phone":"2154254460","address":"2331 E Cumberland St","lat":39.9803494277597,"lng":-75.12305431245899,"neighborhood":"North Philadelphia","city_fetched":"Philadelphia","state":"PA","country":"United States","canonicalUrl":"https://foursquare.com/v/memphis-taproom/49bac96ef964a520aa531fe3","category":"Bar","checkinsCount":8274,"usersCount":3770,"tipCount":110,"visitsCount":9154,"url":"http://www.memphistaproom.com","tier":2,"message":"Moderate","currency":"$","rating":9.3},{"name":"The Dandelion","phone":"2155582500","twitter":"starrrestaurant","address":"124 S 18th St","lat":39.95095730364771,"lng":-75.17037883400917,"neighborhood":"Center City West","city_fetched":"Philadelphia","state":"PA","country":"United States","canonicalUrl":"https://foursquare.com/v/the-dandelion/4d067fc230a58cfa1a44abe7","category":"Gastropub","checkinsCount":15923,"usersCount":10516,"tipCount":216,"visitsCount":17127,"url":"http://www.thedandelionpub.com","tier":3,"message":"Expensive","currency":"$","rating":9.3},{"name":"Amis Trattoria","phone":"2157322647","twitter":"chefbradspence","address":"412 S 13th St","lat":39.94493349923874,"lng":-75.1630711555481,"neighborhood":"Washington Square West","city_fetched":"Philadelphia","state":"PA","country":"United States","canonicalUrl":"https://foursquare.com/v/amis-trattoria/4b4d2869f964a520eacc26e3","category":"Italian Restaurant","checkinsCount":4315,"usersCount":2948,"tipCount":85,"visitsCount":4912,"url":"http://amisphilly.com","tier":3,"message":"Expensive","currency":"$","rating":9.3},{"name":"Butcher and Singer","phone":"2157324444","twitter":"starrrestaurant","address":"1500 Walnut St","lat":39.949440864188695,"lng":-75.16622543334961,"neighborhood":"Center City West","city_fetched":"Philadelphia","state":"PA","country":"United States","canonicalUrl":"https://foursquare.com/v/butcher-and-singer/49ac4499f964a520ae521fe3","category":"Steakhouse","checkinsCount":4934,"usersCount":3191,"tipCount":65,"visitsCount":4980,"url":"http://www.butcherandsinger.com","tier":4,"message":"Very Expensive","currency":"$","rating":9.3},{"name":"Khyber Pass Pub","phone":"2152385888","twitter":"khyberpasspub","address":"56 S 2nd St","lat":39.9486033841628,"lng":-75.14408029176288,"neighborhood":"Center City East","city_fetched":"Philadelphia","state":"PA","country":"United States","canonicalUrl":"https://foursquare.com/v/khyber-pass-pub/3fd66200f964a520ebed1ee3","category":"Gastropub","checkinsCount":13487,"usersCount":6641,"tipCount":129,"visitsCount":13996,"url":"http://www.khyberpasspub.com","tier":2,"message":"Moderate","currency":"$","rating":9.2},{"name":"Johnny Brenda's","phone":"2157399684","twitter":"johnnybrendas","address":"1201 Frankford Ave","lat":39.969042304214696,"lng":-75.13415487340761,"neighborhood":"Northern Liberties - Fishtown","city_fetched":"Philadelphia","state":"PA","country":"United States","canonicalUrl":"https://foursquare.com/v/johnny-brendas/40b28c80f964a520b8f91ee3","category":"Bar","checkinsCount":19841,"usersCount":7616,"tipCount":126,"visitsCount":20998,"url":"http://www.johnnybrendas.com","tier":2,"message":"Moderate","currency":"$","rating":9.2},{"name":"Silk City Diner Bar & Lounge","phone":"2155928838","twitter":"silkcitydiner","address":"435 Spring Garden St","lat":39.96124254570773,"lng":-75.146246583748,"neighborhood":"Northern Liberties - Fishtown","city_fetched":"Philadelphia","state":"PA","country":"United States","canonicalUrl":"https://foursquare.com/silkcitydiner","category":"American Restaurant","checkinsCount":16314,"usersCount":8812,"tipCount":129,"visitsCount":18329,"url":"http://www.silkcityphilly.com","tier":2,"message":"Moderate","currency":"$","rating":9.2},{"name":"McGillin's Olde Ale House","phone":"2157355562","twitter":"mcgillins","address":"1310 Drury St","lat":39.95025425116089,"lng":-75.16245862268727,"neighborhood":"Center City East","city_fetched":"Philadelphia","state":"PA","country":"United States","canonicalUrl":"https://foursquare.com/v/mcgillins-olde-ale-house/3fd66200f964a520e6f11ee3","category":"Pub","checkinsCount":24194,"usersCount":13667,"tipCount":154,"visitsCount":24814,"url":"http://www.mcgillins.com","tier":2,"message":"Moderate","currency":"$","rating":9.1},{"name":"Jerry's Bar","phone":"2672731632","twitter":"jerrysbarphilly","address":"129 W Laurel St","lat":39.96514851909284,"lng":-75.13887763023376,"neighborhood":"Northern Liberties - Fishtown","city_fetched":"Philadelphia","state":"PA","country":"United States","canonicalUrl":"https://foursquare.com/v/jerrys-bar/4c10561dce640f478de13952","category":"Bar","checkinsCount":2435,"usersCount":1687,"tipCount":38,"visitsCount":3274,"url":"http://www.jerrysbarphilly.com","tier":3,"message":"Expensive","currency":"$","rating":9.1},{"name":"Grey Lodge Pub","phone":"2158563591","twitter":"greylodge","address":"6235 Frankford Ave","lat":40.0275158521294,"lng":-75.06124377250671,"neighborhood":"Tacony - Wissinoming","city_fetched":"Philadelphia","state":"PA","country":"United States","canonicalUrl":"https://foursquare.com/v/grey-lodge-pub/4ae247ddf964a520cb8c21e3","category":"Pub","checkinsCount":5703,"usersCount":1740,"tipCount":62,"visitsCount":6360,"url":"http://greylodge.com","tier":2,"message":"Moderate","currency":"$","rating":9.1},{"name":"Ranstead Room","phone":"2674754812","address":"2013 Ranstead St","lat":39.95274717299755,"lng":-75.17370343208313,"neighborhood":"Center City West","city_fetched":"Philadelphia","state":"PA","country":"United States","canonicalUrl":"https://foursquare.com/v/ranstead-room/4bd58edd5631c9b66139a430","category":"Speakeasy","checkinsCount":4161,"usersCount":2865,"tipCount":68,"visitsCount":4324,"tier":3,"message":"Expensive","currency":"$","rating":9.1},{"name":"South Philadelphia Tap Room","phone":"2152717787","twitter":"sptaproom","address":"1509 Mifflin St","lat":39.927221,"lng":-75.1713124,"neighborhood":"Point Breeze","city_fetched":"Philadelphia","state":"PA","country":"United States","canonicalUrl":"https://foursquare.com/v/south-philadelphia-tap-room/4517f2d6f964a520493a1fe3","category":"Gastropub","checkinsCount":10594,"usersCount":3917,"tipCount":125,"visitsCount":11594,"url":"http://www.southphiladelphiataproom.com","tier":2,"message":"Moderate","currency":"$","rating":9.1},{"name":"Zavino Wine Bar & Pizzeria","phone":"2157322400","twitter":"zavino","address":"112 S 13th St","lat":39.94990967889284,"lng":-75.16203716397285,"neighborhood":"Center City East","city_fetched":"Philadelphia","state":"PA","country":"United States","canonicalUrl":"https://foursquare.com/v/zavino-wine-bar--pizzeria/4b523b05f964a520627127e3","category":"Wine Bar","checkinsCount":5161,"usersCount":3341,"tipCount":72,"visitsCount":5187,"url":"http://www.zavino.com","tier":2,"message":"Moderate","currency":"$","rating":9.1},{"name":"American Sardine Bar","phone":"2153342337","twitter":"americansardine","address":"1800 Federal St","lat":39.936654,"lng":-75.17352056073281,"neighborhood":"Point Breeze","city_fetched":"Philadelphia","state":"PA","country":"United States","canonicalUrl":"https://foursquare.com/v/american-sardine-bar/4ec96b52e5fa232a7778a1a8","category":"Bar","checkinsCount":6060,"usersCount":2509,"tipCount":68,"visitsCount":7221,"url":"http://www.americansardinebar.com","tier":2,"message":"Moderate","currency":"$","rating":9.1},{"name":"Bottle Bar East","phone":"2679098867","twitter":"bottlebareast","address":"1308 Frankford Ave","lat":39.970523,"lng":-75.134573,"neighborhood":"Northern Liberties - Fishtown","city_fetched":"Philadelphia","state":"PA","country":"United States","canonicalUrl":"https://foursquare.com/v/bottle-bar-east/507ad324e4b0c101c709028d","category":"Bar","checkinsCount":6383,"usersCount":1940,"tipCount":44,"visitsCount":7217,"url":"http://bottlebareast.com","tier":1,"message":"Cheap","currency":"$","rating":9.1},{"name":"Fine Wine & Good Spirits","phone":"2155605011","address":"180 W Girard Ave","lat":39.9690269904148,"lng":-75.13917182002918,"neighborhood":"Northern Liberties - Fishtown","city_fetched":"Philadelphia","state":"PA","country":"United States","canonicalUrl":"https://foursquare.com/v/fine-wine--good-spirits/4edf8ac6722e992a3e3cb4ab","category":"Liquor Store","checkinsCount":2961,"usersCount":1217,"tipCount":15,"visitsCount":3327,"url":"http://finewineandgoodspirits.com","tier":"","message":"","currency":"","rating":9.1},{"name":"Moshulu","phone":"2159232500","twitter":"moshuluphilly","address":"401 S Columbus Blvd","lat":39.94233548197223,"lng":-75.1413081,"neighborhood":"Penn's Landing","city_fetched":"Philadelphia","state":"PA","country":"United States","canonicalUrl":"https://foursquare.com/v/moshulu/40b28c80f964a520e0fa1ee3","category":"Restaurant","checkinsCount":5349,"usersCount":4467,"tipCount":55,"visitsCount":5810,"url":"http://www.moshulu.com","tier":3,"message":"Expensive","currency":"$","rating":9.1},{"name":"The Abbaye","phone":"2156276711","twitter":"theabbaye","address":"637 N 3rd St","lat":39.962291,"lng":-75.143018,"neighborhood":"Northern Liberties - Fishtown","city_fetched":"Philadelphia","state":"PA","country":"United States","canonicalUrl":"https://foursquare.com/v/the-abbaye/43e9e70bf964a5201f2f1fe3","category":"Restaurant","checkinsCount":7243,"usersCount":2631,"tipCount":55,"visitsCount":8057,"url":"http://theabbaye.net","tier":2,"message":"Moderate","currency":"$","rating":9.1},{"name":"Good Dog Bar & Restaurant","phone":"2159859600","twitter":"gooddogbar","address":"224 S 15th St","lat":39.94876539524823,"lng":-75.16623213887215,"neighborhood":"Rittenhouse Square","city_fetched":"Philadelphia","state":"PA","country":"United States","canonicalUrl":"https://foursquare.com/v/good-dog-bar--restaurant/40b28c80f964a520cef81ee3","category":"Bar","checkinsCount":16676,"usersCount":8932,"tipCount":157,"visitsCount":17384,"url":"http://gooddogbar.com","tier":2,"message":"Moderate","currency":"$","rating":9},{"name":"Village Whiskey","phone":"2156651088","twitter":"garcesgroup","address":"118 S 20th St","lat":39.951219927927795,"lng":-75.17368180095838,"neighborhood":"Center City West","city_fetched":"Philadelphia","state":"PA","country":"United States","canonicalUrl":"https://foursquare.com/v/village-whiskey/4aa14b70f964a520684020e3","category":"Whisky Bar","checkinsCount":9470,"usersCount":6727,"tipCount":165,"visitsCount":9580,"url":"http://villagewhiskey.com","tier":2,"message":"Moderate","currency":"$","rating":9},{"name":"Miller’s Philadelphia Ale House","phone":"2154648349","address":"9495 Roosevelt Blvd","lat":40.07993912998795,"lng":-75.02880227021011,"neighborhood":"Northeast Philadelphia","city_fetched":"Philadelphia","state":"PA","country":"United States","canonicalUrl":"https://foursquare.com/v/millers-philadelphia-ale-house/5480e64e498ebc7397d9e68c","category":"Sports Bar","checkinsCount":6907,"usersCount":2876,"tipCount":47,"visitsCount":8062,"url":"http://www.millersalehouse.com","tier":"","message":"","currency":"","rating":9},{"name":"PHS Pop-Up Beer Garden","twitter":"phs_gardening","address":"1442 South St","lat":39.94361576320709,"lng":-75.1669502702529,"neighborhood":"Graduate Hospital","city_fetched":"Philadelphia","state":"PA","country":"United States","canonicalUrl":"https://foursquare.com/v/phs-popup-beer-garden/52fec548498e6780d7d2c887","category":"Beer Garden","checkinsCount":2009,"usersCount":1582,"tipCount":20,"visitsCount":2536,"tier":"","message":"","currency":"","rating":9},{"name":"Sassafras","phone":"2159252317","address":"48 S 2nd St","lat":39.94873040082004,"lng":-75.14405748853095,"neighborhood":"Center City East","city_fetched":"Philadelphia","state":"PA","country":"United States","canonicalUrl":"https://foursquare.com/v/sassafras/40aaa380f964a52030f31ee3","category":"Bar","checkinsCount":2482,"usersCount":1419,"tipCount":29,"visitsCount":2502,"url":"http://sassafrasbar.com","tier":"","message":"","currency":"","rating":9},{"name":"Royal Tavern","phone":"2153896694","address":"937 E Passyunk Ave","lat":39.937077801333224,"lng":-75.15477776527405,"neighborhood":"Bella Vista - Southwark","city_fetched":"Philadelphia","state":"PA","country":"United States","canonicalUrl":"https://foursquare.com/v/royal-tavern/49c2f65df964a52047561fe3","category":"Pub","checkinsCount":9028,"usersCount":3594,"tipCount":94,"visitsCount":9697,"url":"http://royaltavern.com","tier":2,"message":"Moderate","currency":"$","rating":9},{"name":"Hall of Fame Club","address":"1 Citizens Bank Way","lat":39.905830297662796,"lng":-75.16652847125057,"neighborhood":"South Philadelphia East","city_fetched":"Philadelphia","state":"PA","country":"United States","canonicalUrl":"https://foursquare.com/v/hall-of-fame-club/4bcb6929cc8cd13ae259bfcf","category":"Lounge","checkinsCount":3037,"usersCount":1792,"tipCount":11,"visitsCount":3037,"tier":"","message":"","currency":"","rating":9},{"name":"Philadelphia Brewing Company","phone":"2154272739","address":"2439 Amber St","lat":39.982761398057825,"lng":-75.12732472841839,"neighborhood":"North Philadelphia","city_fetched":"Philadelphia","state":"PA","country":"United States","canonicalUrl":"https://foursquare.com/v/philadelphia-brewing-company/4a56261df964a5208cb41fe3","category":"Brewery","checkinsCount":1793,"usersCount":1207,"tipCount":20,"visitsCount":1921,"url":"http://philadelphiabrewing.com","tier":1,"message":"Cheap","currency":"$","rating":9},{"name":"Ortliebs","phone":"2159221035","twitter":"ortliebsphilly","address":"847 N 3rd St","lat":39.964477609784666,"lng":-75.14253536534035,"neighborhood":"Northern Liberties - Fishtown","city_fetched":"Philadelphia","state":"PA","country":"United States","canonicalUrl":"https://foursquare.com/v/ortliebs/4f8deda1e4b084124a1a9b04","category":"Lounge","checkinsCount":2179,"usersCount":1291,"tipCount":19,"visitsCount":2586,"url":"http://www.ortliebsphilly.com","tier":1,"message":"Cheap","currency":"$","rating":9},{"name":"The Belgian Cafe","phone":"2152353500","twitter":"thebelgiancafe","address":"601 N. 21st Street","lat":39.965362315682,"lng":-75.17257690429688,"neighborhood":"Fairmount - Art Museum","city_fetched":"Philadelphia","state":"PA","country":"United States","canonicalUrl":"https://foursquare.com/v/the-belgian-cafe/4a5e75fff964a5209fbe1fe3","category":"Gastropub","checkinsCount":7521,"usersCount":3559,"tipCount":78,"visitsCount":8908,"url":"http://www.thebelgiancafe.com","tier":2,"message":"Moderate","currency":"$","rating":8.9},{"name":"Standard Tap","phone":"2152380630","twitter":"standardtap","address":"901 N 2nd St","lat":39.96406390664877,"lng":-75.14068257383308,"neighborhood":"Northern Liberties - Fishtown","city_fetched":"Philadelphia","state":"PA","country":"United States","canonicalUrl":"https://foursquare.com/v/standard-tap/40b28c80f964a52088f91ee3","category":"Gastropub","checkinsCount":14085,"usersCount":7088,"tipCount":122,"visitsCount":15094,"url":"http://standardtap.com","tier":2,"message":"Moderate","currency":"$","rating":8.9},{"name":"North Bowl","phone":"2152382695","twitter":"northbowlphilly","address":"909 N 2nd St","lat":39.96431843333333,"lng":-75.140299,"neighborhood":"Northern Liberties - Fishtown","city_fetched":"Philadelphia","state":"PA","country":"United States","canonicalUrl":"https://foursquare.com/v/north-bowl/49c83e35f964a52006581fe3","category":"Bowling Alley","checkinsCount":14703,"usersCount":6564,"tipCount":104,"visitsCount":15275,"url":"http://northbowlphilly.com","tier":"","message":"","currency":"","rating":8.9},{"name":"The Pub on Passyunk East","phone":"2157555125","twitter":"pope1501","address":"1501 E Passyunk Ave","lat":39.93087708950043,"lng":-75.16216993331909,"neighborhood":"Bella Vista - Southwark","city_fetched":"Philadelphia","state":"PA","country":"United States","canonicalUrl":"https://foursquare.com/v/the-pub-on-passyunk-east/4a1e060ef964a520b97b1fe3","category":"Gastropub","checkinsCount":18332,"usersCount":5079,"tipCount":97,"visitsCount":19509,"url":"http://www.pubonpassyunkeast.com","tier":2,"message":"Moderate","currency":"$","rating":8.9},{"name":"Hawthornes Beer Cafe","phone":"2156273012","twitter":"hawthornecafe","address":"738 S 11th St","lat":39.94110187956002,"lng":-75.16062886650361,"neighborhood":"Bella Vista - Southwark","city_fetched":"Philadelphia","state":"PA","country":"United States","canonicalUrl":"https://foursquare.com/v/hawthornes-beer-cafe/54b29833498e09d5327fc54c","category":"Gastropub","checkinsCount":1129,"usersCount":1124,"tipCount":14,"visitsCount":2259,"url":"http://hawthornecafe.com","tier":"","message":"","currency":"","rating":8.9},{"name":"Charlie was a sinner.","phone":"2677585372","address":"131 S 13th St","lat":39.949737,"lng":-75.162008,"neighborhood":"Center City East","city_fetched":"Philadelphia","state":"PA","country":"United States","canonicalUrl":"https://foursquare.com/v/charlie-was-a-sinner/53757808498ee116741e16a6","category":"Vegetarian / Vegan Restaurant","checkinsCount":1545,"usersCount":1201,"tipCount":27,"visitsCount":1571,"url":"http://charliewasasinner.com","tier":2,"message":"Moderate","currency":"$","rating":8.9},{"name":"Prohibition Tap Room","phone":"2152381818","address":"501 N 13th St","lat":39.961225,"lng":-75.15955,"neighborhood":"North Philadelphia","city_fetched":"Philadelphia","state":"PA","country":"United States","canonicalUrl":"https://foursquare.com/v/prohibition-tap-room/49e143def964a520b0611fe3","category":"Pub","checkinsCount":8851,"usersCount":4215,"tipCount":80,"visitsCount":9816,"url":"http://theprohibitiontaproom.com","tier":2,"message":"Moderate","currency":"$","rating":8.9},{"name":"Strangelove's","phone":"2158730404","address":"216 S 11th St","lat":39.948089298672144,"lng":-75.15915250564551,"neighborhood":"Washington Square West","city_fetched":"Philadelphia","state":"PA","country":"United States","canonicalUrl":"https://foursquare.com/v/strangeloves/515d9e7de4b02270264b7ea5","category":"Bar","checkinsCount":4473,"usersCount":2786,"tipCount":57,"visitsCount":5361,"url":"http://strangelovesbeerbar.com","tier":2,"message":"Moderate","currency":"$","rating":8.9},{"name":"The Franklin Bar","phone":"2674673277","twitter":"franklinbar","address":"112 S 18th St","lat":39.95120095892089,"lng":-75.17034530639648,"neighborhood":"Center City West","city_fetched":"Philadelphia","state":"PA","country":"United States","canonicalUrl":"https://foursquare.com/v/the-franklin-bar/4a53ec42f964a520d8b21fe3","category":"Cocktail Bar","checkinsCount":10703,"usersCount":5640,"tipCount":132,"visitsCount":10956,"url":"http://www.thefranklinbar.com","tier":2,"message":"Moderate","currency":"$","rating":8.9},{"name":"Watkins Drinkery","phone":"2153390175","twitter":"watkinsdrinkery","address":"1712 S 10th St","lat":39.928009,"lng":-75.162028,"neighborhood":"Bella Vista - Southwark","city_fetched":"Philadelphia","state":"PA","country":"United States","canonicalUrl":"https://foursquare.com/watkinsdrinkery","category":"Gastropub","checkinsCount":3072,"usersCount":1049,"tipCount":19,"visitsCount":3563,"url":"http://watkinsdrinkery.com","tier":2,"message":"Moderate","currency":"$","rating":8.9},{"name":"Barcade","phone":"2156344400","twitter":"barcadephilly","address":"1114 Frankford Ave","lat":39.967473535052584,"lng":-75.13466227639574,"neighborhood":"Northern Liberties - Fishtown","city_fetched":"Philadelphia","state":"PA","country":"United States","canonicalUrl":"https://foursquare.com/v/barcade/4e8d9e16cc217a2e5c192a69","category":"Bar","checkinsCount":15489,"usersCount":7829,"tipCount":114,"visitsCount":17149,"url":"http://barcade.com","tier":2,"message":"Moderate","currency":"$","rating":8.9},{"name":"National Mechanics","phone":"2157014883","twitter":"natmechanics","address":"22 S 3rd St","lat":39.94939360622184,"lng":-75.14592734258977,"neighborhood":"Center City East","city_fetched":"Philadelphia","state":"PA","country":"United States","canonicalUrl":"https://foursquare.com/v/national-mechanics/45fa41bdf964a52051441fe3","category":"Bar","checkinsCount":17702,"usersCount":8832,"tipCount":146,"visitsCount":18516,"url":"http://www.nationalmechanics.com","tier":2,"message":"Moderate","currency":"$","rating":8.8},{"name":"Pub & Kitchen","phone":"2155450350","twitter":"pubandkitchen","address":"1946 Lombard St","lat":39.945783,"lng":-75.17479577,"neighborhood":"Center City","city_fetched":"Philadelphia","state":"PA","country":"United States","canonicalUrl":"https://foursquare.com/v/pub--kitchen/4a302adbf964a5202c991fe3","category":"Gastropub","checkinsCount":7647,"usersCount":4506,"tipCount":74,"visitsCount":9046,"url":"http://thepubandkitchen.com","tier":2,"message":"Moderate","currency":"$","rating":8.8},{"name":"Falls Taproom","phone":"2158491222","twitter":"fallstaproom1","address":"3749 Midvale Ave","lat":40.00924775,"lng":-75.193771,"neighborhood":"East Falls","city_fetched":"Philadelphia","state":"PA","country":"United States","canonicalUrl":"https://foursquare.com/v/falls-taproom/4d827d752976721ee20445bc","category":"Gastropub","checkinsCount":2412,"usersCount":1057,"tipCount":31,"visitsCount":2698,"url":"http://fallstaproomphilly.com","tier":2,"message":"Moderate","currency":"$","rating":8.8},{"name":"The Olde Bar","phone":"2152533777","twitter":"theoldebarphl","address":"125 Walnut St","lat":39.946822546179085,"lng":-75.14417150465755,"neighborhood":"Center City East","city_fetched":"Philadelphia","state":"PA","country":"United States","canonicalUrl":"https://foursquare.com/v/the-olde-bar/54b0ac34498e594f4ba19cdc","category":"Cocktail Bar","checkinsCount":656,"usersCount":716,"tipCount":19,"visitsCount":955,"url":"http://www.theoldebar.com","tier":"","message":"","currency":"","rating":8.8},{"name":"The Foodery","phone":"2154824500","twitter":"thefoderyrox","address":"6148 Ridge Ave","lat":40.03447166917193,"lng":-75.21632710346621,"neighborhood":"Roxborough","city_fetched":"Philadelphia","state":"PA","country":"United States","canonicalUrl":"https://foursquare.com/v/the-foodery/50dc7395e4b03c6a02d288a0","category":"Bar","checkinsCount":1083,"usersCount":617,"tipCount":16,"visitsCount":1564,"url":"http://fooderybeer.com","tier":2,"message":"Moderate","currency":"$","rating":8.8},{"name":"Independence Beer Garden","phone":"2159227100","twitter":"phlbeergarden","address":"100 Independence Mall West","lat":39.95027711173374,"lng":-75.15065888634096,"neighborhood":"Center City East","city_fetched":"Philadelphia","state":"PA","country":"United States","canonicalUrl":"https://foursquare.com/v/independence-beer-garden/53bad2f4498e3d4b9392e5a2","category":"Beer Garden","checkinsCount":4995,"usersCount":4257,"tipCount":57,"visitsCount":6386,"url":"http://phlbeergarden.com","tier":1,"message":"Cheap","currency":"$","rating":8.8},{"name":"Tavern On Camac","phone":"2155450900","twitter":"tavernoncamac","address":"243 S Camac St","lat":39.947272,"lng":-75.161634,"neighborhood":"Washington Square West","city_fetched":"Philadelphia","state":"PA","country":"United States","canonicalUrl":"https://foursquare.com/v/tavern-on-camac/51c4d828498edcb7e3004097","category":"Gay Bar","checkinsCount":9890,"usersCount":3035,"tipCount":33,"visitsCount":10578,"url":"http://www.tavernoncamac.com","tier":"","message":"","currency":"","rating":8.8},{"name":"Zinburger","phone":"8564887590","twitter":"zinburgereast","address":"923 Haddonfield Rd Bldg B","lat":39.92492098008052,"lng":-75.03487791776558,"city_fetched":"Philadelphia","state":"NJ","country":"United States","canonicalUrl":"https://foursquare.com/v/zinburger/512775a4e4b014ddd131a3ba","category":"Burger Joint","checkinsCount":3075,"usersCount":1811,"tipCount":86,"visitsCount":3663,"url":"http://zinburgereast.com","tier":2,"message":"Moderate","currency":"$","rating":8.8},{"name":"Cantina Feliz","phone":"2156461320","twitter":"cantinafeliz","address":"424 S Bethlehem Pike","lat":40.136141138478514,"lng":-75.21367172898168,"city_fetched":"Philadelphia","state":"PA","country":"United States","canonicalUrl":"https://foursquare.com/v/cantina-feliz/4d2e436ee0435481080fafed","category":"Mexican Restaurant","checkinsCount":2177,"usersCount":1293,"tipCount":37,"visitsCount":2675,"url":"http://www.cantinafeliz.com","tier":2,"message":"Moderate","currency":"$","rating":8.8},{"name":"The Continental Mid-Town","phone":"2155671800","twitter":"starrrestaurant","address":"1801 Chestnut St","lat":39.95177873715417,"lng":-75.17044186592102,"neighborhood":"Center City West","city_fetched":"Philadelphia","state":"PA","country":"United States","canonicalUrl":"https://foursquare.com/v/the-continental-midtown/410d8400f964a520bc0b1fe3","category":"New American Restaurant","checkinsCount":21691,"usersCount":15002,"tipCount":184,"visitsCount":23409,"url":"http://continentalmidtown.com‎","tier":2,"message":"Moderate","currency":"$","rating":8.8},{"name":"Cantina Los Caballitos","phone":"2157553550","twitter":"cantinaphilly","address":"1651 E Passyunk Ave","lat":39.92887786510908,"lng":-75.16455626088431,"neighborhood":"Bella Vista - Southwark","city_fetched":"Philadelphia","state":"PA","country":"United States","canonicalUrl":"https://foursquare.com/v/cantina-los-caballitos/49f26e7cf964a5202d6a1fe3","category":"Mexican Restaurant","checkinsCount":16848,"usersCount":6267,"tipCount":130,"visitsCount":18171,"url":"http://cantinaloscaballitos.com","tier":2,"message":"Moderate","currency":"$","rating":8.8},{"name":"Earth Bread & Brewery","phone":"2152426666","twitter":"earthbreadbrew","address":"7136 Germantown Ave","lat":40.059204465737324,"lng":-75.19040962872631,"neighborhood":"West Mount Airy","city_fetched":"Philadelphia","state":"PA","country":"United States","canonicalUrl":"https://foursquare.com/v/earth-bread--brewery/4acd09c7f964a5209cca20e3","category":"Brewery","checkinsCount":3476,"usersCount":1576,"tipCount":58,"visitsCount":3866,"url":"http://www.earthbreadbrewery.com","tier":2,"message":"Moderate","currency":"$","rating":8.8},{"name":"Tria Taproom","phone":"2155578277","address":"2005 Walnut St","lat":39.95060400269212,"lng":-75.17398958631406,"neighborhood":"Center City West","city_fetched":"Philadelphia","state":"PA","country":"United States","canonicalUrl":"https://foursquare.com/v/tria-taproom/52783bf4498eb7c64c637ab5","category":"Wine Bar","checkinsCount":3050,"usersCount":2151,"tipCount":32,"visitsCount":3509,"url":"https://triacafe.com/taproom/","tier":2,"message":"Moderate","currency":"$","rating":8.8},{"name":"Iron Hill Brewery & Restaurant","phone":"2159485600","twitter":"ironhillch","address":"8400 Germantown Ave","lat":40.07513456603958,"lng":-75.20524944810687,"neighborhood":"Chestnut Hill","city_fetched":"Philadelphia","state":"PA","country":"United States","canonicalUrl":"https://foursquare.com/v/iron-hill-brewery--restaurant/4eefd928a69ddc7bcb5caefa","category":"Brewery","checkinsCount":5372,"usersCount":3044,"tipCount":52,"visitsCount":6780,"url":"http://ironhillbrewery.com","tier":2,"message":"Moderate","currency":"$","rating":8.8},{"name":"Maggie's Waterfront Cafe","phone":"2156376716","twitter":"maggieswcafe","address":"9242 North Delaware Ave","lat":40.043423437636186,"lng":-74.9895148465576,"neighborhood":"Torresdale","city_fetched":"Philadelphia","state":"PA","country":"United States","canonicalUrl":"https://foursquare.com/v/maggies-waterfront-cafe/4b22e9c3f964a5203a5024e3","category":"Seafood Restaurant","checkinsCount":2477,"usersCount":1400,"tipCount":25,"visitsCount":3473,"url":"http://www.maggieswaterfront.com","tier":2,"message":"Moderate","currency":"$","rating":8.8},{"name":"Lucky's Last Chance","phone":"2155096005","twitter":"luckysmanayunk","address":"4421 Main St","lat":40.026289684843,"lng":-75.22555992007256,"neighborhood":"Manayunk","city_fetched":"Philadelphia","state":"PA","country":"United States","canonicalUrl":"https://foursquare.com/v/luckys-last-chance/4e6954c818508885f6193510","category":"Burger Joint","checkinsCount":4448,"usersCount":1565,"tipCount":38,"visitsCount":4616,"url":"http://www.luckyslastchance.com","tier":2,"message":"Moderate","currency":"$","rating":8.8},{"name":"Total Wine & More","phone":"8566677100","twitter":"totalwine","address":"2100 Route 38","lat":39.941896,"lng":-75.017561,"city_fetched":"Philadelphia","state":"NJ","country":"United States","canonicalUrl":"https://foursquare.com/v/total-wine--more/4b6602f3f964a5203f0e2be3","category":"Wine Shop","checkinsCount":4470,"usersCount":1664,"tipCount":21,"visitsCount":5218,"url":"http://www.totalwine.com","tier":"","message":"","currency":"","rating":8.7},{"name":"Double Knot","phone":"2156000714","twitter":"doubleknot_phl","address":"120 S 13th St","lat":39.94971754572345,"lng":-75.1620653124078,"neighborhood":"Center City East","city_fetched":"Philadelphia","state":"PA","country":"United States","canonicalUrl":"https://foursquare.com/v/double-knot/56b3bc63498e0e0d584a1d17","category":"Café","checkinsCount":809,"usersCount":455,"tipCount":22,"visitsCount":829,"url":"http://doubleknotphilly.com","tier":"","message":"","currency":"","rating":8.7},{"name":"Wrap Shack on The Square","phone":"2155691666","twitter":"wrap_shack","address":"120 S 18th St","lat":39.95107076642637,"lng":-75.17041011930111,"neighborhood":"Center City West","city_fetched":"Philadelphia","state":"PA","country":"United States","canonicalUrl":"https://foursquare.com/v/wrap-shack-on-the-square/4aba582bf964a520f98020e3","category":"Bar","checkinsCount":5609,"usersCount":2241,"tipCount":47,"visitsCount":5641,"url":"http://www.wrapshackpa.com","tier":2,"message":"Moderate","currency":"$","rating":8.7},{"name":"The Yachtsman","address":"1444 Frankford Ave","lat":39.97273970507232,"lng":-75.13415487340761,"neighborhood":"Northern Liberties - Fishtown","city_fetched":"Philadelphia","state":"PA","country":"United States","canonicalUrl":"https://foursquare.com/v/the-yachtsman/53e19aa7498e8aba7983adda","category":"Bar","checkinsCount":840,"usersCount":654,"tipCount":10,"visitsCount":1218,"tier":"","message":"","currency":"","rating":8.7},{"name":"Stateside","phone":"2155512500","address":"1536 E Passyunk Ave","lat":39.93009924888611,"lng":-75.16324281692505,"neighborhood":"Bella Vista - Southwark","city_fetched":"Philadelphia","state":"PA","country":"United States","canonicalUrl":"https://foursquare.com/v/stateside/4ec7f2570aaf9c3ccce4dcec","category":"Whisky Bar","checkinsCount":3062,"usersCount":1698,"tipCount":45,"visitsCount":3172,"url":"http://statesidephilly.com","tier":2,"message":"Moderate","currency":"$","rating":8.7},{"name":"R2L","phone":"2155645337","twitter":"r2lphl","address":"50 S 16th St Fl 37","lat":39.95159574030589,"lng":-75.16735196113586,"neighborhood":"Center City West","city_fetched":"Philadelphia","state":"PA","country":"United States","canonicalUrl":"https://foursquare.com/r2lphl","category":"Lounge","checkinsCount":5188,"usersCount":3577,"tipCount":71,"visitsCount":5233,"url":"http://r2lrestaurant.com","tier":4,"message":"Very Expensive","currency":"$","rating":8.7},{"name":"Morgan's Pier","phone":"2152797134","twitter":"morganspier","address":"221 N Columbus Blvd","lat":39.954803254592406,"lng":-75.13889908790588,"neighborhood":"Northern Liberties - Fishtown","city_fetched":"Philadelphia","state":"PA","country":"United States","canonicalUrl":"https://foursquare.com/v/morgans-pier/4fbac64d6b7409e4c8c238b1","category":"Beer Garden","checkinsCount":13178,"usersCount":8964,"tipCount":82,"visitsCount":16188,"url":"http://www.morganspier.com","tier":2,"message":"Moderate","currency":"$","rating":8.7},{"name":"Sancho Pistola's","phone":"2673243530","twitter":"sancho_pistolas","address":"19 W Girard Ave","lat":39.968851116369855,"lng":-75.1353692171652,"neighborhood":"Northern Liberties - Fishtown","city_fetched":"Philadelphia","state":"PA","country":"United States","canonicalUrl":"https://foursquare.com/v/sancho-pistolas/52e6e03a498e610c8071539b","category":"Mexican Restaurant","checkinsCount":1663,"usersCount":1083,"tipCount":29,"visitsCount":2121,"url":"http://www.sanchopistolas.com","tier":2,"message":"Moderate","currency":"$","rating":8.7},{"name":"Yard House","phone":"8567225620","twitter":"yardhouse","address":"400 Route 38","lat":39.94288262991806,"lng":-74.96240588818476,"city_fetched":"Philadelphia","state":"NJ","country":"United States","canonicalUrl":"https://foursquare.com/v/yard-house/56575c6238fae7c08b1836ac","category":"American Restaurant","checkinsCount":1043,"usersCount":673,"tipCount":16,"visitsCount":1298,"url":"http://www.yardhouse.com","tier":"","message":"","currency":"","rating":8.7},{"name":"Alma De Cuba","phone":"2159881799","twitter":"starrrestaurant","address":"1623 Walnut St","lat":39.94993891734999,"lng":-75.16868305426621,"neighborhood":"Center City West","city_fetched":"Philadelphia","state":"PA","country":"United States","canonicalUrl":"https://foursquare.com/v/alma-de-cuba/40b28c80f964a520daf81ee3","category":"Cuban Restaurant","checkinsCount":6509,"usersCount":4873,"tipCount":106,"visitsCount":6726,"url":"http://almadecubarestaurant.com","tier":3,"message":"Expensive","currency":"$","rating":8.7},{"name":"Ashton Cigar Bar","phone":"2673500000","twitter":"ashtoncigarbar","address":"1522 Walnut St Fl 2","lat":39.94968641044385,"lng":-75.16704146988823,"neighborhood":"Center City West","city_fetched":"Philadelphia","state":"PA","country":"United States","canonicalUrl":"https://foursquare.com/v/ashton-cigar-bar/520592b8498e0645db0693d7","category":"Smoke Shop","checkinsCount":1776,"usersCount":955,"tipCount":25,"visitsCount":1915,"url":"http://www.ashtoncigarbar.com","tier":"","message":"","currency":"","rating":8.7},{"name":"Treno Pizza Bar","phone":"8568339233","twitter":"trenopizzabar","address":"233 Haddon Ave","lat":39.908600537622156,"lng":-75.04634141921997,"city_fetched":"Philadelphia","state":"NJ","country":"United States","canonicalUrl":"https://foursquare.com/trenopizzabar","category":"Pizza Place","checkinsCount":2895,"usersCount":1545,"tipCount":36,"visitsCount":3277,"url":"https://www.trenopizzabar.com","tier":2,"message":"Moderate","currency":"$","rating":8.7},{"name":"Alla Spina","phone":"2156000017","twitter":"allaspinaphilly","address":"1410 Mount Vernon St","lat":39.96445113587629,"lng":-75.16151239629244,"neighborhood":"North Philadelphia","city_fetched":"Philadelphia","state":"PA","country":"United States","canonicalUrl":"https://foursquare.com/v/alla-spina/4f386ef3e4b0ea2d7ef9d714","category":"Gastropub","checkinsCount":4295,"usersCount":2786,"tipCount":57,"visitsCount":4952,"url":"http://www.allaspinaphilly.com","tier":2,"message":"Moderate","currency":"$","rating":8.7},{"name":"Ugly Moose","phone":"2154822739","address":"443 Shurs Ln","lat":40.025306,"lng":-75.21147988333334,"neighborhood":"Manayunk","city_fetched":"Philadelphia","state":"PA","country":"United States","canonicalUrl":"https://foursquare.com/v/ugly-moose/4144e300f964a520a41c1fe3","category":"Bar","checkinsCount":3142,"usersCount":1324,"tipCount":31,"visitsCount":3354,"url":"http://theuglymoose.com","tier":2,"message":"Moderate","currency":"$","rating":8.7},{"name":"The Twisted Tail","phone":"2155582471","twitter":"twistedtailphl","address":"509 S 2nd St","lat":39.94186701828394,"lng":-75.14545988115529,"neighborhood":"Center City East","city_fetched":"Philadelphia","state":"PA","country":"United States","canonicalUrl":"https://foursquare.com/v/the-twisted-tail/4e1736cfd22d334ac05bf4db","category":"Bar","checkinsCount":5714,"usersCount":3513,"tipCount":56,"visitsCount":6194,"url":"http://www.thetwistedtail.com","tier":2,"message":"Moderate","currency":"$","rating":8.7},{"name":"Dock Street Brewery & Restaurant","phone":"2157262337","address":"701 S 50th St","lat":39.94784758,"lng":-75.22289491,"neighborhood":"Cedar Park","city_fetched":"Philadelphia","state":"PA","country":"United States","canonicalUrl":"https://foursquare.com/v/dock-street-brewery--restaurant/4aa2dbc2f964a520584220e3","category":"Brewery","checkinsCount":5345,"usersCount":3079,"tipCount":56,"visitsCount":6059,"url":"http://dockstreetbeer.com","tier":2,"message":"Moderate","currency":"$","rating":8.7},{"name":"Chickie's & Pete's","phone":"2153383060","twitter":"chickiesnpetes","address":"4010 Robbins Ave","lat":40.02741,"lng":-75.059967,"neighborhood":"Tacony - Wissinoming","city_fetched":"Philadelphia","state":"PA","country":"United States","canonicalUrl":"https://foursquare.com/v/chickies--petes/40b28c80f964a5203bfa1ee3","category":"Sports Bar","checkinsCount":2657,"usersCount":1565,"tipCount":28,"visitsCount":3071,"url":"http://www.chickiesandpetes.com","tier":2,"message":"Moderate","currency":"$","rating":8.7},{"name":"Zama","phone":"2155681027","twitter":"zamasushibar","address":"128 S 19th St","lat":39.950955401362926,"lng":-75.17219986301484,"neighborhood":"Center City West","city_fetched":"Philadelphia","state":"PA","country":"United States","canonicalUrl":"https://foursquare.com/v/zama/4b28fc2cf964a520f79624e3","category":"Japanese Restaurant","checkinsCount":2751,"usersCount":1782,"tipCount":65,"visitsCount":2769,"url":"http://www.zamaphilly.com","tier":3,"message":"Expensive","currency":"$","rating":8.7},{"name":"The Jug Handle Inn","phone":"8566658696","address":"1018 South Fork Landing Road","lat":39.97733666318957,"lng":-75.01319279210351,"city_fetched":"Philadelphia","state":"NJ","country":"United States","canonicalUrl":"https://foursquare.com/v/the-jug-handle-inn/4c3659fbae2da593e10afdc5","category":"Wings Joint","checkinsCount":5391,"usersCount":2200,"tipCount":61,"visitsCount":6757,"url":"http://thejughandleinn.com","tier":2,"message":"Moderate","currency":"$","rating":8.7},{"name":"Fountain Porter","phone":"2673243910","address":"1601 S 10th St","lat":39.9296007691254,"lng":-75.16152379664435,"neighborhood":"Bella Vista - Southwark","city_fetched":"Philadelphia","state":"PA","country":"United States","canonicalUrl":"https://foursquare.com/v/fountain-porter/5078bf74e4b0a4757d8054a4","category":"Bar","checkinsCount":2524,"usersCount":1144,"tipCount":28,"visitsCount":3269,"url":"http://fountainporter.com","tier":1,"message":"Cheap","currency":"$","rating":8.7},{"name":"Bob & Barbara's Cocktail Lounge","phone":"2155454511","twitter":"bobandbarbs","address":"1509 South St","lat":39.94404309503295,"lng":-75.16755312681198,"neighborhood":"Rittenhouse Square","city_fetched":"Philadelphia","state":"PA","country":"United States","canonicalUrl":"https://foursquare.com/v/bob--barbaras-cocktail-lounge/40b28c80f964a520b2fa1ee3","category":"Dive Bar","checkinsCount":8741,"usersCount":3952,"tipCount":70,"visitsCount":9002,"url":"http://tinyurl.com/yhbom58","tier":1,"message":"Cheap","currency":"$","rating":8.7},{"name":"The Pour House","phone":"8568694600","twitter":"pjspourhouse","address":"124 Haddon Ave","lat":39.910698,"lng":-75.050606,"city_fetched":"Philadelphia","state":"NJ","country":"United States","canonicalUrl":"https://foursquare.com/v/the-pour-house/4a7a3f51f964a520fbe81fe3","category":"Beer Bar","checkinsCount":10285,"usersCount":3917,"tipCount":99,"visitsCount":11905,"url":"https://www.pjspourhouse.com","tier":2,"message":"Moderate","currency":"$","rating":8.7},{"name":"Brauhaus Schmitz","phone":"2679098814","twitter":"brauhausschmitz","address":"718 South St","lat":39.942260518142334,"lng":-75.15469483778953,"neighborhood":"Washington Square West","city_fetched":"Philadelphia","state":"PA","country":"United States","canonicalUrl":"https://foursquare.com/v/brauhaus-schmitz/4a4ff6e9f964a520dcaf1fe3","category":"German Restaurant","checkinsCount":11717,"usersCount":7472,"tipCount":125,"visitsCount":13909,"url":"http://brauhausschmitz.com","tier":2,"message":"Moderate","currency":"$","rating":8.6},{"name":"Hop Sing Laundromat","twitter":"hopsinglaundry","address":"1029 Race St","lat":39.955592773500065,"lng":-75.1570200920105,"neighborhood":"Chinatown","city_fetched":"Philadelphia","state":"PA","country":"United States","canonicalUrl":"https://foursquare.com/v/hop-sing-laundromat/4e8e413f29c2c0d8cd1b28c9","category":"Speakeasy","checkinsCount":2682,"usersCount":1853,"tipCount":61,"visitsCount":2713,"url":"http://hopsinglaundromat.com","tier":2,"message":"Moderate","currency":"$","rating":8.6},{"name":"Crime & Punishment Brewing Co.","phone":"2152352739","address":"2711 W Girard Ave","lat":39.974303731383344,"lng":-75.18092029657711,"neighborhood":"North Philadelphia West","city_fetched":"Philadelphia","state":"PA","country":"United States","canonicalUrl":"https://foursquare.com/v/crime--punishment-brewing-co/5352ffbc498e614ef2caf795","category":"Brewery","checkinsCount":430,"usersCount":437,"tipCount":1,"visitsCount":666,"url":"http://candpbrewery.com","tier":"","message":"","currency":"","rating":8.6},{"name":"Forgotten Boardwalk Brewing","twitter":"forgottenboards","address":"1940 Olney Ave","lat":39.911814719020505,"lng":-74.96871232050786,"city_fetched":"Philadelphia","state":"NJ","country":"United States","canonicalUrl":"https://foursquare.com/v/forgotten-boardwalk-brewing/53bdb4a5498e125715f4af67","category":"Brewery","checkinsCount":927,"usersCount":627,"tipCount":8,"visitsCount":1309,"url":"https://forgottenboardwalk.com","tier":"","message":"","currency":"","rating":8.6},{"name":"Tattooed Mom","phone":"2152389880","twitter":"tmoms","address":"530 South St","lat":39.94196372971302,"lng":-75.15185030085395,"neighborhood":"Center City East","city_fetched":"Philadelphia","state":"PA","country":"United States","canonicalUrl":"https://foursquare.com/v/tattooed-mom/40e35400f964a520ec091fe3","category":"Bar","checkinsCount":14326,"usersCount":6475,"tipCount":99,"visitsCount":15397,"url":"http://tattooedmomphilly.com","tier":1,"message":"Cheap","currency":"$","rating":8.6},{"name":"Triangle Tavern","phone":"2158001992","twitter":"triangletavern","address":"1338 S 10th St","lat":39.93221282677489,"lng":-75.16113618421531,"neighborhood":"Bella Vista - Southwark","city_fetched":"Philadelphia","state":"PA","country":"United States","canonicalUrl":"https://foursquare.com/v/triangle-tavern/40b28c80f964a520edfa1ee3","category":"Bar","checkinsCount":865,"usersCount":583,"tipCount":9,"visitsCount":1155,"url":"http://www.triangletavernphilly.com","tier":"","message":"","currency":"","rating":8.6},{"name":"Devil's Alley","phone":"2157510707","address":"1907 Chestnut St","lat":39.95207276477275,"lng":-75.17220139503479,"neighborhood":"Center City West","city_fetched":"Philadelphia","state":"PA","country":"United States","canonicalUrl":"https://foursquare.com/v/devils-alley/43768200f964a520482a1fe3","category":"Bar","checkinsCount":10775,"usersCount":6215,"tipCount":94,"visitsCount":11038,"url":"http://devilsalleybarandgrill.com","tier":2,"message":"Moderate","currency":"$","rating":8.6},{"name":"Eulogy Belgian Tavern","phone":"2154131918","twitter":"eulogybar","address":"136 Chestnut Street","lat":39.94838170038979,"lng":-75.14389704077371,"neighborhood":"Center City East","city_fetched":"Philadelphia","state":"PA","country":"United States","canonicalUrl":"https://foursquare.com/v/eulogy-belgian-tavern/467ec7e1f964a52012481fe3","category":"Belgian Restaurant","checkinsCount":8512,"usersCount":5676,"tipCount":96,"visitsCount":8760,"url":"http://www.eulogybar.com","tier":2,"message":"Moderate","currency":"$","rating":8.6},{"name":"Jet Wine Bar","phone":"2157351116","twitter":"jetwinebar","address":"1525 South St","lat":39.943995,"lng":-75.1680509,"neighborhood":"Rittenhouse Square","city_fetched":"Philadelphia","state":"PA","country":"United States","canonicalUrl":"https://foursquare.com/jetwinebar","category":"Wine Bar","checkinsCount":2162,"usersCount":782,"tipCount":18,"visitsCount":2198,"url":"http://www.jetwinebar.com","tier":2,"message":"Moderate","currency":"$","rating":8.6},{"name":"Kennett","phone":"2676871426","address":"848 S 2nd St","lat":39.93631952985149,"lng":-75.14680525421828,"neighborhood":"Queen Village - Pennsport","city_fetched":"Philadelphia","state":"PA","country":"United States","canonicalUrl":"https://foursquare.com/v/kennett/4cf821755698a093b39703fc","category":"American Restaurant","checkinsCount":1646,"usersCount":739,"tipCount":27,"visitsCount":1662,"url":"http://kennettrestaurant.com","tier":2,"message":"Moderate","currency":"$","rating":8.6},{"name":"Race Street Cafe","phone":"2156276181","twitter":"racestcafe","address":"208 Race St","lat":39.953735,"lng":-75.143193,"neighborhood":"Center City East","city_fetched":"Philadelphia","state":"PA","country":"United States","canonicalUrl":"https://foursquare.com/v/race-street-cafe/49ed4198f964a520d5671fe3","category":"Bar","checkinsCount":5067,"usersCount":2540,"tipCount":60,"visitsCount":5712,"url":"http://www.racestreetcafe.net","tier":2,"message":"Moderate","currency":"$","rating":8.6},{"name":"Franky Bradley's","phone":"2157350735","address":"1320 Chancellor St","lat":39.94855955684578,"lng":-75.16301153547343,"neighborhood":"Washington Square West","city_fetched":"Philadelphia","state":"PA","country":"United States","canonicalUrl":"https://foursquare.com/v/franky-bradleys/54b854ce498ecd38da0a55e0","category":"Cocktail Bar","checkinsCount":1303,"usersCount":1097,"tipCount":10,"visitsCount":1922,"url":"http://frankybradleys.com","tier":"","message":"","currency":"","rating":8.6},{"name":"José Pistola's","phone":"2155454101","twitter":"josepistolas","address":"263 S 15th St","lat":39.947505895213666,"lng":-75.16617507121423,"neighborhood":"Avenue of the Arts South","city_fetched":"Philadelphia","state":"PA","country":"United States","canonicalUrl":"https://foursquare.com/v/jos%C3%A9-pistolas/4b033313f964a520714d22e3","category":"Mexican Restaurant","checkinsCount":8761,"usersCount":3957,"tipCount":87,"visitsCount":9113,"url":"http://www.josepistolas.com","tier":2,"message":"Moderate","currency":"$","rating":8.6},{"name":"Interstate Drafthouse","phone":"2674550045","address":"1235 E Palmer St","lat":39.9717759024611,"lng":-75.12877106666565,"neighborhood":"North Philadelphia","city_fetched":"Philadelphia","state":"PA","country":"United States","canonicalUrl":"https://foursquare.com/v/interstate-drafthouse/4e83c4c7d22db0f42c6da213","category":"Pub","checkinsCount":4620,"usersCount":1503,"tipCount":26,"visitsCount":5269,"url":"http://interstatedrafthouse.com","tier":2,"message":"Moderate","currency":"$","rating":8.6},{"name":"Yakitori Boy & Japas Lounge","phone":"2159238088","twitter":"yakitoriboy","address":"211 N 11th St","lat":39.95598707670754,"lng":-75.15749372073009,"neighborhood":"Chinatown","city_fetched":"Philadelphia","state":"PA","country":"United States","canonicalUrl":"https://foursquare.com/v/yakitori-boy--japas-lounge/4ade72a8f964a520f47521e3","category":"Sushi Restaurant","checkinsCount":12808,"usersCount":6214,"tipCount":71,"visitsCount":13660,"url":"http://yakitoriboy.com","tier":2,"message":"Moderate","currency":"$","rating":8.6},{"name":"The Sidecar Bar & Grille","phone":"2157323429","twitter":"thesidecarbar","address":"2201 Christian St","lat":39.94174500753261,"lng":-75.17940992941652,"neighborhood":"Graduate Hospital","city_fetched":"Philadelphia","state":"PA","country":"United States","canonicalUrl":"https://foursquare.com/v/the-sidecar-bar--grille/4a9453fff964a5203e2120e3","category":"Bar","checkinsCount":10063,"usersCount":4182,"tipCount":116,"visitsCount":11321,"url":"http://www.thesidecarbar.com","tier":2,"message":"Moderate","currency":"$","rating":8.6},{"name":"SouthGate Philly","phone":"2155608464","address":"1801 Lombard St","lat":39.945607265922746,"lng":-75.17169828084803,"neighborhood":"Rittenhouse Square","city_fetched":"Philadelphia","state":"PA","country":"United States","canonicalUrl":"https://foursquare.com/v/southgate-philly/5585f5a2498e012f026e9263","category":"Korean Restaurant","checkinsCount":332,"usersCount":402,"tipCount":7,"visitsCount":611,"url":"http://southgatephilly.com","tier":"","message":"","currency":"","rating":8.6},{"name":"XFINITY Live! Philadelphia","phone":"8554064119","twitter":"xfinitylive","address":"1100 Pattison Ave","lat":39.90427977946549,"lng":-75.16944408416747,"neighborhood":"South Philadelphia East","city_fetched":"Philadelphia","state":"PA","country":"United States","canonicalUrl":"https://foursquare.com/xfinitylive","category":"Sports Bar","checkinsCount":33529,"usersCount":17755,"tipCount":95,"visitsCount":36643,"url":"http://xfinitylive.com","tier":2,"message":"Moderate","currency":"$","rating":8.6},{"name":"Time","phone":"2159854800","twitter":"timerestaurant","address":"1315 Sansom St","lat":39.94995590122836,"lng":-75.16256122520697,"neighborhood":"Center City East","city_fetched":"Philadelphia","state":"PA","country":"United States","canonicalUrl":"https://foursquare.com/v/time/49ffbdd8f964a52047701fe3","category":"Whisky Bar","checkinsCount":13083,"usersCount":6563,"tipCount":92,"visitsCount":13410,"url":"http://timerestaurant.net","tier":2,"message":"Moderate","currency":"$","rating":8.6},{"name":"Devil's Den","phone":"2153390855","twitter":"devilsdenphilly","address":"1148 S 11th St","lat":39.935803151721316,"lng":-75.16186010665385,"neighborhood":"Bella Vista - Southwark","city_fetched":"Philadelphia","state":"PA","country":"United States","canonicalUrl":"https://foursquare.com/v/devils-den/4a36b962f964a520d99d1fe3","category":"Pub","checkinsCount":9862,"usersCount":3818,"tipCount":76,"visitsCount":10922,"url":"http://www.devilsdenphilly.com","tier":2,"message":"Moderate","currency":"$","rating":8.6},{"name":"Vintage Wine Bar","phone":"2159223095","twitter":"vintagewinebar1","address":"129 S 13th St","lat":39.949786306913786,"lng":-75.16210556030273,"neighborhood":"Center City East","city_fetched":"Philadelphia","state":"PA","country":"United States","canonicalUrl":"https://foursquare.com/v/vintage-wine-bar/46e29174f964a520a54a1fe3","category":"Wine Bar","checkinsCount":5040,"usersCount":2529,"tipCount":50,"visitsCount":5071,"url":"http://www.vintage-philadelphia.com","tier":3,"message":"Expensive","currency":"$","rating":8.5},{"name":"Chickie's & Pete's","phone":"2152180500","twitter":"chickiesnpetes","address":"1526 Packer Ave","lat":39.911609784311885,"lng":-75.17465075281385,"neighborhood":"South Philadelphia","city_fetched":"Philadelphia","state":"PA","country":"United States","canonicalUrl":"https://foursquare.com/v/chickies--petes/43e9e1a0f964a5201c2f1fe3","category":"Sports Bar","checkinsCount":17464,"usersCount":12217,"tipCount":141,"visitsCount":20424,"url":"http://www.chickiesandpetes.com","tier":2,"message":"Moderate","currency":"$","rating":8.5},{"name":"Valanni Restaurant","phone":"2157909494","twitter":"valannisprucest","address":"1229 Spruce St","lat":39.94671571406726,"lng":-75.1622876183389,"neighborhood":"Washington Square West","city_fetched":"Philadelphia","state":"PA","country":"United States","canonicalUrl":"https://foursquare.com/v/valanni-restaurant/3fd66200f964a5202fee1ee3","category":"Tapas Restaurant","checkinsCount":8404,"usersCount":4310,"tipCount":64,"visitsCount":9138,"url":"http://www.valanni.com","tier":3,"message":"Expensive","currency":"$","rating":8.5},{"name":"Byrne's Tavern","phone":"2154233444","address":"3301 Richmond St","lat":39.984103736353035,"lng":-75.09888352518746,"neighborhood":"Port Richmond","city_fetched":"Philadelphia","state":"PA","country":"United States","canonicalUrl":"https://foursquare.com/v/byrnes-tavern/40b28c80f964a5201ffa1ee3","category":"Wings Joint","checkinsCount":1378,"usersCount":792,"tipCount":15,"visitsCount":1791,"url":"http://byrnestavern.net","tier":1,"message":"Cheap","currency":"$","rating":8.5},{"name":"Three Monkeys Café","phone":"2156376665","twitter":"3monkeys_cafe","address":"9645 James St","lat":40.05387002646201,"lng":-74.98412637622863,"neighborhood":"Torresdale","city_fetched":"Philadelphia","state":"PA","country":"United States","canonicalUrl":"https://foursquare.com/v/three-monkeys-caf%C3%A9/4b0856d9f964a520740923e3","category":"Café","checkinsCount":4229,"usersCount":2128,"tipCount":50,"visitsCount":5003,"url":"http://3monkeyscafe.com","tier":2,"message":"Moderate","currency":"$","rating":8.5},{"name":"Rouge","phone":"2157326622","address":"205 S 18th St","lat":39.94972050843398,"lng":-75.17077445983887,"neighborhood":"Rittenhouse Square","city_fetched":"Philadelphia","state":"PA","country":"United States","canonicalUrl":"https://foursquare.com/v/rouge/3fd66200f964a5209cf11ee3","category":"Seafood Restaurant","checkinsCount":5943,"usersCount":3508,"tipCount":84,"visitsCount":5987,"url":"http://www.rouge98.com","tier":2,"message":"Moderate","currency":"$","rating":8.5},{"name":"Fishtown Tavern","phone":"2154237220","address":"1301 Frankford Ave","lat":39.970449,"lng":-75.13436093,"neighborhood":"Northern Liberties - Fishtown","city_fetched":"Philadelphia","state":"PA","country":"United States","canonicalUrl":"https://foursquare.com/v/fishtown-tavern/4ad91ab0f964a520201821e3","category":"Dive Bar","checkinsCount":3035,"usersCount":1046,"tipCount":12,"visitsCount":3245,"url":"http://fishtowntavern.com","tier":2,"message":"Moderate","currency":"$","rating":8.5},{"name":"Varga Bar","phone":"2156275200","twitter":"vargabar","address":"941 Spruce St","lat":39.94620097040777,"lng":-75.15789844306211,"neighborhood":"Washington Square West","city_fetched":"Philadelphia","state":"PA","country":"United States","canonicalUrl":"https://foursquare.com/v/varga-bar/4ae620b9f964a520eaa421e3","category":"Gastropub","checkinsCount":9717,"usersCount":4681,"tipCount":87,"visitsCount":10794,"url":"http://www.vargabar.com","tier":2,"message":"Moderate","currency":"$","rating":8.5},{"name":"Tony's Place","phone":"2155359851","address":"6300 Frankford Ave","lat":40.02843043074701,"lng":-75.05901849566673,"neighborhood":"Mayfair","city_fetched":"Philadelphia","state":"PA","country":"United States","canonicalUrl":"https://foursquare.com/v/tonys-place/4ae629bff964a52040a521e3","category":"Pizza Place","checkinsCount":860,"usersCount":411,"tipCount":19,"visitsCount":914,"url":"http://www.tonystomatopies.com","tier":"","message":"","currency":"","rating":8.5},{"name":"The Druid's Keep","address":"149 Brown St","lat":39.96285810446604,"lng":-75.14006687214328,"neighborhood":"Northern Liberties - Fishtown","city_fetched":"Philadelphia","state":"PA","country":"United States","canonicalUrl":"https://foursquare.com/v/the-druids-keep/40b28c80f964a52079f91ee3","category":"Bar","checkinsCount":3607,"usersCount":1224,"tipCount":21,"visitsCount":4088,"tier":1,"message":"Cheap","currency":"$","rating":8.5},{"name":"XIX","phone":"2157901919","twitter":"hyatttweets","address":"200 S Broad St","lat":39.948986522567196,"lng":-75.16525736740628,"neighborhood":"Avenue of the Arts South","city_fetched":"Philadelphia","state":"PA","country":"United States","canonicalUrl":"https://foursquare.com/v/xix/4a069823f964a52000731fe3","category":"American Restaurant","checkinsCount":5693,"usersCount":3583,"tipCount":47,"visitsCount":5740,"url":"http://www.hyatt.com","tier":3,"message":"Expensive","currency":"$","rating":8.5},{"name":"Seasons 52","phone":"8566651052","twitter":"seasons52","address":"2000 Route 38 Ste 1145","lat":39.94034358,"lng":-75.0265789,"city_fetched":"Philadelphia","state":"NJ","country":"United States","canonicalUrl":"https://foursquare.com/v/seasons-52/4c4b78d946240f47f4615cf3","category":"New American Restaurant","checkinsCount":3760,"usersCount":2369,"tipCount":37,"visitsCount":3977,"url":"http://seasons52.com","tier":3,"message":"Expensive","currency":"$","rating":8.5},{"name":"The Industry Bar","phone":"2152719500","address":"1401 E Moyamensing Ave","lat":39.930492,"lng":-75.149676,"neighborhood":"Queen Village - Pennsport","city_fetched":"Philadelphia","state":"PA","country":"United States","canonicalUrl":"https://foursquare.com/v/the-industry-bar/4f981c5ae4b09751c0a19c1e","category":"Bar","checkinsCount":3534,"usersCount":1806,"tipCount":42,"visitsCount":4612,"url":"http://www.theindustrybar.com","tier":2,"message":"Moderate","currency":"$","rating":8.5},{"name":"Continental Restaurant & Martini Bar","phone":"2159236069","address":"138 Market St","lat":39.94974995970829,"lng":-75.14373196312806,"neighborhood":"Center City East","city_fetched":"Philadelphia","state":"PA","country":"United States","canonicalUrl":"https://foursquare.com/v/continental-restaurant--martini-bar/4d253b115886a0933da1f152","category":"Lounge","checkinsCount":7390,"usersCount":4830,"tipCount":83,"visitsCount":7418,"url":"http://www.continentalmartinibar.com","tier":2,"message":"Moderate","currency":"$","rating":8.5},{"name":"Iron Hill Brewery & Restaurant","phone":"8562730300","twitter":"ironhillnj","address":"124 E Kings Hwy","lat":39.947146093230906,"lng":-74.97333705425262,"city_fetched":"Philadelphia","state":"NJ","country":"United States","canonicalUrl":"https://foursquare.com/v/iron-hill-brewery--restaurant/4ade3f0ef964a520467421e3","category":"Brewery","checkinsCount":11235,"usersCount":4387,"tipCount":84,"visitsCount":12710,"url":"http://ironhillbrewery.com","tier":3,"message":"Expensive","currency":"$","rating":8.5},{"name":"Taproom on 19th","phone":"2676877817","twitter":"taproomon19th","address":"2400 S 19th St","lat":39.92167188213936,"lng":-75.17857779638472,"neighborhood":"South Philadelphia","city_fetched":"Philadelphia","state":"PA","country":"United States","canonicalUrl":"https://foursquare.com/v/taproom-on-19th/4bbfd4ea4cdfc9b6ec0a9221","category":"Gastropub","checkinsCount":1663,"usersCount":717,"tipCount":16,"visitsCount":2266,"url":"http://www.taproomon19th.com","tier":2,"message":"Moderate","currency":"$","rating":8.4},{"name":"Reuben's Marc","phone":"2152471606","address":"8131 Stenton Ave","lat":40.06755709648132,"lng":-75.1791785,"neighborhood":"Cedarbrook - Stenton","city_fetched":"Philadelphia","state":"PA","country":"United States","canonicalUrl":"https://foursquare.com/v/reubens-marc/4c6e03ee4d24b60cbdc5d7d8","category":"Bar","checkinsCount":1209,"usersCount":418,"tipCount":25,"visitsCount":1472,"tier":1,"message":"Cheap","currency":"$","rating":8.4},{"name":"Lloyd Whiskey Bar","phone":"2154254600","twitter":"lloydwhiskey","address":"529 E Girard Ave","lat":39.97137264688347,"lng":-75.12750717352606,"neighborhood":"North Philadelphia","city_fetched":"Philadelphia","state":"PA","country":"United States","canonicalUrl":"https://foursquare.com/v/lloyd-whiskey-bar/5086f457e4b096937c775bdc","category":"Whisky Bar","checkinsCount":2054,"usersCount":899,"tipCount":21,"visitsCount":2192,"url":"http://lloydwhiskeybar.com","tier":2,"message":"Moderate","currency":"$","rating":8.4},{"name":"Local 44","phone":"2152222337","address":"4333 Spruce St","lat":39.952799,"lng":-75.210453,"neighborhood":"Spruce Hill","city_fetched":"Philadelphia","state":"PA","country":"United States","canonicalUrl":"https://foursquare.com/v/local-44/49badec8f964a520c1531fe3","category":"Bar","checkinsCount":7656,"usersCount":2959,"tipCount":71,"visitsCount":8311,"url":"http://local44beerbar.com","tier":2,"message":"Moderate","currency":"$","rating":8.4},{"name":"Fiume","address":"229 S 45th St","lat":39.95411576,"lng":-75.2117,"neighborhood":"Spruce Hill","city_fetched":"Philadelphia","state":"PA","country":"United States","canonicalUrl":"https://foursquare.com/v/fiume/4a6cf44cf964a5202ad21fe3","category":"Dive Bar","checkinsCount":1935,"usersCount":831,"tipCount":31,"visitsCount":2027,"tier":2,"message":"Moderate","currency":"$","rating":8.4},{"name":"South Bowl","address":"19 E Oregon Ave","lat":39.91425843187503,"lng":-75.14727271166075,"neighborhood":"Queen Village - Pennsport","city_fetched":"Philadelphia","state":"PA","country":"United States","canonicalUrl":"https://foursquare.com/v/south-bowl/54d3d015498e36f41aad1b54","category":"Bowling Alley","checkinsCount":906,"usersCount":909,"tipCount":5,"visitsCount":1474,"tier":"","message":"","currency":"","rating":8.4},{"name":"Caribou Cafe","phone":"2156259535","twitter":"cariboucafe","address":"1126 Walnut St","lat":39.948847,"lng":-75.160307,"neighborhood":"Center City East","city_fetched":"Philadelphia","state":"PA","country":"United States","canonicalUrl":"https://foursquare.com/v/caribou-cafe/40b28c80f964a52028f91ee3","category":"Gastropub","checkinsCount":2234,"usersCount":1588,"tipCount":32,"visitsCount":2240,"url":"http://www.cariboucafe.com","tier":2,"message":"Moderate","currency":"$","rating":8.4},{"name":"Mad Mex","phone":"2153822221","twitter":"madmexwalnutst","address":"3401 Walnut St","lat":39.953306433311035,"lng":-75.19347667694092,"neighborhood":"University City","city_fetched":"Philadelphia","state":"PA","country":"United States","canonicalUrl":"https://foursquare.com/v/mad-mex/4a42a38bf964a52012a61fe3","category":"Mexican Restaurant","checkinsCount":16651,"usersCount":6798,"tipCount":135,"visitsCount":17392,"url":"http://www.madmex.com/regions/philly/locations/?utm_source=social&utm_medium=foursquare&utm_campaign","tier":2,"message":"Moderate","currency":"$","rating":8.4},{"name":"The Cambridge","phone":"2674550647","address":"1508 South St","lat":39.94391136592291,"lng":-75.16761146640896,"neighborhood":"Rittenhouse Square","city_fetched":"Philadelphia","state":"PA","country":"United States","canonicalUrl":"https://foursquare.com/v/the-cambridge/4fd26d42e4b003bf79f5d730","category":"Gastropub","checkinsCount":4390,"usersCount":2223,"tipCount":33,"visitsCount":4542,"url":"http://cambridgeonsouth.com","tier":2,"message":"Moderate","currency":"$","rating":8.4},{"name":"Cuba Libre Restaurant & Rum Bar","phone":"2156270666","twitter":"cubalibrephl","address":"10 S 2nd St","lat":39.949555580543404,"lng":-75.14394917313429,"neighborhood":"Center City East","city_fetched":"Philadelphia","state":"PA","country":"United States","canonicalUrl":"https://foursquare.com/v/cuba-libre-restaurant--rum-bar/40b28c80f964a52007f91ee3","category":"Cuban Restaurant","checkinsCount":6897,"usersCount":5407,"tipCount":70,"visitsCount":7045,"url":"http://cubalibrerestaurant.com","tier":3,"message":"Expensive","currency":"$","rating":8.4},{"name":"Blue Comet","phone":"2155729780","address":"106 S Easton Rd","lat":40.10037768225399,"lng":-75.15382267060767,"city_fetched":"Philadelphia","state":"PA","country":"United States","canonicalUrl":"https://foursquare.com/v/blue-comet/4b50ddc0f964a520fd3527e3","category":"Beer Garden","checkinsCount":1883,"usersCount":642,"tipCount":15,"visitsCount":2070,"url":"http://bluecometbarandgrill.com","tier":2,"message":"Moderate","currency":"$","rating":8.4},{"name":"City Tap House","phone":"2156620105","twitter":"taphouseucity","address":"3925 Walnut St","lat":39.95405902521256,"lng":-75.20131296753998,"neighborhood":"University City","city_fetched":"Philadelphia","state":"PA","country":"United States","canonicalUrl":"https://foursquare.com/v/city-tap-house/4bd1db689854d13a4660fa4d","category":"Gastropub","checkinsCount":23386,"usersCount":8311,"tipCount":116,"visitsCount":24213,"url":"http://www.citytaphouse.com/index.php","tier":2,"message":"Moderate","currency":"$","rating":8.4},{"name":"Hop Angel Brauhaus","phone":"2154371939","twitter":"hopangelbrau","address":"7980 Oxford Ave","lat":40.07715725098573,"lng":-75.0853054425214,"neighborhood":"Fox Chase - Burholme","city_fetched":"Philadelphia","state":"PA","country":"United States","canonicalUrl":"https://foursquare.com/v/hop-angel-brauhaus/4bd2014d462cb713f762db07","category":"Beer Garden","checkinsCount":2452,"usersCount":882,"tipCount":29,"visitsCount":2785,"url":"http://www.hopangelbrauhaus.blogspot.com","tier":2,"message":"Moderate","currency":"$","rating":8.4},{"name":"Moriarty's Restaurant & Irish Pub","phone":"2156277676","address":"1116 Walnut St","lat":39.948657442972916,"lng":-75.1598310470581,"neighborhood":"Center City East","city_fetched":"Philadelphia","state":"PA","country":"United States","canonicalUrl":"https://foursquare.com/v/moriartys-restaurant--irish-pub/40b28c80f964a52033f91ee3","category":"Pub","checkinsCount":10705,"usersCount":6247,"tipCount":120,"visitsCount":11294,"url":"http://www.moriartyspub.com","tier":1,"message":"Cheap","currency":"$","rating":8.4},{"name":"Assembly","address":"1875 Benjamin Franklin Pkwy","lat":39.956897,"lng":-75.169806,"neighborhood":"Logan Square","city_fetched":"Philadelphia","state":"PA","country":"United States","canonicalUrl":"https://foursquare.com/v/assembly/5727ca3b498e264049e57346","category":"Lounge","checkinsCount":292,"usersCount":242,"tipCount":2,"visitsCount":304,"tier":"","message":"","currency":"","rating":8.4},{"name":"Ye Olde Ale House","phone":"6108252469","address":"405 Germantown Pike","lat":40.09280257018194,"lng":-75.26101720344266,"city_fetched":"Philadelphia","state":"PA","country":"United States","canonicalUrl":"https://foursquare.com/v/ye-olde-ale-house/4b534dbdf964a520619627e3","category":"Bar","checkinsCount":1927,"usersCount":693,"tipCount":25,"visitsCount":2283,"tier":"","message":"","currency":"","rating":8.4},{"name":"Graffiti Bar","phone":"2157323501","twitter":"sampanphilly","address":"124 S 13th St","lat":39.949539562288145,"lng":-75.16219139099121,"neighborhood":"Center City East","city_fetched":"Philadelphia","state":"PA","country":"United States","canonicalUrl":"https://foursquare.com/v/graffiti-bar/4d83ee918de9721ed5e62651","category":"Bar","checkinsCount":4762,"usersCount":3310,"tipCount":40,"visitsCount":4795,"url":"http://sampanphilly.com/site/graffiti-bar/","tier":2,"message":"Moderate","currency":"$","rating":8.4},{"name":"McNally's Tavern","phone":"2152479736","address":"8634 Germantown Ave","lat":40.077202,"lng":-75.208787,"neighborhood":"Chestnut Hill","city_fetched":"Philadelphia","state":"PA","country":"United States","canonicalUrl":"https://foursquare.com/v/mcnallys-tavern/4adb6ee1f964a520662721e3","category":"Pub","checkinsCount":1506,"usersCount":791,"tipCount":33,"visitsCount":1600,"url":"http://www.mcnallystavern.com","tier":"","message":"","currency":"","rating":8.4},{"name":"Mad Mex","phone":"4844176932","twitter":"madmexwynnewood","address":"50 E Wynnewood Rd","lat":40.001844660875044,"lng":-75.27178329005152,"neighborhood":"Wynnewood","city_fetched":"Philadelphia","state":"PA","country":"United States","canonicalUrl":"https://foursquare.com/v/mad-mex/53e57d98498e7c5b4f9d4ef8","category":"Mexican Restaurant","checkinsCount":780,"usersCount":805,"tipCount":11,"visitsCount":1487,"url":"http://www.madmex.com/philadelphia/wynnewood?location=wynnewood","tier":"","message":"","currency":"","rating":8.3},{"name":"Fergie's Pub","phone":"2159288118","address":"1214 Sansom St","lat":39.94969185328903,"lng":-75.1612273872258,"neighborhood":"Center City East","city_fetched":"Philadelphia","state":"PA","country":"United States","canonicalUrl":"https://foursquare.com/v/fergies-pub/3fd66200f964a5201dee1ee3","category":"Pub","checkinsCount":6847,"usersCount":4062,"tipCount":49,"visitsCount":7278,"url":"http://fergies.com","tier":2,"message":"Moderate","currency":"$","rating":8.3},{"name":"The Trestle Inn","phone":"2672390290","twitter":"thetrestleinn","address":"339 N 11th St","lat":39.95888041796294,"lng":-75.1566500708305,"neighborhood":"North Philadelphia","city_fetched":"Philadelphia","state":"PA","country":"United States","canonicalUrl":"https://foursquare.com/v/the-trestle-inn/4b5bb9a2f964a520721229e3","category":"Dive Bar","checkinsCount":5475,"usersCount":3008,"tipCount":67,"visitsCount":6240,"url":"http://www.thetrestleinn.com","tier":2,"message":"Moderate","currency":"$","rating":8.3},{"name":"Curran's Irish Inn","phone":"2153318628","address":"6900 State Rd","lat":40.02213994576905,"lng":-75.03985236107238,"neighborhood":"Tacony - Wissinoming","city_fetched":"Philadelphia","state":"PA","country":"United States","canonicalUrl":"https://foursquare.com/v/currans-irish-inn/4babe1cbf964a520e1d13ae3","category":"Bar","checkinsCount":2501,"usersCount":1224,"tipCount":22,"visitsCount":2923,"url":"http://curransirishinntacony.com","tier":2,"message":"Moderate","currency":"$","rating":8.3},{"name":"Beer Love","address":"714 S 4th St","lat":39.940169,"lng":-75.14959,"neighborhood":"Queen Village - Pennsport","city_fetched":"Philadelphia","state":"PA","country":"United States","canonicalUrl":"https://foursquare.com/v/beer-love/55c55d70498edeb5199f1d6a","category":"Bar","checkinsCount":139,"usersCount":106,"tipCount":1,"visitsCount":162,"tier":"","message":"","currency":"","rating":8.3},{"name":"ROOT restaurant + wine bar","twitter":"rootrestaurant","address":"1206 Frankford Ave","lat":39.969132,"lng":-75.134629,"neighborhood":"Northern Liberties - Fishtown","city_fetched":"Philadelphia","state":"PA","country":"United States","canonicalUrl":"https://foursquare.com/v/root-restaurant--wine-bar/56f1c8eb498ef3b39f808693","category":"Wine Bar","checkinsCount":147,"usersCount":110,"tipCount":4,"visitsCount":150,"url":"http://rootrestaurant.com","tier":"","message":"","currency":"","rating":8.3},{"name":"McMenamin's","phone":"2152479920","address":"7170 Germantown Ave","lat":40.05971932808442,"lng":-75.19080286791548,"neighborhood":"West Mount Airy","city_fetched":"Philadelphia","state":"PA","country":"United States","canonicalUrl":"https://foursquare.com/v/mcmenamins/417ee500f964a520d91d1fe3","category":"Pub","checkinsCount":4195,"usersCount":1163,"tipCount":55,"visitsCount":4744,"tier":1,"message":"Cheap","currency":"$","rating":8.3},{"name":"Blue Monkey Tavern","phone":"8566618008","twitter":"blumonkeytavern","address":"2 S Centre St","lat":39.95223408222391,"lng":-75.04936156070622,"city_fetched":"Philadelphia","state":"NJ","country":"United States","canonicalUrl":"https://foursquare.com/v/blue-monkey-tavern/4b47d1b6f964a520334026e3","category":"Gastropub","checkinsCount":4102,"usersCount":1285,"tipCount":49,"visitsCount":4698,"url":"http://www.bluemonkeytavern.com","tier":2,"message":"Moderate","currency":"$","rating":8.3},{"name":"The Dolphin Tavern","phone":"2152787950","address":"1539 S Broad St","lat":39.930631518107404,"lng":-75.16821566046184,"neighborhood":"Point Breeze","city_fetched":"Philadelphia","state":"PA","country":"United States","canonicalUrl":"https://foursquare.com/v/the-dolphin-tavern/40b28c80f964a520cafa1ee3","category":"Dive Bar","checkinsCount":3154,"usersCount":1993,"tipCount":21,"visitsCount":3763,"url":"http://dolphinphilly.com","tier":2,"message":"Moderate","currency":"$","rating":8.3},{"name":"Ralph's Italian Restaurant","phone":"2156276011","twitter":"ralphsitalrest","address":"760 S 9th St","lat":39.94008862,"lng":-75.15761,"neighborhood":"Bella Vista - Southwark","city_fetched":"Philadelphia","state":"PA","country":"United States","canonicalUrl":"https://foursquare.com/v/ralphs-italian-restaurant/4b96f0a2f964a5203fef34e3","category":"Italian Restaurant","checkinsCount":1835,"usersCount":1668,"tipCount":27,"visitsCount":2135,"url":"http://ralphsrestaurant.com","tier":3,"message":"Expensive","currency":"$","rating":8.3},{"name":"Opa / Drury Beer Garden","phone":"2155450170","twitter":"opaphiladelphia","address":"1311 Sansom St","lat":39.9502304646997,"lng":-75.16236742039128,"neighborhood":"Center City East","city_fetched":"Philadelphia","state":"PA","country":"United States","canonicalUrl":"https://foursquare.com/v/opa--drury-beer-garden/4d2344e0e56f6ea839ed8b1d","category":"Greek Restaurant","checkinsCount":6273,"usersCount":3756,"tipCount":54,"visitsCount":6349,"url":"http://www.opaphiladelphia.com","tier":2,"message":"Moderate","currency":"$","rating":8.3},{"name":"The Pub of Penn Valley","phone":"6106641901","address":"863 Montgomery Ave","lat":40.0112,"lng":-75.259545,"city_fetched":"Philadelphia","state":"PA","country":"United States","canonicalUrl":"https://foursquare.com/v/the-pub-of-penn-valley/40b28c80f964a520c1f81ee3","category":"Restaurant","checkinsCount":917,"usersCount":496,"tipCount":11,"visitsCount":1083,"url":"http://pubofpv.com","tier":2,"message":"Moderate","currency":"$","rating":8.3},{"name":"MilkBoy Philadelphia","phone":"2159256455","twitter":"milkboyphilly","address":"1100 Chestnut St","lat":39.950115298363436,"lng":-75.15880107879639,"neighborhood":"Center City East","city_fetched":"Philadelphia","state":"PA","country":"United States","canonicalUrl":"https://foursquare.com/v/milkboy-philadelphia/4e385ad7cc3f222897289d99","category":"Music Venue","checkinsCount":8901,"usersCount":5159,"tipCount":78,"visitsCount":9876,"url":"http://www.milkboyphilly.com","tier":"","message":"","currency":"","rating":8.3},{"name":"PJRD Warehouse","twitter":"pennjerseyderby","address":"1801 W Indiana Ave","lat":39.99935746063645,"lng":-75.1612900892648,"neighborhood":"Allegheny West","city_fetched":"Philadelphia","state":"PA","country":"United States","canonicalUrl":"https://foursquare.com/pennjerseyderby","category":"Stadium","checkinsCount":1361,"usersCount":142,"tipCount":2,"visitsCount":1453,"url":"http://www.pennjerseyrollerderby.com","tier":"","message":"","currency":"","rating":8.3},{"name":"Ms. Tootsie's Soul Food Cafe","phone":"2157319045","twitter":"mstootsies","address":"1314 South St","lat":39.94347682888503,"lng":-75.1638095504972,"neighborhood":"Washington Square West","city_fetched":"Philadelphia","state":"PA","country":"United States","canonicalUrl":"https://foursquare.com/v/ms-tootsies-soul-food-cafe/4bc36426b492d13a09aea860","category":"Southern / Soul Food Restaurant","checkinsCount":3004,"usersCount":2112,"tipCount":63,"visitsCount":3395,"url":"http://www.mstootsiesrbl.com","tier":2,"message":"Moderate","currency":"$","rating":8.3},{"name":"Giovani's Bar & Grill","phone":"2155680800","address":"1533 Chestnut St","lat":39.95143772762391,"lng":-75.16697307016669,"neighborhood":"Center City West","city_fetched":"Philadelphia","state":"PA","country":"United States","canonicalUrl":"https://foursquare.com/v/giovanis-bar--grill/547fbcfd498ee63fecc92ac3","category":"Bar","checkinsCount":235,"usersCount":144,"tipCount":3,"visitsCount":244,"url":"http://www.giovanisbarandgrill.com","tier":"","message":"","currency":"","rating":8.3},{"name":"Bar Hygge","phone":"2157652274","twitter":"bar_hygge","address":"1720 Fairmount Ave","lat":39.96726409640471,"lng":-75.1663859713316,"neighborhood":"Fairmount - Art Museum","city_fetched":"Philadelphia","state":"PA","country":"United States","canonicalUrl":"https://foursquare.com/v/bar-hygge/56685a49498e3021a9d236a8","category":"Gastropub","checkinsCount":336,"usersCount":320,"tipCount":5,"visitsCount":535,"url":"http://www.barhygge.com","tier":"","message":"","currency":"","rating":8.3},{"name":"Cannstatter Volksfest-Verein","phone":"2153320121","address":"9130 Academy Rd","lat":40.054602134062534,"lng":-75.00788659372505,"neighborhood":"Torresdale","city_fetched":"Philadelphia","state":"PA","country":"United States","canonicalUrl":"https://foursquare.com/v/cannstatter-volksfestverein/4be9efd86295c9b6a4e18508","category":"Event Space","checkinsCount":1184,"usersCount":826,"tipCount":6,"visitsCount":1451,"url":"http://www.cvvphilly.com","tier":"","message":"","currency":"","rating":8.2},{"name":"Laurel Lanes","phone":"8567787467","twitter":"laurellanesnj","address":"2825 Route 73 S","lat":39.93972388241921,"lng":-74.97432797764544,"city_fetched":"Philadelphia","state":"NJ","country":"United States","canonicalUrl":"https://foursquare.com/v/laurel-lanes/4b36ed24f964a520483e25e3","category":"Bowling Alley","checkinsCount":5338,"usersCount":1893,"tipCount":28,"visitsCount":5965,"url":"http://laurellanesnj.com","tier":"","message":"","currency":"","rating":8.2},{"name":"Smokin' Betty's","phone":"2159226500","twitter":"smokinbettys","address":"116 S 11th St","lat":39.949560124374294,"lng":-75.15892446041107,"neighborhood":"Center City East","city_fetched":"Philadelphia","state":"PA","country":"United States","canonicalUrl":"https://foursquare.com/v/smokin-bettys/4a87533df964a520e30320e3","category":"New American Restaurant","checkinsCount":8273,"usersCount":5262,"tipCount":96,"visitsCount":8918,"url":"http://www.smokinbettys.com","tier":2,"message":"Moderate","currency":"$","rating":8.2},{"name":"Atlantis: The Lost Bar","address":"2442 Frankford Ave","lat":39.98231268879248,"lng":-75.12691992758351,"neighborhood":"North Philadelphia","city_fetched":"Philadelphia","state":"PA","country":"United States","canonicalUrl":"https://foursquare.com/v/atlantis-the-lost-bar/4a9b5d0ff964a520013520e3","category":"Bar","checkinsCount":2912,"usersCount":979,"tipCount":10,"visitsCount":3175,"tier":"","message":"","currency":"","rating":8.2},{"name":"Copabanana","phone":"2153821330","twitter":"copabananaunive","address":"4000 Spruce St","lat":39.951648116111755,"lng":-75.20304679870605,"neighborhood":"Spruce Hill","city_fetched":"Philadelphia","state":"PA","country":"United States","canonicalUrl":"https://foursquare.com/copabananaunive","category":"Burger Joint","checkinsCount":7722,"usersCount":3503,"tipCount":64,"visitsCount":9199,"url":"http://www.copabanana.com","tier":2,"message":"Moderate","currency":"$","rating":8.2},{"name":"Kings Corner","phone":"2157582402","address":"603 Summit Ave","lat":40.0942187466595,"lng":-75.12763830581709,"city_fetched":"Philadelphia","state":"PA","country":"United States","canonicalUrl":"https://foursquare.com/v/kings-corner/4fc94ee7e4b0ad18c69d0d3c","category":"Bar","checkinsCount":1028,"usersCount":465,"tipCount":15,"visitsCount":1235,"url":"http://kingscornerpub.com","tier":2,"message":"Moderate","currency":"$","rating":8.2},{"name":"Garage","address":"1231 E Passyunk Ave","lat":39.933470458862075,"lng":-75.15884399414062,"neighborhood":"Bella Vista - Southwark","city_fetched":"Philadelphia","state":"PA","country":"United States","canonicalUrl":"https://foursquare.com/v/garage/51e05a02ccda18aee296415f","category":"Bar","checkinsCount":4132,"usersCount":1800,"tipCount":40,"visitsCount":4468,"tier":2,"message":"Moderate","currency":"$","rating":8.2},{"name":"Southhouse","phone":"2674573682","address":"2535 13th Street","lat":39.91801575251831,"lng":-75.16889965092322,"neighborhood":"South Philadelphia East","city_fetched":"Philadelphia","state":"PA","country":"United States","canonicalUrl":"https://foursquare.com/v/southhouse/54822bce498eaca733c006ab","category":"Bar","checkinsCount":288,"usersCount":200,"tipCount":5,"visitsCount":530,"url":"http://www.southhousephilly.com","tier":"","message":"","currency":"","rating":8.2},{"name":"Drake Tavern","phone":"2158848900","twitter":"draketavern","address":"304 Old York Rd","lat":40.095307399209176,"lng":-75.12560289234018,"city_fetched":"Philadelphia","state":"PA","country":"United States","canonicalUrl":"https://foursquare.com/v/drake-tavern/4b7e0960f964a5202de02fe3","category":"Pub","checkinsCount":4595,"usersCount":2022,"tipCount":45,"visitsCount":5333,"url":"http://www.draketavern.com","tier":2,"message":"Moderate","currency":"$","rating":8.2},{"name":"Gat Beer","phone":"2159046248","twitter":"gatbeer","address":"1900 Grant Ave","lat":40.083872,"lng":-75.035237,"neighborhood":"Bustleton","city_fetched":"Philadelphia","state":"PA","country":"United States","canonicalUrl":"https://foursquare.com/gatbeer","category":"Beer Garden","checkinsCount":134,"usersCount":42,"tipCount":3,"visitsCount":146,"url":"http://grantavenuetakeout.com","tier":"","message":"","currency":"","rating":8.2},{"name":"The Institute Bar","phone":"2673187772","twitter":"institutebar","address":"549 N 12th St","lat":39.962967028895136,"lng":-75.15737971425136,"neighborhood":"North Philadelphia","city_fetched":"Philadelphia","state":"PA","country":"United States","canonicalUrl":"https://foursquare.com/institutebar","category":"Gastropub","checkinsCount":7480,"usersCount":1920,"tipCount":39,"visitsCount":7922,"url":"http://www.institutebar.com","tier":2,"message":"Moderate","currency":"$","rating":8.2},{"name":"Manayunk Brewery & Restaurant","phone":"2154828220","twitter":"manayunkbrewery","address":"4120 Main St","lat":40.022257759981606,"lng":-75.2190113067627,"neighborhood":"Manayunk","city_fetched":"Philadelphia","state":"PA","country":"United States","canonicalUrl":"https://foursquare.com/v/manayunk-brewery--restaurant/4b957838f964a52036a434e3","category":"Brewery","checkinsCount":11780,"usersCount":7421,"tipCount":87,"visitsCount":13509,"url":"http://manayunkbrewery.com","tier":2,"message":"Moderate","currency":"$","rating":8.2},{"name":"Clock Bar","phone":"2152287262","address":"3649 Germantown Ave","lat":40.00896831163536,"lng":-75.15084700502142,"neighborhood":"North Philadelphia","city_fetched":"Philadelphia","state":"PA","country":"United States","canonicalUrl":"https://foursquare.com/v/clock-bar/40b28c80f964a5206dfa1ee3","category":"Bar","checkinsCount":825,"usersCount":374,"tipCount":23,"visitsCount":842,"tier":"","message":"","currency":"","rating":8.2},{"name":"Grace Tavern","phone":"2158939580","address":"2229 Grays Ferry Ave","lat":39.945194,"lng":-75.179728,"neighborhood":"Center City","city_fetched":"Philadelphia","state":"PA","country":"United States","canonicalUrl":"https://foursquare.com/v/grace-tavern/4161e400f964a5205e1d1fe3","category":"Pub","checkinsCount":3938,"usersCount":1756,"tipCount":48,"visitsCount":4245,"url":"http://gracetavern.com","tier":2,"message":"Moderate","currency":"$","rating":8.2},{"name":"The Goat's Beard","phone":"2673232495","twitter":"thegoatsbeard","address":"4201 Main St","lat":40.0238187983846,"lng":-75.22012710571289,"neighborhood":"Manayunk","city_fetched":"Philadelphia","state":"PA","country":"United States","canonicalUrl":"https://foursquare.com/v/the-goats-beard/514739bd8055084221d0ed4a","category":"Bar","checkinsCount":1279,"usersCount":961,"tipCount":17,"visitsCount":1505,"url":"http://www.thegoatsbeardphilly.com","tier":3,"message":"Expensive","currency":"$","rating":8.2},{"name":"Union Jacks","phone":"2158866014","address":"2750 Limekiln Pike","lat":40.109760145150894,"lng":-75.16486976418742,"neighborhood":"Abington","city_fetched":"Philadelphia","state":"PA","country":"United States","canonicalUrl":"https://foursquare.com/v/union-jacks/4c81dd2447cc224b72d5809f","category":"Bar","checkinsCount":2488,"usersCount":661,"tipCount":22,"visitsCount":2888,"tier":2,"message":"Moderate","currency":"$","rating":8.2},{"name":"Carlette's Hideaway","lat":39.93933439147161,"lng":-75.25718908097271,"city_fetched":"Philadelphia","state":"PA","country":"United States","canonicalUrl":"https://foursquare.com/v/carlettes-hideaway/4f08c474e4b039f5ad5239e4","category":"Sports Bar","checkinsCount":375,"usersCount":154,"tipCount":6,"visitsCount":539,"tier":"","message":"","currency":"","rating":8.2},{"name":"1225RAW Sushi & Sake Lounge","phone":"2152381903","twitter":"1225raw","address":"1225 Sansom St","lat":39.949987,"lng":-75.161814,"neighborhood":"Center City East","city_fetched":"Philadelphia","state":"PA","country":"United States","canonicalUrl":"https://foursquare.com/v/1225raw-sushi--sake-lounge/4af1c734f964a52017e321e3","category":"Sushi Restaurant","checkinsCount":5099,"usersCount":3413,"tipCount":56,"visitsCount":5140,"url":"http://1225raw.com","tier":3,"message":"Expensive","currency":"$","rating":8.2},{"name":"SMoKE Cigar & Hookah Parlor","phone":"2673629865","twitter":"smokemanayunk","address":"4453 Main St","lat":40.02687466490827,"lng":-75.22658348969361,"neighborhood":"Manayunk","city_fetched":"Philadelphia","state":"PA","country":"United States","canonicalUrl":"https://foursquare.com/v/smoke-cigar--hookah-parlor/52a3f70d498edf12294799f2","category":"Hookah Bar","checkinsCount":397,"usersCount":188,"tipCount":14,"visitsCount":484,"tier":1,"message":"Cheap","currency":"$","rating":8.2},{"name":"Vintage","phone":"2158878500","address":"1116 Old York Rd","lat":40.1151476246806,"lng":-75.1217087369356,"neighborhood":"Abington","city_fetched":"Philadelphia","state":"PA","country":"United States","canonicalUrl":"https://foursquare.com/v/vintage/4a36e19df964a520f69d1fe3","category":"American Restaurant","checkinsCount":1728,"usersCount":791,"tipCount":15,"visitsCount":2155,"url":"http://vintagebarandgrillabington.com","tier":2,"message":"Moderate","currency":"$","rating":8.2},{"name":"a.bar","phone":"2158257035","address":"135 S 18th St","lat":39.950192809171526,"lng":-75.17073501059986,"neighborhood":"Center City West","city_fetched":"Philadelphia","state":"PA","country":"United States","canonicalUrl":"https://foursquare.com/v/abar/51e4b307498eb7f2d3e8a95b","category":"American Restaurant","checkinsCount":911,"usersCount":616,"tipCount":11,"visitsCount":933,"url":"http://akitchenandbar.com","tier":2,"message":"Moderate","currency":"$","rating":8.2},{"name":"Kite & Key","phone":"2155681818","address":"1836 Callowhill St","lat":39.96051739,"lng":-75.16965445,"neighborhood":"Fairmount - Art Museum","city_fetched":"Philadelphia","state":"PA","country":"United States","canonicalUrl":"https://foursquare.com/v/kite--key/49c7355df964a520a7571fe3","category":"Bar","checkinsCount":8342,"usersCount":4353,"tipCount":67,"visitsCount":9609,"url":"http://thekiteandkey.com","tier":2,"message":"Moderate","currency":"$","rating":8.1},{"name":"The Plough and the Stars","phone":"2157330300","twitter":"plougholdcity","address":"123 Chestnut St","lat":39.94872816772486,"lng":-75.14405748853095,"neighborhood":"Center City East","city_fetched":"Philadelphia","state":"PA","country":"United States","canonicalUrl":"https://foursquare.com/v/the-plough-and-the-stars/4ae60ee2f964a52066a421e3","category":"Pub","checkinsCount":8870,"usersCount":5860,"tipCount":63,"visitsCount":8902,"url":"http://www.ploughstars.com","tier":2,"message":"Moderate","currency":"$","rating":8.1},{"name":"Cooperage Wine & Whiskey Bar","phone":"2152262667","address":"123 S 7th St","lat":39.948418906707744,"lng":-75.15257426603374,"neighborhood":"Center City East","city_fetched":"Philadelphia","state":"PA","country":"United States","canonicalUrl":"https://foursquare.com/v/cooperage-wine--whiskey-bar/4bcf9a72b221c9b6d76dd2d0","category":"Wine Bar","checkinsCount":4444,"usersCount":2028,"tipCount":38,"visitsCount":4872,"url":"http://cooperagephilly.com","tier":2,"message":"Moderate","currency":"$","rating":8.1},{"name":"New Wave Cafe","phone":"2159228484","twitter":"thenewwavecafe","address":"784 S 3rd St","lat":39.93800531419151,"lng":-75.14841824769974,"neighborhood":"Queen Village - Pennsport","city_fetched":"Philadelphia","state":"PA","country":"United States","canonicalUrl":"https://foursquare.com/v/new-wave-cafe/40b28c80f964a520e2fa1ee3","category":"Bar","checkinsCount":5526,"usersCount":2302,"tipCount":53,"visitsCount":6154,"url":"http://www.newwavecafe.com","tier":2,"message":"Moderate","currency":"$","rating":8.1},{"name":"The Barbary","phone":"2156347400","twitter":"thebarbary","address":"951 Frankford Ave","lat":39.96554401468633,"lng":-75.13438862105423,"neighborhood":"Northern Liberties - Fishtown","city_fetched":"Philadelphia","state":"PA","country":"United States","canonicalUrl":"https://foursquare.com/v/the-barbary/4a3ab58cf964a52022a01fe3","category":"Nightclub","checkinsCount":20900,"usersCount":4984,"tipCount":73,"visitsCount":21840,"url":"http://thebarbary.org","tier":1,"message":"Cheap","currency":"$","rating":8.1},{"name":"Knock Restaurant & Bar","phone":"2159251166","address":"225 S 12th St","lat":39.94778824273022,"lng":-75.16074287062641,"neighborhood":"Washington Square West","city_fetched":"Philadelphia","state":"PA","country":"United States","canonicalUrl":"https://foursquare.com/v/knock-restaurant--bar/4a862930f964a5209e0020e3","category":"American Restaurant","checkinsCount":7073,"usersCount":2181,"tipCount":37,"visitsCount":7602,"url":"http://www.knockphilly.com","tier":2,"message":"Moderate","currency":"$","rating":8.1},{"name":"Stogie Joe's Tavern","phone":"2154633030","twitter":"joesstogie","address":"1801 E Passyunk Ave","lat":39.92765709718343,"lng":-75.16604397099853,"neighborhood":"Bella Vista - Southwark","city_fetched":"Philadelphia","state":"PA","country":"United States","canonicalUrl":"https://foursquare.com/v/stogie-joes-tavern/4a8b1308f964a520610b20e3","category":"Pizza Place","checkinsCount":2839,"usersCount":1495,"tipCount":39,"visitsCount":3008,"url":"http://www.stogiejoestavern.com","tier":2,"message":"Moderate","currency":"$","rating":8.1},{"name":"Mask and Wig Clubhouse","phone":"2157167378","twitter":"maskandwigclub","address":"310 S Quince St","lat":39.94597707020299,"lng":-75.16050916208569,"neighborhood":"Washington Square West","city_fetched":"Philadelphia","state":"PA","country":"United States","canonicalUrl":"https://foursquare.com/maskandwigclub","category":"Comedy Club","checkinsCount":1017,"usersCount":449,"tipCount":5,"visitsCount":1116,"url":"http://www.maskandwig.com","tier":"","message":"","currency":"","rating":8.1},{"name":"Chickie's & Pete's","phone":"2158569890","twitter":"chickiesnpetes","address":"11000 Roosevelt Blvd","lat":40.10170822962802,"lng":-75.00729382038116,"neighborhood":"Somerton","city_fetched":"Philadelphia","state":"PA","country":"United States","canonicalUrl":"https://foursquare.com/v/chickies--petes/40b28c80f964a52050f91ee3","category":"Sports Bar","checkinsCount":7225,"usersCount":4359,"tipCount":60,"visitsCount":8223,"url":"http://www.chickiesandpetes.com","tier":2,"message":"Moderate","currency":"$","rating":8.1},{"name":"Fuji Mountain","phone":"2157510939","address":"2030 Chestnut St","lat":39.95213600563531,"lng":-75.17478184584047,"neighborhood":"Center City West","city_fetched":"Philadelphia","state":"PA","country":"United States","canonicalUrl":"https://foursquare.com/v/fuji-mountain/4a3ab514f964a52020a01fe3","category":"Japanese Restaurant","checkinsCount":2896,"usersCount":2098,"tipCount":24,"visitsCount":3007,"url":"http://fujimt.com","tier":2,"message":"Moderate","currency":"$","rating":8.1},{"name":"Tabu Lounge & Sports Bar","phone":"2159649675","twitter":"tabuphilly","address":"200 S 12th St","lat":39.9484621003274,"lng":-75.16075909137726,"neighborhood":"Washington Square West","city_fetched":"Philadelphia","state":"PA","country":"United States","canonicalUrl":"https://foursquare.com/v/tabu-lounge--sports-bar/4b69da0bf964a52034b82be3","category":"Sports Bar","checkinsCount":14849,"usersCount":3506,"tipCount":73,"visitsCount":15426,"url":"http://www.tabuphilly.com","tier":2,"message":"Moderate","currency":"$","rating":8.1},{"name":"Barra Rossa Ristorante","phone":"2156449074","twitter":"stellarossaphl","address":"929 Walnut St","lat":39.94855674202409,"lng":-75.15730560999586,"neighborhood":"Center City East","city_fetched":"Philadelphia","state":"PA","country":"United States","canonicalUrl":"https://foursquare.com/v/barra-rossa-ristorante/526e7ebc11d2b0b38d9d25f6","category":"Italian Restaurant","checkinsCount":859,"usersCount":791,"tipCount":21,"visitsCount":1078,"url":"http://www.barrarossa.com","tier":2,"message":"Moderate","currency":"$","rating":8.1},{"name":"Woody's","phone":"2155451893","twitter":"woodysphilly","address":"202 S 13th St","lat":39.94873969990853,"lng":-75.16220781624595,"neighborhood":"Washington Square West","city_fetched":"Philadelphia","state":"PA","country":"United States","canonicalUrl":"https://foursquare.com/v/woodys/40b28c80f964a5203af91ee3","category":"Gay Bar","checkinsCount":25451,"usersCount":8530,"tipCount":104,"visitsCount":27338,"url":"http://www.woodysbar.com","tier":2,"message":"Moderate","currency":"$","rating":8.1},{"name":"Brick & Mortar","phone":"2159231596","address":"315 N 12th St","lat":39.95800078399245,"lng":-75.15837726813794,"neighborhood":"North Philadelphia","city_fetched":"Philadelphia","state":"PA","country":"United States","canonicalUrl":"https://foursquare.com/v/brick--mortar/54477c60498ea03ad1ee93f1","category":"Bar","checkinsCount":526,"usersCount":559,"tipCount":6,"visitsCount":869,"url":"http://www.brickandmortarphilly.com","tier":"","message":"","currency":"","rating":8.1},{"name":"Cawley's Irish Pub","phone":"6104491194","address":"7919 W Chester Pike","lat":39.96525126708424,"lng":-75.27624900220918,"city_fetched":"Philadelphia","state":"PA","country":"United States","canonicalUrl":"https://foursquare.com/v/cawleys-irish-pub/40b28c80f964a520a1ff1ee3","category":"Pub","checkinsCount":634,"usersCount":291,"tipCount":8,"visitsCount":873,"tier":"","message":"","currency":"","rating":8.1},{"name":"Old Eagle Tavern","phone":"2154835535","address":"3938 Terrace St","lat":40.022810882471894,"lng":-75.2145036752101,"neighborhood":"Manayunk","city_fetched":"Philadelphia","state":"PA","country":"United States","canonicalUrl":"https://foursquare.com/v/old-eagle-tavern/4a77770df964a52095e41fe3","category":"Bar","checkinsCount":1991,"usersCount":762,"tipCount":18,"visitsCount":2282,"url":"http://www.oldeagletavern.com","tier":"","message":"","currency":"","rating":8.1},{"name":"City Tap House","phone":"2155879040","address":"2 Logan Sq","lat":39.9557051041166,"lng":-75.16932144355557,"neighborhood":"Logan Square","city_fetched":"Philadelphia","state":"PA","country":"United States","canonicalUrl":"https://foursquare.com/v/city-tap-house/54598d31498eacf1f39c754c","category":"Gastropub","checkinsCount":2083,"usersCount":1899,"tipCount":12,"visitsCount":2937,"url":"http://www.citytaphouseucity.com","tier":3,"message":"Expensive","currency":"$","rating":8.1},{"name":"Lucky Strike Philadelphia","phone":"2155452471","twitter":"luckystrikeph","address":"1336 Chestnut St","lat":39.950689,"lng":-75.1632,"neighborhood":"Avenue of the Arts South","city_fetched":"Philadelphia","state":"PA","country":"United States","canonicalUrl":"https://foursquare.com/v/lucky-strike-philadelphia/49fd0587f964a520006f1fe3","category":"Bowling Alley","checkinsCount":7785,"usersCount":4987,"tipCount":50,"visitsCount":7883,"url":"http://www.bowlluckystrike.com/locations/new-york/nyc/","tier":"","message":"","currency":"","rating":8},{"name":"Chestnut Hill Grill","phone":"2152477570","address":"8229 Germantown Ave","lat":40.07409390415753,"lng":-75.20311246421814,"neighborhood":"Chestnut Hill","city_fetched":"Philadelphia","state":"PA","country":"United States","canonicalUrl":"https://foursquare.com/v/chestnut-hill-grill/4b5e3676f964a520128429e3","category":"American Restaurant","checkinsCount":1295,"usersCount":766,"tipCount":21,"visitsCount":1342,"url":"http://www.chestnuthillgrill.com","tier":2,"message":"Moderate","currency":"$","rating":8},{"name":"El Bar","phone":"2156346430","address":"1356 N Front St","lat":39.971808791098866,"lng":-75.13543903827667,"neighborhood":"Northern Liberties - Fishtown","city_fetched":"Philadelphia","state":"PA","country":"United States","canonicalUrl":"https://foursquare.com/v/el-bar/4a624c0ef964a520b3c31fe3","category":"Dive Bar","checkinsCount":8414,"usersCount":2360,"tipCount":45,"visitsCount":9356,"tier":1,"message":"Cheap","currency":"$","rating":8},{"name":"The Blind Pig","phone":"2675394565","twitter":"blindpigphilly","address":"702 N 2nd St","lat":39.96201961175137,"lng":-75.14119237661362,"neighborhood":"Northern Liberties - Fishtown","city_fetched":"Philadelphia","state":"PA","country":"United States","canonicalUrl":"https://foursquare.com/v/the-blind-pig/4dfd49c2ae6033b2a477c245","category":"Pub","checkinsCount":2769,"usersCount":1245,"tipCount":31,"visitsCount":2847,"url":"http://www.blindpigphilly.com","tier":2,"message":"Moderate","currency":"$","rating":8},{"name":"Fatty's Bar and Grill","phone":"2152335909","address":"812 E Willow Grove Ave","lat":40.08187181757274,"lng":-75.18925270190257,"city_fetched":"Philadelphia","state":"PA","country":"United States","canonicalUrl":"https://foursquare.com/v/fattys-bar-and-grill/4acbd7d2f964a520fac720e3","category":"Sports Bar","checkinsCount":779,"usersCount":325,"tipCount":13,"visitsCount":924,"url":"http://fattyswyndmoor.com","tier":"","message":"","currency":"","rating":8},{"name":"Jake's and Cooper's Wine Bar","phone":"2154830444","address":"4365 Main St","lat":40.02574087231786,"lng":-75.22421318490977,"neighborhood":"Manayunk","city_fetched":"Philadelphia","state":"PA","country":"United States","canonicalUrl":"https://foursquare.com/v/jakes-and-coopers-wine-bar/4b400432f964a52045b425e3","category":"New American Restaurant","checkinsCount":2201,"usersCount":1403,"tipCount":25,"visitsCount":2245,"url":"http://www.cooperswinebar.com","tier":3,"message":"Expensive","currency":"$","rating":8},{"name":"Bobby Ray's Pennsauken Tavern","phone":"8563562072","twitter":"braysplace","address":"6324 Westfield Ave","lat":39.96416175694031,"lng":-75.05614757537842,"city_fetched":"Philadelphia","state":"NJ","country":"United States","canonicalUrl":"https://foursquare.com/v/bobby-rays-pennsauken-tavern/4c8a87079ef0224b20b75b7b","category":"Bar","checkinsCount":1486,"usersCount":583,"tipCount":28,"visitsCount":1750,"url":"http://www.braysplace.com","tier":1,"message":"Cheap","currency":"$","rating":8},{"name":"Southwark","phone":"2152381888","twitter":"southwark215","address":"701 S 4th St","lat":39.940623203250404,"lng":-75.1493192468139,"neighborhood":"Queen Village - Pennsport","city_fetched":"Philadelphia","state":"PA","country":"United States","canonicalUrl":"https://foursquare.com/v/southwark/46ea8adff964a520d14a1fe3","category":"Cocktail Bar","checkinsCount":1717,"usersCount":836,"tipCount":39,"visitsCount":1736,"url":"http://southwarkrestaurant.com","tier":3,"message":"Expensive","currency":"$","rating":8},{"name":"Boot & Saddle","phone":"2676394528","twitter":"bootandsaddle","address":"1131 S Broad St","lat":39.93685577037646,"lng":-75.16695597023165,"neighborhood":"Point Breeze","city_fetched":"Philadelphia","state":"PA","country":"United States","canonicalUrl":"https://foursquare.com/v/boot--saddle/51c2630d79c91341dcb2bf3c","category":"Music Venue","checkinsCount":1956,"usersCount":1399,"tipCount":17,"visitsCount":2347,"url":"http://www.bootandsaddlephilly.com","tier":"","message":"","currency":"","rating":8},{"name":"Tavern on the Hill","phone":"2152479948","address":"8636 Germantown Ave","lat":40.07723,"lng":-75.208754,"neighborhood":"Chestnut Hill","city_fetched":"Philadelphia","state":"PA","country":"United States","canonicalUrl":"https://foursquare.com/v/tavern-on-the-hill/4ae3b473f964a520509821e3","category":"Bar","checkinsCount":874,"usersCount":413,"tipCount":20,"visitsCount":888,"url":"http://tavernonthehill.biz","tier":"","message":"","currency":"","rating":8},{"name":"McCrossen's Tavern","phone":"2158540923","address":"529 N 20th St","lat":39.963119,"lng":-75.17116,"neighborhood":"Fairmount - Art Museum","city_fetched":"Philadelphia","state":"PA","country":"United States","canonicalUrl":"https://foursquare.com/v/mccrossens-tavern/40b28c80f964a520edf91ee3","category":"Bar","checkinsCount":3587,"usersCount":1849,"tipCount":40,"visitsCount":4197,"url":"http://mccrossens.com","tier":1,"message":"Cheap","currency":"$","rating":8},{"name":"Moonshine Philly","phone":"2676399720","twitter":"moonshinephilly","address":"1825 E Moyamensing Ave","lat":39.924989237684926,"lng":-75.15173058975536,"neighborhood":"Queen Village - Pennsport","city_fetched":"Philadelphia","state":"PA","country":"United States","canonicalUrl":"https://foursquare.com/v/moonshine-philly/528199b111d236474025e9e6","category":"Bar","checkinsCount":650,"usersCount":469,"tipCount":10,"visitsCount":979,"url":"http://moonshinephilly.com","tier":"","message":"","currency":"","rating":8},{"name":"Jollie's west","address":"3800 Lancaster Ave","lat":39.95991906684568,"lng":-75.19710025936344,"neighborhood":"West Philadelphia","city_fetched":"Philadelphia","state":"PA","country":"United States","canonicalUrl":"https://foursquare.com/v/jollies-west/4ee6c6d6490141636c089c23","category":"Bar","checkinsCount":433,"usersCount":323,"tipCount":2,"visitsCount":529,"tier":"","message":"","currency":"","rating":8},{"name":"Martha","phone":"2158678881","address":"2113 E York St","lat":39.98225257073568,"lng":-75.1280716117439,"neighborhood":"North Philadelphia","city_fetched":"Philadelphia","state":"PA","country":"United States","canonicalUrl":"https://foursquare.com/v/martha/5664d7ff498eb2bfb2d90c97","category":"Bar","checkinsCount":346,"usersCount":290,"tipCount":4,"visitsCount":571,"url":"http://marthakensington.com","tier":"","message":"","currency":"","rating":8},{"name":"Diamond Club","address":"1 Citizens Bank Way","lat":39.90554193178447,"lng":-75.16659687116574,"neighborhood":"South Philadelphia East","city_fetched":"Philadelphia","state":"PA","country":"United States","canonicalUrl":"https://foursquare.com/v/diamond-club/4bec63f2976ac92865f0600b","category":"Lounge","checkinsCount":1919,"usersCount":1275,"tipCount":7,"visitsCount":1920,"tier":"","message":"","currency":"","rating":8},{"name":"Philly Improv Theater (PHIT)","phone":"2672331556","twitter":"phitcomedy","address":"2030 Sansom St","lat":39.95137778836466,"lng":-75.17480850219727,"neighborhood":"Center City West","city_fetched":"Philadelphia","state":"PA","country":"United States","canonicalUrl":"https://foursquare.com/v/philly-improv-theater-phit/4ccb78da72106dcbd9a49499","category":"Comedy Club","checkinsCount":908,"usersCount":273,"tipCount":7,"visitsCount":1057,"url":"http://www.phillyimprovtheater.com","tier":"","message":"","currency":"","rating":8},{"name":"BRÜ Craft & Wurst","phone":"2158001079","address":"1318 Chestnut St","lat":39.950569972573604,"lng":-75.16255552506875,"neighborhood":"Center City East","city_fetched":"Philadelphia","state":"PA","country":"United States","canonicalUrl":"https://foursquare.com/v/br%C3%BC-craft--wurst/5144f2d4e4b0c0b7ee339bed","category":"German Restaurant","checkinsCount":8562,"usersCount":5200,"tipCount":52,"visitsCount":8781,"url":"http://www.bruphilly.com","tier":2,"message":"Moderate","currency":"$","rating":8},{"name":"Catahoula Bar & Restaurant","phone":"2152719300","twitter":"catahoulaphilly","address":"775 S Front St","lat":39.937932,"lng":-75.144704,"neighborhood":"Queen Village - Pennsport","city_fetched":"Philadelphia","state":"PA","country":"United States","canonicalUrl":"https://foursquare.com/v/catahoula-bar--restaurant/4c4ce04de906c928acdd103b","category":"Cajun / Creole Restaurant","checkinsCount":2750,"usersCount":1244,"tipCount":43,"visitsCount":3048,"url":"http://catahoulaphilly-hub.com","tier":2,"message":"Moderate","currency":"$","rating":7.9},{"name":"Marmont Steakhouse and Bar","phone":"2159231100","address":"222 Market St","lat":39.950028014654876,"lng":-75.14459336360872,"neighborhood":"Center City East","city_fetched":"Philadelphia","state":"PA","country":"United States","canonicalUrl":"https://foursquare.com/v/marmont-steakhouse-and-bar/4ad62903f964a520720521e3","category":"Cocktail Bar","checkinsCount":1407,"usersCount":1054,"tipCount":17,"visitsCount":1411,"url":"http://www.marmont.net","tier":"","message":"","currency":"","rating":7.9},{"name":"Lucky 13 Pub","phone":"2153368467","address":"1820 S 13th St","lat":39.92713149260326,"lng":-75.16688757047288,"neighborhood":"Bella Vista - Southwark","city_fetched":"Philadelphia","state":"PA","country":"United States","canonicalUrl":"https://foursquare.com/v/lucky-13-pub/4a8b384af964a520d60b20e3","category":"Bar","checkinsCount":3124,"usersCount":1165,"tipCount":22,"visitsCount":3230,"url":"http://lucky13pubphilly.com","tier":2,"message":"Moderate","currency":"$","rating":7.9},{"name":"Post office cafe","phone":"2154377119","address":"2696 Bridge St","lat":40.003278430570916,"lng":-75.06597135552877,"neighborhood":"Bridesburg","city_fetched":"Philadelphia","state":"PA","country":"United States","canonicalUrl":"https://foursquare.com/v/post-office-cafe/4bc6368d51b376b0d92e1b6f","category":"Bar","checkinsCount":1016,"usersCount":354,"tipCount":5,"visitsCount":1221,"tier":"","message":"","currency":"","rating":7.9},{"name":"Schileen's Pub","phone":"8564562382","address":"32 Delsea Dr","lat":39.87052599495806,"lng":-75.12584235410988,"city_fetched":"Philadelphia","state":"NJ","country":"United States","canonicalUrl":"https://foursquare.com/v/schileens-pub/4a01fc19f964a5201d711fe3","category":"Bar","checkinsCount":3007,"usersCount":1010,"tipCount":23,"visitsCount":3338,"url":"http://www.schileenspub.com","tier":2,"message":"Moderate","currency":"$","rating":7.9},{"name":"McCusker's Tavern","phone":"2153656600","address":"2601 S 17th St","lat":39.91862364705806,"lng":-75.17583847045898,"neighborhood":"South Philadelphia","city_fetched":"Philadelphia","state":"PA","country":"United States","canonicalUrl":"https://foursquare.com/v/mccuskers-tavern/4b736e27f964a5201fae2de3","category":"Bar","checkinsCount":2143,"usersCount":253,"tipCount":11,"visitsCount":2291,"tier":"","message":"","currency":"","rating":7.9}]