[{"name":"La Santisima","phone":"6022546330","address":"1919 N 16th St","lat":33.469201,"lng":-112.047393,"city_fetched":"Phoenix","state":"AZ","country":"United States","canonicalUrl":"https://foursquare.com/v/la-santisima/4b802f9ff964a520615a30e3","category":"Bar","checkinsCount":3175,"usersCount":2197,"tipCount":101,"visitsCount":3828,"url":"http://lasantisimagourmet.com","tier":2,"message":"Moderate","currency":"$","rating":9.5},{"name":"FilmBar","phone":"6025959187","twitter":"thefilmbarphx","address":"815 N 2nd St","lat":33.457058576061634,"lng":-112.0709377527237,"neighborhood":"Downtown Phoenix","city_fetched":"Phoenix","state":"AZ","country":"United States","canonicalUrl":"https://foursquare.com/thefilmbarphx","category":"Indie Movie Theater","checkinsCount":5078,"usersCount":2357,"tipCount":38,"visitsCount":5242,"url":"http://www.thefilmbarphx.com","tier":"","message":"","currency":"","rating":9.4},{"name":"Postino Winecafé","phone":"6022745144","twitter":"postinowinecafe","address":"5144 N Central Ave","lat":33.512667088928445,"lng":-112.07407861948013,"city_fetched":"Phoenix","state":"AZ","country":"United States","canonicalUrl":"https://foursquare.com/v/postino-winecaf%C3%A9/4a5fcb9cf964a5203cc01fe3","category":"Wine Bar","checkinsCount":11827,"usersCount":4961,"tipCount":113,"visitsCount":12633,"url":"http://postinowinecafe.com","tier":2,"message":"Moderate","currency":"$","rating":9.4},{"name":"Postino Winecafé","phone":"6028523939","twitter":"postinowinecafe","address":"3939 E Campbell Ave","lat":33.50228346,"lng":-111.996026,"neighborhood":"Camelback East","city_fetched":"Phoenix","state":"AZ","country":"United States","canonicalUrl":"https://foursquare.com/v/postino-winecaf%C3%A9/413ba880f964a520f51b1fe3","category":"Wine Bar","checkinsCount":8576,"usersCount":4422,"tipCount":97,"visitsCount":9187,"url":"http://www.postinowinecafe.com","tier":2,"message":"Moderate","currency":"$","rating":9.4},{"name":"Angels Trumpet Ale House","phone":"6022522630","twitter":"angeltrumpetale","address":"810 N 2nd St","lat":33.457078601166515,"lng":-112.07157372576988,"neighborhood":"Downtown Phoenix","city_fetched":"Phoenix","state":"AZ","country":"United States","canonicalUrl":"https://foursquare.com/v/angels-trumpet-ale-house/502ac807e4b02d4e93003f14","category":"Bar","checkinsCount":11752,"usersCount":4554,"tipCount":121,"visitsCount":13696,"url":"http://www.angelstrumpetalehouse.com","tier":2,"message":"Moderate","currency":"$","rating":9.3},{"name":"Valley Bar","twitter":"valleybarphx","address":"130 N Central Ave","lat":33.45015547199152,"lng":-112.07404219474975,"neighborhood":"Copper Square","city_fetched":"Phoenix","state":"AZ","country":"United States","canonicalUrl":"https://foursquare.com/v/valley-bar/55600416498e5eb4dbecf791","category":"Music Venue","checkinsCount":2194,"usersCount":1233,"tipCount":9,"visitsCount":3004,"url":"http://www.valleybarphx.com","tier":"","message":"","currency":"","rating":9.3},{"name":"Hula's Modern Tiki","phone":"6022658454","twitter":"hulasmoderntiki","address":"4700 N Central Ave","lat":33.506266,"lng":-112.073983,"city_fetched":"Phoenix","state":"AZ","country":"United States","canonicalUrl":"https://foursquare.com/v/hulas-modern-tiki/4ac15aebf964a520e19620e3","category":"Hawaiian Restaurant","checkinsCount":12036,"usersCount":4832,"tipCount":115,"visitsCount":12857,"url":"http://hulasmoderntiki.com","tier":2,"message":"Moderate","currency":"$","rating":9.3},{"name":"Cornish Pasty Co.","phone":"4808946261","twitter":"cornishpastyco","address":"960 W University Dr #103","lat":33.42294385497126,"lng":-111.9517832994461,"city_fetched":"Phoenix","state":"AZ","country":"United States","canonicalUrl":"https://foursquare.com/v/cornish-pasty-co/44e0acc6f964a52008371fe3","category":"Bakery","checkinsCount":12243,"usersCount":5550,"tipCount":165,"visitsCount":14067,"url":"http://www.cornishpastyco.com","tier":2,"message":"Moderate","currency":"$","rating":9.3},{"name":"O.H.S.O. Eatery + nanoBrewery","phone":"6029550358","twitter":"ohsobrewery","address":"4900 E Indian School Rd","lat":33.49497255786375,"lng":-111.97580818566085,"neighborhood":"Camelback East","city_fetched":"Phoenix","state":"AZ","country":"United States","canonicalUrl":"https://foursquare.com/v/ohso-eatery--nanobrewery/4e98e0220aaf0a73a19bc2ae","category":"Brewery","checkinsCount":13595,"usersCount":6183,"tipCount":132,"visitsCount":16649,"url":"http://ohsobrewery.com","tier":2,"message":"Moderate","currency":"$","rating":9.3},{"name":"Welcome Diner","phone":"6024951111","twitter":"welcome_diner","address":"924 E Roosevelt St","lat":33.45883086779876,"lng":-112.0610162615776,"neighborhood":"Garfield","city_fetched":"Phoenix","state":"AZ","country":"United States","canonicalUrl":"https://foursquare.com/v/welcome-diner/4a7e5619f964a520c7f11fe3","category":"American Restaurant","checkinsCount":2975,"usersCount":1358,"tipCount":40,"visitsCount":3847,"url":"http://www.welcomediner.net","tier":2,"message":"Moderate","currency":"$","rating":9.3},{"name":"Cibo","phone":"6024412697","twitter":"cibopizzeria","address":"603 N 5th Ave","lat":33.45499085658153,"lng":-112.07992315292358,"neighborhood":"Roosevelt","city_fetched":"Phoenix","state":"AZ","country":"United States","canonicalUrl":"https://foursquare.com/v/cibo/4a3fdf4cf964a52004a41fe3","category":"Pizza Place","checkinsCount":6490,"usersCount":4138,"tipCount":109,"visitsCount":7339,"url":"http://www.cibophoenix.com","tier":2,"message":"Moderate","currency":"$","rating":9.3},{"name":"Total Wine & More","phone":"4805156211","twitter":"totalwine","address":"21001 N Tatum Blvd, Suite 120","lat":33.676434,"lng":-111.976272,"neighborhood":"Desert Ridge","city_fetched":"Phoenix","state":"AZ","country":"United States","canonicalUrl":"https://foursquare.com/v/total-wine--more/4b2457d2f964a5202f6624e3","category":"Wine Shop","checkinsCount":3996,"usersCount":2189,"tipCount":20,"visitsCount":5003,"url":"http://www.totalwine.com","tier":"","message":"","currency":"","rating":9.3},{"name":"Crescent Ballroom","phone":"6027162222","twitter":"crescentphx","address":"308 N 2nd Ave","lat":33.45179743102873,"lng":-112.07665354013443,"neighborhood":"Copper Square","city_fetched":"Phoenix","state":"AZ","country":"United States","canonicalUrl":"https://foursquare.com/v/crescent-ballroom/4e3a4cdf1850f0453401b5fd","category":"Rock Club","checkinsCount":18225,"usersCount":6132,"tipCount":105,"visitsCount":20958,"url":"http://www.crescentphx.com","tier":"","message":"","currency":"","rating":9.3},{"name":"CRAFT 64  Pizza, Local Craft Beer & Wine.","phone":"4809460542","twitter":"craft64az","address":"6922 E Main St","lat":33.49331439831757,"lng":-111.93166501048422,"neighborhood":"Arts Districts","city_fetched":"Phoenix","state":"AZ","country":"United States","canonicalUrl":"https://foursquare.com/craft64az","category":"Pizza Place","checkinsCount":777,"usersCount":532,"tipCount":23,"visitsCount":1175,"url":"http://www.craft64.com","tier":2,"message":"Moderate","currency":"$","rating":9.3},{"name":"Windsor","phone":"6022791111","twitter":"windsoraz","address":"5223 N Central Ave","lat":33.51362423232726,"lng":-112.0733892917633,"city_fetched":"Phoenix","state":"AZ","country":"United States","canonicalUrl":"https://foursquare.com/v/windsor/4dafa9eb93a037b7b074b6b4","category":"Gastropub","checkinsCount":10806,"usersCount":4531,"tipCount":121,"visitsCount":11607,"url":"http://www.windsoraz.com","tier":2,"message":"Moderate","currency":"$","rating":9.2},{"name":"O.H.S.O. Paradise Valley","phone":"6029009003","twitter":"ohsobrewery","address":"10810 N Tatum Blvd","lat":33.5840502415829,"lng":-111.97958670227305,"city_fetched":"Phoenix","state":"AZ","country":"United States","canonicalUrl":"https://foursquare.com/v/ohso-paradise-valley/5501e56b498eed33575dfb92","category":"Brewery","checkinsCount":1671,"usersCount":1222,"tipCount":23,"visitsCount":2780,"url":"http://ohsobrewery.com","tier":"","message":"","currency":"","rating":9.2},{"name":"The Pig's Meow","phone":"6025059144","twitter":"thewhiningpig","address":"3730 E Indian School Rd","lat":33.49559952648696,"lng":-112.00080802339181,"neighborhood":"Camelback East","city_fetched":"Phoenix","state":"AZ","country":"United States","canonicalUrl":"https://foursquare.com/v/the-pigs-meow/540423ff498ef5279cae5ab9","category":"Beer Garden","checkinsCount":714,"usersCount":391,"tipCount":11,"visitsCount":989,"tier":"","message":"","currency":"","rating":9.2},{"name":"T. Cook's","phone":"6028080766","twitter":"tcooksphoenix","address":"5200 E Camelback Rd","lat":33.50502871506623,"lng":-111.96849566621836,"neighborhood":"Camelback East","city_fetched":"Phoenix","state":"AZ","country":"United States","canonicalUrl":"https://foursquare.com/tcooksphoenix","category":"Mediterranean Restaurant","checkinsCount":1317,"usersCount":884,"tipCount":26,"visitsCount":1330,"url":"http://www.tcooksphoenix.com","tier":4,"message":"Very Expensive","currency":"$","rating":9.1},{"name":"Olive & Ivy Restaurant + Marketplace","phone":"4807512200","twitter":"foxbigkitchen","address":"7135 E Camelback Rd Ste 195","lat":33.50015638555328,"lng":-111.92834056773428,"neighborhood":"Waterfront","city_fetched":"Phoenix","state":"AZ","country":"United States","canonicalUrl":"https://foursquare.com/v/olive--ivy-restaurant--marketplace/47fe99e7f964a520e84e1fe3","category":"Mediterranean Restaurant","checkinsCount":11016,"usersCount":7239,"tipCount":112,"visitsCount":13530,"url":"http://foxrc.com/olive_ivy.html","tier":3,"message":"Expensive","currency":"$","rating":9.1},{"name":"Bobby Q","phone":"6029955982","twitter":"bobby_qs","address":"8501 N 27th Ave","lat":33.561034303153264,"lng":-112.11587188092099,"neighborhood":"North Mountain","city_fetched":"Phoenix","state":"AZ","country":"United States","canonicalUrl":"https://foursquare.com/v/bobby-q/4b302880f964a52013f724e3","category":"BBQ Joint","checkinsCount":5415,"usersCount":4007,"tipCount":98,"visitsCount":6956,"url":"http://bobbyq.net","tier":2,"message":"Moderate","currency":"$","rating":9.1},{"name":"The Little Woody","phone":"4809550339","address":"4228 E Indian School Rd","lat":33.495174,"lng":-111.989854,"neighborhood":"Camelback East","city_fetched":"Phoenix","state":"AZ","country":"United States","canonicalUrl":"https://foursquare.com/v/the-little-woody/4f0791cce4b071c574a07af9","category":"Cocktail Bar","checkinsCount":3452,"usersCount":1732,"tipCount":25,"visitsCount":4121,"tier":2,"message":"Moderate","currency":"$","rating":9.1},{"name":"Total Wine & More","phone":"6022790540","twitter":"totalwine","address":"1670 E Camelback Road","lat":33.510412,"lng":-112.045717,"neighborhood":"Camelback East","city_fetched":"Phoenix","state":"AZ","country":"United States","canonicalUrl":"https://foursquare.com/v/total-wine--more/4b08a1b2f964a520e00f23e3","category":"Wine Shop","checkinsCount":9221,"usersCount":3949,"tipCount":24,"visitsCount":12320,"url":"http://www.totalwine.com","tier":"","message":"","currency":"","rating":9.1},{"name":"Sip Coffee & Beer House","phone":"4806253878","twitter":"sipcoffeenbeer","address":"3617 N Goldwater Blvd","lat":33.489638785048015,"lng":-111.92656517028809,"neighborhood":"Arts Districts","city_fetched":"Phoenix","state":"AZ","country":"United States","canonicalUrl":"https://foursquare.com/sipcoffeenbeer","category":"Coffee Shop","checkinsCount":1291,"usersCount":801,"tipCount":26,"visitsCount":1892,"url":"http://www.sipcoffeeandbeerhouse.com","tier":1,"message":"Cheap","currency":"$","rating":9.1},{"name":"Lux Central","phone":"6026969976","twitter":"luxcentral","address":"4402 N Central Ave","lat":33.5004692924433,"lng":-112.07405313849449,"city_fetched":"Phoenix","state":"AZ","country":"United States","canonicalUrl":"https://foursquare.com/v/lux-central/414b7a80f964a520d01c1fe3","category":"Café","checkinsCount":24438,"usersCount":5838,"tipCount":224,"visitsCount":28360,"url":"http://www.luxcoffee.com","tier":2,"message":"Moderate","currency":"$","rating":9.1},{"name":"McFate Brewing Company","twitter":"fatebrewco","address":"1312 N Scottsdale Rd, Scottsdale, AZ 85257","lat":33.46279654577832,"lng":-111.92659974624792,"city_fetched":"Phoenix","state":"AZ","country":"United States","canonicalUrl":"https://foursquare.com/v/mcfate-brewing-company/55d3d647498eabfe27f14a33","category":"Brewery","checkinsCount":1156,"usersCount":1047,"tipCount":13,"visitsCount":2132,"tier":2,"message":"Moderate","currency":"$","rating":9.1},{"name":"5th & Wine","phone":"4806998001","twitter":"5thandwine","address":"7051 E 5th Ave","lat":33.49765381738265,"lng":-111.92931868780643,"neighborhood":"Downtown Scottsdale","city_fetched":"Phoenix","state":"AZ","country":"United States","canonicalUrl":"https://foursquare.com/v/5th--wine/4b439621f964a520c6e325e3","category":"Wine Bar","checkinsCount":4280,"usersCount":2415,"tipCount":49,"visitsCount":4697,"url":"http://www.5thandwine.com","tier":2,"message":"Moderate","currency":"$","rating":9},{"name":"The Main Ingredient Ale House & Café","phone":"6028436246","address":"2337 N 7th St","lat":33.4745695559016,"lng":-112.06484913825989,"neighborhood":"Coronado","city_fetched":"Phoenix","state":"AZ","country":"United States","canonicalUrl":"https://foursquare.com/v/the-main-ingredient-ale-house--caf%C3%A9/4b54e606f964a5200bd227e3","category":"Gastropub","checkinsCount":8840,"usersCount":2932,"tipCount":92,"visitsCount":9894,"url":"http://tmialehouse.com","tier":2,"message":"Moderate","currency":"$","rating":9},{"name":"North Mountain Brewing Company","phone":"6028615999","twitter":"nmtbrew","address":"522 E Dunlap Ave","lat":33.56798567120667,"lng":-112.06605189683614,"neighborhood":"North Mountain","city_fetched":"Phoenix","state":"AZ","country":"United States","canonicalUrl":"https://foursquare.com/v/north-mountain-brewing-company/50df1449b0edbc5a8ad7be41","category":"Brewery","checkinsCount":2140,"usersCount":1344,"tipCount":41,"visitsCount":3107,"url":"http://northmountainbrewing.com","tier":2,"message":"Moderate","currency":"$","rating":9},{"name":"The Yard","phone":"6026804040","twitter":"foxbigkitchen","address":"5632 N 7th St","lat":33.51948401283778,"lng":-112.06537343329066,"city_fetched":"Phoenix","state":"AZ","country":"United States","canonicalUrl":"https://foursquare.com/v/the-yard/51a80ac2498e6dd8579e01ff","category":"American Restaurant","checkinsCount":3834,"usersCount":3264,"tipCount":35,"visitsCount":5297,"url":"http://www.foxrc.com/restaurants/culinary-dropout/","tier":2,"message":"Moderate","currency":"$","rating":9},{"name":"Pullanos Pizza & Wings","phone":"6029781234","address":"13848 N 51st Ave","lat":33.61206411874854,"lng":-112.1690529719691,"city_fetched":"Phoenix","state":"AZ","country":"United States","canonicalUrl":"https://foursquare.com/v/pullanos-pizza--wings/4bd6841c5631c9b6740ca630","category":"Sports Bar","checkinsCount":3163,"usersCount":1057,"tipCount":39,"visitsCount":3778,"url":"http://pullanos.com","tier":2,"message":"Moderate","currency":"$","rating":9},{"name":"Mastro's Ocean Club","phone":"4804438555","twitter":"mastrosofficial","address":"15045 N Kierland Blvd","lat":33.62400921376706,"lng":-111.93019151687622,"neighborhood":"Kierland Commons","city_fetched":"Phoenix","state":"AZ","country":"United States","canonicalUrl":"https://foursquare.com/v/mastros-ocean-club/4a5fb15bf964a5200fc01fe3","category":"Seafood Restaurant","checkinsCount":4405,"usersCount":2450,"tipCount":57,"visitsCount":4831,"url":"http://www.mastrosrestaurants.com","tier":4,"message":"Very Expensive","currency":"$","rating":9},{"name":"Tuck Shop","phone":"6023542980","twitter":"tuckinphx","address":"2245 N 12th St","lat":33.472902100279505,"lng":-112.0561457399283,"neighborhood":"Coronado","city_fetched":"Phoenix","state":"AZ","country":"United States","canonicalUrl":"https://foursquare.com/v/tuck-shop/4a6a4129f964a520f4cc1fe3","category":"Southern / Soul Food Restaurant","checkinsCount":1933,"usersCount":999,"tipCount":28,"visitsCount":2069,"url":"http://tuckinphx.com","tier":2,"message":"Moderate","currency":"$","rating":9},{"name":"Brat Haüs","phone":"4809474006","twitter":"brathausaz","address":"3622 N Scottsdale Rd","lat":33.490117,"lng":-111.92641,"neighborhood":"Arts Districts","city_fetched":"Phoenix","state":"AZ","country":"United States","canonicalUrl":"https://foursquare.com/v/brat-ha%C3%BCs/4fa04d9ae4b0e93e3350caea","category":"German Restaurant","checkinsCount":3657,"usersCount":2388,"tipCount":47,"visitsCount":4093,"url":"http://brathausaz.com","tier":2,"message":"Moderate","currency":"$","rating":9},{"name":"Timo Wine Bar","phone":"6023543846","address":"8801 N Central Ave","lat":33.56512177268952,"lng":-112.07363530992492,"neighborhood":"North Mountain","city_fetched":"Phoenix","state":"AZ","country":"United States","canonicalUrl":"https://foursquare.com/v/timo-wine-bar/4e824639f5b98f5bc47eee4e","category":"Wine Bar","checkinsCount":1360,"usersCount":779,"tipCount":29,"visitsCount":1683,"url":"http://timocentral.com","tier":2,"message":"Moderate","currency":"$","rating":9},{"name":"Daily Dose Old Town Bar & Grill","phone":"4809943673","twitter":"dailydosegrill","address":"4020 N Scottsdale Rd","lat":33.494399971721656,"lng":-111.92620384024339,"neighborhood":"Arts Districts","city_fetched":"Phoenix","state":"AZ","country":"United States","canonicalUrl":"https://foursquare.com/v/daily-dose-old-town-bar--grill/4a44213ef964a52032a71fe3","category":"Café","checkinsCount":6704,"usersCount":3931,"tipCount":74,"visitsCount":6987,"url":"http://www.dailydosegrill.com","tier":2,"message":"Moderate","currency":"$","rating":9},{"name":"Carly's Bistro","phone":"6022622759","twitter":"carlysbistro","address":"128 E Roosevelt St","lat":33.45882096317648,"lng":-112.07151155008431,"neighborhood":"Downtown Phoenix","city_fetched":"Phoenix","state":"AZ","country":"United States","canonicalUrl":"https://foursquare.com/v/carlys-bistro/4acea933f964a5209ad120e3","category":"Bar","checkinsCount":6721,"usersCount":2491,"tipCount":88,"visitsCount":6949,"url":"http://carlysbistro.com","tier":2,"message":"Moderate","currency":"$","rating":8.9},{"name":"The Vig Fillmore","phone":"6022542242","address":"606 N 4th Ave","lat":33.454907,"lng":-112.079323,"neighborhood":"Downtown Phoenix","city_fetched":"Phoenix","state":"AZ","country":"United States","canonicalUrl":"https://foursquare.com/v/the-vig-fillmore/52210fc911d2b60cc65611cb","category":"American Restaurant","checkinsCount":3940,"usersCount":2565,"tipCount":43,"visitsCount":5746,"url":"http://www.thevig.us","tier":2,"message":"Moderate","currency":"$","rating":8.9},{"name":"BJ's Restaurant and Brewhouse","phone":"4805380555","twitter":"bjsrestaurants","address":"21001 North Tatum Blvd.","lat":33.67719348,"lng":-111.9765937,"neighborhood":"Desert Ridge","city_fetched":"Phoenix","state":"AZ","country":"United States","canonicalUrl":"https://foursquare.com/v/bjs-restaurant-and-brewhouse/4c8c3e3c5e048cfadf63cbcd","category":"American Restaurant","checkinsCount":5442,"usersCount":3415,"tipCount":64,"visitsCount":6174,"url":"http://t.co/bl46gcjDLN","tier":2,"message":"Moderate","currency":"$","rating":8.9},{"name":"Citizen Public House","phone":"4803984208","twitter":"citizenpubhouse","address":"7111 E 5th Ave","lat":33.497986018986325,"lng":-111.9279679504954,"neighborhood":"Downtown Scottsdale","city_fetched":"Phoenix","state":"AZ","country":"United States","canonicalUrl":"https://foursquare.com/v/citizen-public-house/4cdd9144aba88cfa9a813bd7","category":"Gastropub","checkinsCount":6221,"usersCount":3923,"tipCount":118,"visitsCount":6873,"url":"http://www.citizenpublichouse.com","tier":3,"message":"Expensive","currency":"$","rating":8.9},{"name":"The Rose & Crown","phone":"6022560223","twitter":"roseandcrownaz","address":"628 E Adams St","lat":33.449538881636656,"lng":-112.06545698633568,"neighborhood":"Copper Square","city_fetched":"Phoenix","state":"AZ","country":"United States","canonicalUrl":"https://foursquare.com/v/the-rose--crown/4a429f4df964a5200aa61fe3","category":"Pub","checkinsCount":9541,"usersCount":3650,"tipCount":82,"visitsCount":9832,"url":"http://www.theroseandcrownaz.com","tier":2,"message":"Moderate","currency":"$","rating":8.9},{"name":"The Vig","phone":"6025537227","address":"4041 N 40th St","lat":33.494507424006606,"lng":-111.99503840040647,"neighborhood":"Camelback East","city_fetched":"Phoenix","state":"AZ","country":"United States","canonicalUrl":"https://foursquare.com/v/the-vig/4a7fa1f6f964a5206af41fe3","category":"Lounge","checkinsCount":10558,"usersCount":5043,"tipCount":76,"visitsCount":11797,"url":"http://www.thevig.us","tier":2,"message":"Moderate","currency":"$","rating":8.9},{"name":"Casey Moore's Oyster House","phone":"4809689935","twitter":"caseymoores","address":"850 S Ash Ave","lat":33.420770987523056,"lng":-111.94259401254023,"neighborhood":"Maple Ash","city_fetched":"Phoenix","state":"AZ","country":"United States","canonicalUrl":"https://foursquare.com/v/casey-moores-oyster-house/44b3eddaf964a52054351fe3","category":"Bar","checkinsCount":32174,"usersCount":7781,"tipCount":188,"visitsCount":34190,"url":"http://caseymoores.com","tier":2,"message":"Moderate","currency":"$","rating":8.9},{"name":"Phoenix Public Market Café","phone":"6022532700","twitter":"phxpublicmarket","address":"14 E Pierce St","lat":33.45575375159553,"lng":-112.07316309404915,"neighborhood":"Downtown Phoenix","city_fetched":"Phoenix","state":"AZ","country":"United States","canonicalUrl":"https://foursquare.com/v/phoenix-public-market-caf%C3%A9/518ad042498e259ee8c773ad","category":"New American Restaurant","checkinsCount":4900,"usersCount":2510,"tipCount":75,"visitsCount":6088,"url":"http://phxpublicmarket.com/cafe","tier":2,"message":"Moderate","currency":"$","rating":8.9},{"name":"Delux Burger","phone":"6025222288","twitter":"deluxburger","address":"3146 E Camelback Rd","lat":33.51120004484986,"lng":-112.014080286026,"neighborhood":"Camelback East","city_fetched":"Phoenix","state":"AZ","country":"United States","canonicalUrl":"https://foursquare.com/v/delux-burger/44e09b30f964a520fd361fe3","category":"Burger Joint","checkinsCount":8011,"usersCount":3992,"tipCount":111,"visitsCount":8558,"url":"http://www.deluxburger.com","tier":2,"message":"Moderate","currency":"$","rating":8.9},{"name":"Tarbell's","phone":"6029558100","twitter":"tarbells","address":"3213 E Camelback Rd","lat":33.509134007509516,"lng":-112.01250442933186,"neighborhood":"Camelback East","city_fetched":"Phoenix","state":"AZ","country":"United States","canonicalUrl":"https://foursquare.com/v/tarbells/4b25311ff964a520b26d24e3","category":"American Restaurant","checkinsCount":1534,"usersCount":688,"tipCount":27,"visitsCount":1595,"url":"http://www.tarbells.com","tier":4,"message":"Very Expensive","currency":"$","rating":8.9},{"name":"Christophers Restaurant & Crush Lounge","phone":"6025222344","twitter":"chefgross","address":"2502 E Camelback Rd","lat":33.51120098716294,"lng":-112.02854397264846,"neighborhood":"Camelback East","city_fetched":"Phoenix","state":"AZ","country":"United States","canonicalUrl":"https://foursquare.com/v/christophers-restaurant--crush-lounge/4ac15d3bf964a520e89620e3","category":"American Restaurant","checkinsCount":1688,"usersCount":850,"tipCount":35,"visitsCount":1705,"url":"http://www.christophersaz.com","tier":4,"message":"Very Expensive","currency":"$","rating":8.9},{"name":"SideBar","phone":"6022541646","twitter":"sidebarphx","address":"1514 N 7th Ave","lat":33.465355811491186,"lng":-112.08285212516785,"neighborhood":"Central City","city_fetched":"Phoenix","state":"AZ","country":"United States","canonicalUrl":"https://foursquare.com/v/sidebar/4a4f71bbf964a52052af1fe3","category":"Wine Bar","checkinsCount":6350,"usersCount":2565,"tipCount":64,"visitsCount":6424,"url":"http://www.sidebarphoenix.com","tier":2,"message":"Moderate","currency":"$","rating":8.9},{"name":"Z'Tejas Mexican Restaurant and Grill","phone":"4809489010","twitter":"ztejas","address":"10625 N Tatum Blvd","lat":33.583400272143734,"lng":-111.97679564794049,"city_fetched":"Phoenix","state":"AZ","country":"United States","canonicalUrl":"https://foursquare.com/v/ztejas-mexican-restaurant-and-grill/4b4d29b2f964a52001cd26e3","category":"Mexican Restaurant","checkinsCount":4303,"usersCount":1890,"tipCount":32,"visitsCount":4678,"url":"http://www.ztejas.com","tier":2,"message":"Moderate","currency":"$","rating":8.9},{"name":"Fleming's Prime Steakhouse & Wine Bar","phone":"6237729463","address":"9712 W Northern Ave","lat":33.551978,"lng":-112.268553,"neighborhood":"Parke West","city_fetched":"Phoenix","state":"AZ","country":"United States","canonicalUrl":"https://foursquare.com/v/flemings-prime-steakhouse--wine-bar/4ae3af0ef964a5201e9821e3","category":"Steakhouse","checkinsCount":1228,"usersCount":858,"tipCount":25,"visitsCount":1374,"url":"http://www.flemingssteakhouse.com/locations/az/peoria","tier":3,"message":"Expensive","currency":"$","rating":8.9},{"name":"The Duce","phone":"6022539033","twitter":"theducephx","address":"525 S Central Ave","lat":33.44239997674885,"lng":-112.07348585128784,"neighborhood":"Central City","city_fetched":"Phoenix","state":"AZ","country":"United States","canonicalUrl":"https://foursquare.com/v/the-duce/4be4b458cf200f47f462123c","category":"Bar","checkinsCount":5091,"usersCount":3844,"tipCount":70,"visitsCount":6466,"url":"http://theducephx.com","tier":2,"message":"Moderate","currency":"$","rating":8.8},{"name":"Bluewater Grill","phone":"6022773474","twitter":"bluewater_grill","address":"1720 E Camelback Rd","lat":33.510096594749825,"lng":-112.04499677951307,"neighborhood":"Camelback East","city_fetched":"Phoenix","state":"AZ","country":"United States","canonicalUrl":"https://foursquare.com/v/bluewater-grill/4ae738aef964a52081a921e3","category":"Sushi Restaurant","checkinsCount":2588,"usersCount":1533,"tipCount":44,"visitsCount":3003,"url":"http://www.bluewatergrill.com/locations/phoenix.php","tier":2,"message":"Moderate","currency":"$","rating":8.8},{"name":"Sauce Pizza & Wine","phone":"4803218844","address":"7135 E Camelback Rd Ste 160","lat":33.50120764788225,"lng":-111.92857345348939,"neighborhood":"Downtown Scottsdale","city_fetched":"Phoenix","state":"AZ","country":"United States","canonicalUrl":"https://foursquare.com/v/sauce-pizza--wine/4aa2dbbdf964a520574220e3","category":"Pizza Place","checkinsCount":4785,"usersCount":2515,"tipCount":37,"visitsCount":5021,"url":"http://saucepizzaandwine.com","tier":1,"message":"Cheap","currency":"$","rating":8.8},{"name":"Mother Bunch Brewing","phone":"6023683580","twitter":"motherbunchbrew","address":"825 N 7th St #102","lat":33.457334,"lng":-112.064827,"neighborhood":"Garfield","city_fetched":"Phoenix","state":"AZ","country":"United States","canonicalUrl":"https://foursquare.com/v/mother-bunch-brewing/53d75c12498e6c43227775cd","category":"Brewery","checkinsCount":1518,"usersCount":1426,"tipCount":29,"visitsCount":2595,"url":"http://motherbunchbrew.com","tier":"","message":"","currency":"","rating":8.8},{"name":"Hanny's","phone":"6022522285","twitter":"hannysbar","address":"40 N 1st St","lat":33.44922489368206,"lng":-112.07283706986932,"neighborhood":"Copper Square","city_fetched":"Phoenix","state":"AZ","country":"United States","canonicalUrl":"https://foursquare.com/v/hannys/4a44539df964a52075a71fe3","category":"Lounge","checkinsCount":11546,"usersCount":4946,"tipCount":124,"visitsCount":12157,"url":"http://hannys.net","tier":2,"message":"Moderate","currency":"$","rating":8.8},{"name":"The Vig Uptown","phone":"6026331187","address":"6015 N 16th St","lat":33.524348881418256,"lng":-112.04710364341736,"neighborhood":"Camelback East","city_fetched":"Phoenix","state":"AZ","country":"United States","canonicalUrl":"https://foursquare.com/v/the-vig-uptown/4b82e511f964a52093eb30e3","category":"Bar","checkinsCount":10871,"usersCount":4163,"tipCount":93,"visitsCount":11305,"url":"http://thevig.us","tier":2,"message":"Moderate","currency":"$","rating":8.8},{"name":"Wren House Brewing Company","address":"2125 N 24th St","lat":33.471406902463315,"lng":-112.0300052840026,"city_fetched":"Phoenix","state":"AZ","country":"United States","canonicalUrl":"https://foursquare.com/v/wren-house-brewing-company/55085360498e46f784299c59","category":"Brewery","checkinsCount":680,"usersCount":428,"tipCount":11,"visitsCount":1073,"url":"http://wrenhousebrewing.com","tier":"","message":"","currency":"","rating":8.8},{"name":"Arrowhead Grill","phone":"6235662224","twitter":"arrowheadgrill","address":"8280 W Union Hills Dr Ste 110","lat":33.653069323741896,"lng":-112.23550555201861,"neighborhood":"Cholla","city_fetched":"Phoenix","state":"AZ","country":"United States","canonicalUrl":"https://foursquare.com/arrowheadgrill","category":"Steakhouse","checkinsCount":1504,"usersCount":893,"tipCount":34,"visitsCount":1835,"url":"http://www.arrowheadgrill.com","tier":3,"message":"Expensive","currency":"$","rating":8.8},{"name":"Papago Brewing Co.","phone":"4804257439","twitter":"papagobrewing","address":"7107 E McDowell Rd","lat":33.46487249917132,"lng":-111.92792773246765,"city_fetched":"Phoenix","state":"AZ","country":"United States","canonicalUrl":"https://foursquare.com/v/papago-brewing-co/413ba880f964a520e61b1fe3","category":"Brewery","checkinsCount":9726,"usersCount":4158,"tipCount":74,"visitsCount":10931,"url":"http://papagobrewing.com","tier":2,"message":"Moderate","currency":"$","rating":8.8},{"name":"Yard House","phone":"4805639273","twitter":"yardhouse","address":"21001 N Tatum Blvd","lat":33.67617566,"lng":-111.9713688,"neighborhood":"Desert Ridge","city_fetched":"Phoenix","state":"AZ","country":"United States","canonicalUrl":"https://foursquare.com/v/yard-house/4a58fb0df964a52064b81fe3","category":"American Restaurant","checkinsCount":9880,"usersCount":5089,"tipCount":66,"visitsCount":10277,"url":"http://www.yardhouse.com","tier":2,"message":"Moderate","currency":"$","rating":8.8},{"name":"Top's Liquor","phone":"4809675643","address":"403 W University Dr #104","lat":33.42162752171743,"lng":-111.94504022598267,"city_fetched":"Phoenix","state":"AZ","country":"United States","canonicalUrl":"https://foursquare.com/v/tops-liquor/4a6d2327f964a52098d21fe3","category":"Liquor Store","checkinsCount":3314,"usersCount":1055,"tipCount":14,"visitsCount":3389,"url":"http://www.topsliquors.com","tier":"","message":"","currency":"","rating":8.8},{"name":"Z'Tejas","phone":"4808937550","twitter":"ztejas","address":"7221 W Ray Rd","lat":33.31943826958634,"lng":-111.96808552400563,"city_fetched":"Phoenix","state":"AZ","country":"United States","canonicalUrl":"https://foursquare.com/v/ztejas/4a48212ef964a52094aa1fe3","category":"Mexican Restaurant","checkinsCount":5098,"usersCount":3048,"tipCount":54,"visitsCount":6047,"url":"http://ztejas.com","tier":2,"message":"Moderate","currency":"$","rating":8.8},{"name":"Yard House","phone":"6238723900","twitter":"yardhouse","address":"9401 W Westgate Blvd","lat":33.53406674,"lng":-112.2613932,"city_fetched":"Phoenix","state":"AZ","country":"United States","canonicalUrl":"https://foursquare.com/v/yard-house/4bf786595efe2d7f34386934","category":"American Restaurant","checkinsCount":13112,"usersCount":7710,"tipCount":110,"visitsCount":14652,"url":"http://www.yardhouse.com","tier":2,"message":"Moderate","currency":"$","rating":8.8},{"name":"Metropolis at Scottsdale Camelview Optima Condos","phone":"4806216339","twitter":"metropolisaz","address":"7137 E Rancho Vista Dr Ste B33","lat":33.50701365039716,"lng":-111.9279097290484,"neighborhood":"Downtown Scottsdale","city_fetched":"Phoenix","state":"AZ","country":"United States","canonicalUrl":"https://foursquare.com/v/metropolis-at-scottsdale-camelview-optima-condos/50f0c4c7e4b09fca754975bf","category":"Restaurant","checkinsCount":507,"usersCount":267,"tipCount":14,"visitsCount":705,"url":"http://www.metropolisaz.com","tier":1,"message":"Cheap","currency":"$","rating":8.8},{"name":"Seasons 52","phone":"6028405252","twitter":"seasons52","address":"2502 E Camelback Rd","lat":33.51039495,"lng":-112.026751,"neighborhood":"Camelback East","city_fetched":"Phoenix","state":"AZ","country":"United States","canonicalUrl":"https://foursquare.com/v/seasons-52/4c8eafbd1664b1f76e76a22f","category":"New American Restaurant","checkinsCount":3710,"usersCount":2292,"tipCount":42,"visitsCount":3983,"url":"http://seasons52.com","tier":3,"message":"Expensive","currency":"$","rating":8.8},{"name":"Rúla Búla Irish Pub and Restaurant","phone":"4809299500","twitter":"rulabula","address":"401 S Mill Ave","lat":33.42645580108063,"lng":-111.93983928403472,"neighborhood":"Downtown Tempe","city_fetched":"Phoenix","state":"AZ","country":"United States","canonicalUrl":"https://foursquare.com/v/r%C3%BAla-b%C3%BAla-irish-pub-and-restaurant/4a42d5e9f964a5204aa61fe3","category":"Irish Pub","checkinsCount":13239,"usersCount":6590,"tipCount":110,"visitsCount":13771,"url":"http://www.rulabula.com","tier":2,"message":"Moderate","currency":"$","rating":8.8},{"name":"Taste of Top's","phone":"4809672520","address":"403 W University Dr","lat":33.421466336682144,"lng":-111.94482564926147,"city_fetched":"Phoenix","state":"AZ","country":"United States","canonicalUrl":"https://foursquare.com/v/taste-of-tops/4af674dcf964a520640322e3","category":"Bar","checkinsCount":5896,"usersCount":1438,"tipCount":41,"visitsCount":6295,"url":"http://topsliquors.com","tier":2,"message":"Moderate","currency":"$","rating":8.8},{"name":"Taco Guild Gastropub","phone":"6022644143","twitter":"tacoguild","address":"546 E Osborn Rd","lat":33.4877947683079,"lng":-112.06570533614568,"city_fetched":"Phoenix","state":"AZ","country":"United States","canonicalUrl":"https://foursquare.com/tacoguild","category":"Restaurant","checkinsCount":2367,"usersCount":1752,"tipCount":61,"visitsCount":3043,"url":"http://www.tacoguild.com","tier":2,"message":"Moderate","currency":"$","rating":8.7},{"name":"Hotel Valley Ho","phone":"4802482000","twitter":"hotelvalleyho","address":"6850 E Main St","lat":33.493767469026245,"lng":-111.93389488894533,"neighborhood":"Arts Districts","city_fetched":"Phoenix","state":"AZ","country":"United States","canonicalUrl":"https://foursquare.com/v/hotel-valley-ho/4aab1616f964a520da5820e3","category":"Hotel","checkinsCount":9343,"usersCount":4638,"tipCount":59,"visitsCount":10181,"url":"http://www.hotelvalleyho.com","tier":"","message":"","currency":"","rating":8.7},{"name":"SunUp Brewing Co.","phone":"6022798909","twitter":"sunupbrewing","address":"322 E Camelback Rd","lat":33.5095267,"lng":-112.0687232,"neighborhood":"Windsor Square","city_fetched":"Phoenix","state":"AZ","country":"United States","canonicalUrl":"https://foursquare.com/v/sunup-brewing-co/4b01f45ff964a520ce4622e3","category":"Brewery","checkinsCount":4540,"usersCount":2562,"tipCount":76,"visitsCount":5421,"url":"http://sunup.beer","tier":2,"message":"Moderate","currency":"$","rating":8.7},{"name":"Culinary Dropout at Farmer Arts District","phone":"4802401601","twitter":"culinarydr0p0ut","address":"149 S Farmer Ave","lat":33.429077833038114,"lng":-111.9439788128301,"city_fetched":"Phoenix","state":"AZ","country":"United States","canonicalUrl":"https://foursquare.com/v/culinary-dropout-at-farmer-arts-district/53b2dd43498e8cd083433274","category":"Gastropub","checkinsCount":2266,"usersCount":2449,"tipCount":27,"visitsCount":3941,"url":"http://www.culinarydropout.com","tier":2,"message":"Moderate","currency":"$","rating":8.7},{"name":"Postino WineCafe","lat":33.6238310476409,"lng":-111.92927211066605,"neighborhood":"Kierland Commons","city_fetched":"Phoenix","state":"AZ","country":"United States","canonicalUrl":"https://foursquare.com/v/postino-winecafe/56bbe091498ee3e8f70db6e5","category":"Wine Bar","checkinsCount":328,"usersCount":207,"tipCount":0,"visitsCount":389,"tier":"","message":"","currency":"","rating":8.7},{"name":"linger longer lounge","address":"6522 N 16th St","lat":33.53180034906201,"lng":-112.04826869865133,"neighborhood":"Camelback East","city_fetched":"Phoenix","state":"AZ","country":"United States","canonicalUrl":"https://foursquare.com/v/linger-longer-lounge/54533fec498eefcc8459ec94","category":"Lounge","checkinsCount":619,"usersCount":467,"tipCount":5,"visitsCount":970,"tier":"","message":"","currency":"","rating":8.7},{"name":"Rita's Kitchen","phone":"4809057945","address":"5402 E Lincoln Dr","lat":33.53420472560816,"lng":-111.9648027420044,"city_fetched":"Phoenix","state":"AZ","country":"United States","canonicalUrl":"https://foursquare.com/v/ritas-kitchen/4b64a623f964a52077c52ae3","category":"Breakfast Spot","checkinsCount":1078,"usersCount":677,"tipCount":17,"visitsCount":1083,"tier":3,"message":"Expensive","currency":"$","rating":8.7},{"name":"Cobra Arcade","phone":"6025955873","address":"801 N 2nd St","lat":33.4568,"lng":-112.07104,"neighborhood":"Downtown Phoenix","city_fetched":"Phoenix","state":"AZ","country":"United States","canonicalUrl":"https://foursquare.com/v/cobra-arcade/568c9fa4498e2e5f7a45b2c5","category":"Arcade","checkinsCount":1033,"usersCount":761,"tipCount":10,"visitsCount":1450,"url":"http://cobraarcadebar.com","tier":"","message":"","currency":"","rating":8.7},{"name":"Stockyards Steakhouse","phone":"6022737378","twitter":"stockyardsaz","address":"5009 E Washington St","lat":33.44576607883008,"lng":-111.97493076324463,"neighborhood":"Camelback East","city_fetched":"Phoenix","state":"AZ","country":"United States","canonicalUrl":"https://foursquare.com/stockyardsaz","category":"Steakhouse","checkinsCount":1586,"usersCount":1381,"tipCount":19,"visitsCount":1986,"url":"http://www.stockyardssteakhouse.com","tier":4,"message":"Very Expensive","currency":"$","rating":8.7},{"name":"Stax Burger Bistro","phone":"4809464222","twitter":"staxburger","address":"4400 N Scottsdale Rd","lat":33.500567407246166,"lng":-111.92643672613353,"neighborhood":"Downtown Scottsdale","city_fetched":"Phoenix","state":"AZ","country":"United States","canonicalUrl":"https://foursquare.com/staxburger","category":"Burger Joint","checkinsCount":2535,"usersCount":1492,"tipCount":50,"visitsCount":2609,"url":"http://staxburgerbistro.com","tier":2,"message":"Moderate","currency":"$","rating":8.7},{"name":"The Montauk","lat":33.49968701310869,"lng":-111.92633774963203,"neighborhood":"Downtown Scottsdale","city_fetched":"Phoenix","state":"AZ","country":"United States","canonicalUrl":"https://foursquare.com/v/the-montauk/54c5c53c498e94b2952cc5fa","category":"Cocktail Bar","checkinsCount":491,"usersCount":555,"tipCount":6,"visitsCount":717,"tier":"","message":"","currency":"","rating":8.6},{"name":"Ticoz","phone":"6022000160","twitter":"ticozrestobar","address":"5114 N 7th St","lat":33.511679,"lng":-112.06536138333334,"neighborhood":"Windsor Square","city_fetched":"Phoenix","state":"AZ","country":"United States","canonicalUrl":"https://foursquare.com/v/ticoz/4558b1a4f964a5204a3d1fe3","category":"Latin American Restaurant","checkinsCount":4355,"usersCount":2176,"tipCount":63,"visitsCount":4714,"url":"http://ticozaz.com","tier":1,"message":"Cheap","currency":"$","rating":8.6},{"name":"Cornish Pasty Co","phone":"4809451220","twitter":"cornishpastyco","address":"3800 N Goldwater Blvd","lat":33.492464,"lng":-111.930649,"neighborhood":"Arts Districts","city_fetched":"Phoenix","state":"AZ","country":"United States","canonicalUrl":"https://foursquare.com/v/cornish-pasty-co/527a9ef3498e7e5d6ff00717","category":"English Restaurant","checkinsCount":1779,"usersCount":1635,"tipCount":26,"visitsCount":2816,"url":"http://www.cornishpastyco.com","tier":2,"message":"Moderate","currency":"$","rating":8.6},{"name":"First Friday","address":"Downtown Phoenix","lat":33.45842143695883,"lng":-112.06882580460378,"neighborhood":"Downtown Phoenix","city_fetched":"Phoenix","state":"AZ","country":"United States","canonicalUrl":"https://foursquare.com/v/first-friday/46604c34f964a5205f471fe3","category":"Art Gallery","checkinsCount":3467,"usersCount":2363,"tipCount":33,"visitsCount":3884,"tier":"","message":"","currency":"","rating":8.6},{"name":"The Yard","address":"149 S Farmer Ave","lat":33.4287033401862,"lng":-111.94401956766035,"city_fetched":"Phoenix","state":"AZ","country":"United States","canonicalUrl":"https://foursquare.com/v/the-yard/548be286498ef3749f76faf8","category":"Bar","checkinsCount":536,"usersCount":341,"tipCount":6,"visitsCount":549,"tier":"","message":"","currency":"","rating":8.6},{"name":"Shady's Fine Ales and Cocktails","phone":"6029568998","address":"2701 E Indian School Rd","lat":33.49481952921328,"lng":-112.02356037116161,"neighborhood":"Camelback East","city_fetched":"Phoenix","state":"AZ","country":"United States","canonicalUrl":"https://foursquare.com/v/shadys-fine-ales-and-cocktails/4a862dcff964a520ac0020e3","category":"Dive Bar","checkinsCount":4606,"usersCount":1449,"tipCount":53,"visitsCount":5255,"tier":2,"message":"Moderate","currency":"$","rating":8.6},{"name":"Northside at Whole Foods","lat":33.65375227973126,"lng":-111.92753711176587,"city_fetched":"Phoenix","state":"AZ","country":"United States","canonicalUrl":"https://foursquare.com/v/northside-at-whole-foods/4f88dcede4b0b1c4af3e1c02","category":"Bar","checkinsCount":767,"usersCount":165,"tipCount":3,"visitsCount":802,"tier":"","message":"","currency":"","rating":8.6},{"name":"Postino Annex","phone":"4809271111","address":"615 S College Ave","lat":33.4240890539928,"lng":-111.93483225258728,"neighborhood":"Downtown Tempe","city_fetched":"Phoenix","state":"AZ","country":"United States","canonicalUrl":"https://foursquare.com/v/postino-annex/54174fa7498e3d2a9d8dfaa4","category":"Wine Bar","checkinsCount":1485,"usersCount":1120,"tipCount":14,"visitsCount":2157,"url":"http://postinowinecafe.com","tier":"","message":"","currency":"","rating":8.6},{"name":"Magnum's Cigar Wine and Spirits","phone":"6024938977","address":"731 E Union Hls Dr","lat":33.65367366665213,"lng":-112.06492514864277,"city_fetched":"Phoenix","state":"AZ","country":"United States","canonicalUrl":"https://foursquare.com/v/magnums-cigar-wine-and-spirits/4ae24456f964a5209c8c21e3","category":"Smoke Shop","checkinsCount":1331,"usersCount":712,"tipCount":13,"visitsCount":1719,"url":"http://magnumscigar.com","tier":"","message":"","currency":"","rating":8.6},{"name":"Rum Bar at The Breadfruit","phone":"6022671266","twitter":"thebreadfruit","address":"108 E Pierce St","lat":33.45568465,"lng":-112.07204,"neighborhood":"Downtown Phoenix","city_fetched":"Phoenix","state":"AZ","country":"United States","canonicalUrl":"https://foursquare.com/v/rum-bar-at-the-breadfruit/4d88142b76e1236a3295ea42","category":"Cocktail Bar","checkinsCount":1890,"usersCount":933,"tipCount":29,"visitsCount":1937,"url":"http://www.thebreadfruit.com","tier":"","message":"","currency":"","rating":8.6},{"name":"Pomelo","phone":"6026332600","address":"7100 North 12th Street","lat":33.54031426201577,"lng":-112.0566026866436,"neighborhood":"Camelback East","city_fetched":"Phoenix","state":"AZ","country":"United States","canonicalUrl":"https://foursquare.com/v/pomelo/572e9fa7cd10a8203a4f691c","category":"Restaurant","checkinsCount":98,"usersCount":159,"tipCount":2,"visitsCount":237,"url":"http://www.pomelophx.com","tier":"","message":"","currency":"","rating":8.6},{"name":"Top of the Rock","phone":"6024312370","twitter":"topoftherockaz","address":"2000 W Westcourt Way","lat":33.40385559,"lng":-111.97171,"city_fetched":"Phoenix","state":"AZ","country":"United States","canonicalUrl":"https://foursquare.com/v/top-of-the-rock/4bea1efc61aca5938d798300","category":"Cocktail Bar","checkinsCount":1130,"usersCount":940,"tipCount":23,"visitsCount":1229,"url":"http://www.topoftherockbuttes.com","tier":2,"message":"Moderate","currency":"$","rating":8.5},{"name":"BJ's Restaurant and Brewhouse","phone":"6237726470","twitter":"bjsrestaurants","address":"9748 W Northern Ave","lat":33.55188787,"lng":-112.2692388,"neighborhood":"Parke West","city_fetched":"Phoenix","state":"AZ","country":"United States","canonicalUrl":"https://foursquare.com/v/bjs-restaurant-and-brewhouse/4b633f2df964a5204e6d2ae3","category":"American Restaurant","checkinsCount":5434,"usersCount":3387,"tipCount":70,"visitsCount":6931,"url":"http://t.co/bl46gcjDLN","tier":2,"message":"Moderate","currency":"$","rating":8.5},{"name":"Steel Horse Saloon","address":"1818 W Bell Rd","lat":33.64190681666667,"lng":-112.09752706666667,"city_fetched":"Phoenix","state":"AZ","country":"United States","canonicalUrl":"https://foursquare.com/v/steel-horse-saloon/4bc23d1b461576b07d1d7d32","category":"Bar","checkinsCount":376,"usersCount":267,"tipCount":5,"visitsCount":505,"url":"http://steelhorsesaloon.com","tier":"","message":"","currency":"","rating":8.5},{"name":"Tee Pee Mexican Food","phone":"6029560178","twitter":"teepeemex","address":"4144 E Indian School Rd","lat":33.49523538739847,"lng":-111.99163019657135,"neighborhood":"Camelback East","city_fetched":"Phoenix","state":"AZ","country":"United States","canonicalUrl":"https://foursquare.com/v/tee-pee-mexican-food/4a68be75f964a520e9ca1fe3","category":"Mexican Restaurant","checkinsCount":2856,"usersCount":2042,"tipCount":40,"visitsCount":3571,"tier":1,"message":"Cheap","currency":"$","rating":8.5},{"name":"The Phoenix Ale Brewery","phone":"6022755049","twitter":"phxalebrewery","address":"3002 E Washington St","lat":33.448648647530376,"lng":-112.01675176620483,"neighborhood":"Central City","city_fetched":"Phoenix","state":"AZ","country":"United States","canonicalUrl":"https://foursquare.com/v/the-phoenix-ale-brewery/4e81da8a29c24db2328204e6","category":"Brewery","checkinsCount":1801,"usersCount":1169,"tipCount":38,"visitsCount":2102,"url":"http://www.phoenixbrew.com","tier":2,"message":"Moderate","currency":"$","rating":8.5},{"name":"Ruffino Italian Cuisine","phone":"4808938544","twitter":"ruffinoaz","address":"4902 E Warner Rd","lat":33.33229863582773,"lng":-111.97910347158717,"city_fetched":"Phoenix","state":"AZ","country":"United States","canonicalUrl":"https://foursquare.com/v/ruffino-italian-cuisine/4b4e754bf964a5207cee26e3","category":"Italian Restaurant","checkinsCount":451,"usersCount":293,"tipCount":11,"visitsCount":516,"url":"http://www.ruffinoaz.com","tier":3,"message":"Expensive","currency":"$","rating":8.5},{"name":"Valle Luna","phone":"6029933108","twitter":"vallelunatics","address":"3336 W Bell Rd","lat":33.64099472122301,"lng":-112.13135187520751,"city_fetched":"Phoenix","state":"AZ","country":"United States","canonicalUrl":"https://foursquare.com/v/valle-luna/4a358477f964a520169d1fe3","category":"Mexican Restaurant","checkinsCount":8565,"usersCount":2875,"tipCount":58,"visitsCount":10082,"url":"http://valleluna.com","tier":2,"message":"Moderate","currency":"$","rating":8.5},{"name":"Bliss / ReBAR","phone":"6027951792","twitter":"blissrebar","address":"901 N 4th St","lat":33.457886545144696,"lng":-112.06844329833983,"neighborhood":"Downtown Phoenix","city_fetched":"Phoenix","state":"AZ","country":"United States","canonicalUrl":"https://foursquare.com/v/bliss--rebar/4c773395923ba143c29b66e6","category":"American Restaurant","checkinsCount":12819,"usersCount":4365,"tipCount":100,"visitsCount":14223,"url":"http://blissonfourth.com","tier":2,"message":"Moderate","currency":"$","rating":8.5},{"name":"CK's Tavern & Grill","phone":"4807065564","twitter":"ckgrill","address":"4142 E Chandler Blvd","lat":33.305608969730486,"lng":-111.99330925941467,"neighborhood":"Mountain Park Ranch","city_fetched":"Phoenix","state":"AZ","country":"United States","canonicalUrl":"https://foursquare.com/v/cks-tavern--grill/4a3409b4f964a5209d9b1fe3","category":"Sports Bar","checkinsCount":7797,"usersCount":1673,"tipCount":51,"visitsCount":8775,"url":"http://ckgrill.com","tier":2,"message":"Moderate","currency":"$","rating":8.5},{"name":"Yucca Tap Room","phone":"4809674777","twitter":"yuccataproom","address":"29 W Southern Ave","lat":33.39259364533606,"lng":-111.94052629477632,"city_fetched":"Phoenix","state":"AZ","country":"United States","canonicalUrl":"https://foursquare.com/v/yucca-tap-room/413ba880f964a520421c1fe3","category":"Bar","checkinsCount":10645,"usersCount":3541,"tipCount":82,"visitsCount":11872,"url":"http://yuccatap.com","tier":1,"message":"Cheap","currency":"$","rating":8.5},{"name":"Four Peaks Tasting Room","phone":"4806342976","twitter":"fourpeaksbrew","address":"2401 S Wilson St","lat":33.40271247429131,"lng":-111.94452026982175,"city_fetched":"Phoenix","state":"AZ","country":"United States","canonicalUrl":"https://foursquare.com/fourpeaksbrew","category":"Brewery","checkinsCount":2265,"usersCount":1052,"tipCount":19,"visitsCount":2654,"url":"http://www.fourpeaks.com","tier":1,"message":"Cheap","currency":"$","rating":8.5},{"name":"Rokerij Cellar Bar","address":"6335 N 16th St","lat":33.53044791298587,"lng":-112.04724986305472,"neighborhood":"Camelback East","city_fetched":"Phoenix","state":"AZ","country":"United States","canonicalUrl":"https://foursquare.com/v/rokerij-cellar-bar/4cb57e3a52edb1f7c49767fe","category":"Cocktail Bar","checkinsCount":1052,"usersCount":342,"tipCount":17,"visitsCount":1060,"url":"http://richardsonsnm.com","tier":"","message":"","currency":"","rating":8.5},{"name":"Blue Martini Lounge","phone":"4806382583","twitter":"bluemartiniphnx","address":"5455 E High St","lat":33.67546519805204,"lng":-111.96382053565766,"neighborhood":"Desert Ridge","city_fetched":"Phoenix","state":"AZ","country":"United States","canonicalUrl":"https://foursquare.com/v/blue-martini-lounge/4b19cbd3f964a52055e423e3","category":"Lounge","checkinsCount":5051,"usersCount":2632,"tipCount":47,"visitsCount":5255,"url":"http://www.bluemartinilounge.com","tier":2,"message":"Moderate","currency":"$","rating":8.5},{"name":"Dillon's KC BBQ Thunderbird","phone":"6239795353","twitter":"dillonskcbbq","address":"8706 W Thunderbird Rd","lat":33.61023606633956,"lng":-112.24649052313006,"city_fetched":"Phoenix","state":"AZ","country":"United States","canonicalUrl":"https://foursquare.com/v/dillons-kc-bbq-thunderbird/4b82d81ff964a520a3e830e3","category":"BBQ Joint","checkinsCount":2122,"usersCount":1281,"tipCount":32,"visitsCount":2671,"url":"http://www.dillonsrestaurant.com","tier":2,"message":"Moderate","currency":"$","rating":8.5},{"name":"Halo-Halo Kitchen","phone":"6023249670","address":"3553 W Dunlap Ave","lat":33.566973,"lng":-112.135773,"neighborhood":"North Mountain","city_fetched":"Phoenix","state":"AZ","country":"United States","canonicalUrl":"https://foursquare.com/v/halohalo-kitchen/4c4352c3ce54e21e1dee0d1a","category":"Asian Restaurant","checkinsCount":756,"usersCount":440,"tipCount":8,"visitsCount":955,"url":"http://www.gothalohalo.com","tier":1,"message":"Cheap","currency":"$","rating":8.4},{"name":"Keegan's Grill","phone":"6029556616","twitter":"keegansgrill","address":"3114 E Camelback Rd","lat":33.510708,"lng":-112.0152411,"neighborhood":"Camelback East","city_fetched":"Phoenix","state":"AZ","country":"United States","canonicalUrl":"https://foursquare.com/v/keegans-grill/4a6cc7aaf964a5209fd11fe3","category":"American Restaurant","checkinsCount":1915,"usersCount":760,"tipCount":20,"visitsCount":2249,"url":"http://www.facebook.com/KeegansGrill","tier":2,"message":"Moderate","currency":"$","rating":8.4},{"name":"Bitter & Twisted Cocktail Parlour","phone":"6023401924","twitter":"bandt_az","address":"1 W Jefferson St","lat":33.4471892132283,"lng":-112.0738558952895,"neighborhood":"Copper Square","city_fetched":"Phoenix","state":"AZ","country":"United States","canonicalUrl":"https://foursquare.com/v/bitter--twisted-cocktail-parlour/52e48fd2498e87609aa05f2f","category":"Cocktail Bar","checkinsCount":1578,"usersCount":1039,"tipCount":30,"visitsCount":1790,"url":"http://www.bitterandtwistedaz.com","tier":3,"message":"Expensive","currency":"$","rating":8.4},{"name":"Dilly Dally Lounge","phone":"6029550013","address":"3639 E Indian School Rd","lat":33.49464019456544,"lng":-112.00278168600403,"neighborhood":"Camelback East","city_fetched":"Phoenix","state":"AZ","country":"United States","canonicalUrl":"https://foursquare.com/v/dilly-dally-lounge/413ba880f964a520481b1fe3","category":"Lounge","checkinsCount":944,"usersCount":389,"tipCount":9,"visitsCount":997,"tier":"","message":"","currency":"","rating":8.4},{"name":"Boulders On Broadway","phone":"4809219431","twitter":"boulderstempe","address":"530 W Broadway Rd","lat":33.4076029003922,"lng":-111.94759434662859,"city_fetched":"Phoenix","state":"AZ","country":"United States","canonicalUrl":"https://foursquare.com/v/boulders-on-broadway/4b2adfe6f964a52053b124e3","category":"Bar","checkinsCount":15179,"usersCount":4216,"tipCount":108,"visitsCount":17248,"url":"http://www.bouldersonbroadway.com","tier":2,"message":"Moderate","currency":"$","rating":8.4},{"name":"Salty Sow","phone":"6027959463","twitter":"saltysow","address":"4801 E Cactus Rd","lat":33.59739736792403,"lng":-111.97751987171183,"city_fetched":"Phoenix","state":"AZ","country":"United States","canonicalUrl":"https://foursquare.com/v/salty-sow/5106e1c8c84cbff322516cd6","category":"Gastropub","checkinsCount":1754,"usersCount":1243,"tipCount":33,"visitsCount":2182,"url":"http://saltysow.com","tier":2,"message":"Moderate","currency":"$","rating":8.4},{"name":"Stand Up Live","phone":"4807196100","twitter":"standuplive","address":"50 W Jefferson St #200","lat":33.44793820974841,"lng":-112.07406548218133,"neighborhood":"Copper Square","city_fetched":"Phoenix","state":"AZ","country":"United States","canonicalUrl":"https://foursquare.com/standuplive","category":"Comedy Club","checkinsCount":6120,"usersCount":3771,"tipCount":53,"visitsCount":6189,"url":"http://www.standuplive.com","tier":"","message":"","currency":"","rating":8.4},{"name":"Culinary Dropout","phone":"4809701700","twitter":"debbieporterfrc","address":"7135 E Camelback Rd Ste 125","lat":33.50215619,"lng":-111.927497,"neighborhood":"Fashion Square","city_fetched":"Phoenix","state":"AZ","country":"United States","canonicalUrl":"https://foursquare.com/v/culinary-dropout/4bb083e2f964a52045493ce3","category":"Gastropub","checkinsCount":10805,"usersCount":6674,"tipCount":142,"visitsCount":11397,"url":"http://culinarydropout.com","tier":3,"message":"Expensive","currency":"$","rating":8.4},{"name":"Bar North","phone":"4809482055","address":"15024 N Scottsdale Rd","lat":33.624035,"lng":-111.92877,"neighborhood":"Kierland Commons","city_fetched":"Phoenix","state":"AZ","country":"United States","canonicalUrl":"https://foursquare.com/v/bar-north/518ee66b498e62e0457cd6e2","category":"Cocktail Bar","checkinsCount":226,"usersCount":147,"tipCount":6,"visitsCount":229,"url":"http://www.northitaliarestaurant.com","tier":"","message":"","currency":"","rating":8.4},{"name":"Aunt Chiladas Squaw Peak","phone":"6029441286","twitter":"auntchiladas","address":"7330 N Dreamy Draw Dr","lat":33.544874797896604,"lng":-112.04322598395731,"neighborhood":"Camelback East","city_fetched":"Phoenix","state":"AZ","country":"United States","canonicalUrl":"https://foursquare.com/v/aunt-chiladas-squaw-peak/4729fd2af964a520e94b1fe3","category":"Mexican Restaurant","checkinsCount":7199,"usersCount":3263,"tipCount":63,"visitsCount":8561,"url":"https://www.auntchiladas.com","tier":2,"message":"Moderate","currency":"$","rating":8.4},{"name":"RA Sushi Bar Restaurant","phone":"4809909256","twitter":"rasushi","address":"3815 N Scottsdale Rd","lat":33.49204100585015,"lng":-111.9258836221205,"neighborhood":"Old Town Scottsdale","city_fetched":"Phoenix","state":"AZ","country":"United States","canonicalUrl":"https://foursquare.com/v/ra-sushi-bar-restaurant/413cfa00f964a520481c1fe3","category":"Sushi Restaurant","checkinsCount":8981,"usersCount":5030,"tipCount":52,"visitsCount":9331,"url":"http://www.rasushi.com","tier":2,"message":"Moderate","currency":"$","rating":8.4},{"name":"Upper Crust Pizza Patio & Wine Bar","phone":"6029232389","twitter":"wineandpizza","address":"20235 N Cave Creek Rd","lat":33.67113767325921,"lng":-112.0300367474556,"city_fetched":"Phoenix","state":"AZ","country":"United States","canonicalUrl":"https://foursquare.com/v/upper-crust-pizza-patio--wine-bar/4d2e534ada7cb60c05796ed4","category":"Pizza Place","checkinsCount":2288,"usersCount":968,"tipCount":38,"visitsCount":2403,"url":"http://www.uppercrustwinebar.com","tier":"","message":"","currency":"","rating":8.4},{"name":"Kona Grill","phone":"4804291100","twitter":"konagrill","address":"7014 E Camelback Rd","lat":33.50333531721192,"lng":-111.92910909067007,"neighborhood":"Fashion Square","city_fetched":"Phoenix","state":"AZ","country":"United States","canonicalUrl":"https://foursquare.com/v/kona-grill/4b93201bf964a520913634e3","category":"Asian Restaurant","checkinsCount":7620,"usersCount":3849,"tipCount":43,"visitsCount":7661,"url":"http://www.konagrill.com","tier":2,"message":"Moderate","currency":"$","rating":8.4},{"name":"Old Chicago Pasta & Pizza","phone":"6029388808","address":"5695 W Bell Rd","lat":33.63848966489681,"lng":-112.1817398071289,"city_fetched":"Phoenix","state":"AZ","country":"United States","canonicalUrl":"https://foursquare.com/v/old-chicago-pasta--pizza/4a569b81f964a52085b51fe3","category":"Pizza Place","checkinsCount":5491,"usersCount":1643,"tipCount":33,"visitsCount":6118,"url":"http://oldchicago.com","tier":2,"message":"Moderate","currency":"$","rating":8.4},{"name":"Santisi Brothers Pizzeria & Sports Grill","phone":"6027897979","twitter":"santisibrothers","address":"2710 W Bell Rd #1115","lat":33.64166783632181,"lng":-112.11754272409763,"city_fetched":"Phoenix","state":"AZ","country":"United States","canonicalUrl":"https://foursquare.com/v/santisi-brothers-pizzeria--sports-grill/413ba880f964a520111c1fe3","category":"Pizza Place","checkinsCount":7174,"usersCount":2814,"tipCount":75,"visitsCount":8066,"url":"http://www.santisibrothers.com","tier":1,"message":"Cheap","currency":"$","rating":8.4},{"name":"Fleming's Prime Steakhouse & Wine Bar","phone":"4809401900","address":"905 N 54th St","lat":33.318488,"lng":-111.968069,"city_fetched":"Phoenix","state":"AZ","country":"United States","canonicalUrl":"https://foursquare.com/v/flemings-prime-steakhouse--wine-bar/4abd7979f964a5208a8a20e3","category":"Steakhouse","checkinsCount":2049,"usersCount":1556,"tipCount":21,"visitsCount":2530,"url":"http://www.flemingssteakhouse.com/locations/az/chandler","tier":4,"message":"Very Expensive","currency":"$","rating":8.3},{"name":"Philly's Sports Bar and Grill","phone":"4802478655","address":"4855 E Warner Rd","lat":33.33198825628495,"lng":-111.97772946585857,"city_fetched":"Phoenix","state":"AZ","country":"United States","canonicalUrl":"https://foursquare.com/v/phillys-sports-bar-and-grill/55e0f15f498ebe4560c2f43a","category":"Bar","checkinsCount":310,"usersCount":179,"tipCount":1,"visitsCount":535,"tier":"","message":"","currency":"","rating":8.3},{"name":"BevMo!","phone":"6237769436","twitter":"bevmo","address":"6712 W Bell Rd","lat":33.63866264187452,"lng":-112.20358065541572,"city_fetched":"Phoenix","state":"AZ","country":"United States","canonicalUrl":"https://foursquare.com/v/bevmo/4a739947f964a520e8dc1fe3","category":"Wine Shop","checkinsCount":1873,"usersCount":1114,"tipCount":6,"visitsCount":2093,"url":"http://www.bevmo.com","tier":"","message":"","currency":"","rating":8.3},{"name":"Bar Smith","phone":"6022291265","twitter":"barsmithphoenix","address":"130 E Washington St","lat":33.4484003,"lng":-112.07179605960846,"neighborhood":"Copper Square","city_fetched":"Phoenix","state":"AZ","country":"United States","canonicalUrl":"https://foursquare.com/v/bar-smith/4a81bc28f964a52069f71fe3","category":"Bar","checkinsCount":6240,"usersCount":2125,"tipCount":29,"visitsCount":6363,"url":"http://www.barsmithphoenix.com","tier":1,"message":"Cheap","currency":"$","rating":8.3},{"name":"Dubliner Irish Pub","phone":"6028670984","address":"3841 E Thunderbird Rd","lat":33.611085522222965,"lng":-111.99858784675598,"neighborhood":"Paradise Valley Oasis","city_fetched":"Phoenix","state":"AZ","country":"United States","canonicalUrl":"https://foursquare.com/v/dubliner-irish-pub/45a752e3f964a52012411fe3","category":"Pub","checkinsCount":5135,"usersCount":1624,"tipCount":30,"visitsCount":5932,"url":"http://www.dublinerpub.com","tier":1,"message":"Cheap","currency":"$","rating":8.3},{"name":"Stacy's at Melrose","phone":"6022641700","address":"4343 N 7th Ave","lat":33.499818472989766,"lng":-112.08227428812377,"city_fetched":"Phoenix","state":"AZ","country":"United States","canonicalUrl":"https://foursquare.com/v/stacys-at-melrose/5195d10d498e27b87f121316","category":"Gay Bar","checkinsCount":2789,"usersCount":1181,"tipCount":28,"visitsCount":4910,"url":"http://stacysatmelrose.com","tier":2,"message":"Moderate","currency":"$","rating":8.3},{"name":"The Rock","phone":"6022488559","address":"4129 N 7th Ave","lat":33.49609666036102,"lng":-112.08324653495164,"city_fetched":"Phoenix","state":"AZ","country":"United States","canonicalUrl":"https://foursquare.com/v/the-rock/4b5be373f964a520c41b29e3","category":"Gay Bar","checkinsCount":4484,"usersCount":1196,"tipCount":22,"visitsCount":4895,"url":"http://therockdmphoenix.com","tier":1,"message":"Cheap","currency":"$","rating":8.3},{"name":"Culinary Dropout","phone":"6026804040","twitter":"culinarydr0p0ut","address":"5632 N 7th St","lat":33.51955620172751,"lng":-112.06535014577844,"city_fetched":"Phoenix","state":"AZ","country":"United States","canonicalUrl":"https://foursquare.com/v/culinary-dropout/5112f444e4b09741d7285205","category":"Gastropub","checkinsCount":4815,"usersCount":2474,"tipCount":65,"visitsCount":4911,"url":"http://culinarydropout.com","tier":2,"message":"Moderate","currency":"$","rating":8.3},{"name":"The Hideaway Grill","phone":"4805950358","address":"6746 East Cave Creek Road","lat":33.83238305,"lng":-111.93450931,"neighborhood":"Deer Valley","city_fetched":"Phoenix","state":"AZ","country":"United States","canonicalUrl":"https://foursquare.com/v/the-hideaway-grill/4bcb6b2b3740b713fa786265","category":"Bar","checkinsCount":1185,"usersCount":903,"tipCount":14,"visitsCount":1648,"url":"http://hideaway-usa.com","tier":"","message":"","currency":"","rating":8.3},{"name":"Cheers Tavern","phone":"6029380104","twitter":"cheerstavern","address":"5915 W Bell Rd","lat":33.63735750163683,"lng":-112.18786833429638,"city_fetched":"Phoenix","state":"AZ","country":"United States","canonicalUrl":"https://foursquare.com/cheerstavern","category":"Sports Bar","checkinsCount":1620,"usersCount":592,"tipCount":4,"visitsCount":1869,"url":"http://cheers-tavern.com","tier":"","message":"","currency":"","rating":8.3},{"name":"Harold's Cave Creek Corral","phone":"4804881906","twitter":"haroldscorral","address":"6895 E Cave Creek Rd.","lat":33.830123373877676,"lng":-111.93291664123535,"neighborhood":"Deer Valley","city_fetched":"Phoenix","state":"AZ","country":"United States","canonicalUrl":"https://foursquare.com/v/harolds-cave-creek-corral/4bd901f30115c9b6c23e7680","category":"Bar","checkinsCount":4696,"usersCount":2680,"tipCount":40,"visitsCount":5664,"url":"http://www.haroldscorral.com","tier":2,"message":"Moderate","currency":"$","rating":8.3},{"name":"Geisha A Go Go","phone":"4806990055","twitter":"geishaagogo","address":"7150 E 6th Ave","lat":33.49881863347518,"lng":-111.92682266235352,"neighborhood":"Downtown Scottsdale","city_fetched":"Phoenix","state":"AZ","country":"United States","canonicalUrl":"https://foursquare.com/v/geisha-a-go-go/4a6ac10bf964a520e1cd1fe3","category":"Karaoke Bar","checkinsCount":8468,"usersCount":4104,"tipCount":59,"visitsCount":9268,"url":"http://www.geishaagogo.com","tier":2,"message":"Moderate","currency":"$","rating":8.3},{"name":"Sakana Sushi & Grill","phone":"4805980506","twitter":"sakanasushiaz","address":"5061 E Elliot Rd","lat":33.347728659277855,"lng":-111.97624772787094,"city_fetched":"Phoenix","state":"AZ","country":"United States","canonicalUrl":"https://foursquare.com/v/sakana-sushi--grill/4a6134bbf964a52018c21fe3","category":"Sushi Restaurant","checkinsCount":2459,"usersCount":1196,"tipCount":31,"visitsCount":2622,"url":"http://www.sakanasushiandgrill.com","tier":2,"message":"Moderate","currency":"$","rating":8.3},{"name":"Bar1","phone":"6022669001","address":"3708 N 16th St","lat":33.49089145328562,"lng":-112.04795122146606,"city_fetched":"Phoenix","state":"AZ","country":"United States","canonicalUrl":"https://foursquare.com/v/bar1/4a6695cbf964a520c0c81fe3","category":"Gay Bar","checkinsCount":4607,"usersCount":1312,"tipCount":34,"visitsCount":5834,"url":"http://bar1bar.com","tier":1,"message":"Cheap","currency":"$","rating":8.3},{"name":"Zipps Sports Grill","phone":"6029572112","twitter":"zippssports","address":"3647 E Indian School Rd","lat":33.49461864795725,"lng":-112.00243818729597,"neighborhood":"Camelback East","city_fetched":"Phoenix","state":"AZ","country":"United States","canonicalUrl":"https://foursquare.com/v/zipps-sports-grill/4abfb942f964a520d89120e3","category":"Sports Bar","checkinsCount":7067,"usersCount":2472,"tipCount":41,"visitsCount":8225,"url":"http://www.zippssportsgrills.com","tier":2,"message":"Moderate","currency":"$","rating":8.3},{"name":"Caps Sports Grill","phone":"6234341950","address":"1721 W Rose Garden Ln","lat":33.6759592050221,"lng":-112.09686959301835,"city_fetched":"Phoenix","state":"AZ","country":"United States","canonicalUrl":"https://foursquare.com/v/caps-sports-grill/4beb635fa9900f4715d51740","category":"Sports Bar","checkinsCount":1434,"usersCount":371,"tipCount":13,"visitsCount":1822,"url":"http://capsgrill.com","tier":"","message":"","currency":"","rating":8.3},{"name":"Bar Bianco","phone":"6025283699","twitter":"pizzeriabianco","address":"609 E Adams St","lat":33.449132050292874,"lng":-112.06586837768555,"neighborhood":"Copper Square","city_fetched":"Phoenix","state":"AZ","country":"United States","canonicalUrl":"https://foursquare.com/v/bar-bianco/4bbd7023a0a0c9b610b11b0f","category":"Wine Bar","checkinsCount":1443,"usersCount":1016,"tipCount":11,"visitsCount":1447,"url":"http://pizzeriabianco.com","tier":"","message":"","currency":"","rating":8.3},{"name":"Tim Finnegan's Irish Pub","phone":"6029972323","twitter":"timfinnegans","address":"9201 N 29th Ave","lat":33.56914649169268,"lng":-112.12043031079261,"neighborhood":"North Mountain","city_fetched":"Phoenix","state":"AZ","country":"United States","canonicalUrl":"https://foursquare.com/v/tim-finnegans-irish-pub/4ad3b2ecf964a520b7e520e3","category":"Pub","checkinsCount":3742,"usersCount":1630,"tipCount":41,"visitsCount":4258,"url":"http://www.timfinnegans.com","tier":2,"message":"Moderate","currency":"$","rating":8.3},{"name":"The Whining Pig","phone":"6026332134","twitter":"thewhiningpig","address":"1612 E Bethany Home Rd","lat":33.52395533981661,"lng":-112.04677104949951,"neighborhood":"Camelback East","city_fetched":"Phoenix","state":"AZ","country":"United States","canonicalUrl":"https://foursquare.com/v/the-whining-pig/52673b6211d28c85d1ca3fd3","category":"Beer Garden","checkinsCount":895,"usersCount":432,"tipCount":10,"visitsCount":1017,"tier":2,"message":"Moderate","currency":"$","rating":8.3},{"name":"Peoria Artisan Brewery","address":"10144 W Lake Pleasant Pkwy #1130","lat":33.67785644949478,"lng":-112.27742504808162,"neighborhood":"Deer Valley","city_fetched":"Phoenix","state":"AZ","country":"United States","canonicalUrl":"https://foursquare.com/v/peoria-artisan-brewery/564d4582498e5c8f06a717b6","category":"Gastropub","checkinsCount":182,"usersCount":164,"tipCount":5,"visitsCount":287,"tier":"","message":"","currency":"","rating":8.3},{"name":"La Bocca Pizzeria & Wine Bar","phone":"4809675244","twitter":"laboccapizzeria","address":"699 S Mill Ave","lat":33.42358568633401,"lng":-111.9399207937907,"neighborhood":"Downtown Tempe","city_fetched":"Phoenix","state":"AZ","country":"United States","canonicalUrl":"https://foursquare.com/v/la-bocca-pizzeria--wine-bar/4bb7f4b7b35776b0d775c801","category":"Pizza Place","checkinsCount":7402,"usersCount":3673,"tipCount":112,"visitsCount":7447,"url":"http://laboccapizzeria.com","tier":2,"message":"Moderate","currency":"$","rating":8.3},{"name":"Kazimierz World Wine Bar","phone":"4809463004","address":"7137 E Stetson Dr","lat":33.49939122334935,"lng":-111.9272518157959,"neighborhood":"Downtown Scottsdale","city_fetched":"Phoenix","state":"AZ","country":"United States","canonicalUrl":"https://foursquare.com/v/kazimierz-world-wine-bar/413ba880f964a520a31b1fe3","category":"Wine Bar","checkinsCount":3728,"usersCount":2301,"tipCount":42,"visitsCount":3851,"url":"http://kazbar.net","tier":2,"message":"Moderate","currency":"$","rating":8.3},{"name":"Yard House","phone":"4806759273","twitter":"yardhouse","address":"7014 E Camelback Rd","lat":33.5031122007673,"lng":-111.92919060066896,"neighborhood":"Fashion Square","city_fetched":"Phoenix","state":"AZ","country":"United States","canonicalUrl":"https://foursquare.com/v/yard-house/44017422f964a52020301fe3","category":"American Restaurant","checkinsCount":9865,"usersCount":5732,"tipCount":96,"visitsCount":10066,"url":"http://www.yardhouse.com","tier":2,"message":"Moderate","currency":"$","rating":8.3},{"name":"Wally's American Pub 'N Grill","phone":"6029542040","address":"5029 N 44th St","lat":33.510723450992586,"lng":-111.98608411002544,"neighborhood":"Camelback East","city_fetched":"Phoenix","state":"AZ","country":"United States","canonicalUrl":"https://foursquare.com/v/wallys-american-pub-n-grill/4a53aefbf964a5209db21fe3","category":"Pub","checkinsCount":1736,"usersCount":716,"tipCount":24,"visitsCount":1792,"url":"http://www.wallyspub.com","tier":2,"message":"Moderate","currency":"$","rating":8.3},{"name":"Shady Park Tempe","phone":"4805578226","address":"26 E University Dr","lat":33.422115,"lng":-111.938629,"neighborhood":"Downtown Tempe","city_fetched":"Phoenix","state":"AZ","country":"United States","canonicalUrl":"https://foursquare.com/v/shady-park-tempe/563c080dcd10bb44c01dd787","category":"Pizza Place","checkinsCount":167,"usersCount":187,"tipCount":2,"visitsCount":296,"url":"http://www.shadyparktempe.com","tier":"","message":"","currency":"","rating":8.2},{"name":"Sandbar Mexican Grill","phone":"4809611700","address":"7200 W Ray Rd","lat":33.32034443590077,"lng":-111.96634769439697,"city_fetched":"Phoenix","state":"AZ","country":"United States","canonicalUrl":"https://foursquare.com/v/sandbar-mexican-grill/4ab87c96f964a520027d20e3","category":"Mexican Restaurant","checkinsCount":9385,"usersCount":5067,"tipCount":76,"visitsCount":11267,"url":"http://sandbaraz.com","tier":2,"message":"Moderate","currency":"$","rating":8.2},{"name":"MercBar PHX","phone":"6025089449","twitter":"mercbarphx","address":"2525 E Camelback Rd","lat":33.508753164580014,"lng":-112.02771725432888,"neighborhood":"Camelback East","city_fetched":"Phoenix","state":"AZ","country":"United States","canonicalUrl":"https://foursquare.com/v/mercbar-phx/413ba880f964a520c21b1fe3","category":"Lounge","checkinsCount":2357,"usersCount":1176,"tipCount":25,"visitsCount":2375,"url":"http://www.mercbar.com","tier":"","message":"","currency":"","rating":8.2},{"name":"The Beverly","phone":"4808895580","address":"7018 E Main St","lat":33.49324240981626,"lng":-111.92974370418496,"neighborhood":"Arts Districts","city_fetched":"Phoenix","state":"AZ","country":"United States","canonicalUrl":"https://foursquare.com/v/the-beverly/53fce6db498e1fbcaf73ee56","category":"Cocktail Bar","checkinsCount":288,"usersCount":272,"tipCount":3,"visitsCount":370,"url":"http://www.thebeverly.us","tier":2,"message":"Moderate","currency":"$","rating":8.2},{"name":"BS West","phone":"4809459028","twitter":"bswestaz","address":"7125 E 5th Ave","lat":33.49773762643932,"lng":-111.92724600448766,"neighborhood":"Downtown Scottsdale","city_fetched":"Phoenix","state":"AZ","country":"United States","canonicalUrl":"https://foursquare.com/v/bs-west/413ba880f964a5201c1b1fe3","category":"Gay Bar","checkinsCount":11746,"usersCount":2711,"tipCount":42,"visitsCount":12329,"url":"http://bswest.com","tier":1,"message":"Cheap","currency":"$","rating":8.2},{"name":"Thirsty Camel at the Phoenician","address":"6000 E Camelback Rd","lat":33.507231,"lng":-111.949717,"neighborhood":"Camelback East","city_fetched":"Phoenix","state":"AZ","country":"United States","canonicalUrl":"https://foursquare.com/v/thirsty-camel-at-the-phoenician/413ba880f964a520351c1fe3","category":"Bar","checkinsCount":749,"usersCount":475,"tipCount":10,"visitsCount":752,"tier":"","message":"","currency":"","rating":8.2},{"name":"Fajitas: A Sizzlin' Celebration","phone":"6028704030","twitter":"fajitasaz","address":"9841 N Black Canyon Hwy","lat":33.57625474425847,"lng":-112.11643659112174,"neighborhood":"North Mountain","city_fetched":"Phoenix","state":"AZ","country":"United States","canonicalUrl":"https://foursquare.com/fajitasaz","category":"Mexican Restaurant","checkinsCount":4174,"usersCount":1940,"tipCount":61,"visitsCount":4497,"url":"http://www.fajitasaz.com","tier":2,"message":"Moderate","currency":"$","rating":8.2},{"name":"Buffalo Chip Saloon & Steakhouse","phone":"4804889118","twitter":"buffalosaloon","address":"6811 E Cave Creek Rd","lat":33.83064028902125,"lng":-111.93446159362793,"neighborhood":"Deer Valley","city_fetched":"Phoenix","state":"AZ","country":"United States","canonicalUrl":"https://foursquare.com/v/buffalo-chip-saloon--steakhouse/4b4932e0f964a520cf6926e3","category":"Steakhouse","checkinsCount":3121,"usersCount":2505,"tipCount":31,"visitsCount":3716,"url":"http://www.buffalochipsaloon.com","tier":2,"message":"Moderate","currency":"$","rating":8.2},{"name":"Keegan's Grill","phone":"4807050505","twitter":"keegansgrill","address":"4723 E Ray Rd","lat":33.31926941871643,"lng":-111.98223279,"neighborhood":"Ahwatukee Foothills","city_fetched":"Phoenix","state":"AZ","country":"United States","canonicalUrl":"https://foursquare.com/v/keegans-grill/4a638708f964a5203ec51fe3","category":"Bar","checkinsCount":1903,"usersCount":768,"tipCount":19,"visitsCount":2092,"url":"http://www.facebook.com/KeegansGrill","tier":"","message":"","currency":"","rating":8.2},{"name":"Daily Dose Midtown Bar & Grill","phone":"6022740334","twitter":"dailydosegrill","address":"1928 E Highland Ave Ste F107","lat":33.50582456839987,"lng":-112.04127074569479,"neighborhood":"Camelback East","city_fetched":"Phoenix","state":"AZ","country":"United States","canonicalUrl":"https://foursquare.com/v/daily-dose-midtown-bar--grill/5050352be4b04e8a4c1e58e5","category":"Bar","checkinsCount":2524,"usersCount":1655,"tipCount":34,"visitsCount":3437,"url":"http://www.dailydosegrill.com","tier":2,"message":"Moderate","currency":"$","rating":8.2},{"name":"Rockbar Inc","phone":"4803319190","twitter":"rockbarinc","address":"4245 N Craftsman Ct","lat":33.49765429136627,"lng":-111.92747889031206,"neighborhood":"Downtown Scottsdale","city_fetched":"Phoenix","state":"AZ","country":"United States","canonicalUrl":"https://foursquare.com/rockbarinc","category":"Bar","checkinsCount":5260,"usersCount":1420,"tipCount":27,"visitsCount":5633,"url":"http://www.rockbarscottsdale.com","tier":2,"message":"Moderate","currency":"$","rating":8.2},{"name":"Cartel Brewery","address":"225 W University Dr #101","lat":33.42123850458153,"lng":-111.94268048013224,"neighborhood":"Maple Ash","city_fetched":"Phoenix","state":"AZ","country":"United States","canonicalUrl":"https://foursquare.com/v/cartel-brewery/52be1bd4498ed3ee2e6d04f0","category":"Brewery","checkinsCount":338,"usersCount":78,"tipCount":3,"visitsCount":344,"url":"http://www.cartelbrewery.com","tier":"","message":"","currency":"","rating":8.2},{"name":"The Lost Leaf","phone":"6022580014","twitter":"thelostleaf","address":"914 N 5th St","lat":33.458228,"lng":-112.06776738166809,"neighborhood":"Downtown Phoenix","city_fetched":"Phoenix","state":"AZ","country":"United States","canonicalUrl":"https://foursquare.com/v/the-lost-leaf/466827eaf964a5208c471fe3","category":"Bar","checkinsCount":7165,"usersCount":2861,"tipCount":55,"visitsCount":7329,"url":"http://www.thelostleaf.org","tier":1,"message":"Cheap","currency":"$","rating":8.2},{"name":"Blue Agave Mexican Cantina","phone":"4804196375","twitter":"blueagavebar","address":"7000 E Mayo Blvd","lat":33.65670959808736,"lng":-111.92695140838623,"city_fetched":"Phoenix","state":"AZ","country":"United States","canonicalUrl":"https://foursquare.com/v/blue-agave-mexican-cantina/4b40f706f964a52067be25e3","category":"Cocktail Bar","checkinsCount":2303,"usersCount":1259,"tipCount":29,"visitsCount":2480,"url":"http://www.blueagavemexicancantina.com","tier":"","message":"","currency":"","rating":8.2},{"name":"Modern Margarita","phone":"6027958111","twitter":"modernmargarita","address":"5410 E High St #115","lat":33.67564710478013,"lng":-111.96398937610542,"neighborhood":"Desert Ridge","city_fetched":"Phoenix","state":"AZ","country":"United States","canonicalUrl":"https://foursquare.com/v/modern-margarita/512ce7fce4b0c94a5cb2913d","category":"Nightclub","checkinsCount":1728,"usersCount":818,"tipCount":29,"visitsCount":2019,"url":"http://www.modernmargarita.com","tier":2,"message":"Moderate","currency":"$","rating":8.2},{"name":"Hula's Modern Tiki","phone":"4809704852","twitter":"hulasmoderntiki","address":"7213 E 1st Ave","lat":33.49380831052732,"lng":-111.92555665969849,"neighborhood":"Old Town Scottsdale","city_fetched":"Phoenix","state":"AZ","country":"United States","canonicalUrl":"https://foursquare.com/v/hulas-modern-tiki/52d5aa8c11d249047798d865","category":"Hawaiian Restaurant","checkinsCount":1291,"usersCount":1048,"tipCount":26,"visitsCount":1416,"url":"http://hulasmoderntiki.com","tier":2,"message":"Moderate","currency":"$","rating":8.1},{"name":"Coop's Bar & Grill","phone":"6238784250","twitter":"coopsbargrill","address":"8455 W Peoria Ave","lat":33.581220407975835,"lng":-112.24141427554078,"neighborhood":"Downtown Peoria","city_fetched":"Phoenix","state":"AZ","country":"United States","canonicalUrl":"https://foursquare.com/v/coops-bar--grill/4eacd6ed02d5cf33fa321392","category":"Bar","checkinsCount":234,"usersCount":88,"tipCount":6,"visitsCount":243,"url":"http://coopsbarandgrille.com","tier":"","message":"","currency":"","rating":8.1},{"name":"The Attic Ale House","phone":"6029551967","twitter":"theatticphx","address":"4247 E Indian School Rd","lat":33.49470303231942,"lng":-111.988685131073,"neighborhood":"Camelback East","city_fetched":"Phoenix","state":"AZ","country":"United States","canonicalUrl":"https://foursquare.com/v/the-attic-ale-house/518c5aca498e68149a24b5a9","category":"Beer Garden","checkinsCount":3259,"usersCount":868,"tipCount":45,"visitsCount":3725,"url":"http://www.theatticalehouseaz.com","tier":2,"message":"Moderate","currency":"$","rating":8.1},{"name":"Helio Basin Brewing Co.","twitter":"heliobasinbeer","address":"3935 E Thomas Rd","lat":33.479849453517524,"lng":-111.99615240097046,"neighborhood":"Camelback East","city_fetched":"Phoenix","state":"AZ","country":"United States","canonicalUrl":"https://foursquare.com/v/helio-basin-brewing-co/56c50a53cd101c2ccdaae446","category":"Brewery","checkinsCount":112,"usersCount":123,"tipCount":3,"visitsCount":151,"url":"http://heliobasinbeer.com","tier":"","message":"","currency":"","rating":8.1},{"name":"RA Sushi Bar Restaurant","phone":"4809401111","twitter":"rasushi","address":"4921 E Ray Rd","lat":33.31711692284584,"lng":-111.97707653045654,"neighborhood":"Ahwatukee Foothills","city_fetched":"Phoenix","state":"AZ","country":"United States","canonicalUrl":"https://foursquare.com/v/ra-sushi-bar-restaurant/4341c600f964a52065281fe3","category":"Sushi Restaurant","checkinsCount":10062,"usersCount":3608,"tipCount":66,"visitsCount":10170,"url":"http://www.rasushi.com","tier":2,"message":"Moderate","currency":"$","rating":8.1},{"name":"Twenty Highland Tavern","lat":33.506264563091975,"lng":-112.03798135215766,"neighborhood":"Camelback East","city_fetched":"Phoenix","state":"AZ","country":"United States","canonicalUrl":"https://foursquare.com/v/twenty-highland-tavern/523a177911d234c0965c588b","category":"Pub","checkinsCount":682,"usersCount":190,"tipCount":4,"visitsCount":710,"tier":"","message":"","currency":"","rating":8.1},{"name":"Betty's Nosh","phone":"6235616674","twitter":"bettysnosh","address":"6685 W Beardsley Rd","lat":33.66622887208612,"lng":-112.20150232315063,"neighborhood":"The Highlands at Arrowhead Ranch","city_fetched":"Phoenix","state":"AZ","country":"United States","canonicalUrl":"https://foursquare.com/v/bettys-nosh/4da3690e7aee54812a6fe9fe","category":"American Restaurant","checkinsCount":1304,"usersCount":743,"tipCount":26,"visitsCount":1382,"url":"http://www.bettysnosh.com","tier":2,"message":"Moderate","currency":"$","rating":8.1},{"name":"Z'Tejas Mexican Restaurant and Grill","phone":"6026802806","twitter":"ztejas","address":"1525 E. Bethany Home Rd #6","lat":33.523389385186384,"lng":-112.0482013374567,"neighborhood":"Camelback East","city_fetched":"Phoenix","state":"AZ","country":"United States","canonicalUrl":"https://foursquare.com/v/ztejas-mexican-restaurant-and-grill/5172038ce4b01233a5bc439d","category":"Mexican Restaurant","checkinsCount":1811,"usersCount":1092,"tipCount":38,"visitsCount":2111,"url":"http://www.ztejas.com","tier":2,"message":"Moderate","currency":"$","rating":8.1},{"name":"Rips Ales & Cocktails","phone":"6022660015","address":"3045 N 16th St","lat":33.48374904895476,"lng":-112.04737794526561,"city_fetched":"Phoenix","state":"AZ","country":"United States","canonicalUrl":"https://foursquare.com/v/rips-ales--cocktails/4b523c5bf964a520c07127e3","category":"Bar","checkinsCount":3247,"usersCount":1201,"tipCount":18,"visitsCount":3802,"url":"http://ripsbaraz.com","tier":2,"message":"Moderate","currency":"$","rating":8.1},{"name":"La Santisima","phone":"6239393292","address":"5932 W Glendale Ave","lat":33.538793,"lng":-112.188053,"city_fetched":"Phoenix","state":"AZ","country":"United States","canonicalUrl":"https://foursquare.com/v/la-santisima/52939d2011d2873e5ffe8b25","category":"Bar","checkinsCount":315,"usersCount":258,"tipCount":10,"visitsCount":443,"tier":"","message":"","currency":"","rating":8.1},{"name":"Loco Patron","phone":"4804608887","twitter":"locopatrontukee","address":"1300 E Chandler Blvd","lat":33.304205675606,"lng":-112.0553970336914,"neighborhood":"Ahwatukee Foothills","city_fetched":"Phoenix","state":"AZ","country":"United States","canonicalUrl":"https://foursquare.com/v/loco-patron/4b11c517f964a5204b8423e3","category":"Bar","checkinsCount":4073,"usersCount":828,"tipCount":30,"visitsCount":4592,"url":"http://www.locopatron.com","tier":"","message":"","currency":"","rating":8.1},{"name":"Rock Bottom Restaurant & Brewery","phone":"6238788822","twitter":"rockbottom","address":"7640 W Bell Rd","lat":33.63869037618637,"lng":-112.22354833313184,"city_fetched":"Phoenix","state":"AZ","country":"United States","canonicalUrl":"https://foursquare.com/v/rock-bottom-restaurant--brewery/4af637faf964a5205e0222e3","category":"Brewery","checkinsCount":3888,"usersCount":1957,"tipCount":52,"visitsCount":4406,"url":"http://rockbottom.com","tier":2,"message":"Moderate","currency":"$","rating":8.1},{"name":"Dave & Buster's","phone":"4805388956","twitter":"daveandbusters","address":"21001 N Tatum Blvd Ste 44-1400","lat":33.676656027272266,"lng":-111.97324597659097,"neighborhood":"Desert Ridge","city_fetched":"Phoenix","state":"AZ","country":"United States","canonicalUrl":"https://foursquare.com/v/dave--busters/4739879df964a520524c1fe3","category":"Arcade","checkinsCount":8208,"usersCount":4894,"tipCount":50,"visitsCount":9156,"url":"http://www.daveandbusters.com","tier":"","message":"","currency":"","rating":8.1},{"name":"Cucina Tagliani","phone":"6025472782","twitter":"cucinatagliani","address":"17045 N 59th Ave","lat":33.64016273376314,"lng":-112.18601707812284,"city_fetched":"Phoenix","state":"AZ","country":"United States","canonicalUrl":"https://foursquare.com/v/cucina-tagliani/4b8d3b4bf964a520cbee32e3","category":"Italian Restaurant","checkinsCount":1175,"usersCount":651,"tipCount":16,"visitsCount":1238,"url":"http://www.cucinatagliani.com","tier":2,"message":"Moderate","currency":"$","rating":8.1},{"name":"Different Pointe Of View","phone":"6028667500","address":"11111 N 7th St","lat":33.59171047772368,"lng":-112.06334159704507,"neighborhood":"North Mountain","city_fetched":"Phoenix","state":"AZ","country":"United States","canonicalUrl":"https://foursquare.com/v/different-pointe-of-view/413ba880f964a520471b1fe3","category":"Lounge","checkinsCount":1221,"usersCount":1307,"tipCount":28,"visitsCount":1567,"url":"http://www.differentpointeofview.com","tier":3,"message":"Expensive","currency":"$","rating":8.1},{"name":"Wrigley Mansion","phone":"6029554079","twitter":"wrigleymansion","address":"2501 E Telewa Trl","lat":33.52282836986901,"lng":-112.02681541442871,"neighborhood":"Camelback East","city_fetched":"Phoenix","state":"AZ","country":"United States","canonicalUrl":"https://foursquare.com/v/wrigley-mansion/4aa9bbadf964a520145520e3","category":"American Restaurant","checkinsCount":1833,"usersCount":1308,"tipCount":24,"visitsCount":2085,"url":"http://wrigleymansionclub.com","tier":4,"message":"Very Expensive","currency":"$","rating":8.1},{"name":"Dirty Blonde Tavern","lat":33.30492694170079,"lng":-111.92682680996666,"city_fetched":"Phoenix","state":"AZ","country":"United States","canonicalUrl":"https://foursquare.com/v/dirty-blonde-tavern/54bc211a498e567298417bc3","category":"Bar","checkinsCount":126,"usersCount":62,"tipCount":3,"visitsCount":174,"tier":"","message":"","currency":"","rating":8.1},{"name":"Zipps Sports Grill","phone":"6022661600","address":"1515 E Bethany Home Rd","lat":33.522971477977926,"lng":-112.04938888549805,"neighborhood":"Camelback East","city_fetched":"Phoenix","state":"AZ","country":"United States","canonicalUrl":"https://foursquare.com/v/zipps-sports-grill/4d9e33c20efda0934b2cac28","category":"Sports Bar","checkinsCount":6945,"usersCount":2376,"tipCount":32,"visitsCount":7852,"url":"http://www.zippssportsgrills.com","tier":1,"message":"Cheap","currency":"$","rating":8},{"name":"The Kettle Black","phone":"6026511185","address":"1 N 1st St #108","lat":33.44855403910907,"lng":-112.07246447075444,"neighborhood":"Copper Square","city_fetched":"Phoenix","state":"AZ","country":"United States","canonicalUrl":"https://foursquare.com/v/the-kettle-black/56909835498e8f20fd18ea73","category":"Pub","checkinsCount":348,"usersCount":242,"tipCount":1,"visitsCount":368,"url":"http://thekettleblackpub.com","tier":"","message":"","currency":"","rating":8},{"name":"Copper Blues Live!","phone":"4807195005","twitter":"copperbluesphx","address":"50 W Jefferson St","lat":33.44777645886856,"lng":-112.07391411387232,"neighborhood":"Copper Square","city_fetched":"Phoenix","state":"AZ","country":"United States","canonicalUrl":"https://foursquare.com/v/copper-blues-live/4dbcd5a493a08f9274c92550","category":"Rock Club","checkinsCount":9260,"usersCount":4763,"tipCount":68,"visitsCount":9401,"url":"http://www.copperblueslive.com","tier":"","message":"","currency":"","rating":8},{"name":"Charley's Place","phone":"6024391668","twitter":"charleysplacerb","address":"4324 W Thunderbird Rd","lat":33.61125235593483,"lng":-112.15371878955841,"neighborhood":"North Mountain","city_fetched":"Phoenix","state":"AZ","country":"United States","canonicalUrl":"https://foursquare.com/v/charleys-place/4a4be1fbf964a520d2ac1fe3","category":"Sports Bar","checkinsCount":1354,"usersCount":317,"tipCount":13,"visitsCount":1640,"url":"http://charleysplace-hub.com","tier":"","message":"","currency":"","rating":8},{"name":"Huss Brewing Company","phone":"4802647611","address":"1520 W Mineral Rd #102","lat":33.356703588598435,"lng":-111.96507810568085,"city_fetched":"Phoenix","state":"AZ","country":"United States","canonicalUrl":"https://foursquare.com/v/huss-brewing-company/5216bbac11d297716747a39f","category":"Brewery","checkinsCount":803,"usersCount":427,"tipCount":16,"visitsCount":1174,"url":"http://www.hussbrewing.com","tier":1,"message":"Cheap","currency":"$","rating":8},{"name":"Gallagher's","phone":"6024370981","twitter":"gallaghersaz","address":"3220 E Baseline Rd","lat":33.37882862925243,"lng":-112.0115438004519,"neighborhood":"South Mountain","city_fetched":"Phoenix","state":"AZ","country":"United States","canonicalUrl":"https://foursquare.com/v/gallaghers/4a9c85b4f964a520753720e3","category":"Sports Bar","checkinsCount":6600,"usersCount":1760,"tipCount":30,"visitsCount":7760,"url":"http://gallaghersaz.com","tier":1,"message":"Cheap","currency":"$","rating":8},{"name":"George & Dragon","phone":"6022410018","address":"4240 N Central Ave","lat":33.497738613450146,"lng":-112.07401890731799,"city_fetched":"Phoenix","state":"AZ","country":"United States","canonicalUrl":"https://foursquare.com/v/george--dragon/413ba880f964a520741b1fe3","category":"Pub","checkinsCount":10443,"usersCount":3559,"tipCount":75,"visitsCount":11287,"url":"http://www.georgeanddragonpub.net","tier":"","message":"","currency":"","rating":8},{"name":"Dubina Brewing Co.","phone":"6234127770","address":"17035 N 67th Ave Ste 6","lat":33.63985556384038,"lng":-112.20235231623846,"city_fetched":"Phoenix","state":"AZ","country":"United States","canonicalUrl":"https://foursquare.com/v/dubina-brewing-co/53fbd80f498ea0a7aad35e27","category":"Brewery","checkinsCount":540,"usersCount":372,"tipCount":11,"visitsCount":842,"url":"http://dubinabrewing.com","tier":"","message":"","currency":"","rating":8},{"name":"Gordon Biersch Brewery Restaurant","phone":"6238774300","twitter":"gordon_biersch","address":"6915 N 95th Ave","lat":33.53613666146989,"lng":-112.26366932279159,"city_fetched":"Phoenix","state":"AZ","country":"United States","canonicalUrl":"https://foursquare.com/v/gordon-biersch-brewery-restaurant/4bc76c3f2f94d13adfe5117f","category":"Brewery","checkinsCount":3463,"usersCount":2931,"tipCount":44,"visitsCount":4582,"url":"http://gordonbiersch.com","tier":2,"message":"Moderate","currency":"$","rating":8},{"name":"Los Diablos Bar-Bistro","lat":33.49496608386314,"lng":-112.05944093266493,"city_fetched":"Phoenix","state":"AZ","country":"United States","canonicalUrl":"https://foursquare.com/v/los-diablos-barbistro/552f2a11498e3b259f2268d6","category":"Gay Bar","checkinsCount":229,"usersCount":189,"tipCount":8,"visitsCount":455,"tier":"","message":"","currency":"","rating":8},{"name":"Blasted Barley Beer Co.","phone":"4809675887","twitter":"blastedbarley","address":"404 S Mill Ave","lat":33.426677834570704,"lng":-111.94100618362427,"neighborhood":"Downtown Tempe","city_fetched":"Phoenix","state":"AZ","country":"United States","canonicalUrl":"https://foursquare.com/v/blasted-barley-beer-co/546104a3498ef9c2ceeeeed8","category":"Brewery","checkinsCount":1118,"usersCount":899,"tipCount":8,"visitsCount":1595,"url":"http://www.blastedbarley.com","tier":"","message":"","currency":"","rating":8},{"name":"Zipps Sports Grill","phone":"4809485544","twitter":"zippssports","address":"6501 E Greenway Pkwy","lat":33.625215266532194,"lng":-111.94037854671478,"city_fetched":"Phoenix","state":"AZ","country":"United States","canonicalUrl":"https://foursquare.com/v/zipps-sports-grill/4a5fd95df964a52054c01fe3","category":"Sports Bar","checkinsCount":8654,"usersCount":2736,"tipCount":55,"visitsCount":9742,"url":"http://www.zippssportsgrills.com","tier":1,"message":"Cheap","currency":"$","rating":8},{"name":"Buffalo Wild Wings","phone":"4808589464","twitter":"bwwings","address":"705 S Rural Rd Ste 101","lat":33.42356731537216,"lng":-111.92587047815323,"city_fetched":"Phoenix","state":"AZ","country":"United States","canonicalUrl":"https://foursquare.com/v/buffalo-wild-wings/4c7d9371b7fbef3be3833514","category":"Wings Joint","checkinsCount":11070,"usersCount":6499,"tipCount":71,"visitsCount":12901,"url":"http://www.buffalowildwings.com","tier":2,"message":"Moderate","currency":"$","rating":7.9},{"name":"EVO","phone":"4802659814","twitter":"evoscottsdale","address":"4175 N Goldwater Blvd","lat":33.4966639,"lng":-111.9299885,"neighborhood":"Downtown Scottsdale","city_fetched":"Phoenix","state":"AZ","country":"United States","canonicalUrl":"https://foursquare.com/evoscottsdale","category":"Italian Restaurant","checkinsCount":1071,"usersCount":960,"tipCount":17,"visitsCount":1679,"url":"http://evoscottsdale.com/menu","tier":2,"message":"Moderate","currency":"$","rating":7.9},{"name":"Gordon Biersch Brewery Restaurant","phone":"4803429860","twitter":"gordon_biersch","address":"18545 N Allied Way","lat":33.65442338671105,"lng":-111.92909717559814,"city_fetched":"Phoenix","state":"AZ","country":"United States","canonicalUrl":"https://foursquare.com/v/gordon-biersch-brewery-restaurant/4ba6d626f964a5208f7239e3","category":"American Restaurant","checkinsCount":4514,"usersCount":2088,"tipCount":38,"visitsCount":5131,"url":"http://gordonbiersch.com","tier":2,"message":"Moderate","currency":"$","rating":7.9},{"name":"Padre Murphy's","phone":"6025479406","twitter":"azpadremurphys","address":"4338 W Bell Rd","lat":33.64010002640766,"lng":-112.15400405062208,"city_fetched":"Phoenix","state":"AZ","country":"United States","canonicalUrl":"https://foursquare.com/v/padre-murphys/413ba880f964a520e21b1fe3","category":"Sports Bar","checkinsCount":3497,"usersCount":1661,"tipCount":36,"visitsCount":4210,"url":"http://www.padremurphy.com","tier":2,"message":"Moderate","currency":"$","rating":7.9},{"name":"Half Moon Sports Grill","phone":"6029936600","twitter":"halfmoonaz","address":"288 E Greenway Pkwy","lat":33.63695111416308,"lng":-112.07018221824652,"city_fetched":"Phoenix","state":"AZ","country":"United States","canonicalUrl":"https://foursquare.com/v/half-moon-sports-grill/41463480f964a520b71c1fe3","category":"Sports Bar","checkinsCount":6834,"usersCount":1807,"tipCount":46,"visitsCount":7296,"url":"http://halfmoonsportsgrill.com","tier":2,"message":"Moderate","currency":"$","rating":7.9},{"name":"Audi Quattro Lounge","address":"401 E Jefferson St","lat":33.445663,"lng":-112.066777125,"neighborhood":"Copper Square","city_fetched":"Phoenix","state":"AZ","country":"United States","canonicalUrl":"https://foursquare.com/v/audi-quattro-lounge/4dbdcb305da3ff58ec6c24b9","category":"Lounge","checkinsCount":1042,"usersCount":479,"tipCount":5,"visitsCount":1052,"tier":"","message":"","currency":"","rating":7.9},{"name":"FEZ","phone":"6022878700","twitter":"fezoncentral","address":"105 W Portland St","lat":33.49161620306242,"lng":-112.07343220710754,"city_fetched":"Phoenix","state":"AZ","country":"United States","canonicalUrl":"https://foursquare.com/v/fez/44c8c318f964a520ed351fe3","category":"American Restaurant","checkinsCount":11050,"usersCount":4965,"tipCount":126,"visitsCount":12153,"url":"http://www.fezoncentral.com","tier":2,"message":"Moderate","currency":"$","rating":7.9},{"name":"Nook","phone":"6026511390","twitter":"nookkitchen","address":"3623 E Indian School Rd","lat":33.4948163487333,"lng":-112.00328237896453,"neighborhood":"Camelback East","city_fetched":"Phoenix","state":"AZ","country":"United States","canonicalUrl":"https://foursquare.com/v/nook/5249c4ac498ee1e66ff45284","category":"American Restaurant","checkinsCount":425,"usersCount":313,"tipCount":17,"visitsCount":484,"url":"http://www.nookkitchen.com","tier":2,"message":"Moderate","currency":"$","rating":7.8},{"name":"Bleacher's Sports Grill","phone":"4807594034","address":"15410 S Mountain Pkwy #109","lat":33.306986207463126,"lng":-111.99846175020159,"neighborhood":"Mountain Park Ranch","city_fetched":"Phoenix","state":"AZ","country":"United States","canonicalUrl":"https://foursquare.com/v/bleachers-sports-grill/4b496fd7f964a520c66f26e3","category":"Bar","checkinsCount":2170,"usersCount":550,"tipCount":18,"visitsCount":2566,"url":"http://bleacherssportsgrill.com","tier":2,"message":"Moderate","currency":"$","rating":7.8},{"name":"Robert Emmet's Food & Spirits","phone":"6234351770","twitter":"robertemmetsaz","address":"6411 N 59th Ave","lat":33.5306489,"lng":-112.18584,"city_fetched":"Phoenix","state":"AZ","country":"United States","canonicalUrl":"https://foursquare.com/v/robert-emmets-food--spirits/4b2da880f964a5201cda24e3","category":"Bar","checkinsCount":1034,"usersCount":178,"tipCount":14,"visitsCount":1197,"url":"http://robertemmetsaz.com","tier":"","message":"","currency":"","rating":7.6}]