[{"name":"American Legion","phone":"6052247681","address":"520 S Pierre St","lat":44.36378275977468,"lng":-100.35725391872343,"city_fetched":"Pierre,US","state":"SD","country":"United States","canonicalUrl":"https://foursquare.com/v/american-legion/4bbdfd2cf57ba593ccb8aeb9","categoryId":"4bf58dd8d48988d116941735","category":"Bar","checkinsCount":540,"usersCount":161,"tipCount":6,"visitsCount":681,"tier":"","message":"","currency":"","rating":7.5},{"name":"Bob's Lounge","phone":"6052249720","address":"114 E Dakota Ave","lat":44.36603241121096,"lng":-100.3556227684021,"city_fetched":"Pierre,US","state":"SD","country":"United States","canonicalUrl":"https://foursquare.com/v/bobs-lounge/4c2ec32666e40f4711e9c08b","categoryId":"4bf58dd8d48988d118941735","category":"Dive Bar","checkinsCount":422,"usersCount":127,"tipCount":4,"visitsCount":476,"tier":"","message":"","currency":"","rating":7.4},{"name":"Jake's Good Times Place","phone":"6059450485","address":"620 S Cleveland Ave","lat":44.35798416236969,"lng":-100.31352683901787,"city_fetched":"Pierre,US","state":"SD","country":"United States","canonicalUrl":"https://foursquare.com/v/jakes-good-times-place/4be741f3bcef2d7fc81306e5","categoryId":"4bf58dd8d48988d116941735","category":"Bar","checkinsCount":566,"usersCount":200,"tipCount":4,"visitsCount":702,"tier":2,"message":"Moderate","currency":"$","rating":6.9},{"name":"Pub 34","address":"4251 SD Highway 34","lat":44.35271324607984,"lng":-100.29765976580299,"city_fetched":"Pierre,US","state":"SD","country":"United States","canonicalUrl":"https://foursquare.com/v/pub-34/4b60eb1ff964a52063012ae3","categoryId":"4bf58dd8d48988d11b941735","category":"Pub","checkinsCount":484,"usersCount":156,"tipCount":6,"visitsCount":537,"tier":"","message":"","currency":"","rating":6.4},{"name":"Longbranch Saloon","phone":"6052246166","address":"351 S Pierre St","lat":44.366238413225766,"lng":-100.35501150350468,"city_fetched":"Pierre,US","state":"SD","country":"United States","canonicalUrl":"https://foursquare.com/v/longbranch-saloon/4b5f5ecff964a52082b629e3","categoryId":"4bf58dd8d48988d116941735","category":"Bar","checkinsCount":438,"usersCount":200,"tipCount":5,"visitsCount":447,"tier":"","message":"","currency":"","rating":6.4}]