[{"name":"Ryder Cup Lounge at Pinehurst Resort","phone":"9102358320","twitter":"pinehurstresort","address":"80 Carolina Vista Drive","lat":35.19571846516826,"lng":-79.47359918632952,"city_fetched":"Pinehurst","state":"NC","country":"United States","canonicalUrl":"https://foursquare.com/v/ryder-cup-lounge-at-pinehurst-resort/4bc333ae4cdfc9b652f89621","category":"Caf√©","checkinsCount":692,"usersCount":388,"tipCount":7,"visitsCount":700,"url":"http://www.pinehurst.com/pinehurst-dining.php","tier":"","message":"","currency":"","rating":8.3},{"name":"Dugan's Pub","phone":"9192953400","address":"2 Market Sq","lat":35.195636,"lng":-79.469068,"city_fetched":"Pinehurst","state":"NC","country":"United States","canonicalUrl":"https://foursquare.com/v/dugans-pub/4b32c983f964a520f21325e3","category":"Pub","checkinsCount":928,"usersCount":783,"tipCount":10,"visitsCount":1072,"url":"http://duganspub.net","tier":"","message":"","currency":"","rating":8},{"name":"Hickory Tavern","phone":"9102353847","address":"9735 Us 15 501 Hwy.","lat":35.186765,"lng":-79.44161703333333,"city_fetched":"Pinehurst","state":"NC","country":"United States","canonicalUrl":"https://foursquare.com/v/hickory-tavern/4bff2e57daf9c9b658eef9ef","category":"Sports Bar","checkinsCount":2580,"usersCount":1246,"tipCount":36,"visitsCount":3214,"url":"http://www.thehickorytavern.com","tier":2,"message":"Moderate","currency":"$","rating":7.9},{"name":"Drum & Quill Public House","phone":"9102953193","twitter":"drumandquill","address":"40 Chinquapin Rd","lat":35.19509,"lng":-79.46961,"city_fetched":"Pinehurst","state":"NC","country":"United States","canonicalUrl":"https://foursquare.com/v/drum--quill-public-house/53b4aabf498e874bf3461dd5","category":"Pub","checkinsCount":91,"usersCount":95,"tipCount":4,"visitsCount":113,"url":"http://www.drumandquill.com/home.aspx","tier":2,"message":"Moderate","currency":"$","rating":7.9},{"name":"The Tavern at Pinehurst Resort's Holly Inn","phone":"9102358434","twitter":"pinehurstresort","address":"155 Cherokee Road","lat":35.19579445337617,"lng":-79.46794126748973,"city_fetched":"Pinehurst","state":"NC","country":"United States","canonicalUrl":"https://foursquare.com/v/the-tavern-at-pinehurst-resorts-holly-inn/4bc332c34cdfc9b601f79621","category":"Gastropub","checkinsCount":172,"usersCount":133,"tipCount":5,"visitsCount":173,"url":"http://www.pinehurst.com/pinehurst-nc-restaurants.php","tier":2,"message":"Moderate","currency":"$","rating":7.6}]