[{"name":"Moe's Tavern","phone":"4132436697","address":"10 Railroad St","lat":42.30579373333333,"lng":-73.25001239776611,"city_fetched":"Pittsfield,US","state":"MA","country":"United States","canonicalUrl":"https://foursquare.com/v/moes-tavern/4b3e57ebf964a5209c9b25e3","categoryId":"4bf58dd8d48988d118941735","category":"Dive Bar","checkinsCount":2628,"usersCount":535,"tipCount":16,"visitsCount":2727,"url":"http://nocoorslight.com","tier":2,"message":"Moderate","currency":"$","rating":8.3},{"name":"Thistle and Mirth","address":"44 West St","lat":42.44858740113085,"lng":-73.25495357901013,"city_fetched":"Pittsfield,US","state":"MA","country":"United States","canonicalUrl":"https://foursquare.com/v/thistle-and-mirth/4f837939e4b09e5c4d917167","categoryId":"4bf58dd8d48988d116941735","category":"Bar","checkinsCount":738,"usersCount":191,"tipCount":7,"visitsCount":876,"tier":"","message":"","currency":"","rating":8.3},{"name":"Old Forge Restaurant","phone":"4134426797","address":"125 N Main St","lat":42.52239903,"lng":-73.22860246666667,"city_fetched":"Pittsfield,US","state":"MA","country":"United States","canonicalUrl":"https://foursquare.com/v/old-forge-restaurant/4b72053af964a5207e6a2de3","categoryId":"4bf58dd8d48988d11b941735","category":"Pub","checkinsCount":3513,"usersCount":1301,"tipCount":39,"visitsCount":4022,"tier":2,"message":"Moderate","currency":"$","rating":8.3},{"name":"Methuselah Bar and Lounge","phone":"4133472888","address":"391 North Street","lat":42.454155,"lng":-73.252645,"neighborhood":"Downtown Pittsfield","city_fetched":"Pittsfield,US","state":"MA","country":"United States","canonicalUrl":"https://foursquare.com/v/methuselah-bar-and-lounge/54d6e631498e254c1e91f106","categoryId":"4bf58dd8d48988d121941735","category":"Lounge","checkinsCount":96,"usersCount":120,"tipCount":3,"visitsCount":221,"url":"http://www.methuselahbarandlounge.com","tier":"","message":"","currency":"","rating":8.2},{"name":"Olde Heritage Tavern","phone":"4136370884","address":"12 Housatonic St","lat":42.357809,"lng":-73.283881,"city_fetched":"Pittsfield,US","state":"MA","country":"United States","canonicalUrl":"https://foursquare.com/v/olde-heritage-tavern/4b69b26ff964a5204dae2be3","categoryId":"4bf58dd8d48988d11b941735","category":"Pub","checkinsCount":2591,"usersCount":832,"tipCount":16,"visitsCount":2833,"url":"http://theheritagetavern.com","tier":2,"message":"Moderate","currency":"$","rating":7.9},{"name":"The Lion's Den","address":"28 Main St","lat":42.282075,"lng":-73.31171123333333,"city_fetched":"Pittsfield,US","state":"MA","country":"United States","canonicalUrl":"https://foursquare.com/v/the-lions-den/4b7859aef964a52090c72ee3","categoryId":"4bf58dd8d48988d11b941735","category":"Pub","checkinsCount":491,"usersCount":350,"tipCount":8,"visitsCount":492,"tier":"","message":"","currency":"","rating":7.8},{"name":"Sideline","phone":"4134997337","address":"163 4th St","lat":42.44893806258961,"lng":-73.24508740453481,"city_fetched":"Pittsfield,US","state":"MA","country":"United States","canonicalUrl":"https://foursquare.com/v/sideline/4c26659ca852c9285c96e66c","categoryId":"4bf58dd8d48988d116941735","category":"Bar","checkinsCount":200,"usersCount":63,"tipCount":2,"visitsCount":204,"tier":"","message":"","currency":"","rating":7.6},{"name":"Wandering Star Craft Brewery","phone":"4137177041","twitter":"wanderingstarcb","address":"11 Gifford St","lat":42.4567436832592,"lng":-73.21164974761797,"city_fetched":"Pittsfield,US","state":"MA","country":"United States","canonicalUrl":"https://foursquare.com/v/wandering-star-craft-brewery/4e470390887781a619b37264","categoryId":"50327c8591d4c4b30a586d5d","category":"Brewery","checkinsCount":98,"usersCount":55,"tipCount":3,"visitsCount":103,"url":"http://wanderingstarbrewing.com","tier":"","message":"","currency":"","rating":7.4},{"name":"Patrick's Pub","phone":"4134991994","address":"26 Bank Row","lat":42.448159598347594,"lng":-73.25350794977503,"city_fetched":"Pittsfield,US","state":"MA","country":"United States","canonicalUrl":"https://foursquare.com/v/patricks-pub/4b0dd681f964a520165123e3","categoryId":"4bf58dd8d48988d11b941735","category":"Pub","checkinsCount":1579,"usersCount":715,"tipCount":24,"visitsCount":1714,"url":"http://patricksinpittsfield.com","tier":2,"message":"Moderate","currency":"$","rating":7.3},{"name":"Pittsfield Elks Lodge","phone":"4134479243","address":"27 Union St","lat":42.453391901070404,"lng":-73.253346683779,"city_fetched":"Pittsfield,US","state":"MA","country":"United States","canonicalUrl":"https://foursquare.com/v/pittsfield-elks-lodge/4c8aa8fa6418a14301e8e1ce","categoryId":"4bf58dd8d48988d116941735","category":"Bar","checkinsCount":1161,"usersCount":101,"tipCount":4,"visitsCount":1257,"tier":"","message":"","currency":"","rating":6.9},{"name":"The beer diviner Tap Room And Market","address":"15950 NY Route 22","lat":42.54802684586196,"lng":-73.36839725059903,"city_fetched":"Pittsfield,US","state":"NY","country":"United States","canonicalUrl":"https://foursquare.com/v/the-beer-diviner-tap-room-and-market/51d9dcf5498edf6dba1a17a9","categoryId":"50327c8591d4c4b30a586d5d","category":"Brewery","checkinsCount":67,"usersCount":54,"tipCount":3,"visitsCount":69,"tier":"","message":"","currency":"","rating":6.9},{"name":"John Harvard's Brew House","phone":"4137385500","address":"37 Corey Rd","lat":42.55522997925517,"lng":-73.29176902770996,"city_fetched":"Pittsfield,US","state":"MA","country":"United States","canonicalUrl":"https://foursquare.com/v/john-harvards-brew-house/4c8c1b3055fba0938fa25cab","categoryId":"50327c8591d4c4b30a586d5d","category":"Brewery","checkinsCount":697,"usersCount":461,"tipCount":8,"visitsCount":736,"url":"http://www.johnharvards.com/index.shtml","tier":"","message":"","currency":"","rating":6.2},{"name":"Matt Reilly's Pub","phone":"4134479780","address":"750 S Main St","lat":42.494468092918396,"lng":-73.238746,"city_fetched":"Pittsfield,US","state":"MA","country":"United States","canonicalUrl":"https://foursquare.com/v/matt-reillys-pub/4bf978385efe2d7fb8476c34","categoryId":"4bf58dd8d48988d11b941735","category":"Pub","checkinsCount":489,"usersCount":333,"tipCount":5,"visitsCount":565,"tier":"","message":"","currency":"","rating":6.1},{"name":"Christiansen' Tavern","lat":42.555154228773105,"lng":-73.2902620157821,"city_fetched":"Pittsfield,US","state":"MA","country":"United States","canonicalUrl":"https://foursquare.com/v/christiansen-tavern/4c850f1947cc224bd74b9d9f","categoryId":"4bf58dd8d48988d11d941735","category":"Sports Bar","checkinsCount":662,"usersCount":377,"tipCount":15,"visitsCount":667,"tier":"","message":"","currency":"","rating":5.9},{"name":"Underground Pub","phone":"4134992000","address":"1 West St","lat":42.447942508912014,"lng":-73.25476351673959,"city_fetched":"Pittsfield,US","state":"MA","country":"United States","canonicalUrl":"https://foursquare.com/v/underground-pub/4bbe777b30c99c7482df5311","categoryId":"4bf58dd8d48988d1d5941735","category":"Hotel Bar","checkinsCount":334,"usersCount":142,"tipCount":6,"visitsCount":349,"tier":"","message":"","currency":"","rating":5.6}]