[{"name":"5th Street Bar & Grill","lat":37.41189382894955,"lng":-94.70568533528792,"city_fetched":"Pittsburg,US","state":"Kansas","country":"United States","canonicalUrl":"https://foursquare.com/v/5th-street-bar--grill/4d0c35341f6bf04d8d4e7631","categoryId":"4bf58dd8d48988d116941735","category":"Bar","checkinsCount":812,"usersCount":262,"tipCount":5,"visitsCount":905,"tier":"","message":"","currency":"","rating":8},{"name":"Pickled Pete's Bar & Grill","phone":"6202313391","address":"303 E McKay St","lat":37.45513561642601,"lng":-94.68871593475342,"city_fetched":"Pittsburg,US","state":"KS","country":"United States","canonicalUrl":"https://foursquare.com/v/pickled-petes-bar--grill/4d0ef040303e59418bc0e8c8","categoryId":"4bf58dd8d48988d116941735","category":"Bar","checkinsCount":840,"usersCount":55,"tipCount":2,"visitsCount":847,"tier":"","message":"","currency":"","rating":7.1},{"name":"The Break","phone":"6203086480","address":"7th and Broadway","lat":37.41348111895738,"lng":-94.70551866983384,"city_fetched":"Pittsburg,US","state":"KS","country":"United States","canonicalUrl":"https://foursquare.com/v/the-break/4b91f25ff964a52099e033e3","categoryId":"4bf58dd8d48988d116941735","category":"Bar","checkinsCount":687,"usersCount":81,"tipCount":3,"visitsCount":709,"tier":"","message":"","currency":"","rating":6.8},{"name":"Holiday Lanes","phone":"6202312222","address":"2406 N Broadway St","lat":37.42969189425988,"lng":-94.70474595481204,"city_fetched":"Pittsburg,US","state":"KS","country":"United States","canonicalUrl":"https://foursquare.com/v/holiday-lanes/4d27ed798292236abdab14bb","categoryId":"4bf58dd8d48988d116941735","category":"Bar","checkinsCount":489,"usersCount":206,"tipCount":3,"visitsCount":534,"tier":2,"message":"Moderate","currency":"$","rating":6.5},{"name":"505","address":"505 N Broadway St","lat":37.41226948,"lng":-94.7049754858017,"city_fetched":"Pittsburg,US","state":"KS","country":"United States","canonicalUrl":"https://foursquare.com/v/505/4ba8fe0ef964a5206d013ae3","categoryId":"4bf58dd8d48988d116941735","category":"Bar","checkinsCount":796,"usersCount":298,"tipCount":2,"visitsCount":919,"tier":"","message":"","currency":"","rating":6}]