[{"name":"Piper's Pub","phone":"4123813977","twitter":"piperspub","address":"1828 E Carson St","lat":40.4286769,"lng":-79.979364,"neighborhood":"Southside Flats","city_fetched":"Pittsburgh","state":"PA","country":"United States","canonicalUrl":"https://foursquare.com/v/pipers-pub/4ad4c00df964a52099ed20e3","category":"Pub","checkinsCount":11844,"usersCount":3142,"tipCount":77,"visitsCount":12346,"url":"http://piperspub.com","tier":2,"message":"Moderate","currency":"$","rating":9.3},{"name":"Meat and Potatoes","phone":"4123257007","twitter":"4meatnpotatoes","address":"649 Penn Ave","lat":40.442974849342775,"lng":-80.00082159749519,"neighborhood":"Cultural District","city_fetched":"Pittsburgh","state":"PA","country":"United States","canonicalUrl":"https://foursquare.com/v/meat-and-potatoes/4dd4531c183859a589a026a0","category":"Gastropub","checkinsCount":7585,"usersCount":4991,"tipCount":159,"visitsCount":8228,"url":"http://www.meatandpotatoespgh.com","tier":2,"message":"Moderate","currency":"$","rating":9.3},{"name":"Butcher and the Rye","phone":"4123912752","twitter":"butcherntherye","address":"212 6th St","lat":40.442301173765706,"lng":-80.00196933746338,"neighborhood":"Cultural District","city_fetched":"Pittsburgh","state":"PA","country":"United States","canonicalUrl":"https://foursquare.com/v/butcher-and-the-rye/52669e05498e770e2217fa7f","category":"American Restaurant","checkinsCount":2212,"usersCount":1620,"tipCount":45,"visitsCount":2436,"url":"http://butcherandtherye.com","tier":3,"message":"Expensive","currency":"$","rating":9.2},{"name":"Voodoo Homestead","phone":"4123688973","address":"205 E 9th Ave","lat":40.406605545968425,"lng":-79.91017202732155,"neighborhood":"Homestead","city_fetched":"Pittsburgh","state":"PA","country":"United States","canonicalUrl":"https://foursquare.com/v/voodoo-homestead/54a81c5b498eca72326d85f2","category":"Brewery","checkinsCount":702,"usersCount":583,"tipCount":7,"visitsCount":1173,"url":"http://voodoobrewery.com","tier":"","message":"","currency":"","rating":9.2},{"name":"Mad Mex","phone":"4123450185","twitter":"madmexshadyside","address":"220 S Highland Ave","lat":40.45829537688149,"lng":-79.92513743126499,"neighborhood":"Shadyside","city_fetched":"Pittsburgh","state":"PA","country":"United States","canonicalUrl":"https://foursquare.com/v/mad-mex/4d9b117fe086a35dad01c8ad","category":"Mexican Restaurant","checkinsCount":14953,"usersCount":4963,"tipCount":78,"visitsCount":16474,"url":"http://bit.ly/MMShadyside","tier":2,"message":"Moderate","currency":"$","rating":9.1},{"name":"Grist House Craft Brewery","phone":"4124471442","twitter":"gristhouse","address":"10 Sherman Street","lat":40.4787061441046,"lng":-79.97207765022273,"city_fetched":"Pittsburgh","state":"PA","country":"United States","canonicalUrl":"https://foursquare.com/v/grist-house-craft-brewery/5334e0b2498e5a330d2e2ccc","category":"Brewery","checkinsCount":1071,"usersCount":733,"tipCount":14,"visitsCount":1691,"url":"http://gristhousebrewing.com","tier":"","message":"","currency":"","rating":9.1},{"name":"Fat Head's Saloon","phone":"4124317433","twitter":"fatheadspgh","address":"1805 E Carson St","lat":40.428857731617356,"lng":-79.98011738061905,"neighborhood":"Southside Flats","city_fetched":"Pittsburgh","state":"PA","country":"United States","canonicalUrl":"https://foursquare.com/v/fat-heads-saloon/4b0b22a0f964a5207c2d23e3","category":"Bar","checkinsCount":22321,"usersCount":9394,"tipCount":182,"visitsCount":24150,"url":"http://fatheads.com","tier":2,"message":"Moderate","currency":"$","rating":9.1},{"name":"D's Six Pax & Dogz","phone":"4122414666","twitter":"ds6pax","address":"1118 S Braddock Ave","lat":40.43209787762923,"lng":-79.89366173744202,"city_fetched":"Pittsburgh","state":"PA","country":"United States","canonicalUrl":"https://foursquare.com/v/ds-six-pax--dogz/4ad8bb2df964a520211421e3","category":"Hot Dog Joint","checkinsCount":9020,"usersCount":2537,"tipCount":69,"visitsCount":9848,"url":"http://www.ds6pax.com","tier":1,"message":"Cheap","currency":"$","rating":9.1},{"name":"The Church Brew Works","phone":"4126888200","twitter":"churchbrewworks","address":"3525 Liberty Ave","lat":40.46205825582471,"lng":-79.96442914009094,"neighborhood":"Lower Lawrenceville","city_fetched":"Pittsburgh","state":"PA","country":"United States","canonicalUrl":"https://foursquare.com/v/the-church-brew-works/4ad4c00df964a52085ed20e3","category":"Brewery","checkinsCount":14849,"usersCount":9948,"tipCount":189,"visitsCount":16770,"url":"http://www.churchbrew.com","tier":2,"message":"Moderate","currency":"$","rating":9},{"name":"Park House","phone":"4122242273","address":"403 E Ohio St","lat":40.45328962606806,"lng":-80.0014659473303,"neighborhood":"Allegheny Center","city_fetched":"Pittsburgh","state":"PA","country":"United States","canonicalUrl":"https://foursquare.com/v/park-house/4b11e128f964a5206b8623e3","category":"Bar","checkinsCount":1909,"usersCount":764,"tipCount":18,"visitsCount":2177,"url":"http://parkhousepgh.com","tier":1,"message":"Cheap","currency":"$","rating":9},{"name":"Bar Marco","phone":"4124711900","twitter":"barmarcopgh","address":"2216 Penn Ave","lat":40.45255986796696,"lng":-79.9816691231595,"neighborhood":"Strip District","city_fetched":"Pittsburgh","state":"PA","country":"United States","canonicalUrl":"https://foursquare.com/v/bar-marco/4f039b6329c2b9a3ed4e07ce","category":"Cocktail Bar","checkinsCount":2339,"usersCount":1292,"tipCount":36,"visitsCount":2585,"url":"http://www.barmarcopgh.com","tier":2,"message":"Moderate","currency":"$","rating":9},{"name":"North Shore","address":"North Shore","lat":40.44696318657098,"lng":-80.01010960236307,"neighborhood":"Northshore","city_fetched":"Pittsburgh","state":"PA","country":"United States","canonicalUrl":"https://foursquare.com/v/north-shore/4bf6b8c8c07c9c74ba7cbbef","category":"Harbor / Marina","checkinsCount":8458,"usersCount":1953,"tipCount":7,"visitsCount":8640,"tier":"","message":"","currency":"","rating":9},{"name":"Insurrection AleWorks","address":"1635 E Railroad St","lat":40.392488027306996,"lng":-80.08733458254652,"city_fetched":"Pittsburgh","state":"PA","country":"United States","canonicalUrl":"https://foursquare.com/v/insurrection-aleworks/565a2301498e8628200d9dea","category":"Brewery","checkinsCount":212,"usersCount":212,"tipCount":7,"visitsCount":391,"url":"http://www.insurrectionaleworks.com","tier":"","message":"","currency":"","rating":9},{"name":"Brew Gentlemen","phone":"4128715075","twitter":"brewgentlemen","address":"512 Braddock Ave","lat":40.40427286338226,"lng":-79.87014412879944,"neighborhood":"Braddock","city_fetched":"Pittsburgh","state":"PA","country":"United States","canonicalUrl":"https://foursquare.com/v/brew-gentlemen/4fd18647c2ee933d58dbe8de","category":"Brewery","checkinsCount":1437,"usersCount":824,"tipCount":14,"visitsCount":2215,"url":"http://brewgentlemen.com","tier":2,"message":"Moderate","currency":"$","rating":8.9},{"name":"Pittsburgh Winery","phone":"4125661000","twitter":"pghwinery","address":"2815 Penn Ave","lat":40.45707463071792,"lng":-79.97526794672011,"neighborhood":"Strip District","city_fetched":"Pittsburgh","state":"PA","country":"United States","canonicalUrl":"https://foursquare.com/pghwinery","category":"Winery","checkinsCount":437,"usersCount":429,"tipCount":5,"visitsCount":569,"url":"http://www.pghwinery.com","tier":"","message":"","currency":"","rating":8.9},{"name":"Soba","phone":"4123625656","twitter":"soba_pittsburgh","address":"5847 Ellsworth Ave","lat":40.456961,"lng":-79.929584,"neighborhood":"Shadyside","city_fetched":"Pittsburgh","state":"PA","country":"United States","canonicalUrl":"https://foursquare.com/v/soba/4ad4c00df964a5208fed20e3","category":"Asian Restaurant","checkinsCount":2684,"usersCount":1668,"tipCount":41,"visitsCount":2999,"url":"http://www.bigburrito.com/soba/?utm_source=social&utm_medium=foursquare&utm_campaign=lunametrics","tier":2,"message":"Moderate","currency":"$","rating":8.9},{"name":"Primanti Bros.","phone":"4122632142","twitter":"primantibros","address":"46 18th Street","lat":40.45074828584748,"lng":-79.98544861634427,"neighborhood":"Strip District","city_fetched":"Pittsburgh","state":"PA","country":"United States","canonicalUrl":"https://foursquare.com/v/primanti-bros/4ad4c00df964a5207fed20e3","category":"Sandwich Place","checkinsCount":13849,"usersCount":11415,"tipCount":187,"visitsCount":15181,"url":"http://t.co/PoYRL50T3L","tier":1,"message":"Cheap","currency":"$","rating":8.9},{"name":"Burgatory","phone":"4127811456","twitter":"burgatorybar","address":"932 Freeport Rd","lat":40.48903116743596,"lng":-79.8929214477539,"city_fetched":"Pittsburgh","state":"PA","country":"United States","canonicalUrl":"https://foursquare.com/v/burgatory/4d38d219928c224ba46b5d1a","category":"Burger Joint","checkinsCount":9574,"usersCount":4952,"tipCount":133,"visitsCount":10504,"url":"http://www.burgatorybar.com","tier":2,"message":"Moderate","currency":"$","rating":8.9},{"name":"James Street GastroPub & Speakeasy","phone":"4129043335","address":"422 Foreland St","lat":40.454391502233506,"lng":-80.00099087630416,"neighborhood":"North Side","city_fetched":"Pittsburgh","state":"PA","country":"United States","canonicalUrl":"https://foursquare.com/v/james-street-gastropub--speakeasy/4eeb79f5aa1f66e35b309b29","category":"Jazz Club","checkinsCount":2493,"usersCount":1608,"tipCount":31,"visitsCount":3158,"url":"http://www.jamesstreetgastropub.com","tier":"","message":"","currency":"","rating":8.9},{"name":"OTB Bicycle Cafe","phone":"4123813698","twitter":"otbbicyclecafe","address":"2518 E Carson St","lat":40.427636398572716,"lng":-79.96897494334496,"neighborhood":"Southside Flats","city_fetched":"Pittsburgh","state":"PA","country":"United States","canonicalUrl":"https://foursquare.com/v/otb-bicycle-cafe/4ad79e5bf964a520df0c21e3","category":"Bar","checkinsCount":10989,"usersCount":2529,"tipCount":71,"visitsCount":11787,"url":"http://www.otbbicyclecafe.com","tier":2,"message":"Moderate","currency":"$","rating":8.9},{"name":"Hough's","phone":"4125865944","twitter":"houghspgh","address":"563 Greenfield Ave","lat":40.42616463702737,"lng":-79.94021415710449,"neighborhood":"Greenfield","city_fetched":"Pittsburgh","state":"PA","country":"United States","canonicalUrl":"https://foursquare.com/v/houghs/4ad7afaaf964a520ab0d21e3","category":"Bar","checkinsCount":6382,"usersCount":1867,"tipCount":44,"visitsCount":7244,"url":"http://houghspgh.com","tier":2,"message":"Moderate","currency":"$","rating":8.9},{"name":"Acacia","phone":"4124881800","address":"2108 E Carson St","lat":40.428582,"lng":-79.975868,"neighborhood":"Southside Flats","city_fetched":"Pittsburgh","state":"PA","country":"United States","canonicalUrl":"https://foursquare.com/v/acacia/509c69c2e4b0872dbc1e646f","category":"Speakeasy","checkinsCount":1733,"usersCount":848,"tipCount":15,"visitsCount":2009,"url":"http://acaciacocktails.com","tier":2,"message":"Moderate","currency":"$","rating":8.9},{"name":"Arsenal Cider House","phone":"4126827699","twitter":"arsenalcider","address":"300 39th St","lat":40.465103,"lng":-79.960758,"neighborhood":"Lower Lawrenceville","city_fetched":"Pittsburgh","state":"PA","country":"United States","canonicalUrl":"https://foursquare.com/v/arsenal-cider-house/4c1d1d748b3aa5936e059a5f","category":"Distillery","checkinsCount":1898,"usersCount":1198,"tipCount":33,"visitsCount":2396,"url":"http://www.arsenalciderhouse.com","tier":"","message":"","currency":"","rating":8.9},{"name":"Dish Osteria and Bar","phone":"4123902012","address":"128 S 17th St","lat":40.42760204023871,"lng":-79.9822043792721,"neighborhood":"Southside Flats","city_fetched":"Pittsburgh","state":"PA","country":"United States","canonicalUrl":"https://foursquare.com/v/dish-osteria-and-bar/4ad4c00df964a520a1ed20e3","category":"Italian Restaurant","checkinsCount":1486,"usersCount":898,"tipCount":28,"visitsCount":1732,"url":"http://www.dishosteria.com","tier":4,"message":"Very Expensive","currency":"$","rating":8.8},{"name":"Hofbr√§uhaus Pittsburgh","phone":"4122242328","twitter":"hofbrauhauspitt","address":"2705 S Water St","lat":40.428590264574545,"lng":-79.96459007263184,"neighborhood":"Southside Flats","city_fetched":"Pittsburgh","state":"PA","country":"United States","canonicalUrl":"https://foursquare.com/v/hofbr%C3%A4uhaus-pittsburgh/4ad778b7f964a520050b21e3","category":"German Restaurant","checkinsCount":22368,"usersCount":13137,"tipCount":176,"visitsCount":24927,"url":"http://www.hofbrauhauspittsburgh.com","tier":2,"message":"Moderate","currency":"$","rating":8.8},{"name":"Smallman Galley","phone":"4123155950","twitter":"smallmangalley","address":"1620 Smallman Street","lat":40.45200375171341,"lng":-79.98375004937988,"neighborhood":"Strip District","city_fetched":"Pittsburgh","state":"PA","country":"United States","canonicalUrl":"https://foursquare.com/v/smallman-galley/5675c18c498eb1a18305b976","category":"Bar","checkinsCount":578,"usersCount":339,"tipCount":7,"visitsCount":635,"url":"http://www.smallmangalley.org","tier":"","message":"","currency":"","rating":8.8},{"name":"Shiloh Grill","phone":"4124314000","address":"123 Shiloh St","lat":40.4309025533919,"lng":-80.00713929607346,"neighborhood":"Mount Washington","city_fetched":"Pittsburgh","state":"PA","country":"United States","canonicalUrl":"https://foursquare.com/v/shiloh-grill/4cd324a36be6a143c0bc9202","category":"Bar","checkinsCount":5001,"usersCount":2099,"tipCount":53,"visitsCount":5210,"url":"http://www.theshilohinn.com","tier":2,"message":"Moderate","currency":"$","rating":8.8},{"name":"Stage AE","phone":"4122255483","twitter":"stage_ae","address":"400 N Shore Dr","lat":40.44606526413282,"lng":-80.01261234283447,"neighborhood":"Northshore","city_fetched":"Pittsburgh","state":"PA","country":"United States","canonicalUrl":"https://foursquare.com/stage_ae","category":"Music Venue","checkinsCount":15463,"usersCount":8267,"tipCount":79,"visitsCount":16898,"url":"http://www.stageae.com","tier":"","message":"","currency":"","rating":8.7},{"name":"Harris Grill","phone":"4123625273","twitter":"harrisgrill","address":"5747 Ellsworth Ave","lat":40.45591009707875,"lng":-79.93123654875828,"neighborhood":"Shadyside","city_fetched":"Pittsburgh","state":"PA","country":"United States","canonicalUrl":"https://foursquare.com/v/harris-grill/4aa1dea0f964a520a64120e3","category":"Bar","checkinsCount":10609,"usersCount":3998,"tipCount":87,"visitsCount":11187,"url":"http://www.harrisgrill.com","tier":2,"message":"Moderate","currency":"$","rating":8.7},{"name":"Mr. Smalls Theatre","phone":"4128214447","address":"400 Lincoln Ave","lat":40.48080578186848,"lng":-79.97234165668488,"city_fetched":"Pittsburgh","state":"PA","country":"United States","canonicalUrl":"https://foursquare.com/v/mr-smalls-theatre/4ad9cbccf964a520eb1a21e3","category":"Rock Club","checkinsCount":6015,"usersCount":3025,"tipCount":43,"visitsCount":6446,"url":"http://www.mrsmalls.com","tier":"","message":"","currency":"","rating":8.7},{"name":"Sammy's Famous Corned Beef","phone":"4127652244","address":"217 9th St","lat":40.44292970879893,"lng":-79.99812401329798,"neighborhood":"Cultural District","city_fetched":"Pittsburgh","state":"PA","country":"United States","canonicalUrl":"https://foursquare.com/v/sammys-famous-corned-beef/4bd9ad250115c9b66e237880","category":"Deli / Bodega","checkinsCount":966,"usersCount":564,"tipCount":9,"visitsCount":1027,"tier":"","message":"","currency":"","rating":8.7},{"name":"The Allegheny Wine Mixer","phone":"4122522337","address":"5326 Butler St","lat":40.48245418137861,"lng":-79.9516239716851,"neighborhood":"Upper Lawrenceville","city_fetched":"Pittsburgh","state":"PA","country":"United States","canonicalUrl":"https://foursquare.com/v/the-allegheny-wine-mixer/501ef665e4b090f3fc0b0b91","category":"Wine Bar","checkinsCount":1186,"usersCount":531,"tipCount":10,"visitsCount":1332,"url":"http://alleghenywinemixer.com","tier":2,"message":"Moderate","currency":"$","rating":8.7},{"name":"BRGR Bar","phone":"4123622333","twitter":"brgrpgh","address":"5997 Penn Cir S","lat":40.459817683039105,"lng":-79.92543802496208,"neighborhood":"Shadyside","city_fetched":"Pittsburgh","state":"PA","country":"United States","canonicalUrl":"https://foursquare.com/v/brgr-bar/4ca63e0497c8a1cd886d6ea5","category":"Burger Joint","checkinsCount":6640,"usersCount":3593,"tipCount":80,"visitsCount":7018,"url":"http://brgrpgh.com","tier":2,"message":"Moderate","currency":"$","rating":8.7},{"name":"Fairmont Pittsburgh Hotel","phone":"8668408402","twitter":"fairmonthotels","address":"510 Market St","lat":40.44134010179109,"lng":-80.00169529103457,"neighborhood":"Fifth and Forbes Corridor","city_fetched":"Pittsburgh","state":"PA","country":"United States","canonicalUrl":"https://foursquare.com/v/fairmont-pittsburgh-hotel/4bb25a014019a593e7b736b8","category":"Hotel","checkinsCount":4206,"usersCount":1809,"tipCount":21,"visitsCount":4247,"url":"http://bit.ly/wWpDIs","tier":"","message":"","currency":"","rating":8.7},{"name":"Bakersfield","phone":"4125865024","twitter":"bakersfieldpenn","address":"940 Penn Ave","lat":40.444227954598894,"lng":-79.99672058114322,"neighborhood":"Cultural District","city_fetched":"Pittsburgh","state":"PA","country":"United States","canonicalUrl":"https://foursquare.com/v/bakersfield/56e6fa6b498ed68a91ebbc3e","category":"Whisky Bar","checkinsCount":614,"usersCount":361,"tipCount":6,"visitsCount":683,"tier":"","message":"","currency":"","rating":8.6},{"name":"Hitchhiker Brewing Co","phone":"4123431950","twitter":"hitchhikerbrew","address":"190 Castle Shannon Blvd","lat":40.37770006163226,"lng":-80.04077316459053,"neighborhood":"Mount Lebanon","city_fetched":"Pittsburgh","state":"PA","country":"United States","canonicalUrl":"https://foursquare.com/v/hitchhiker-brewing-co/535c4d51498e51ccd217d581","category":"Brewery","checkinsCount":763,"usersCount":490,"tipCount":8,"visitsCount":1110,"url":"http://hitchhikerbrewing.com","tier":"","message":"","currency":"","rating":8.6},{"name":"Mad Mex","phone":"4122790200","twitter":"madmexsouth","address":"2101 Greentree Rd","lat":40.39055604212114,"lng":-80.07256074872816,"neighborhood":"Scott Township","city_fetched":"Pittsburgh","state":"PA","country":"United States","canonicalUrl":"https://foursquare.com/v/mad-mex/4afc5ab7f964a520dc2122e3","category":"Mexican Restaurant","checkinsCount":5573,"usersCount":1914,"tipCount":44,"visitsCount":6245,"url":"http://www.madmex.com/regions/pittsburgh/locations/locations.shtml?utm_source=social&utm_medium=four","tier":2,"message":"Moderate","currency":"$","rating":8.6},{"name":"East End Brewing Company","phone":"4125372337","twitter":"eastendbrewing","address":"147 Julius St.","lat":40.459197497292344,"lng":-79.9115549858447,"city_fetched":"Pittsburgh","state":"PA","country":"United States","canonicalUrl":"https://foursquare.com/v/east-end-brewing-company/4ae36691f964a5208a9421e3","category":"Brewery","checkinsCount":2035,"usersCount":999,"tipCount":20,"visitsCount":2479,"url":"http://www.eastendbrewing.com","tier":"","message":"","currency":"","rating":8.6},{"name":"Bigham Tavern","phone":"4124319313","twitter":"bighamtavern","address":"321 Bigham St","lat":40.432482,"lng":-80.01521429,"neighborhood":"Mount Washington","city_fetched":"Pittsburgh","state":"PA","country":"United States","canonicalUrl":"https://foursquare.com/bighamtavern","category":"American Restaurant","checkinsCount":3574,"usersCount":1527,"tipCount":31,"visitsCount":4774,"url":"http://www.bighamtavern.com","tier":2,"message":"Moderate","currency":"$","rating":8.6},{"name":"Hop Farm Brewing Company","phone":"4124083248","twitter":"hopfarmbeer","address":"5601 Butler St","lat":40.48456516140209,"lng":-79.94797414716848,"neighborhood":"Upper Lawrenceville","city_fetched":"Pittsburgh","state":"PA","country":"United States","canonicalUrl":"https://foursquare.com/v/hop-farm-brewing-company/50c1da68e4b09fd0a7a5fc2f","category":"Brewery","checkinsCount":499,"usersCount":432,"tipCount":6,"visitsCount":806,"url":"http://hopfarmbrewingco.com","tier":"","message":"","currency":"","rating":8.5},{"name":"Tender Bar + Kitchen","phone":"4124029522","address":"4300 Butler St","lat":40.470615,"lng":-79.960504,"neighborhood":"Central Lawrenceville","city_fetched":"Pittsburgh","state":"PA","country":"United States","canonicalUrl":"https://foursquare.com/v/tender-bar--kitchen/5048a973e4b0dd2799664d55","category":"Cocktail Bar","checkinsCount":1436,"usersCount":786,"tipCount":20,"visitsCount":1547,"url":"http://www.tenderpgh.com","tier":3,"message":"Expensive","currency":"$","rating":8.5},{"name":"Roundabout Brewery","address":"4901 Butler St","lat":40.47705278742693,"lng":-79.9569454485947,"neighborhood":"Central Lawrenceville","city_fetched":"Pittsburgh","state":"PA","country":"United States","canonicalUrl":"https://foursquare.com/v/roundabout-brewery/51e05a19498ea3e14d2a7301","category":"Brewery","checkinsCount":927,"usersCount":741,"tipCount":10,"visitsCount":1395,"url":"http://roundaboutbeer.com","tier":"","message":"","currency":"","rating":8.5},{"name":"Sidelines Bar And Grill","phone":"4128214492","twitter":"sidelinesbar","address":"621 Evergreen Ave","lat":40.485374,"lng":-79.972509,"neighborhood":"Millvale","city_fetched":"Pittsburgh","state":"PA","country":"United States","canonicalUrl":"https://foursquare.com/v/sidelines-bar-and-grill/4ada7118f964a520992221e3","category":"Sports Bar","checkinsCount":3022,"usersCount":896,"tipCount":30,"visitsCount":3692,"url":"http://sidelinesbarandgrill.com","tier":1,"message":"Cheap","currency":"$","rating":8.5},{"name":"Fuel and Fuddle","phone":"4126823473","twitter":"fuelandfuddle","address":"212 Oakland Ave","lat":40.44112536263804,"lng":-79.95669364929199,"neighborhood":"Central Oakland","city_fetched":"Pittsburgh","state":"PA","country":"United States","canonicalUrl":"https://foursquare.com/v/fuel-and-fuddle/4ad4c00df964a520a6ed20e3","category":"American Restaurant","checkinsCount":9102,"usersCount":3618,"tipCount":101,"visitsCount":9499,"url":"http://fuelandfuddle.com","tier":2,"message":"Moderate","currency":"$","rating":8.5},{"name":"Round Corner Cantina","phone":"4129042279","twitter":"rccantina","address":"3720 Butler St","lat":40.466792768344064,"lng":-79.96426604706969,"neighborhood":"Lower Lawrenceville","city_fetched":"Pittsburgh","state":"PA","country":"United States","canonicalUrl":"https://foursquare.com/v/round-corner-cantina/4ad86ae3f964a520491121e3","category":"Bar","checkinsCount":5982,"usersCount":2701,"tipCount":52,"visitsCount":6355,"url":"http://roundcornercantina.com","tier":2,"message":"Moderate","currency":"$","rating":8.5},{"name":"Wingharts Burger And Whiskey Bar","phone":"4124345600","twitter":"wingharts","address":"5 Market Sq","lat":40.440286,"lng":-80.002366,"neighborhood":"Fifth and Forbes Corridor","city_fetched":"Pittsburgh","state":"PA","country":"United States","canonicalUrl":"https://foursquare.com/v/wingharts-burger-and-whiskey-bar/4cf943be34c1a093c614390e","category":"Burger Joint","checkinsCount":4649,"usersCount":2089,"tipCount":79,"visitsCount":4666,"url":"http://winghartburgers.com","tier":2,"message":"Moderate","currency":"$","rating":8.5},{"name":"Kelly's Bar & Lounge","phone":"4123636012","address":"6012 Penn Cir S","lat":40.460042,"lng":-79.92449104785919,"neighborhood":"Shadyside","city_fetched":"Pittsburgh","state":"PA","country":"United States","canonicalUrl":"https://foursquare.com/v/kellys-bar--lounge/4ad77b60f964a520420b21e3","category":"Bar","checkinsCount":3757,"usersCount":1652,"tipCount":35,"visitsCount":4197,"tier":2,"message":"Moderate","currency":"$","rating":8.5},{"name":"Beerhead Bar & Eatery","address":"110 Federal St","lat":40.44804187042463,"lng":-80.00426717542537,"neighborhood":"Northshore","city_fetched":"Pittsburgh","state":"PA","country":"United States","canonicalUrl":"https://foursquare.com/v/beerhead-bar--eatery/51916b182fc6e6543d7eebf9","category":"Beer Garden","checkinsCount":3605,"usersCount":2379,"tipCount":36,"visitsCount":4283,"url":"http://the-beer-market.com","tier":1,"message":"Cheap","currency":"$","rating":8.5},{"name":"Seviche","phone":"4126973120","twitter":"sevichepgh","address":"930 Penn Ave","lat":40.444175640970954,"lng":-79.9968625636359,"neighborhood":"Cultural District","city_fetched":"Pittsburgh","state":"PA","country":"United States","canonicalUrl":"https://foursquare.com/v/seviche/4af4f73cf964a520bbf721e3","category":"South American Restaurant","checkinsCount":2837,"usersCount":1882,"tipCount":45,"visitsCount":2858,"url":"http://www.seviche.com","tier":3,"message":"Expensive","currency":"$","rating":8.4},{"name":"China Palace","phone":"4126877423","address":"5440 Walnut St","lat":40.45109664572657,"lng":-79.93391434248547,"neighborhood":"Shadyside","city_fetched":"Pittsburgh","state":"PA","country":"United States","canonicalUrl":"https://foursquare.com/v/china-palace/4ad4c00ef964a52015ee20e3","category":"Asian Restaurant","checkinsCount":1011,"usersCount":486,"tipCount":13,"visitsCount":1016,"url":"http://www.chineserestaurantpittsburgh.com","tier":2,"message":"Moderate","currency":"$","rating":8.4},{"name":"Bayardstown Social Club","twitter":"bayardstown","address":"3008 Penn Ave","lat":40.45889674230499,"lng":-79.97226883453594,"neighborhood":"Strip District","city_fetched":"Pittsburgh","state":"PA","country":"United States","canonicalUrl":"https://foursquare.com/v/bayardstown-social-club/51979451498e76a6f7fe3a7a","category":"Beer Garden","checkinsCount":350,"usersCount":246,"tipCount":4,"visitsCount":459,"url":"http://bayardstown.com","tier":"","message":"","currency":"","rating":8.4},{"name":"Spirit","address":"242 51st St","lat":40.4786388355359,"lng":-79.95644281782326,"neighborhood":"Central Lawrenceville","city_fetched":"Pittsburgh","state":"PA","country":"United States","canonicalUrl":"https://foursquare.com/v/spirit/551f42cc498e62c5cb9fa6a2","category":"Bar","checkinsCount":544,"usersCount":426,"tipCount":7,"visitsCount":876,"tier":"","message":"","currency":"","rating":8.4},{"name":"Mad Mex","phone":"4126815656","twitter":"madmex_oakland","address":"370 Atwood St","lat":40.43809592116309,"lng":-79.95414555072784,"neighborhood":"Central Oakland","city_fetched":"Pittsburgh","state":"PA","country":"United States","canonicalUrl":"https://foursquare.com/v/mad-mex/4abad1d7f964a520118320e3","category":"Mexican Restaurant","checkinsCount":6870,"usersCount":3416,"tipCount":48,"visitsCount":7912,"url":"http://www.madmex.com/regions/pittsburgh/locations/locations.shtml?utm_source=social&utm_medium=four","tier":2,"message":"Moderate","currency":"$","rating":8.4},{"name":"Wigle Whiskey Garden & Barrel House","lat":40.45919678946582,"lng":-79.99355321913977,"neighborhood":"North Side","city_fetched":"Pittsburgh","state":"PA","country":"United States","canonicalUrl":"https://foursquare.com/v/wigle-whiskey-garden--barrel-house/5370696f498ec1d711c10fa5","category":"Brewery","checkinsCount":257,"usersCount":296,"tipCount":5,"visitsCount":414,"tier":"","message":"","currency":"","rating":8.4},{"name":"Nadine's Bar and Restaurant","phone":"4124811793","address":"19 S 27th St","lat":40.42644087249005,"lng":-79.96722142814407,"neighborhood":"Southside Flats","city_fetched":"Pittsburgh","state":"PA","country":"United States","canonicalUrl":"https://foursquare.com/v/nadines-bar-and-restaurant/4b70b179f964a520032a2de3","category":"Dive Bar","checkinsCount":1455,"usersCount":635,"tipCount":22,"visitsCount":1486,"url":"http://www.nadinesbar.com","tier":"","message":"","currency":"","rating":8.4},{"name":"Penn Brewery","phone":"4122379400","twitter":"pennbrewery","address":"800 Vinial St","lat":40.45700728190101,"lng":-79.99140679836273,"neighborhood":"Troy Hill","city_fetched":"Pittsburgh","state":"PA","country":"United States","canonicalUrl":"https://foursquare.com/v/penn-brewery/4516333df964a520053a1fe3","category":"Brewery","checkinsCount":5169,"usersCount":3673,"tipCount":49,"visitsCount":6014,"url":"http://pennbrew.com","tier":2,"message":"Moderate","currency":"$","rating":8.4},{"name":"Apis Mead & Winery","phone":"4124789172","address":"212 E Main St","lat":40.40851229802422,"lng":-80.08506520684085,"city_fetched":"Pittsburgh","state":"PA","country":"United States","canonicalUrl":"https://foursquare.com/v/apis-mead--winery/53dbdfe9498e5585a2999f1f","category":"Wine Bar","checkinsCount":188,"usersCount":112,"tipCount":1,"visitsCount":196,"url":"http://apismead.com","tier":"","message":"","currency":"","rating":8.3},{"name":"The Village Tavern & Trattoria","address":"424 S Main St","lat":40.44148155997307,"lng":-80.03368280429689,"neighborhood":"Elliot","city_fetched":"Pittsburgh","state":"PA","country":"United States","canonicalUrl":"https://foursquare.com/v/the-village-tavern--trattoria/4bccf21a8920b7131a189fdc","category":"Italian Restaurant","checkinsCount":1455,"usersCount":462,"tipCount":12,"visitsCount":1635,"url":"http://villagetavern.com","tier":1,"message":"Cheap","currency":"$","rating":8.3},{"name":"Butterjoint","phone":"4126212700","twitter":"thebutterjoint","address":"214 N Craig St","lat":40.450131831385285,"lng":-79.95080441358297,"neighborhood":"North Oakland","city_fetched":"Pittsburgh","state":"PA","country":"United States","canonicalUrl":"https://foursquare.com/v/butterjoint/50a2d905e4b084ec45ec851a","category":"Bar","checkinsCount":1165,"usersCount":804,"tipCount":24,"visitsCount":1544,"url":"http://legumebistro.com/the-bar/","tier":2,"message":"Moderate","currency":"$","rating":8.3},{"name":"The Summit PGH","address":"Shiloh St","lat":40.43087519558294,"lng":-80.00749966952846,"neighborhood":"Mount Washington","city_fetched":"Pittsburgh","state":"PA","country":"United States","canonicalUrl":"https://foursquare.com/v/the-summit-pgh/51d49e46498ed5548405fea8","category":"Bar","checkinsCount":715,"usersCount":375,"tipCount":12,"visitsCount":858,"url":"http://thesummitpgh.com","tier":"","message":"","currency":"","rating":8.3},{"name":"Station Square","phone":"4122612811","twitter":"stationsquare","address":"125 W Station Square Dr","lat":40.43415697667783,"lng":-80.00604797136839,"neighborhood":"South Shore","city_fetched":"Pittsburgh","state":"PA","country":"United States","canonicalUrl":"https://foursquare.com/v/station-square/4ad4c010f964a520b1ee20e3","category":"Shopping Mall","checkinsCount":15672,"usersCount":6760,"tipCount":41,"visitsCount":15767,"url":"http://www.stationsquare.com","tier":"","message":"","currency":"","rating":8.3},{"name":"Birmingham Bridge Tavern","phone":"4123812739","twitter":"birmbridgetavrn","address":"2901 Sarah St","lat":40.424543,"lng":-79.96464908123016,"neighborhood":"Southside Flats","city_fetched":"Pittsburgh","state":"PA","country":"United States","canonicalUrl":"https://foursquare.com/birmbridgetavrn","category":"Bar","checkinsCount":2969,"usersCount":865,"tipCount":15,"visitsCount":3552,"url":"http://www.birminghambridgetavern.com","tier":2,"message":"Moderate","currency":"$","rating":8.3},{"name":"Full Pint Brewing Co.","address":"5308 Butler St","lat":40.48221278061525,"lng":-79.9520118931731,"neighborhood":"Upper Lawrenceville","city_fetched":"Pittsburgh","state":"PA","country":"United States","canonicalUrl":"https://foursquare.com/v/full-pint-brewing-co/54d93eef498e06a504d1c55f","category":"Brewery","checkinsCount":169,"usersCount":146,"tipCount":1,"visitsCount":199,"tier":"","message":"","currency":"","rating":8.3},{"name":"Local Bar + Kitchen","phone":"4124311125","twitter":"localpgh","address":"1515 E Carson St","lat":40.42891389311736,"lng":-79.98291440781578,"neighborhood":"Southside Flats","city_fetched":"Pittsburgh","state":"PA","country":"United States","canonicalUrl":"https://foursquare.com/localpgh","category":"American Restaurant","checkinsCount":8978,"usersCount":3874,"tipCount":50,"visitsCount":9153,"url":"http://www.localpgh.com","tier":2,"message":"Moderate","currency":"$","rating":8.3},{"name":"Pregame","address":"1501 Sarah St","lat":40.42768,"lng":-79.98339,"neighborhood":"Southside Flats","city_fetched":"Pittsburgh","state":"PA","country":"United States","canonicalUrl":"https://foursquare.com/v/pregame/4b6a13def964a52013c62be3","category":"Sports Bar","checkinsCount":1311,"usersCount":320,"tipCount":6,"visitsCount":1340,"tier":"","message":"","currency":"","rating":8.3},{"name":"Nied's Hotel","phone":"4127819853","address":"5438 Butler St","lat":40.483451805799135,"lng":-79.94994722306728,"neighborhood":"Upper Lawrenceville","city_fetched":"Pittsburgh","state":"PA","country":"United States","canonicalUrl":"https://foursquare.com/v/nieds-hotel/4aaeab7df964a520dd6220e3","category":"Bar","checkinsCount":488,"usersCount":272,"tipCount":9,"visitsCount":601,"url":"http://niedshotel.com","tier":"","message":"","currency":"","rating":8.3},{"name":"Grapperia","phone":"4129043907","address":"3801 Butler St","lat":40.467199,"lng":-79.96457,"neighborhood":"Lower Lawrenceville","city_fetched":"Pittsburgh","state":"PA","country":"United States","canonicalUrl":"https://foursquare.com/v/grapperia/54f66a38498e0c746635acdc","category":"Cocktail Bar","checkinsCount":214,"usersCount":155,"tipCount":4,"visitsCount":243,"url":"http://www.grapperiapgh.com","tier":"","message":"","currency":"","rating":8.3},{"name":"Monterey Pub","phone":"4123226535","address":"1227 Monterey St","lat":40.45565808245409,"lng":-80.01311802597839,"neighborhood":"Central Northside","city_fetched":"Pittsburgh","state":"PA","country":"United States","canonicalUrl":"https://foursquare.com/v/monterey-pub/4ad8e19ff964a520a01521e3","category":"Pub","checkinsCount":1986,"usersCount":679,"tipCount":19,"visitsCount":2315,"url":"http://montereypub.com","tier":"","message":"","currency":"","rating":8.3},{"name":"Riley's Pour House","phone":"4122790770","address":"215 E Main St","lat":40.40856192478453,"lng":-80.08508563041687,"city_fetched":"Pittsburgh","state":"PA","country":"United States","canonicalUrl":"https://foursquare.com/v/rileys-pour-house/4b5a568af964a5204dbe28e3","category":"Pub","checkinsCount":859,"usersCount":451,"tipCount":20,"visitsCount":1081,"url":"http://rileyspourhouse.com","tier":"","message":"","currency":"","rating":8.3},{"name":"Copper Kettle Brewing Company","phone":"4129069400","twitter":"copperkettlepgh","address":"557 Greenfield Ave","lat":40.426153184738226,"lng":-79.94086529402725,"neighborhood":"Greenfield","city_fetched":"Pittsburgh","state":"PA","country":"United States","canonicalUrl":"https://foursquare.com/copperkettlepgh","category":"Brewery","checkinsCount":1305,"usersCount":208,"tipCount":2,"visitsCount":1310,"url":"http://www.copperkettlepgh.com","tier":"","message":"","currency":"","rating":8.3},{"name":"Sonoma Grille","phone":"4126971336","twitter":"thesonomagrille","address":"947 Penn Ave","lat":40.44430302749596,"lng":-79.99626732778891,"neighborhood":"Cultural District","city_fetched":"Pittsburgh","state":"PA","country":"United States","canonicalUrl":"https://foursquare.com/v/sonoma-grille/4ad4c00df964a520b4ed20e3","category":"Wine Bar","checkinsCount":3221,"usersCount":1949,"tipCount":54,"visitsCount":3236,"url":"http://www.thesonomagrille.com","tier":2,"message":"Moderate","currency":"$","rating":8.2},{"name":"Shady Grove","phone":"4126970909","address":"5500 Walnut St","lat":40.450898774863134,"lng":-79.93371760940771,"neighborhood":"Shadyside","city_fetched":"Pittsburgh","state":"PA","country":"United States","canonicalUrl":"https://foursquare.com/v/shady-grove/450552eaf964a520fc381fe3","category":"Bar","checkinsCount":9182,"usersCount":3542,"tipCount":64,"visitsCount":9453,"url":"http://www.eatshady.com","tier":2,"message":"Moderate","currency":"$","rating":8.2},{"name":"Umi","phone":"4123626198","twitter":"umi_pittsburgh","address":"5849 Ellsworth Ave","lat":40.456994,"lng":-79.929537,"neighborhood":"Shadyside","city_fetched":"Pittsburgh","state":"PA","country":"United States","canonicalUrl":"https://foursquare.com/v/umi/4ad4c00ef964a52027ee20e3","category":"Sushi Restaurant","checkinsCount":645,"usersCount":389,"tipCount":13,"visitsCount":666,"url":"http://www.bigburrito.com/umi/?utm_source=social&utm_medium=foursquare&utm_campaign=lunametrics","tier":3,"message":"Expensive","currency":"$","rating":8.2},{"name":"Big Jims Restaurant & Bar","phone":"4124210532","address":"201 Saline St","lat":40.427014,"lng":-79.94971246,"neighborhood":"South Oakland","city_fetched":"Pittsburgh","state":"PA","country":"United States","canonicalUrl":"https://foursquare.com/v/big-jims-restaurant--bar/4ad7c9bcf964a520b60e21e3","category":"Dive Bar","checkinsCount":1208,"usersCount":975,"tipCount":32,"visitsCount":1567,"url":"http://www.bigjimsrestaurant.com","tier":2,"message":"Moderate","currency":"$","rating":8.2},{"name":"Duke's Upper Deck","phone":"4124618124","address":"122 W 8th Ave","lat":40.405367651197196,"lng":-79.9129105920128,"neighborhood":"Homestead","city_fetched":"Pittsburgh","state":"PA","country":"United States","canonicalUrl":"https://foursquare.com/v/dukes-upper-deck/4b6621bcf964a5207a152be3","category":"Bar","checkinsCount":1256,"usersCount":599,"tipCount":11,"visitsCount":1505,"url":"http://dukesupperdeck.com","tier":"","message":"","currency":"","rating":8.2},{"name":"Ruggers Pub","phone":"4123811330","twitter":"ruggerspub","address":"40 S 22nd St","lat":40.43010521652215,"lng":-79.9746161699295,"neighborhood":"Southside Flats","city_fetched":"Pittsburgh","state":"PA","country":"United States","canonicalUrl":"https://foursquare.com/v/ruggers-pub/4ad909abf964a520671721e3","category":"Bar","checkinsCount":6818,"usersCount":1190,"tipCount":44,"visitsCount":7138,"url":"http://ruggerspub.com","tier":2,"message":"Moderate","currency":"$","rating":8.2},{"name":"Gooski's","phone":"4126811658","address":"3117 Brereton St","lat":40.4568525386381,"lng":-79.96650580900976,"neighborhood":"Polish Hill","city_fetched":"Pittsburgh","state":"PA","country":"United States","canonicalUrl":"https://foursquare.com/v/gooskis/4ad4c00df964a52091ed20e3","category":"Dive Bar","checkinsCount":1694,"usersCount":782,"tipCount":24,"visitsCount":1971,"tier":1,"message":"Cheap","currency":"$","rating":8.2},{"name":"Caliente Pizza & Draft House","phone":"4126821414","twitter":"calientepdrafth","address":"4624 Liberty Ave","lat":40.46202422430173,"lng":-79.95007773230324,"neighborhood":"Bloomfield","city_fetched":"Pittsburgh","state":"PA","country":"United States","canonicalUrl":"https://foursquare.com/v/caliente-pizza--draft-house/4ebd86c6cc21ae646ae27caa","category":"Pizza Place","checkinsCount":2576,"usersCount":1181,"tipCount":32,"visitsCount":3161,"url":"http://pizzadrafthouse.com","tier":1,"message":"Cheap","currency":"$","rating":8.2},{"name":"The Urban Tap","phone":"4125867499","twitter":"theurbantap","address":"1209 E Carson St","lat":40.428839314036324,"lng":-79.98589646449432,"neighborhood":"Southside Flats","city_fetched":"Pittsburgh","state":"PA","country":"United States","canonicalUrl":"https://foursquare.com/v/the-urban-tap/524df99f11d2578bb70f1cd8","category":"Gastropub","checkinsCount":2193,"usersCount":1741,"tipCount":29,"visitsCount":3134,"url":"http://theurbantap.com","tier":2,"message":"Moderate","currency":"$","rating":8.2},{"name":"The Livermore","phone":"4124711900","twitter":"livermorepgh","address":"124 S Highland Ave","lat":40.46048526728429,"lng":-79.9250827777547,"neighborhood":"Shadyside","city_fetched":"Pittsburgh","state":"PA","country":"United States","canonicalUrl":"https://foursquare.com/v/the-livermore/51813cd3498e67b36d70d687","category":"Italian Restaurant","checkinsCount":876,"usersCount":527,"tipCount":21,"visitsCount":1102,"url":"http://www.thelivermorepgh.com","tier":3,"message":"Expensive","currency":"$","rating":8.1},{"name":"Proper Brick Oven & Tap Room","phone":"4122815700","twitter":"properpgh","address":"139 7th St","lat":40.443605412781324,"lng":-80.00039566871158,"neighborhood":"Cultural District","city_fetched":"Pittsburgh","state":"PA","country":"United States","canonicalUrl":"https://foursquare.com/v/proper-brick-oven--tap-room/520ba140498e0854301b431d","category":"Bar","checkinsCount":1499,"usersCount":1033,"tipCount":20,"visitsCount":1600,"url":"http://www.properpittsburgh.com","tier":2,"message":"Moderate","currency":"$","rating":8.1},{"name":"Apteka","address":"4606 Penn Ave","lat":40.465835637099566,"lng":-79.94923084048047,"neighborhood":"Bloomfield","city_fetched":"Pittsburgh","state":"PA","country":"United States","canonicalUrl":"https://foursquare.com/v/apteka/56c90017cd101732868289f7","category":"Bar","checkinsCount":161,"usersCount":126,"tipCount":3,"visitsCount":203,"tier":"","message":"","currency":"","rating":8.1},{"name":"The Smiling Moose","phone":"4124314668","address":"1306 E Carson St","lat":40.42881843333333,"lng":-79.984867,"neighborhood":"Southside Flats","city_fetched":"Pittsburgh","state":"PA","country":"United States","canonicalUrl":"https://foursquare.com/v/the-smiling-moose/45feb424f964a52089441fe3","category":"Rock Club","checkinsCount":5756,"usersCount":2446,"tipCount":36,"visitsCount":6089,"tier":"","message":"","currency":"","rating":8.1},{"name":"Emil's Lounge","phone":"4122719911","address":"414 Hawkins Ave","lat":40.41332450507157,"lng":-79.88033652305603,"city_fetched":"Pittsburgh","state":"PA","country":"United States","canonicalUrl":"https://foursquare.com/v/emils-lounge/4e2065f6d164740631fb3388","category":"Restaurant","checkinsCount":93,"usersCount":70,"tipCount":4,"visitsCount":103,"tier":"","message":"","currency":"","rating":8.1},{"name":"The Mansions on Fifth","phone":"4123815105","twitter":"mansionsonfifth","address":"5105 5th Ave","lat":40.44785651623361,"lng":-79.93853744250902,"neighborhood":"Shadyside","city_fetched":"Pittsburgh","state":"PA","country":"United States","canonicalUrl":"https://foursquare.com/v/the-mansions-on-fifth/4cfe900766ee9eb009dba64e","category":"Hotel","checkinsCount":548,"usersCount":491,"tipCount":4,"visitsCount":817,"tier":"","message":"","currency":"","rating":8.1},{"name":"Hot Mass","address":"1139 Penn Ave","lat":40.44577783404236,"lng":-79.99263029368994,"neighborhood":"Strip District","city_fetched":"Pittsburgh","state":"PA","country":"United States","canonicalUrl":"https://foursquare.com/v/hot-mass/50cd7278e4b0fb932f6d0646","category":"Nightclub","checkinsCount":558,"usersCount":300,"tipCount":7,"visitsCount":777,"tier":1,"message":"Cheap","currency":"$","rating":8.1},{"name":"East End Brewing Co.","phone":"4125372337","address":"2401 Penn Ave","lat":40.45360914032302,"lng":-79.98059749603271,"neighborhood":"Strip District","city_fetched":"Pittsburgh","state":"PA","country":"United States","canonicalUrl":"https://foursquare.com/v/east-end-brewing-co/4e5a75d11495a891128c38a9","category":"Brewery","checkinsCount":415,"usersCount":370,"tipCount":2,"visitsCount":562,"url":"http://eastendbrewing.com","tier":"","message":"","currency":"","rating":8.1},{"name":"The Yard","phone":"4127096351","twitter":"theyardpgh","address":"736 Bellefonte St","lat":40.45134600487103,"lng":-79.93392527208793,"neighborhood":"Shadyside","city_fetched":"Pittsburgh","state":"PA","country":"United States","canonicalUrl":"https://foursquare.com/v/the-yard/5393d2d7498eb409d690c69e","category":"Gastropub","checkinsCount":1296,"usersCount":866,"tipCount":31,"visitsCount":1574,"url":"http://theyardpgh.com","tier":"","message":"","currency":"","rating":8},{"name":"Bar Louie","phone":"4124626400","twitter":"barlouie","address":"244 W Bridge St","lat":40.40707371960618,"lng":-79.91731435071415,"city_fetched":"Pittsburgh","state":"PA","country":"United States","canonicalUrl":"https://foursquare.com/v/bar-louie/4b148ceff964a52080a423e3","category":"Restaurant","checkinsCount":5636,"usersCount":2511,"tipCount":46,"visitsCount":5699,"url":"http://t.co/6m5uO0JOqN","tier":2,"message":"Moderate","currency":"$","rating":8},{"name":"Scratch Food & Beverage","phone":"4122510822","twitter":"scratchfandb","address":"1720 Lowrie St","lat":40.464498,"lng":-79.98233,"neighborhood":"Troy Hill","city_fetched":"Pittsburgh","state":"PA","country":"United States","canonicalUrl":"https://foursquare.com/v/scratch-food--beverage/564e9e2a498e340b55a1c45c","category":"New American Restaurant","checkinsCount":97,"usersCount":131,"tipCount":4,"visitsCount":192,"url":"http://scratchfb-hub.com","tier":"","message":"","currency":"","rating":8},{"name":"Cain's Saloon","phone":"4125617444","twitter":"cainssaloon","address":"3239 W Liberty Ave","lat":40.38978607026072,"lng":-80.04096865653992,"city_fetched":"Pittsburgh","state":"PA","country":"United States","canonicalUrl":"https://foursquare.com/v/cains-saloon/4ad4c00df964a52096ed20e3","category":"Bar","checkinsCount":3706,"usersCount":1429,"tipCount":33,"visitsCount":4400,"url":"http://www.cainssaloon.com","tier":1,"message":"Cheap","currency":"$","rating":8},{"name":"Social at Bakery Square","phone":"4123621234","twitter":"eatsocial1","address":"6425 Penn Ave","lat":40.45672010791728,"lng":-79.91595516336763,"neighborhood":"Shadyside","city_fetched":"Pittsburgh","state":"PA","country":"United States","canonicalUrl":"https://foursquare.com/v/social-at-bakery-square/51ddcee5498e18bac8c33f1f","category":"New American Restaurant","checkinsCount":2179,"usersCount":1134,"tipCount":26,"visitsCount":2457,"url":"http://www.bakerysocial.com","tier":2,"message":"Moderate","currency":"$","rating":8},{"name":"The Library","phone":"4123810517","twitter":"thelibrarysspgh","address":"2302 E Carson St","lat":40.42827169286217,"lng":-79.97282599785785,"neighborhood":"Southside Flats","city_fetched":"Pittsburgh","state":"PA","country":"United States","canonicalUrl":"https://foursquare.com/v/the-library/4ad8f193f964a520421621e3","category":"Bar","checkinsCount":8483,"usersCount":3284,"tipCount":67,"visitsCount":9283,"url":"http://thelibrary-pgh.com","tier":2,"message":"Moderate","currency":"$","rating":8},{"name":"Squirrel Hill Cafe","phone":"4125213327","address":"5802 Forbes Ave","lat":40.43796554,"lng":-79.92276,"neighborhood":"Squirrel Hill South","city_fetched":"Pittsburgh","state":"PA","country":"United States","canonicalUrl":"https://foursquare.com/v/squirrel-hill-cafe/4b0dc700f964a520f14f23e3","category":"Bar","checkinsCount":3034,"usersCount":980,"tipCount":33,"visitsCount":3230,"url":"http://squirrelhill.biz","tier":1,"message":"Cheap","currency":"$","rating":8},{"name":"Sharp Edge Beer Emporium","phone":"4126613537","twitter":"se_beeremporium","address":"302 S Saint Clair St","lat":40.460069,"lng":-79.930734,"neighborhood":"East Liberty","city_fetched":"Pittsburgh","state":"PA","country":"United States","canonicalUrl":"https://foursquare.com/se_beeremporium","category":"Bar","checkinsCount":4438,"usersCount":2081,"tipCount":28,"visitsCount":5117,"url":"http://sharpedgebeer.com","tier":2,"message":"Moderate","currency":"$","rating":8},{"name":"Industry Public House","phone":"4126831100","twitter":"industrypgh","address":"4305 Butler St","lat":40.47081768387874,"lng":-79.96026164649703,"neighborhood":"Central Lawrenceville","city_fetched":"Pittsburgh","state":"PA","country":"United States","canonicalUrl":"https://foursquare.com/industrypgh","category":"Bar","checkinsCount":6266,"usersCount":3348,"tipCount":79,"visitsCount":7427,"url":"http://industrypgh.com","tier":2,"message":"Moderate","currency":"$","rating":8},{"name":"Alexion's","phone":"4122762018","address":"141 Hawthorne St","lat":40.415546,"lng":-80.0675152,"city_fetched":"Pittsburgh","state":"PA","country":"United States","canonicalUrl":"https://foursquare.com/v/alexions/4b2acae3f964a520c2af24e3","category":"Bar","checkinsCount":654,"usersCount":350,"tipCount":4,"visitsCount":960,"url":"http://www.alexionsbar.com","tier":1,"message":"Cheap","currency":"$","rating":8},{"name":"Savoy Restaurant","phone":"4122810660","twitter":"savoyrestaurant","address":"2623 Penn Ave","lat":40.45546635802591,"lng":-79.977967,"neighborhood":"Strip District","city_fetched":"Pittsburgh","state":"PA","country":"United States","canonicalUrl":"https://foursquare.com/savoyrestaurant","category":"Cocktail Bar","checkinsCount":1896,"usersCount":949,"tipCount":21,"visitsCount":2211,"url":"http://savoypgh.com","tier":"","message":"","currency":"","rating":8},{"name":"Packs & Dogs","phone":"4124311855","address":"223 Shiloh St","lat":40.429989801649185,"lng":-80.00733040339483,"neighborhood":"Mount Washington","city_fetched":"Pittsburgh","state":"PA","country":"United States","canonicalUrl":"https://foursquare.com/v/packs--dogs/4b51a641f964a520a75127e3","category":"Beer Garden","checkinsCount":1890,"usersCount":663,"tipCount":19,"visitsCount":1993,"url":"http://www.packsanddogs.com","tier":2,"message":"Moderate","currency":"$","rating":8},{"name":"Jekyl & Hyde","phone":"4124880777","address":"140 S 18th St","lat":40.42658421591676,"lng":-79.98074060985755,"neighborhood":"Southside Flats","city_fetched":"Pittsburgh","state":"PA","country":"United States","canonicalUrl":"https://foursquare.com/v/jekyl--hyde/4ad7e426f964a520de0f21e3","category":"Bar","checkinsCount":3149,"usersCount":1257,"tipCount":10,"visitsCount":3427,"tier":"","message":"","currency":"","rating":8},{"name":"Stinky's Bar and Grill","phone":"4122244301","address":"4901 Hatfield St","lat":40.477634,"lng":-79.95775,"neighborhood":"Central Lawrenceville","city_fetched":"Pittsburgh","state":"PA","country":"United States","canonicalUrl":"https://foursquare.com/v/stinkys-bar-and-grill/4aedeb29f964a5203ed021e3","category":"Bar","checkinsCount":1051,"usersCount":486,"tipCount":11,"visitsCount":1340,"url":"http://www.stinkysbarandgrill.com","tier":2,"message":"Moderate","currency":"$","rating":8},{"name":"Villa Reale","phone":"4123913963","address":"628 Smithfield St","lat":40.44187079470098,"lng":-79.99682433760297,"neighborhood":"Fifth and Forbes Corridor","city_fetched":"Pittsburgh","state":"PA","country":"United States","canonicalUrl":"https://foursquare.com/v/villa-reale/4b1fdd3df964a520e62924e3","category":"Italian Restaurant","checkinsCount":1070,"usersCount":340,"tipCount":7,"visitsCount":1107,"url":"http://villarealepizza.com","tier":2,"message":"Moderate","currency":"$","rating":8},{"name":"Hidden Harbor","twitter":"hiddenharborpgh","address":"1708 Shady Ave","lat":40.43770396188818,"lng":-79.9197006225586,"neighborhood":"Squirrel Hill South","city_fetched":"Pittsburgh","state":"PA","country":"United States","canonicalUrl":"https://foursquare.com/v/hidden-harbor/56a308e3498e47841303ead7","category":"Cocktail Bar","checkinsCount":317,"usersCount":151,"tipCount":6,"visitsCount":324,"url":"http://www.hiddenharborpgh.com","tier":"","message":"","currency":"","rating":8},{"name":"Pints on Penn","phone":"4129457468","twitter":"pintsonpenn","address":"3523 Penn Ave","lat":40.46427036077583,"lng":-79.96403217315674,"neighborhood":"Lower Lawrenceville","city_fetched":"Pittsburgh","state":"PA","country":"United States","canonicalUrl":"https://foursquare.com/v/pints-on-penn/55c13ca2498e7ccb15f4c5d4","category":"Gastropub","checkinsCount":174,"usersCount":208,"tipCount":1,"visitsCount":338,"url":"http://www.pintsonpenn.com","tier":"","message":"","currency":"","rating":7.9},{"name":"Primanti Bros.","phone":"4123812583","twitter":"primantibros","address":"1832 East Carson Street","lat":40.42857617809761,"lng":-79.97919488635407,"neighborhood":"Southside Flats","city_fetched":"Pittsburgh","state":"PA","country":"United States","canonicalUrl":"https://foursquare.com/v/primanti-bros/4ad4c00df964a52097ed20e3","category":"Sandwich Place","checkinsCount":6669,"usersCount":4087,"tipCount":63,"visitsCount":6764,"url":"http://t.co/PoYRL50T3L","tier":2,"message":"Moderate","currency":"$","rating":7.9},{"name":"Howl at the Moon","phone":"4125865692","twitter":"_howlatthemoon","address":"125 7th St","lat":40.44371248073515,"lng":-80.00037382615362,"neighborhood":"Cultural District","city_fetched":"Pittsburgh","state":"PA","country":"United States","canonicalUrl":"https://foursquare.com/v/howl-at-the-moon/5512d860498eeef5db00d66e","category":"Bar","checkinsCount":477,"usersCount":432,"tipCount":7,"visitsCount":560,"url":"http://www.howlatthemoon.com","tier":"","message":"","currency":"","rating":7.9},{"name":"Primanti Bros.","phone":"4126214444","twitter":"primantibros","address":"3803 Forbes Avenue","lat":40.44170078143441,"lng":-79.95690720505071,"city_fetched":"Pittsburgh","state":"PA","country":"United States","canonicalUrl":"https://foursquare.com/v/primanti-bros/4ad7a529f964a5202f0d21e3","category":"Sandwich Place","checkinsCount":4265,"usersCount":3216,"tipCount":45,"visitsCount":4338,"url":"http://t.co/PoYRL50T3L","tier":1,"message":"Cheap","currency":"$","rating":7.9},{"name":"Captain Morgan Club","phone":"4122551955","twitter":"consolenergyctr","address":"CONSOL Energy Center","lat":40.43959359643252,"lng":-79.98928255888381,"neighborhood":"Mellon Arena","city_fetched":"Pittsburgh","state":"PA","country":"United States","canonicalUrl":"https://foursquare.com/v/captain-morgan-club/4f16247ae4b04b3f080b8912","category":"Lounge","checkinsCount":460,"usersCount":258,"tipCount":2,"visitsCount":461,"url":"http://www.consolenergycenter.com/business_opportunities/captain-morgan-club","tier":"","message":"","currency":"","rating":7.9},{"name":"Drum Bar","address":"777 Casino Dr","lat":40.44663104267649,"lng":-80.02192430030418,"neighborhood":"North Side","city_fetched":"Pittsburgh","state":"PA","country":"United States","canonicalUrl":"https://foursquare.com/v/drum-bar/4bd62a2c29eb9c741db894e1","category":"Lounge","checkinsCount":1411,"usersCount":664,"tipCount":9,"visitsCount":1412,"url":"http://riverscasino.com","tier":3,"message":"Expensive","currency":"$","rating":7.9},{"name":"Jerome Bettis' Grille 36","phone":"4122246287","address":"393 N Shore Dr","lat":40.44555904298919,"lng":-80.01156091690063,"neighborhood":"Northshore","city_fetched":"Pittsburgh","state":"PA","country":"United States","canonicalUrl":"https://foursquare.com/v/jerome-bettis-grille-36/4aff5c1ff964a520bb3722e3","category":"Sports Bar","checkinsCount":10321,"usersCount":7105,"tipCount":101,"visitsCount":11344,"url":"http://jeromebettisgrille36.g3restaurants.com","tier":2,"message":"Moderate","currency":"$","rating":7.9},{"name":"Sharp Edge Bistro on Penn","phone":"4123382437","twitter":"se_bistro922","address":"922 Penn Ave","lat":40.44391788048521,"lng":-79.9973076581955,"neighborhood":"Cultural District","city_fetched":"Pittsburgh","state":"PA","country":"United States","canonicalUrl":"https://foursquare.com/se_bistro922","category":"Restaurant","checkinsCount":7762,"usersCount":4833,"tipCount":66,"visitsCount":8646,"url":"http://sharpedgebeer.com/bistro-on-penn","tier":2,"message":"Moderate","currency":"$","rating":7.9},{"name":"Ibiza Tapas & Wine Bar","phone":"4123252227","twitter":"ibizatapas","address":"2224 E Carson St","lat":40.4264028642921,"lng":-79.97049899801685,"neighborhood":"Southside Flats","city_fetched":"Pittsburgh","state":"PA","country":"United States","canonicalUrl":"https://foursquare.com/v/ibiza-tapas--wine-bar/4ae109a2f964a520c78421e3","category":"Wine Bar","checkinsCount":1826,"usersCount":1070,"tipCount":22,"visitsCount":1831,"url":"http://www.ibizatapasrestaurant.com","tier":"","message":"","currency":"","rating":7.9},{"name":"5801 Video Lounge & Cafe","phone":"4126615600","address":"5801 Ellsworth Ave","lat":40.45637810146835,"lng":-79.93075563018883,"neighborhood":"Shadyside","city_fetched":"Pittsburgh","state":"PA","country":"United States","canonicalUrl":"https://foursquare.com/v/5801-video-lounge--cafe/4be497472468c9282000ff42","category":"Gay Bar","checkinsCount":10314,"usersCount":2232,"tipCount":37,"visitsCount":11214,"url":"http://5801videolounge.com","tier":2,"message":"Moderate","currency":"$","rating":7.9},{"name":"Foli's Pizza","phone":"4122418840","address":"1050 Brinton Rd","lat":40.42879723,"lng":-79.87477898597717,"neighborhood":"Braddock Hills - Forest Hills","city_fetched":"Pittsburgh","state":"PA","country":"United States","canonicalUrl":"https://foursquare.com/v/folis-pizza/4aff5d15f964a520c73722e3","category":"Pizza Place","checkinsCount":1189,"usersCount":236,"tipCount":14,"visitsCount":1379,"url":"http://folisplace.com","tier":"","message":"","currency":"","rating":7.8},{"name":"Brillobox","phone":"4126214900","twitter":"brilloboxpgh","address":"4104 Penn Ave","lat":40.46566902933386,"lng":-79.954754612863,"neighborhood":"Central Lawrenceville","city_fetched":"Pittsburgh","state":"PA","country":"United States","canonicalUrl":"https://foursquare.com/v/brillobox/4ad4c00df964a520b1ed20e3","category":"Bar","checkinsCount":5322,"usersCount":2146,"tipCount":30,"visitsCount":5783,"url":"http://www.brillobox.net","tier":1,"message":"Cheap","currency":"$","rating":7.8},{"name":"Beer Express","phone":"4129200511","address":"4326 Steubenville Pike","lat":40.44076709416243,"lng":-80.09291502879705,"city_fetched":"Pittsburgh","state":"PA","country":"United States","canonicalUrl":"https://foursquare.com/v/beer-express/4bf81a2a4a67c9284cc124cf","category":"Liquor Store","checkinsCount":296,"usersCount":148,"tipCount":1,"visitsCount":303,"url":"http://www.beerexpressisbest.com/micro.html","tier":"","message":"","currency":"","rating":7.8},{"name":"The Korner Pub","phone":"4125611722","twitter":"kornerpub","address":"4 Bower Hill Rd","lat":40.386829177498996,"lng":-80.04420078269884,"neighborhood":"Mount Lebanon","city_fetched":"Pittsburgh","state":"PA","country":"United States","canonicalUrl":"https://foursquare.com/v/the-korner-pub/4c4d16884237be9a19396113","category":"Pub","checkinsCount":484,"usersCount":196,"tipCount":3,"visitsCount":668,"url":"http://kornerpub.com","tier":"","message":"","currency":"","rating":7.8},{"name":"Benjamin's Western Avenue Burger Bar","phone":"4122242163","twitter":"benjaminspgh","address":"900 Western Ave","lat":40.452006,"lng":-80.016588,"neighborhood":"North Side","city_fetched":"Pittsburgh","state":"PA","country":"United States","canonicalUrl":"https://foursquare.com/v/benjamins-western-avenue-burger-bar/5079b5abe4b0602b62b44d6d","category":"Burger Joint","checkinsCount":992,"usersCount":588,"tipCount":21,"visitsCount":1152,"url":"http://benjaminspgh.com","tier":2,"message":"Moderate","currency":"$","rating":7.8},{"name":"Jamison's","phone":"4125613088","address":"3113 W Liberty Ave","lat":40.39093826433967,"lng":-80.03932178020477,"city_fetched":"Pittsburgh","state":"PA","country":"United States","canonicalUrl":"https://foursquare.com/v/jamisons/4cb65716f6616dcbad75de08","category":"Bar","checkinsCount":873,"usersCount":363,"tipCount":10,"visitsCount":1010,"tier":"","message":"","currency":"","rating":7.8},{"name":"Murray Avenue Grill","phone":"4125211272","address":"1720 Murray Ave","lat":40.43726115449905,"lng":-79.92311522867853,"neighborhood":"Squirrel Hill South","city_fetched":"Pittsburgh","state":"PA","country":"United States","canonicalUrl":"https://foursquare.com/v/murray-avenue-grill/4ad4c00df964a5209bed20e3","category":"American Restaurant","checkinsCount":1945,"usersCount":808,"tipCount":13,"visitsCount":1994,"url":"http://www.murrayavenuegrill.com","tier":2,"message":"Moderate","currency":"$","rating":7.8},{"name":"Blue Dust","phone":"4124616220","address":"601 Amity St","lat":40.407992,"lng":-79.911661,"neighborhood":"Homestead","city_fetched":"Pittsburgh","state":"PA","country":"United States","canonicalUrl":"https://foursquare.com/v/blue-dust/4afb429df964a520731c22e3","category":"Bar","checkinsCount":2668,"usersCount":1125,"tipCount":44,"visitsCount":3028,"url":"http://bluedustpgh.com","tier":"","message":"","currency":"","rating":7.8},{"name":"Draai Laag Brewing Co.","twitter":"draailaag","address":"501 E Ohio St","lat":40.478666435039386,"lng":-79.9682702639024,"city_fetched":"Pittsburgh","state":"PA","country":"United States","canonicalUrl":"https://foursquare.com/v/draai-laag-brewing-co/4f35b516e4b017ad792b227f","category":"Brewery","checkinsCount":371,"usersCount":339,"tipCount":5,"visitsCount":478,"tier":"","message":"","currency":"","rating":7.8},{"name":"Smokin Joe's","phone":"4124316757","twitter":"smokin_joes","address":"2001 E Carson St","lat":40.4286681092453,"lng":-79.97749619745308,"neighborhood":"Southside Flats","city_fetched":"Pittsburgh","state":"PA","country":"United States","canonicalUrl":"https://foursquare.com/v/smokin-joes/44f440c1f964a5202d381fe3","category":"Bar","checkinsCount":7164,"usersCount":2616,"tipCount":45,"visitsCount":7468,"url":"http://www.smokinjoessaloon.com","tier":1,"message":"Cheap","currency":"$","rating":7.8},{"name":"Taverna 19","lat":40.45084057919486,"lng":-79.98528476888465,"neighborhood":"Strip District","city_fetched":"Pittsburgh","state":"PA","country":"United States","canonicalUrl":"https://foursquare.com/v/taverna-19/51e2198e498e985501478cf8","category":"Bar","checkinsCount":106,"usersCount":80,"tipCount":3,"visitsCount":106,"tier":"","message":"","currency":"","rating":7.8},{"name":"Shale's Cafe","phone":"4123912949","address":"1208 5th Ave","lat":40.438536872615956,"lng":-79.98844027519225,"neighborhood":"Bluff","city_fetched":"Pittsburgh","state":"PA","country":"United States","canonicalUrl":"https://foursquare.com/v/shales-cafe/4adc57aef964a520c42b21e3","category":"Bar","checkinsCount":655,"usersCount":343,"tipCount":9,"visitsCount":661,"tier":"","message":"","currency":"","rating":7.8},{"name":"McMinn's Pub and Grill","address":"3925 Willow Ave","lat":40.363914370536804,"lng":-80.02801358699799,"city_fetched":"Pittsburgh","state":"PA","country":"United States","canonicalUrl":"https://foursquare.com/v/mcminns-pub-and-grill/4c491d649f2ad13ab5efda52","category":"Pub","checkinsCount":517,"usersCount":111,"tipCount":4,"visitsCount":541,"tier":"","message":"","currency":"","rating":7.8},{"name":"The Abbey on Butler St","phone":"4126820200","twitter":"abbeyonbutler","address":"4635 Butler St","lat":40.473875,"lng":-79.958204,"neighborhood":"Central Lawrenceville","city_fetched":"Pittsburgh","state":"PA","country":"United States","canonicalUrl":"https://foursquare.com/v/the-abbey-on-butler-st/56fdcbfdcd1034bd7839e9a6","category":"Restaurant","checkinsCount":269,"usersCount":332,"tipCount":10,"visitsCount":535,"url":"http://theabbeyonbutler.com","tier":"","message":"","currency":"","rating":7.8},{"name":"Olive or Twist","phone":"4122550525","twitter":"oliveortwistpgh","address":"140 6th St","lat":40.4430187,"lng":-80.0024072,"neighborhood":"Cultural District","city_fetched":"Pittsburgh","state":"PA","country":"United States","canonicalUrl":"https://foursquare.com/oliveortwistpgh","category":"Cocktail Bar","checkinsCount":4850,"usersCount":2893,"tipCount":45,"visitsCount":4913,"url":"http://www.olive-twist.com","tier":2,"message":"Moderate","currency":"$","rating":7.8},{"name":"Blue Moon","phone":"4127811119","address":"5115 Butler St","lat":40.47880619678628,"lng":-79.95549218215072,"neighborhood":"Upper Lawrenceville","city_fetched":"Pittsburgh","state":"PA","country":"United States","canonicalUrl":"https://foursquare.com/v/blue-moon/4b06c0f9f964a5209def22e3","category":"Gay Bar","checkinsCount":2405,"usersCount":781,"tipCount":13,"visitsCount":2860,"tier":1,"message":"Cheap","currency":"$","rating":7.8},{"name":"Spin Bartini","phone":"4123627746","address":"5744 Ellsworth Ave","lat":40.45570355878742,"lng":-79.93112724931535,"neighborhood":"Shadyside","city_fetched":"Pittsburgh","state":"PA","country":"United States","canonicalUrl":"https://foursquare.com/v/spin-bartini/4ad7c9f8f964a520b90e21e3","category":"Cocktail Bar","checkinsCount":4272,"usersCount":1134,"tipCount":11,"visitsCount":4336,"url":"http://www.spinbartini.com","tier":2,"message":"Moderate","currency":"$","rating":7.7},{"name":"Brews Brothers 6-Pack Emporium","phone":"4125612075","address":"315 Mount Lebanon Blvd","lat":40.369300692153644,"lng":-80.03539770841599,"city_fetched":"Pittsburgh","state":"PA","country":"United States","canonicalUrl":"https://foursquare.com/v/brews-brothers-6pack-emporium/4b96f066f964a52033ef34e3","category":"Bar","checkinsCount":569,"usersCount":221,"tipCount":7,"visitsCount":591,"url":"http://www.brewsbro.com","tier":"","message":"","currency":"","rating":7.7},{"name":"Cruze Bar","phone":"4124711400","twitter":"cruzebar","address":"1600 Smallman St","lat":40.449457038531406,"lng":-79.98763321967996,"neighborhood":"Strip District","city_fetched":"Pittsburgh","state":"PA","country":"United States","canonicalUrl":"https://foursquare.com/v/cruze-bar/4e04cee3483b2dc03fbfe540","category":"Gay Bar","checkinsCount":5474,"usersCount":1348,"tipCount":9,"visitsCount":5895,"url":"http://www.cruzebar.com","tier":2,"message":"Moderate","currency":"$","rating":7.7},{"name":"Andys","phone":"4127738884","twitter":"fairmonthotels","address":"510 Market St","lat":40.44132058016035,"lng":-80.00189733141568,"neighborhood":"Fifth and Forbes Corridor","city_fetched":"Pittsburgh","state":"PA","country":"United States","canonicalUrl":"https://foursquare.com/v/andys/4bb2ad4b2397b713306337b3","category":"Wine Bar","checkinsCount":1179,"usersCount":589,"tipCount":17,"visitsCount":1202,"url":"http://bit.ly/wWpDIs","tier":"","message":"","currency":"","rating":7.7},{"name":"Atria's Restaurant and Tavern","phone":"4123221850","twitter":"atriaspgh","address":"103 Federal St","lat":40.447153321150154,"lng":-80.00397231356087,"neighborhood":"Northshore","city_fetched":"Pittsburgh","state":"PA","country":"United States","canonicalUrl":"https://foursquare.com/v/atrias-restaurant-and-tavern/4ad4c00df964a520b3ed20e3","category":"Bar","checkinsCount":2133,"usersCount":1536,"tipCount":22,"visitsCount":2201,"url":"http://www.atrias.com","tier":2,"message":"Moderate","currency":"$","rating":7.7},{"name":"truth lounge","address":"S 12th St, Pittsburgh, PA 15203","lat":40.429095789486496,"lng":-79.98633884882025,"neighborhood":"Southside Flats","city_fetched":"Pittsburgh","state":"PA","country":"United States","canonicalUrl":"https://foursquare.com/v/truth-lounge/4fab4be0e4b003f55631a416","category":"Lounge","checkinsCount":430,"usersCount":198,"tipCount":2,"visitsCount":431,"url":"http://truthlounge.com","tier":"","message":"","currency":"","rating":7.7},{"name":"Elks Lodge","address":"400 Cedar Ave","lat":40.45170030931198,"lng":-80.0008379793298,"neighborhood":"Allegheny Center","city_fetched":"Pittsburgh","state":"PA","country":"United States","canonicalUrl":"https://foursquare.com/v/elks-lodge/4b298ac3f964a5209aa024e3","category":"Event Space","checkinsCount":791,"usersCount":374,"tipCount":1,"visitsCount":833,"tier":"","message":"","currency":"","rating":7.7},{"name":"SlapShots","address":"2999 W Liberty Ave","lat":40.393076,"lng":-80.036783,"city_fetched":"Pittsburgh","state":"PA","country":"United States","canonicalUrl":"https://foursquare.com/v/slapshots/4b15b7d1f964a5202db323e3","category":"Bar","checkinsCount":1151,"usersCount":300,"tipCount":6,"visitsCount":1185,"tier":"","message":"","currency":"","rating":7.6},{"name":"Six Penn Kitchen","phone":"4125667366","twitter":"sixpennkitchen","address":"146 6th St","lat":40.44284034227377,"lng":-80.00236693697403,"neighborhood":"Cultural District","city_fetched":"Pittsburgh","state":"PA","country":"United States","canonicalUrl":"https://foursquare.com/v/six-penn-kitchen/4ae393bef964a520da9621e3","category":"American Restaurant","checkinsCount":6022,"usersCount":3057,"tipCount":55,"visitsCount":6169,"url":"http://www.sixpennkitchen.com","tier":2,"message":"Moderate","currency":"$","rating":7.6},{"name":"Tavern 245","phone":"4122814345","address":"245 4th Ave","lat":40.439586022376275,"lng":-80.00158607982227,"neighborhood":"Fifth and Forbes Corridor","city_fetched":"Pittsburgh","state":"PA","country":"United States","canonicalUrl":"https://foursquare.com/v/tavern-245/4c41ea44e26920a1ac2f5fe7","category":"American Restaurant","checkinsCount":1558,"usersCount":948,"tipCount":12,"visitsCount":1739,"url":"http://tavern245.com","tier":2,"message":"Moderate","currency":"$","rating":7.6},{"name":"Biergarten at the Hotel Monaco","phone":"4122304800","address":"620 William Penn Pl","lat":40.44145221460202,"lng":-79.99622910149441,"neighborhood":"Fifth and Forbes Corridor","city_fetched":"Pittsburgh","state":"PA","country":"United States","canonicalUrl":"https://foursquare.com/v/biergarten-at-the-hotel-monaco/55565460498e9137a83e604e","category":"Beer Garden","checkinsCount":271,"usersCount":202,"tipCount":5,"visitsCount":274,"url":"http://thebiergartenpgh.com","tier":"","message":"","currency":"","rating":7.6},{"name":"Mugshots","phone":"4129217474","address":"25 Walsh Rd","lat":40.43975276715266,"lng":-80.07098392358677,"city_fetched":"Pittsburgh","state":"PA","country":"United States","canonicalUrl":"https://foursquare.com/v/mugshots/4bce7f0368f976b098406683","category":"Bar","checkinsCount":2885,"usersCount":217,"tipCount":4,"visitsCount":2894,"tier":"","message":"","currency":"","rating":7.6},{"name":"Arsenal Lanes","phone":"4126835992","address":"212 44th St","lat":40.470994028272415,"lng":-79.95972625569095,"neighborhood":"Central Lawrenceville","city_fetched":"Pittsburgh","state":"PA","country":"United States","canonicalUrl":"https://foursquare.com/v/arsenal-lanes/4ad86a2cf964a520441121e3","category":"Bowling Alley","checkinsCount":3293,"usersCount":1582,"tipCount":26,"visitsCount":3553,"tier":"","message":"","currency":"","rating":7.6},{"name":"Carmella's Plates & Pints","phone":"4129181215","address":"1908 E Carson St","lat":40.42861401910916,"lng":-79.97872515575799,"neighborhood":"Southside Flats","city_fetched":"Pittsburgh","state":"PA","country":"United States","canonicalUrl":"https://foursquare.com/v/carmellas-plates--pints/5251c31311d20b9d8b9e128e","category":"Bar","checkinsCount":698,"usersCount":462,"tipCount":7,"visitsCount":886,"tier":"","message":"","currency":"","rating":7.6},{"name":"Pub In The Park","phone":"4122419242","address":"7034 Blackhawk St","lat":40.421468,"lng":-79.897504,"city_fetched":"Pittsburgh","state":"PA","country":"United States","canonicalUrl":"https://foursquare.com/v/pub-in-the-park/4b105e0af964a520cf6e23e3","category":"Bar","checkinsCount":359,"usersCount":185,"tipCount":5,"visitsCount":433,"tier":"","message":"","currency":"","rating":7.6},{"name":"The Huddle","phone":"4123446455","address":"1604 Broadway Ave","lat":40.409161465921834,"lng":-80.02483950980967,"city_fetched":"Pittsburgh","state":"PA","country":"United States","canonicalUrl":"https://foursquare.com/v/the-huddle/4b9eebe7f964a5209f0a37e3","category":"Bar","checkinsCount":255,"usersCount":116,"tipCount":8,"visitsCount":311,"tier":"","message":"","currency":"","rating":7.6},{"name":"Thunderbird Cafe","phone":"4126830177","address":"4023 Butler St","lat":40.469381,"lng":-79.961577825,"neighborhood":"Central Lawrenceville","city_fetched":"Pittsburgh","state":"PA","country":"United States","canonicalUrl":"https://foursquare.com/v/thunderbird-cafe/4a4add43f964a5203dac1fe3","category":"Karaoke Bar","checkinsCount":2352,"usersCount":1245,"tipCount":19,"visitsCount":2446,"url":"http://www.thunderbirdcafe.net","tier":2,"message":"Moderate","currency":"$","rating":7.6},{"name":"Mario's Southside Saloon","phone":"4123815610","twitter":"mariossouthside","address":"1514 E Carson St","lat":40.42881158262697,"lng":-79.98282155825824,"neighborhood":"Southside Flats","city_fetched":"Pittsburgh","state":"PA","country":"United States","canonicalUrl":"https://foursquare.com/v/marios-southside-saloon/4acbf853f964a5207bc820e3","category":"Karaoke Bar","checkinsCount":12394,"usersCount":4669,"tipCount":54,"visitsCount":12665,"url":"http://www.southsidepgh.com","tier":2,"message":"Moderate","currency":"$","rating":7.6},{"name":"Cattivo","phone":"4126872157","address":"146 44th St","lat":40.47254699321182,"lng":-79.96162742449799,"neighborhood":"Central Lawrenceville","city_fetched":"Pittsburgh","state":"PA","country":"United States","canonicalUrl":"https://foursquare.com/v/cattivo/4b069f63f964a520d9ed22e3","category":"Karaoke Bar","checkinsCount":3012,"usersCount":1045,"tipCount":13,"visitsCount":3364,"url":"http://cattivopgh.com","tier":"","message":"","currency":"","rating":7.6},{"name":"Cioppino","phone":"4122816593","twitter":"cioppinopitt","address":"2350 Railroad St","lat":40.45400100685691,"lng":-79.98291492462158,"neighborhood":"Strip District","city_fetched":"Pittsburgh","state":"PA","country":"United States","canonicalUrl":"https://foursquare.com/v/cioppino/4b2ad74ef964a520a4b024e3","category":"Seafood Restaurant","checkinsCount":1675,"usersCount":995,"tipCount":24,"visitsCount":1822,"url":"http://www.cioppinopittsburgh.com","tier":3,"message":"Expensive","currency":"$","rating":7.6},{"name":"Rock Bottom Restaurant & Brewery","phone":"4124622739","twitter":"rbpittsburgh","address":"171 E Bridge St","lat":40.409522452421925,"lng":-79.91501501975857,"neighborhood":"Homestead","city_fetched":"Pittsburgh","state":"PA","country":"United States","canonicalUrl":"https://foursquare.com/v/rock-bottom-restaurant--brewery/4ad8a643f964a520441321e3","category":"Brewery","checkinsCount":12564,"usersCount":4194,"tipCount":91,"visitsCount":13050,"url":"http://rockbottom.com","tier":2,"message":"Moderate","currency":"$","rating":7.6},{"name":"Moonlite Caf√©","phone":"4125312811","address":"530 Brookline Blvd","lat":40.395552784051326,"lng":-80.0227268115685,"neighborhood":"Brookline","city_fetched":"Pittsburgh","state":"PA","country":"United States","canonicalUrl":"https://foursquare.com/v/moonlite-caf%C3%A9/4c9910d57421b71336a1f413","category":"Italian Restaurant","checkinsCount":1091,"usersCount":306,"tipCount":13,"visitsCount":1267,"url":"http://www.moonlitecafe.com","tier":2,"message":"Moderate","currency":"$","rating":7.5},{"name":"Crystal Restaurant","phone":"4124340480","address":"1211 Penn Ave","lat":40.44598970416951,"lng":-79.9919694948992,"neighborhood":"Strip District","city_fetched":"Pittsburgh","state":"PA","country":"United States","canonicalUrl":"https://foursquare.com/v/crystal-restaurant/4b70af66f964a5208e292de3","category":"Middle Eastern Restaurant","checkinsCount":1351,"usersCount":451,"tipCount":13,"visitsCount":1422,"url":"http://crystalonpenn.com","tier":1,"message":"Cheap","currency":"$","rating":7.5},{"name":"Stack'd","phone":"4126823354","twitter":"stackdpgh","address":"728 Copeland St","lat":40.451154,"lng":-79.935046,"neighborhood":"Shadyside","city_fetched":"Pittsburgh","state":"PA","country":"United States","canonicalUrl":"https://foursquare.com/v/stackd/502edebbe4b045d78fa140f9","category":"Burger Joint","checkinsCount":3320,"usersCount":1205,"tipCount":33,"visitsCount":3592,"url":"http://www.stackdpgh.com","tier":2,"message":"Moderate","currency":"$","rating":7.5},{"name":"Kelly's Korner","address":"285 45th St","lat":40.47061591904064,"lng":-79.95707656918972,"neighborhood":"Central Lawrenceville","city_fetched":"Pittsburgh","state":"PA","country":"United States","canonicalUrl":"https://foursquare.com/v/kellys-korner/4bc0f34d74a9a593a208d1f6","category":"Pub","checkinsCount":356,"usersCount":163,"tipCount":7,"visitsCount":432,"tier":"","message":"","currency":"","rating":7.5},{"name":"Braddock's Bar","phone":"4129922005","twitter":"braddocksrenpgh","address":"107 6th St","lat":40.443826722601685,"lng":-80.0025744362964,"neighborhood":"Cultural District","city_fetched":"Pittsburgh","state":"PA","country":"United States","canonicalUrl":"https://foursquare.com/v/braddocks-bar/5062421ae4b09717514786f2","category":"Bar","checkinsCount":140,"usersCount":117,"tipCount":4,"visitsCount":140,"url":"http://braddocksrestaurant.com","tier":"","message":"","currency":"","rating":7.5},{"name":"Ryan's Pub & Grill","phone":"4122410464","address":"607 S Braddock Ave","lat":40.439321091566086,"lng":-79.89742373128325,"neighborhood":"Regent Square","city_fetched":"Pittsburgh","state":"PA","country":"United States","canonicalUrl":"https://foursquare.com/v/ryans-pub--grill/4b5bc443f964a520f11429e3","category":"Pub","checkinsCount":1309,"usersCount":421,"tipCount":7,"visitsCount":1441,"url":"http://ryans-pub.com","tier":2,"message":"Moderate","currency":"$","rating":7.5},{"name":"Krista's Cantina","phone":"4127661676","address":"2650 California Ave","lat":40.46706191692021,"lng":-80.03447771072388,"neighborhood":"North Side","city_fetched":"Pittsburgh","state":"PA","country":"United States","canonicalUrl":"https://foursquare.com/v/kristas-cantina/4deaf010fa76cc1b8af3d967","category":"Bar","checkinsCount":201,"usersCount":79,"tipCount":3,"visitsCount":278,"tier":"","message":"","currency":"","rating":7.5},{"name":"Rockefeller's Grille","phone":"4127779600","address":"1833 McKees Rocks Rd","lat":40.468359960179214,"lng":-80.09518965247743,"city_fetched":"Pittsburgh","state":"PA","country":"United States","canonicalUrl":"https://foursquare.com/v/rockefellers-grille/4b639049f964a520ab832ae3","category":"American Restaurant","checkinsCount":1120,"usersCount":592,"tipCount":10,"visitsCount":1333,"tier":2,"message":"Moderate","currency":"$","rating":7.5},{"name":"Hambone's","phone":"4126814318","address":"4207 Butler St","lat":40.470461834794335,"lng":-79.96050202497462,"neighborhood":"Central Lawrenceville","city_fetched":"Pittsburgh","state":"PA","country":"United States","canonicalUrl":"https://foursquare.com/v/hambones/4ad4c00df964a52092ed20e3","category":"American Restaurant","checkinsCount":2773,"usersCount":914,"tipCount":30,"visitsCount":2850,"url":"http://hambonespittsburgh.com","tier":2,"message":"Moderate","currency":"$","rating":7.5},{"name":"99 Bottles","phone":"4122791299","address":"1001 Washington Ave","lat":40.39872117178543,"lng":-80.08230477992186,"neighborhood":"Scott Township","city_fetched":"Pittsburgh","state":"PA","country":"United States","canonicalUrl":"https://foursquare.com/v/99-bottles/4f235098e4b0a93fbdc45e87","category":"Bar","checkinsCount":1108,"usersCount":503,"tipCount":22,"visitsCount":1466,"tier":"","message":"","currency":"","rating":7.5},{"name":"Carson City Saloon","phone":"4124813203","twitter":"carsoncity1401","address":"1401 E Carson St","lat":40.42891408060195,"lng":-79.98403405645206,"neighborhood":"Southside Flats","city_fetched":"Pittsburgh","state":"PA","country":"United States","canonicalUrl":"https://foursquare.com/carsoncity1401","category":"Sports Bar","checkinsCount":6355,"usersCount":2857,"tipCount":36,"visitsCount":6397,"url":"http://www.carsoncitysaloon.com","tier":2,"message":"Moderate","currency":"$","rating":7.5},{"name":"Hard Rock Cafe Pittsburgh","phone":"4124817625","twitter":"hardrock","address":"230 W Station Square Dr","lat":40.43391490442221,"lng":-80.00484466552734,"neighborhood":"South Shore","city_fetched":"Pittsburgh","state":"PA","country":"United States","canonicalUrl":"https://foursquare.com/v/hard-rock-cafe-pittsburgh/4ad8a195f964a520111321e3","category":"Theme Restaurant","checkinsCount":7784,"usersCount":5414,"tipCount":53,"visitsCount":8068,"url":"http://www.facebook.com/hardrock","tier":2,"message":"Moderate","currency":"$","rating":7.5},{"name":"Milestone Bar & Grill","phone":"4122077161","address":"2809 Brownsville Rd","lat":40.38246058842396,"lng":-79.97751258367781,"neighborhood":"Brentwood-Baldwin","city_fetched":"Pittsburgh","state":"PA","country":"United States","canonicalUrl":"https://foursquare.com/v/milestone-bar--grill/4b6f816df964a5206cf32ce3","category":"Bar","checkinsCount":797,"usersCount":166,"tipCount":5,"visitsCount":836,"tier":"","message":"","currency":"","rating":7.4},{"name":"The BeerHive","phone":"4129044502","twitter":"thebeerhive","address":"2117 Penn Ave","lat":40.452113,"lng":-79.982671,"neighborhood":"Strip District","city_fetched":"Pittsburgh","state":"PA","country":"United States","canonicalUrl":"https://foursquare.com/v/the-beerhive/4de04993d4c040523ea18c1f","category":"Bar","checkinsCount":2701,"usersCount":1467,"tipCount":31,"visitsCount":2948,"url":"http://www.thebeerhive.com","tier":2,"message":"Moderate","currency":"$","rating":7.4},{"name":"Souper Bowl","phone":"4124710216","address":"910 5th Ave","lat":40.43870018723493,"lng":-79.99132633209229,"neighborhood":"Bluff","city_fetched":"Pittsburgh","state":"PA","country":"United States","canonicalUrl":"https://foursquare.com/v/souper-bowl/4ae21661f964a520928a21e3","category":"Bar","checkinsCount":2043,"usersCount":1271,"tipCount":15,"visitsCount":2092,"url":"http://www.thesouperbowl.com","tier":1,"message":"Cheap","currency":"$","rating":7.4},{"name":"The Map Room Grill and Bar","phone":"4123711955","address":"1126 S Braddock Ave","lat":40.43226480789941,"lng":-79.89364590048892,"city_fetched":"Pittsburgh","state":"PA","country":"United States","canonicalUrl":"https://foursquare.com/v/the-map-room-grill-and-bar/4ae3cd98f964a5200e9921e3","category":"Bar","checkinsCount":1215,"usersCount":368,"tipCount":4,"visitsCount":1225,"tier":1,"message":"Cheap","currency":"$","rating":7.4},{"name":"Mullaney's Harp & Fiddle Irish Pub","phone":"4126426622","address":"2329 Penn Ave","lat":40.45332,"lng":-79.980986,"neighborhood":"Strip District","city_fetched":"Pittsburgh","state":"PA","country":"United States","canonicalUrl":"https://foursquare.com/v/mullaneys-harp--fiddle-irish-pub/4ad4c00df964a520b9ed20e3","category":"Pub","checkinsCount":2589,"usersCount":1206,"tipCount":29,"visitsCount":2786,"url":"http://www.harpandfiddle.com","tier":2,"message":"Moderate","currency":"$","rating":7.4},{"name":"Jaggerbush","address":"133 S 23rd St","lat":40.426630628290305,"lng":-79.9731537393253,"neighborhood":"Southside Flats","city_fetched":"Pittsburgh","state":"PA","country":"United States","canonicalUrl":"https://foursquare.com/v/jaggerbush/4b5a68a8f964a5203fc328e3","category":"Bar","checkinsCount":1175,"usersCount":516,"tipCount":7,"visitsCount":1197,"tier":"","message":"","currency":"","rating":7.4},{"name":"The Saloon of Mt. Lebanon","phone":"4125315666","twitter":"lebosaloon","address":"622 Washington Rd","lat":40.38200371566504,"lng":-80.04423352998818,"neighborhood":"Mount Lebanon","city_fetched":"Pittsburgh","state":"PA","country":"United States","canonicalUrl":"https://foursquare.com/v/the-saloon-of-mt-lebanon/4ae7a64ff964a52010ad21e3","category":"Bar","checkinsCount":4792,"usersCount":1402,"tipCount":14,"visitsCount":5091,"url":"http://www.saloonofmtlebanon.com","tier":"","message":"","currency":"","rating":7.4},{"name":"Dave & Buster's","phone":"4124621500","twitter":"daveandbusters","address":"180 E Waterfront Dr","lat":40.40965329752507,"lng":-79.91417872075233,"neighborhood":"Homestead","city_fetched":"Pittsburgh","state":"PA","country":"United States","canonicalUrl":"https://foursquare.com/v/dave--busters/4ad4c00df964a52088ed20e3","category":"American Restaurant","checkinsCount":9589,"usersCount":6328,"tipCount":59,"visitsCount":10669,"url":"http://www.daveandbusters.com","tier":2,"message":"Moderate","currency":"$","rating":7.4},{"name":"Roland's Seafood Grill and Iron Landing","phone":"4122613401","address":"1904 Penn Ave","lat":40.45078553063094,"lng":-79.98436175576916,"neighborhood":"Strip District","city_fetched":"Pittsburgh","state":"PA","country":"United States","canonicalUrl":"https://foursquare.com/v/rolands-seafood-grill-and-iron-landing/4ad4c00df964a52090ed20e3","category":"Bar","checkinsCount":5366,"usersCount":3354,"tipCount":57,"visitsCount":5701,"url":"http://www.rolandsseafoodgrill.com","tier":2,"message":"Moderate","currency":"$","rating":7.4},{"name":"Rex Theater","phone":"4123816811","twitter":"rextheater","address":"1602 E Carson St","lat":40.42881473333333,"lng":-79.982376,"neighborhood":"Southside Flats","city_fetched":"Pittsburgh","state":"PA","country":"United States","canonicalUrl":"https://foursquare.com/v/rex-theater/4ad4c00ff964a52082ee20e3","category":"Concert Hall","checkinsCount":2685,"usersCount":1642,"tipCount":18,"visitsCount":2765,"url":"http://www.rextheater.com","tier":"","message":"","currency":"","rating":7.4},{"name":"Nine on Nine","phone":"4123386463","twitter":"nineonninepa","address":"900 Penn Ave","lat":40.44367,"lng":-79.9983,"neighborhood":"Cultural District","city_fetched":"Pittsburgh","state":"PA","country":"United States","canonicalUrl":"https://foursquare.com/v/nine-on-nine/4b19c894f964a52015e423e3","category":"American Restaurant","checkinsCount":1039,"usersCount":761,"tipCount":18,"visitsCount":1043,"url":"http://www.nineonnine.com","tier":2,"message":"Moderate","currency":"$","rating":7.4},{"name":"Independent Brewing Co","phone":"4124225040","twitter":"independentpgh","address":"1704 Shady Ave","lat":40.437850883273626,"lng":-79.91938222943155,"neighborhood":"Squirrel Hill South","city_fetched":"Pittsburgh","state":"PA","country":"United States","canonicalUrl":"https://foursquare.com/v/independent-brewing-co/52ffe2d7498e6780e20fed9a","category":"Bistro","checkinsCount":865,"usersCount":423,"tipCount":13,"visitsCount":940,"url":"http://www.independentpgh.com","tier":2,"message":"Moderate","currency":"$","rating":7.4},{"name":"Bill's Bar & Burger","phone":"4125672300","twitter":"billsnyc","address":"1001 Penn Ave","lat":40.443923318701145,"lng":-79.99498400729,"neighborhood":"Cultural District","city_fetched":"Pittsburgh","state":"PA","country":"United States","canonicalUrl":"https://foursquare.com/v/bills-bar--burger/55367c03498ee7a9ed100312","category":"Burger Joint","checkinsCount":434,"usersCount":287,"tipCount":3,"visitsCount":456,"url":"http://www.billsbarandburger.com/venues/pittsburgh/","tier":"","message":"","currency":"","rating":7.4},{"name":"Howlers Coyote Cafe","address":"4509 Liberty Ave","lat":40.463049,"lng":-79.951571,"neighborhood":"Bloomfield","city_fetched":"Pittsburgh","state":"PA","country":"United States","canonicalUrl":"https://foursquare.com/v/howlers-coyote-cafe/4ad4c00df964a520b8ed20e3","category":"Rock Club","checkinsCount":2484,"usersCount":821,"tipCount":3,"visitsCount":2499,"tier":"","message":"","currency":"","rating":7.4},{"name":"The Yard","phone":"4122918182","address":"100 5th Ave","lat":40.44129,"lng":-80.002665,"neighborhood":"Fifth and Forbes Corridor","city_fetched":"Pittsburgh","state":"PA","country":"United States","canonicalUrl":"https://foursquare.com/v/the-yard/55d78858498e1979b46584f0","category":"Gastropub","checkinsCount":590,"usersCount":479,"tipCount":7,"visitsCount":715,"url":"http://theyardpgh.com","tier":2,"message":"Moderate","currency":"$","rating":7.4},{"name":"PA Wine & Spirits","phone":"4123063910","twitter":"pawinespirits","address":"2947 W Liberty Ave","lat":40.39387177587646,"lng":-80.0353467464447,"city_fetched":"Pittsburgh","state":"PA","country":"United States","canonicalUrl":"https://foursquare.com/v/pa-wine--spirits/4b227c2ff964a520984724e3","category":"Liquor Store","checkinsCount":347,"usersCount":138,"tipCount":1,"visitsCount":369,"url":"http://finewineandgoodspirits.com","tier":"","message":"","currency":"","rating":7.3},{"name":"Dee's Cafe","phone":"4124311314","address":"1316 E Carson St","lat":40.4288120299249,"lng":-79.98466760735269,"neighborhood":"Southside Flats","city_fetched":"Pittsburgh","state":"PA","country":"United States","canonicalUrl":"https://foursquare.com/v/dees-cafe/4528b03cf964a520193b1fe3","category":"Dive Bar","checkinsCount":5309,"usersCount":1239,"tipCount":36,"visitsCount":5378,"url":"http://www.deescafe.com","tier":1,"message":"Cheap","currency":"$","rating":7.3},{"name":"G&G Noodle Bar","phone":"4122814748","address":"535 Liberty Ave","lat":40.441635740831636,"lng":-80.00225226608339,"neighborhood":"Fifth and Forbes Corridor","city_fetched":"Pittsburgh","state":"PA","country":"United States","canonicalUrl":"https://foursquare.com/v/gg-noodle-bar/52c1f6a6498e94d9b8e32c7c","category":"Gastropub","checkinsCount":1100,"usersCount":873,"tipCount":21,"visitsCount":1208,"url":"http://gritandgracepgh.com","tier":2,"message":"Moderate","currency":"$","rating":7.3},{"name":"William Penn Tavern","phone":"4126211000","address":"739 Bellefonte St","lat":40.451511171001165,"lng":-79.93388701847333,"neighborhood":"Shadyside","city_fetched":"Pittsburgh","state":"PA","country":"United States","canonicalUrl":"https://foursquare.com/v/william-penn-tavern/45055358f964a520fd381fe3","category":"Bar","checkinsCount":7903,"usersCount":2100,"tipCount":45,"visitsCount":8088,"url":"http://www.wmpenntavern.com","tier":1,"message":"Cheap","currency":"$","rating":7.3},{"name":"Pisci's","phone":"4124645181","address":"4437 Main St","lat":40.37957416,"lng":-79.90715632,"city_fetched":"Pittsburgh","state":"PA","country":"United States","canonicalUrl":"https://foursquare.com/v/piscis/4bc7b79392b376b07756503a","category":"Bar","checkinsCount":432,"usersCount":109,"tipCount":3,"visitsCount":454,"tier":"","message":"","currency":"","rating":7.3},{"name":"The Getaway Cafe","phone":"4123431333","address":"3049 Sussex Ave","lat":40.38446836582544,"lng":-80.01573324967286,"city_fetched":"Pittsburgh","state":"PA","country":"United States","canonicalUrl":"https://foursquare.com/v/the-getaway-cafe/4b792e51f964a52012ee2ee3","category":"Bar","checkinsCount":1014,"usersCount":438,"tipCount":11,"visitsCount":1207,"url":"http://www.getawaycafe.com","tier":"","message":"","currency":"","rating":7.3},{"name":"Nico's Recovery Room","phone":"4126819582","address":"178 Pearl St","lat":40.463646950362346,"lng":-79.94910517196237,"neighborhood":"Bloomfield","city_fetched":"Pittsburgh","state":"PA","country":"United States","canonicalUrl":"https://foursquare.com/v/nicos-recovery-room/4b0c7ce1f964a5202c3e23e3","category":"Karaoke Bar","checkinsCount":1368,"usersCount":588,"tipCount":9,"visitsCount":1559,"tier":"","message":"","currency":"","rating":7.3},{"name":"Lou's Little Corner Bar","address":"4924 Liberty Ave","lat":40.45938443,"lng":-79.94506256,"neighborhood":"Bloomfield","city_fetched":"Pittsburgh","state":"PA","country":"United States","canonicalUrl":"https://foursquare.com/v/lous-little-corner-bar/4b5117eaf964a520074227e3","category":"Bar","checkinsCount":644,"usersCount":202,"tipCount":3,"visitsCount":659,"tier":"","message":"","currency":"","rating":7.3},{"name":"Ref's","phone":"4125947337","address":"100 W Station Square Dr","lat":40.43391375,"lng":-80.004981,"neighborhood":"South Shore","city_fetched":"Pittsburgh","state":"PA","country":"United States","canonicalUrl":"https://foursquare.com/v/refs/4b1b304df964a5205af923e3","category":"Bar","checkinsCount":1441,"usersCount":261,"tipCount":5,"visitsCount":1445,"tier":"","message":"","currency":"","rating":7.3},{"name":"E-Town Bar and Grill","phone":"4127841720","address":"304 Butler St","lat":40.495442746596375,"lng":-79.94519843009269,"city_fetched":"Pittsburgh","state":"PA","country":"United States","canonicalUrl":"https://foursquare.com/v/etown-bar-and-grill/4b80a090f964a520fb8130e3","category":"Sports Bar","checkinsCount":823,"usersCount":264,"tipCount":8,"visitsCount":970,"tier":"","message":"","currency":"","rating":7.3},{"name":"Jack's Bar","phone":"4124313644","address":"1121 E Carson St","lat":40.42884343951221,"lng":-79.98663783073425,"neighborhood":"Southside Flats","city_fetched":"Pittsburgh","state":"PA","country":"United States","canonicalUrl":"https://foursquare.com/v/jacks-bar/44f425b3f964a52025381fe3","category":"Dive Bar","checkinsCount":6860,"usersCount":2868,"tipCount":42,"visitsCount":7065,"url":"http://jacksbarpittsburgh.com","tier":1,"message":"Cheap","currency":"$","rating":7.3},{"name":"Courthouse Tavern","phone":"4123388608","address":"310 Forbes Ave","lat":40.439994925936084,"lng":-80.00043935381103,"neighborhood":"Fifth and Forbes Corridor","city_fetched":"Pittsburgh","state":"PA","country":"United States","canonicalUrl":"https://foursquare.com/v/courthouse-tavern/4b991e4af964a5208a6235e3","category":"Bar","checkinsCount":1050,"usersCount":456,"tipCount":9,"visitsCount":1069,"url":"http://www.courthousetavern.com","tier":"","message":"","currency":"","rating":7.3},{"name":"Rivertowne North Shore","phone":"4123225000","address":"337 N Shore Dr","lat":40.445820318894235,"lng":-80.010547041893,"neighborhood":"Northshore","city_fetched":"Pittsburgh","state":"PA","country":"United States","canonicalUrl":"https://foursquare.com/v/rivertowne-north-shore/4ba26c14f964a52072f737e3","category":"American Restaurant","checkinsCount":6799,"usersCount":3257,"tipCount":70,"visitsCount":7277,"url":"http://myrivertowne.com","tier":2,"message":"Moderate","currency":"$","rating":7.3},{"name":"Vallozzi's Pittsburgh","phone":"4123943400","twitter":"vallozzispgh","address":"220 5th Ave","lat":40.441135562702506,"lng":-80.00161338263821,"neighborhood":"Fifth and Forbes Corridor","city_fetched":"Pittsburgh","state":"PA","country":"United States","canonicalUrl":"https://foursquare.com/v/vallozzis-pittsburgh/4f5bb69de4b0a61f4b5e4327","category":"Italian Restaurant","checkinsCount":1032,"usersCount":567,"tipCount":21,"visitsCount":1042,"url":"http://vallozzispittsburgh.com","tier":4,"message":"Very Expensive","currency":"$","rating":7.3},{"name":"CAVO","phone":"4129181068","address":"1916 Smallman St","lat":40.45139716054671,"lng":-79.98447645023884,"neighborhood":"Strip District","city_fetched":"Pittsburgh","state":"PA","country":"United States","canonicalUrl":"https://foursquare.com/v/cavo/5039ae91e4b0ee7faf08a7b7","category":"Nightclub","checkinsCount":1337,"usersCount":867,"tipCount":17,"visitsCount":1588,"url":"http://cavopgh.com","tier":"","message":"","currency":"","rating":7.3},{"name":"Bar Louie","phone":"4123940500","twitter":"barlouie","address":"240 Station Square Dr","lat":40.43453248495992,"lng":-80.00504800849409,"neighborhood":"South Shore","city_fetched":"Pittsburgh","state":"PA","country":"United States","canonicalUrl":"https://foursquare.com/v/bar-louie/45994180f964a52083401fe3","category":"Restaurant","checkinsCount":5810,"usersCount":3677,"tipCount":40,"visitsCount":6052,"url":"http://t.co/6m5uO0JOqN","tier":2,"message":"Moderate","currency":"$","rating":7.2},{"name":"Redbeard's Bar & Grill","phone":"4124313730","address":"201 Shiloh St","lat":40.43070447704833,"lng":-80.00727580134588,"neighborhood":"Mount Washington","city_fetched":"Pittsburgh","state":"PA","country":"United States","canonicalUrl":"https://foursquare.com/v/redbeards-bar--grill/4adcd4fef964a520543021e3","category":"Sports Bar","checkinsCount":5271,"usersCount":1998,"tipCount":37,"visitsCount":5630,"url":"http://redbeardspgh.com","tier":2,"message":"Moderate","currency":"$","rating":7.2},{"name":"Backdraft Bar n Grill","address":"3049 Churchview Ave","lat":40.38606966,"lng":-79.96771897,"neighborhood":"Brentwood-Baldwin","city_fetched":"Pittsburgh","state":"PA","country":"United States","canonicalUrl":"https://foursquare.com/v/backdraft-bar-n-grill/4ba40b27f964a5201e7b38e3","category":"Bar","checkinsCount":726,"usersCount":261,"tipCount":8,"visitsCount":938,"tier":"","message":"","currency":"","rating":7.2},{"name":"Speakeasy","phone":"4125535053","address":"530 William Penn Pl","lat":40.440937987364,"lng":-79.99719567549748,"neighborhood":"Fifth and Forbes Corridor","city_fetched":"Pittsburgh","state":"PA","country":"United States","canonicalUrl":"https://foursquare.com/v/speakeasy/508bd102e4b01ceeb33cb5cf","category":"Speakeasy","checkinsCount":554,"usersCount":406,"tipCount":12,"visitsCount":556,"tier":"","message":"","currency":"","rating":7.2},{"name":"Silky's Pub","phone":"4126836141","address":"5135 Liberty Ave","lat":40.45823,"lng":-79.942199,"neighborhood":"Bloomfield","city_fetched":"Pittsburgh","state":"PA","country":"United States","canonicalUrl":"https://foursquare.com/v/silkys-pub/4ad7c266f964a5206f0e21e3","category":"Pub","checkinsCount":2036,"usersCount":1091,"tipCount":13,"visitsCount":2441,"tier":2,"message":"Moderate","currency":"$","rating":7.2},{"name":"Lefty's","lat":40.451576261040486,"lng":-79.98354250516456,"neighborhood":"Strip District","city_fetched":"Pittsburgh","state":"PA","country":"United States","canonicalUrl":"https://foursquare.com/v/leftys/4baea9f0f964a5205ecc3be3","category":"Bar","checkinsCount":813,"usersCount":434,"tipCount":7,"visitsCount":866,"tier":"","message":"","currency":"","rating":7.2},{"name":"The Elbow Room","phone":"4123631947","address":"5744 1/2 Ellsworth Ave","lat":40.45585018494989,"lng":-79.93118189905387,"neighborhood":"Shadyside","city_fetched":"Pittsburgh","state":"PA","country":"United States","canonicalUrl":"https://foursquare.com/v/the-elbow-room/56df7203498e3611f4211687","category":"New American Restaurant","checkinsCount":73,"usersCount":62,"tipCount":4,"visitsCount":77,"url":"http://www.elbowroompgh.com","tier":2,"message":"Moderate","currency":"$","rating":7.2},{"name":"New Amsterdam","phone":"4129042915","address":"4421 Butler St","lat":40.472076,"lng":-79.95929,"neighborhood":"Central Lawrenceville","city_fetched":"Pittsburgh","state":"PA","country":"United States","canonicalUrl":"https://foursquare.com/v/new-amsterdam/4adcf17af964a520c76221e3","category":"Bar","checkinsCount":3937,"usersCount":1728,"tipCount":35,"visitsCount":4450,"url":"http://www.newamsterdam412.com","tier":2,"message":"Moderate","currency":"$","rating":7.2},{"name":"Garage Door","phone":"4126214842","address":"221 Atwood St","lat":40.44061298017475,"lng":-79.95689749717712,"neighborhood":"Central Oakland","city_fetched":"Pittsburgh","state":"PA","country":"United States","canonicalUrl":"https://foursquare.com/v/garage-door/4ade5fcef964a5206a7521e3","category":"Dive Bar","checkinsCount":3643,"usersCount":1239,"tipCount":10,"visitsCount":3797,"tier":2,"message":"Moderate","currency":"$","rating":7.2},{"name":"Michaels Pizza Bar and Restaurant","phone":"4123816102","address":"2612 Sarah St","lat":40.42647685021736,"lng":-79.9682702639024,"neighborhood":"Southside Flats","city_fetched":"Pittsburgh","state":"PA","country":"United States","canonicalUrl":"https://foursquare.com/v/michaels-pizza-bar-and-restaurant/4b09f01cf964a5201a2023e3","category":"Dive Bar","checkinsCount":1487,"usersCount":525,"tipCount":15,"visitsCount":1598,"tier":2,"message":"Moderate","currency":"$","rating":7.2},{"name":"Pittsburgh Bottle Shop Cafe","phone":"4122798170","twitter":"bottleshopcafe","address":"1597 Washington Pike","lat":40.382337,"lng":-80.095247,"city_fetched":"Pittsburgh","state":"PA","country":"United States","canonicalUrl":"https://foursquare.com/v/pittsburgh-bottle-shop-cafe/4b0db0eff964a520004e23e3","category":"Sports Bar","checkinsCount":3649,"usersCount":1537,"tipCount":28,"visitsCount":4122,"url":"http://www.bottleshopcafe.com","tier":2,"message":"Moderate","currency":"$","rating":7.2},{"name":"Sharp Edge Creekhouse","phone":"4129228118","twitter":"se_creekhouse","address":"288 W Steuben St","lat":40.440303683280945,"lng":-80.080864,"city_fetched":"Pittsburgh","state":"PA","country":"United States","canonicalUrl":"https://foursquare.com/se_creekhouse","category":"Restaurant","checkinsCount":2368,"usersCount":1079,"tipCount":24,"visitsCount":2686,"url":"http://sharpedgebeer.com","tier":3,"message":"Expensive","currency":"$","rating":7.2},{"name":"Excuses Bar & Grill","phone":"4124314090","address":"2526 E Carson St","lat":40.42739152908325,"lng":-79.96868,"neighborhood":"Southside Flats","city_fetched":"Pittsburgh","state":"PA","country":"United States","canonicalUrl":"https://foursquare.com/v/excuses-bar--grill/4ae4d624f964a5209d9e21e3","category":"Rock Club","checkinsCount":4039,"usersCount":802,"tipCount":17,"visitsCount":4107,"tier":"","message":"","currency":"","rating":7.2},{"name":"Mickey's Place","phone":"4127717606","address":"1625 Pine Hollow Rd","lat":40.475264502580465,"lng":-80.08601903915405,"city_fetched":"Pittsburgh","state":"PA","country":"United States","canonicalUrl":"https://foursquare.com/v/mickeys-place/4bba738653649c74ee1149fb","category":"Bar","checkinsCount":599,"usersCount":232,"tipCount":4,"visitsCount":755,"tier":"","message":"","currency":"","rating":7.1},{"name":"Rumerz Sports Bar And Grill","phone":"4127669255","address":"1216 Woods Run Ave","lat":40.47648651666667,"lng":-80.03065197,"neighborhood":"Brighton Heights","city_fetched":"Pittsburgh","state":"PA","country":"United States","canonicalUrl":"https://foursquare.com/v/rumerz-sports-bar-and-grill/4c61945fedd320a131e1aa29","category":"Sports Bar","checkinsCount":386,"usersCount":105,"tipCount":4,"visitsCount":442,"url":"http://rumerzpgh.com","tier":"","message":"","currency":"","rating":7.1},{"name":"Brewski's","phone":"4124819140","address":"801 E Carson St","lat":40.42879614573706,"lng":-79.9908827157285,"neighborhood":"Southside Flats","city_fetched":"Pittsburgh","state":"PA","country":"United States","canonicalUrl":"https://foursquare.com/v/brewskis/4b74d94af964a5201cf52de3","category":"Bar","checkinsCount":1187,"usersCount":388,"tipCount":8,"visitsCount":1228,"tier":1,"message":"Cheap","currency":"$","rating":7.1},{"name":"Lot 17","phone":"4126878117","address":"4617 Liberty Ave","lat":40.46236940156384,"lng":-79.95031267503214,"neighborhood":"Bloomfield","city_fetched":"Pittsburgh","state":"PA","country":"United States","canonicalUrl":"https://foursquare.com/v/lot-17/4ad7ca10f964a520ba0e21e3","category":"Bar","checkinsCount":2903,"usersCount":1121,"tipCount":13,"visitsCount":3120,"tier":"","message":"","currency":"","rating":7.1},{"name":"Tonic Bar And Grill","phone":"4124560460","address":"971 Liberty Ave","lat":40.44374641343403,"lng":-79.99512434005737,"neighborhood":"Cultural District","city_fetched":"Pittsburgh","state":"PA","country":"United States","canonicalUrl":"https://foursquare.com/v/tonic-bar-and-grill/4ad4c00df964a520b2ed20e3","category":"Cocktail Bar","checkinsCount":4177,"usersCount":1994,"tipCount":35,"visitsCount":4261,"url":"http://www.tonicpittsburgh.com","tier":2,"message":"Moderate","currency":"$","rating":7.1},{"name":"The Tap Room","phone":"4122817100","twitter":"omnihotels","address":"530 William Penn Pl","lat":40.440423132294406,"lng":-79.99580025672913,"neighborhood":"Grant Street","city_fetched":"Pittsburgh","state":"PA","country":"United States","canonicalUrl":"https://foursquare.com/v/the-tap-room/4ac3ee45f964a520859d20e3","category":"Hotel Bar","checkinsCount":1690,"usersCount":1085,"tipCount":18,"visitsCount":1705,"url":"http://omnihotels.com","tier":"","message":"","currency":"","rating":7},{"name":"Houlihan's Station Square","phone":"4122320302","twitter":"houlihans","address":"125 W Station Square Dr","lat":40.43356795689821,"lng":-80.00484051507627,"neighborhood":"South Shore","city_fetched":"Pittsburgh","state":"PA","country":"United States","canonicalUrl":"https://foursquare.com/v/houlihans-station-square/4ad4c00df964a52083ed20e3","category":"American Restaurant","checkinsCount":6428,"usersCount":3160,"tipCount":26,"visitsCount":6446,"url":"http://www.houlihans.com","tier":2,"message":"Moderate","currency":"$","rating":7},{"name":"Bites & Brews","phone":"4123614425","address":"5750 Ellsworth Ave","lat":40.45584478333333,"lng":-79.93106381666666,"neighborhood":"Shadyside","city_fetched":"Pittsburgh","state":"PA","country":"United States","canonicalUrl":"https://foursquare.com/v/bites--brews/4ad7c96cf964a520b10e21e3","category":"Bar","checkinsCount":3945,"usersCount":1491,"tipCount":26,"visitsCount":3991,"url":"http://bitesandbrewspittsburgh.com","tier":2,"message":"Moderate","currency":"$","rating":6.9},{"name":"Rock Room","phone":"4126834418","address":"1054 Herron Ave","lat":40.45795875869737,"lng":-79.96381808778303,"neighborhood":"Polish Hill","city_fetched":"Pittsburgh","state":"PA","country":"United States","canonicalUrl":"https://foursquare.com/v/rock-room/4addf4c9f964a520bc6621e3","category":"Dive Bar","checkinsCount":493,"usersCount":330,"tipCount":6,"visitsCount":646,"tier":"","message":"","currency":"","rating":6.9},{"name":"Blush Gentlemen's Club","phone":"4122817703","twitter":"blushexotic","address":"135 9th St","lat":40.444336561139664,"lng":-79.99847896336783,"neighborhood":"Cultural District","city_fetched":"Pittsburgh","state":"PA","country":"United States","canonicalUrl":"https://foursquare.com/v/blush-gentlemens-club/4dfffb2db61ce2a89dfc63cc","category":"Strip Club","checkinsCount":1056,"usersCount":680,"tipCount":4,"visitsCount":1322,"url":"http://www.blushexotic.com","tier":"","message":"","currency":"","rating":6.9},{"name":"Donny's Place","address":"1226 Herron Ave","lat":40.4591703414917,"lng":-79.96570587158203,"neighborhood":"Polish Hill","city_fetched":"Pittsburgh","state":"PA","country":"United States","canonicalUrl":"https://foursquare.com/v/donnys-place/4ad4c00df964a5208ced20e3","category":"Gay Bar","checkinsCount":639,"usersCount":211,"tipCount":3,"visitsCount":746,"tier":"","message":"","currency":"","rating":6.9},{"name":"There Ultra Lounge","phone":"4126424435","twitter":"thereultra","address":"931 Liberty Ave","lat":40.443011511059375,"lng":-79.99668235504791,"neighborhood":"Fifth and Forbes Corridor","city_fetched":"Pittsburgh","state":"PA","country":"United States","canonicalUrl":"https://foursquare.com/v/there-ultra-lounge/4c6dac6be6b7b1f7d174aa8e","category":"Gay Bar","checkinsCount":5914,"usersCount":906,"tipCount":10,"visitsCount":6022,"tier":2,"message":"Moderate","currency":"$","rating":6.9},{"name":"Bar 11","phone":"4123810899","twitter":"bar11pittsburgh","address":"1101 Bradish St","lat":40.42724488333333,"lng":-79.98733132,"neighborhood":"Southside Flats","city_fetched":"Pittsburgh","state":"PA","country":"United States","canonicalUrl":"https://foursquare.com/v/bar-11/4ae350a7f964a520499321e3","category":"Dive Bar","checkinsCount":2324,"usersCount":1133,"tipCount":17,"visitsCount":2571,"tier":1,"message":"Cheap","currency":"$","rating":6.9},{"name":"Sphinx Hookah Bar & Cafe","phone":"4126211153","address":"405 Atwood St","lat":40.43811837709401,"lng":-79.95367079973221,"neighborhood":"Central Oakland","city_fetched":"Pittsburgh","state":"PA","country":"United States","canonicalUrl":"https://foursquare.com/v/sphinx-hookah-bar--cafe/4bea20914f5576b0c519b396","category":"Hookah Bar","checkinsCount":1074,"usersCount":702,"tipCount":25,"visitsCount":1107,"url":"http://sphinx-cafe.com","tier":"","message":"","currency":"","rating":6.9},{"name":"The Loft","address":"1120 S Braddock Ave","lat":40.43203,"lng":-79.893523,"city_fetched":"Pittsburgh","state":"PA","country":"United States","canonicalUrl":"https://foursquare.com/v/the-loft/4ae38d61f964a5208c9621e3","category":"Bar","checkinsCount":1217,"usersCount":384,"tipCount":6,"visitsCount":1244,"tier":"","message":"","currency":"","rating":6.8},{"name":"Tipsy Cow","address":"5741 Ellsworth Ave","lat":40.45573425292969,"lng":-79.93144226074219,"neighborhood":"Shadyside","city_fetched":"Pittsburgh","state":"PA","country":"United States","canonicalUrl":"https://foursquare.com/v/tipsy-cow/5503d979498ec297b5541c44","category":"Pub","checkinsCount":330,"usersCount":218,"tipCount":3,"visitsCount":383,"url":"http://tipsycowpgh.com","tier":"","message":"","currency":"","rating":6.7}]