[{"name":"BottleValues","phone":"5164201000","twitter":"bottlevalues","address":"734 Old Bethpage Rd","lat":40.764549758845384,"lng":-73.45391586916575,"city_fetched":"Plainview","state":"NY","country":"United States","canonicalUrl":"https://foursquare.com/v/bottlevalues/4d1e09f15acaa35da45ab335","category":"Wine Shop","checkinsCount":512,"usersCount":188,"tipCount":2,"visitsCount":521,"url":"http://www.bottlevalues.com","tier":"","message":"","currency":"","rating":8.2},{"name":"The Main Event","phone":"5169355120","address":"799 Old Country Rd","lat":40.773261878622634,"lng":-73.4831714630127,"city_fetched":"Plainview","state":"NY","country":"United States","canonicalUrl":"https://foursquare.com/v/the-main-event/4aeb91d0f964a5206cc321e3","category":"Bar","checkinsCount":3087,"usersCount":1670,"tipCount":39,"visitsCount":3923,"url":"http://themaineventny.com","tier":2,"message":"Moderate","currency":"$","rating":8.1},{"name":"Bistro46","address":"215 Sunnyside Blvd","lat":40.79646121583953,"lng":-73.46689693313037,"city_fetched":"Plainview","state":"NY","country":"United States","canonicalUrl":"https://foursquare.com/v/bistro46/52d4711d498ec5ce5fcffa79","category":"Cocktail Bar","checkinsCount":135,"usersCount":91,"tipCount":1,"visitsCount":138,"tier":"","message":"","currency":"","rating":6.3}]