[{"name":"Naked Turtle","phone":"5185666200","address":"1 Dock St","lat":44.69648108070581,"lng":-73.44407558441162,"city_fetched":"Plattsburgh,US","state":"NY","country":"United States","canonicalUrl":"https://foursquare.com/v/naked-turtle/4be16bc740d676b0aae104ee","categoryId":"4bf58dd8d48988d116941735","category":"Bar","checkinsCount":1445,"usersCount":635,"tipCount":13,"visitsCount":1612,"url":"http://www.nakedturtle.net","tier":"","message":"","currency":"","rating":7.9},{"name":"Mickey's Bar","phone":"5185616332","address":"26 Riley Ave","lat":44.707283,"lng":-73.45378298333333,"city_fetched":"Plattsburgh,US","state":"NY","country":"United States","canonicalUrl":"https://foursquare.com/v/mickeys-bar/4bbf8a1d920eb7131f83172c","categoryId":"4bf58dd8d48988d116941735","category":"Bar","checkinsCount":577,"usersCount":158,"tipCount":3,"visitsCount":643,"tier":"","message":"","currency":"","rating":7.8},{"name":"Monopole","phone":"5185632222","address":"7 Protection Ave","lat":44.69771390207795,"lng":-73.45339661564648,"city_fetched":"Plattsburgh,US","state":"NY","country":"United States","canonicalUrl":"https://foursquare.com/v/monopole/4bd5d7be637ba5932322f770","categoryId":"4bf58dd8d48988d116941735","category":"Bar","checkinsCount":2199,"usersCount":394,"tipCount":13,"visitsCount":2224,"url":"http://monopolebar.com","tier":"","message":"","currency":"","rating":7.1},{"name":"Richard's Grocery","phone":"5185631444","address":"71 Johnson Ave","lat":44.6847115,"lng":-73.4535674,"city_fetched":"Plattsburgh,US","state":"NY","country":"United States","canonicalUrl":"https://foursquare.com/v/richards-grocery/4d7ac8db519b236aef87fac3","categoryId":"50327c8591d4c4b30a586d5d","category":"Brewery","checkinsCount":333,"usersCount":146,"tipCount":4,"visitsCount":402,"tier":"","message":"","currency":"","rating":7.1},{"name":"Peabody's","phone":"5185610158","address":"7 Clinton St","lat":44.697901493967,"lng":-73.45340218523509,"city_fetched":"Plattsburgh,US","state":"NY","country":"United States","canonicalUrl":"https://foursquare.com/v/peabodys/4bd7a3e035aad13af8738ff3","categoryId":"4bf58dd8d48988d116941735","category":"Bar","checkinsCount":2281,"usersCount":357,"tipCount":5,"visitsCount":2291,"url":"http://www.peabodys.com","tier":"","message":"","currency":"","rating":6.8},{"name":"Legend's Brew Pub & Wine Bar","phone":"5185622730","address":"411 State Route 3","lat":44.6964124087898,"lng":-73.48875856621589,"city_fetched":"Plattsburgh,US","state":"NY","country":"United States","canonicalUrl":"https://foursquare.com/v/legends-brew-pub--wine-bar/4df3f2c4b0fb807158c44f88","categoryId":"4bf58dd8d48988d11b941735","category":"Pub","checkinsCount":577,"usersCount":252,"tipCount":6,"visitsCount":580,"url":"http://www.plattsburghbrewingco.com","tier":"","message":"","currency":"","rating":6.8},{"name":"The Green Room","phone":"5185633209","address":"9 Bridge St","lat":44.69785680227296,"lng":-73.4526975729502,"city_fetched":"Plattsburgh,US","state":"NY","country":"United States","canonicalUrl":"https://foursquare.com/v/the-green-room/4c01f900cbeec92874305afe","categoryId":"4bf58dd8d48988d116941735","category":"Bar","checkinsCount":1000,"usersCount":219,"tipCount":9,"visitsCount":1009,"tier":"","message":"","currency":"","rating":6.1},{"name":"Geoffrey's Pub","phone":"5185613091","address":"5453 Peru St","lat":44.695101380543,"lng":-73.45023959210987,"city_fetched":"Plattsburgh,US","state":"NY","country":"United States","canonicalUrl":"https://foursquare.com/v/geoffreys-pub/4b0d9d1bf964a520444c23e3","categoryId":"4bf58dd8d48988d11b941735","category":"Pub","checkinsCount":808,"usersCount":337,"tipCount":8,"visitsCount":922,"url":"http://www.geoffreyspub.com","tier":"","message":"","currency":"","rating":6.1}]