[{"name":"The Annex","phone":"6083487803","address":"115 Hwy 151","lat":42.72592308266798,"lng":-90.4810688453328,"city_fetched":"Platteville,US","state":"WI","country":"United States","canonicalUrl":"https://foursquare.com/v/the-annex/4be4c3122457a5939fc0aa15","categoryId":"4bf58dd8d48988d116941735","category":"Bar","checkinsCount":631,"usersCount":221,"tipCount":5,"visitsCount":635,"tier":"","message":"","currency":"","rating":7.5},{"name":"Ticket Bar & Grill","phone":"6083483700","address":"60 S Court St","lat":42.733863,"lng":-90.479825,"city_fetched":"Platteville,US","state":"WI","country":"United States","canonicalUrl":"https://foursquare.com/v/ticket-bar--grill/4beccd04bbe62d7f9e6e7f2b","categoryId":"4bf58dd8d48988d116941735","category":"Bar","checkinsCount":488,"usersCount":124,"tipCount":2,"visitsCount":508,"tier":"","message":"","currency":"","rating":7.3},{"name":"Brothers on Second","phone":"6083483339","address":"90 N 2nd St","lat":42.73472765155865,"lng":-90.47690611942409,"city_fetched":"Platteville,US","state":"WI","country":"United States","canonicalUrl":"https://foursquare.com/v/brothers-on-second/4b416609f964a52041c625e3","categoryId":"4bf58dd8d48988d116941735","category":"Bar","checkinsCount":855,"usersCount":271,"tipCount":3,"visitsCount":886,"tier":"","message":"","currency":"","rating":7.2},{"name":"Orville T's (OT's)","phone":"6083487737","address":"30 N 2nd St","lat":42.73421032248321,"lng":-90.47713199254879,"city_fetched":"Platteville,US","state":"WI","country":"United States","canonicalUrl":"https://foursquare.com/v/orville-ts-ots/4bdb38c363c5c9b62fe92668","categoryId":"4bf58dd8d48988d116941735","category":"Bar","checkinsCount":1380,"usersCount":210,"tipCount":3,"visitsCount":1401,"tier":"","message":"","currency":"","rating":7.1},{"name":"School Girlz","phone":"6083485005","address":"55 N 2nd St.","lat":42.73438992014369,"lng":-90.47691072906682,"city_fetched":"Platteville,US","state":"WI","country":"United States","canonicalUrl":"https://foursquare.com/v/school-girlz/4bb10369f964a520d6723ce3","categoryId":"4bf58dd8d48988d11f941735","category":"Nightclub","checkinsCount":906,"usersCount":199,"tipCount":3,"visitsCount":908,"tier":"","message":"","currency":"","rating":6.7},{"name":"Red N Debâ€™s Bar & Grill","phone":"6083489149","address":"60 E Mineral St","lat":42.734799,"lng":-90.477021,"city_fetched":"Platteville,US","state":"WI","country":"United States","canonicalUrl":"https://foursquare.com/v/red-n-debs-bar--grill/4be21a38b02ec9b6d9444cc0","categoryId":"4bf58dd8d48988d116941735","category":"Bar","checkinsCount":550,"usersCount":157,"tipCount":4,"visitsCount":552,"tier":"","message":"","currency":"","rating":6.4},{"name":"Boondocks Saloon","phone":"6083482821","address":"70 N 2nd St","lat":42.734507,"lng":-90.4770123,"city_fetched":"Platteville,US","state":"WI","country":"United States","canonicalUrl":"https://foursquare.com/v/boondocks-saloon/4be22c6af07b0f47defff443","categoryId":"4bf58dd8d48988d116941735","category":"Bar","checkinsCount":524,"usersCount":162,"tipCount":2,"visitsCount":530,"tier":"","message":"","currency":"","rating":5.4}]