[{"name":"Cowboy Jack's","phone":"7635590257","twitter":"cowboyjacks","address":"4120 Berkshire Ln N","lat":45.02946934165079,"lng":-93.45484708766115,"neighborhood":"Plymouth - Wayzata","city_fetched":"Plymouth","state":"MN","country":"United States","canonicalUrl":"https://foursquare.com/v/cowboy-jacks/49cac7a9f964a520e2581fe3","category":"American Restaurant","checkinsCount":7550,"usersCount":2891,"tipCount":34,"visitsCount":8828,"url":"http://www.theaftermidnightgroup.com","tier":2,"message":"Moderate","currency":"$","rating":7.3},{"name":"Sunshine Factory Bar & Grill","phone":"7635357000","twitter":"factoryplymouth","address":"4100 Vinewood Ln N","lat":45.0299634285708,"lng":-93.44864573226036,"neighborhood":"Plymouth - Wayzata","city_fetched":"Plymouth","state":"MN","country":"United States","canonicalUrl":"https://foursquare.com/v/sunshine-factory-bar--grill/520679a711d2f3fc79dbff0a","category":"American Restaurant","checkinsCount":1785,"usersCount":1326,"tipCount":29,"visitsCount":3095,"url":"http://www.esunshinefactory.com","tier":2,"message":"Moderate","currency":"$","rating":7.2},{"name":"Creekside Cafe","phone":"7635596288","address":"3131 Campus Drive","lat":45.01642447113086,"lng":-93.45305442810059,"neighborhood":"Plymouth - Wayzata","city_fetched":"Plymouth","state":"MN","country":"United States","canonicalUrl":"https://foursquare.com/v/creekside-cafe/4bd23070462cb713b1d9db07","category":"American Restaurant","checkinsCount":434,"usersCount":118,"tipCount":5,"visitsCount":435,"url":"http://www.thecreeksidecafe.com","tier":1,"message":"Cheap","currency":"$","rating":6.5}]