[{"name":"Portneuf Valley Brewing","phone":"2082321644","twitter":"pokybrewpub","address":"615 S 1st Ave","lat":42.85981001589823,"lng":-112.44328256101046,"city_fetched":"Pocatello,US","state":"ID","country":"United States","canonicalUrl":"https://foursquare.com/v/portneuf-valley-brewing/4b65e0e3f964a5209e052be3","categoryId":"50327c8591d4c4b30a586d5d","category":"Brewery","checkinsCount":779,"usersCount":461,"tipCount":16,"visitsCount":966,"url":"http://www.portneufvalleybrewing.com","tier":"","message":"","currency":"","rating":8.3},{"name":"Hooligans","phone":"2082340213","twitter":"hooliganspoky","address":"122 N 3rd Ave","lat":42.8656151985217,"lng":-112.44575755152786,"city_fetched":"Pocatello,US","state":"ID","country":"United States","canonicalUrl":"https://foursquare.com/v/hooligans/4bac4323f964a520c8ed3ae3","categoryId":"4bf58dd8d48988d116941735","category":"Bar","checkinsCount":675,"usersCount":181,"tipCount":2,"visitsCount":716,"tier":"","message":"","currency":"","rating":6.7},{"name":"Sandbaggers","address":"101-149 E Maple St","lat":42.88043147558729,"lng":-112.45121104644119,"city_fetched":"Pocatello,US","state":"ID","country":"United States","canonicalUrl":"https://foursquare.com/v/sandbaggers/4ccde79c566aa09307722afd","categoryId":"4bf58dd8d48988d116941735","category":"Bar","checkinsCount":363,"usersCount":89,"tipCount":4,"visitsCount":401,"tier":"","message":"","currency":"","rating":6.7},{"name":"Center Street Bar & Grill","phone":"2082329654","address":"542 E Center St","lat":42.86642278037973,"lng":-112.44418830295973,"city_fetched":"Pocatello,US","state":"ID","country":"United States","canonicalUrl":"https://foursquare.com/v/center-street-bar--grill/4baef8e5f964a520b5e43be3","categoryId":"4bf58dd8d48988d116941735","category":"Bar","checkinsCount":1113,"usersCount":146,"tipCount":1,"visitsCount":1289,"tier":"","message":"","currency":"","rating":6.5},{"name":"Flipside Lounge","phone":"2082332116","twitter":"flipsidepoky","address":"117 S Main St","lat":42.861903487559864,"lng":-112.45032140537116,"neighborhood":"Old Town","city_fetched":"Pocatello,US","state":"ID","country":"United States","canonicalUrl":"https://foursquare.com/v/flipside-lounge/4c39f2363849c928580dc2b1","categoryId":"4bf58dd8d48988d121941735","category":"Lounge","checkinsCount":1238,"usersCount":149,"tipCount":5,"visitsCount":1243,"tier":"","message":"","currency":"","rating":6.4},{"name":"First National Bar","phone":"2082331516","address":"232 W Center St","lat":42.86255726156267,"lng":-112.45033085346222,"neighborhood":"Old Town","city_fetched":"Pocatello,US","state":"ID","country":"United States","canonicalUrl":"https://foursquare.com/v/first-national-bar/4d6ac1052bf054819fbcc7ed","categoryId":"4bf58dd8d48988d118941735","category":"Dive Bar","checkinsCount":472,"usersCount":146,"tipCount":2,"visitsCount":572,"tier":"","message":"","currency":"","rating":6.4},{"name":"Club Charleyâ€™s","phone":"2082329606","address":"331 E Center St","lat":42.864804785939015,"lng":-112.44589469186498,"city_fetched":"Pocatello,US","state":"ID","country":"United States","canonicalUrl":"https://foursquare.com/v/club-charleys/4bb3cc48715eef3b51dc86bb","categoryId":"4bf58dd8d48988d1d8941735","category":"Gay Bar","checkinsCount":770,"usersCount":184,"tipCount":3,"visitsCount":822,"url":"http://www.clubcharleys.com","tier":"","message":"","currency":"","rating":6.2},{"name":"Club 91","phone":"2082379577","address":"1259 Yellowstone Ave","lat":42.89826104241456,"lng":-112.45172665695122,"city_fetched":"Pocatello,US","state":"ID","country":"United States","canonicalUrl":"https://foursquare.com/v/club-91/4bc7dde06501c9b62b593f29","categoryId":"4bf58dd8d48988d116941735","category":"Bar","checkinsCount":1325,"usersCount":97,"tipCount":5,"visitsCount":1345,"tier":"","message":"","currency":"","rating":5.9},{"name":"Office Bar & Grill","phone":"2082329816","address":"251 E Center St","lat":42.864581338413714,"lng":-112.44665468874577,"city_fetched":"Pocatello,US","state":"ID","country":"United States","canonicalUrl":"https://foursquare.com/v/office-bar--grill/4d73361d946b6dcb5254497a","categoryId":"4bf58dd8d48988d116941735","category":"Bar","checkinsCount":378,"usersCount":119,"tipCount":3,"visitsCount":393,"tier":"","message":"","currency":"","rating":5.3}]