[{"name":"Shore House Bar & Grill","phone":"7328921669","twitter":"pb_shore_house","address":"2114 Route 88","lat":40.082988601786326,"lng":-74.0697619935151,"city_fetched":"Point Pleasant","state":"NJ","country":"United States","canonicalUrl":"https://foursquare.com/pb_shore_house","category":"American Restaurant","checkinsCount":2843,"usersCount":887,"tipCount":19,"visitsCount":3277,"url":"http://www.theshorehousenj.com","tier":2,"message":"Moderate","currency":"$","rating":8},{"name":"River Rock Restaurant & Marina Bar","phone":"7328401110","twitter":"riverrockin","address":"1600 Route 70","lat":40.09729503561142,"lng":-74.08754825592041,"city_fetched":"Point Pleasant","state":"NJ","country":"United States","canonicalUrl":"https://foursquare.com/v/river-rock-restaurant--marina-bar/4d4383a24e5d3704fe8be093","category":"American Restaurant","checkinsCount":3344,"usersCount":2217,"tipCount":28,"visitsCount":5164,"url":"http://riverrockbricknj-hub.com","tier":2,"message":"Moderate","currency":"$","rating":8},{"name":"Frankie's Bar & Grill","phone":"7328926000","address":"414 NJ Rte 35 S","lat":40.09252657682276,"lng":-74.04954671859741,"city_fetched":"Point Pleasant","state":"NJ","country":"United States","canonicalUrl":"https://foursquare.com/v/frankies-bar--grill/4bed78c56e8c20a1d6647061","category":"Bar","checkinsCount":3297,"usersCount":1594,"tipCount":28,"visitsCount":3850,"url":"http://frankiesbarandgrille.comâ€Ž","tier":2,"message":"Moderate","currency":"$","rating":7.9},{"name":"709","phone":"7322950709","twitter":"709point_beach","address":"709 Arnold Ave","lat":40.091567779305734,"lng":-74.05246555327913,"city_fetched":"Point Pleasant","state":"NJ","country":"United States","canonicalUrl":"https://foursquare.com/v/709/4dbf164043a147cd6eb8e15a","category":"New American Restaurant","checkinsCount":2494,"usersCount":1117,"tipCount":33,"visitsCount":2698,"url":"http://www.709pointbeach.com","tier":3,"message":"Expensive","currency":"$","rating":7.8},{"name":"Amendment 21","lat":40.091835172329645,"lng":-74.04961995119005,"city_fetched":"Point Pleasant","state":"NJ","country":"United States","canonicalUrl":"https://foursquare.com/v/amendment-21/558dd1c6498e6aeaf99a7a5c","category":"Beer Garden","checkinsCount":120,"usersCount":83,"tipCount":2,"visitsCount":127,"tier":"","message":"","currency":"","rating":7.6},{"name":"The Idle Hour","phone":"7328922102","address":"2600 Route 88","lat":40.08161572664705,"lng":-74.0760013461113,"city_fetched":"Point Pleasant","state":"NJ","country":"United States","canonicalUrl":"https://foursquare.com/v/the-idle-hour/4b86c663f964a520619c31e3","category":"Bar","checkinsCount":1267,"usersCount":502,"tipCount":14,"visitsCount":1432,"url":"http://theidlehour.net ","tier":"","message":"","currency":"","rating":6.4}]