[{"name":"The Moose Preserve","phone":"2488587688","address":"43034 Woodward Ave","lat":42.60498902162925,"lng":-83.26486051082611,"city_fetched":"Pontiac","state":"MI","country":"United States","canonicalUrl":"https://foursquare.com/v/the-moose-preserve/4abcf4a2f964a520ce8720e3","category":"American Restaurant","checkinsCount":4458,"usersCount":2139,"tipCount":42,"visitsCount":5010,"url":"http://www.moosepreserve.com","tier":2,"message":"Moderate","currency":"$","rating":7.9},{"name":"Elektricity Nightclub","phone":"2485992212","address":"15 S Saginaw St","lat":42.636295054001465,"lng":-83.29159677028656,"city_fetched":"Pontiac","state":"MI","country":"United States","canonicalUrl":"https://foursquare.com/v/elektricity-nightclub/4ec7139cd5fbfa048f06ca7e","category":"Nightclub","checkinsCount":2531,"usersCount":1254,"tipCount":23,"visitsCount":2720,"url":"http://elektricitymusic.com","tier":2,"message":"Moderate","currency":"$","rating":7.7},{"name":"Green Tavern Bar","phone":"2483321765","twitter":"greentavernbar","address":"1225 Baldwin Ave","lat":42.67124567635,"lng":-83.30080248307061,"city_fetched":"Pontiac","state":"MI","country":"United States","canonicalUrl":"https://foursquare.com/v/green-tavern-bar/4ce30a502c20f04df28af022","category":"Bar","checkinsCount":275,"usersCount":128,"tipCount":6,"visitsCount":373,"url":"https://twitter.com/greentavernbar","tier":"","message":"","currency":"","rating":7.5},{"name":"Liberty Bar","phone":"2487580771","twitter":"libertybar_mi","address":"85 N Saginaw St","lat":42.63947480997349,"lng":-83.29311892390251,"city_fetched":"Pontiac","state":"MI","country":"United States","canonicalUrl":"https://foursquare.com/v/liberty-bar/41326e00f964a520400f1fe3","category":"Gay Bar","checkinsCount":1273,"usersCount":440,"tipCount":13,"visitsCount":1451,"url":"http://www.thelibertybar-hub.com","tier":"","message":"","currency":"","rating":7.3},{"name":"Tonic Night Club","phone":"2483347411","address":"29 S Saginaw St","lat":42.63590014671917,"lng":-83.29162460797755,"city_fetched":"Pontiac","state":"MI","country":"United States","canonicalUrl":"https://foursquare.com/v/tonic-night-club/41326e00f964a520b4101fe3","category":"Nightclub","checkinsCount":797,"usersCount":399,"tipCount":4,"visitsCount":803,"url":"http://www.tonicdetroit.com","tier":"","message":"","currency":"","rating":6.5},{"name":"Ducketts","phone":"2483346222","address":"325 W Walton Blvd","lat":42.678423103487745,"lng":-83.31301324528101,"city_fetched":"Pontiac","state":"MI","country":"United States","canonicalUrl":"https://foursquare.com/v/ducketts/4bc60a7a51b376b091e01a6f","category":"Bar","checkinsCount":898,"usersCount":127,"tipCount":2,"visitsCount":952,"tier":"","message":"","currency":"","rating":6.3},{"name":"4 Brothers Martini Bar and Lounge","address":"2 N Saginaw St","lat":42.636763236265644,"lng":-83.29165595183562,"city_fetched":"Pontiac","state":"MI","country":"United States","canonicalUrl":"https://foursquare.com/v/4-brothers-martini-bar-and-lounge/4df2f8e4d22d8c5470dc6ad8","category":"Lounge","checkinsCount":408,"usersCount":132,"tipCount":6,"visitsCount":417,"tier":"","message":"","currency":"","rating":5.6}]