[{"name":"Total Wine & More","phone":"7576236108","twitter":"totalwine","address":"536 West 21st Street","lat":36.869828,"lng":-76.293301,"neighborhood":"West 21st Street","city_fetched":"Portsmouth","state":"VA","country":"United States","canonicalUrl":"https://foursquare.com/v/total-wine--more/4b6db190f964a5201a872ce3","category":"Wine Shop","checkinsCount":2940,"usersCount":991,"tipCount":9,"visitsCount":3314,"url":"http://www.totalwine.com","tier":"","message":"","currency":"","rating":9},{"name":"The Birch","phone":"7579625400","twitter":"thebirchbar","address":"1231 W Olney Rd","lat":36.864703673653764,"lng":-76.3095934689045,"neighborhood":"Chelsea, Norfolk, VA","city_fetched":"Portsmouth","state":"VA","country":"United States","canonicalUrl":"https://foursquare.com/thebirchbar","category":"Bar","checkinsCount":2424,"usersCount":849,"tipCount":31,"visitsCount":2632,"url":"http://thebirchbar.com","tier":2,"message":"Moderate","currency":"$","rating":8.9},{"name":"A.W. Shucks Raw Bar & Grill","phone":"7576649117","twitter":"a_w_shucks","address":"2200 Colonial Ave","lat":36.869787118082236,"lng":-76.29043025320088,"city_fetched":"Portsmouth","state":"VA","country":"United States","canonicalUrl":"https://foursquare.com/v/aw-shucks-raw-bar--grill/4b0d8219f964a520d04923e3","category":"Seafood Restaurant","checkinsCount":3820,"usersCount":1537,"tipCount":54,"visitsCount":4350,"tier":2,"message":"Moderate","currency":"$","rating":8.8},{"name":"Bier Garden","phone":"7573936022","address":"434 High St","lat":36.8355415598087,"lng":-76.3020579894936,"city_fetched":"Portsmouth","state":"VA","country":"United States","canonicalUrl":"https://foursquare.com/v/bier-garden/4b6b8f69f964a520ef0f2ce3","category":"German Restaurant","checkinsCount":4264,"usersCount":1964,"tipCount":46,"visitsCount":4518,"url":"http://www.biergarden.com","tier":2,"message":"Moderate","currency":"$","rating":8.8},{"name":"Smartmouth Brewing Company","phone":"7576243939","twitter":"smartmouthbeer","address":"1309 Raleigh Ave","lat":36.866567215916795,"lng":-76.30934742882842,"neighborhood":"Chelsea","city_fetched":"Portsmouth","state":"VA","country":"United States","canonicalUrl":"https://foursquare.com/v/smartmouth-brewing-company/505ba4cf498efe383c676e60","category":"Brewery","checkinsCount":1899,"usersCount":918,"tipCount":18,"visitsCount":2391,"url":"http://smartmouthbrewing.com","tier":1,"message":"Cheap","currency":"$","rating":8.7},{"name":"Press 626 Cafe & Wine Bar","phone":"7572826234","address":"626 W Olney Rd","lat":36.86050293331265,"lng":-76.29971355199814,"neighborhood":"Ghent","city_fetched":"Portsmouth","state":"VA","country":"United States","canonicalUrl":"https://foursquare.com/v/press-626-cafe--wine-bar/4b637854f964a520547c2ae3","category":"Wine Bar","checkinsCount":1790,"usersCount":893,"tipCount":32,"visitsCount":2111,"url":"http://www.press626.com","tier":2,"message":"Moderate","currency":"$","rating":8.5},{"name":"Town Point Club","phone":"7576256606","address":"101 W Main St","lat":36.846268082050194,"lng":-76.29334859368863,"neighborhood":"Downtown Norfolk","city_fetched":"Portsmouth","state":"VA","country":"United States","canonicalUrl":"https://foursquare.com/v/town-point-club/4b451e3cf964a520480526e3","category":"Other Nightlife","checkinsCount":1442,"usersCount":323,"tipCount":7,"visitsCount":1477,"tier":"","message":"","currency":"","rating":8.4},{"name":"The Torch","phone":"7574166848","address":"601 Orapax St","lat":36.86512470828764,"lng":-76.30974327523111,"city_fetched":"Portsmouth","state":"VA","country":"United States","canonicalUrl":"https://foursquare.com/v/the-torch/5536dbe2498ea3ffb2a6f294","category":"Bar","checkinsCount":308,"usersCount":220,"tipCount":6,"visitsCount":484,"tier":"","message":"","currency":"","rating":8.2},{"name":"Bold Mariner Brewing Company","address":"2409 Bowdens Ferry Rd","lat":36.876185716671934,"lng":-76.3050778677435,"neighborhood":"West 21st Street","city_fetched":"Portsmouth","state":"VA","country":"United States","canonicalUrl":"https://foursquare.com/v/bold-mariner-brewing-company/561d209d498e7e6fc74f2055","category":"Brewery","checkinsCount":113,"usersCount":156,"tipCount":2,"visitsCount":244,"tier":"","message":"","currency":"","rating":8.1},{"name":"Spirit of Norfolk","phone":"8663042469","twitter":"spiritofnorfolk","address":"109 E Main St Ste 500","lat":36.844838520601634,"lng":-76.29322528839111,"city_fetched":"Portsmouth","state":"VA","country":"United States","canonicalUrl":"https://foursquare.com/v/spirit-of-norfolk/4b7899fdf964a5208fd92ee3","category":"Boat or Ferry","checkinsCount":1009,"usersCount":898,"tipCount":2,"visitsCount":1058,"url":"http://www.spiritcruises.com/norfolk","tier":"","message":"","currency":"","rating":8.1},{"name":"Empire Little Bar Bistro","phone":"7576263100","address":"257 Granby St","lat":36.849540141039675,"lng":-76.29069041793142,"neighborhood":"Downtown Norfolk","city_fetched":"Portsmouth","state":"VA","country":"United States","canonicalUrl":"https://foursquare.com/v/empire-little-bar-bistro/4b730b44f964a520cd972de3","category":"Bar","checkinsCount":1903,"usersCount":807,"tipCount":30,"visitsCount":1983,"url":"http://www.littlebarbistro.com","tier":3,"message":"Expensive","currency":"$","rating":8.1},{"name":"NEX Naval Station Norfolk Package Store","phone":"7574402110","address":"1560 Mall Dr","lat":36.94211205382715,"lng":-76.31267250198154,"neighborhood":"Naval Station Norfolk","city_fetched":"Portsmouth","state":"VA","country":"United States","canonicalUrl":"https://foursquare.com/v/nex-naval-station-norfolk-package-store/4b915931f964a5202eb533e3","category":"Liquor Store","checkinsCount":1216,"usersCount":976,"tipCount":11,"visitsCount":1947,"tier":"","message":"","currency":"","rating":8},{"name":"The Public House","phone":"7572279064","twitter":"publichouseeats","address":"1112 Colley Ave","lat":36.865476198461394,"lng":-76.29899740219116,"neighborhood":"Ghent","city_fetched":"Portsmouth","state":"VA","country":"United States","canonicalUrl":"https://foursquare.com/v/the-public-house/4ce6c41d75c62c0f6cc9e457","category":"Gastropub","checkinsCount":5511,"usersCount":2135,"tipCount":75,"visitsCount":6779,"url":"http://www.publichouseeats.com","tier":2,"message":"Moderate","currency":"$","rating":7.8},{"name":"Tap It Local","phone":"7576233760","address":"244 Granby St","lat":36.849002490593534,"lng":-76.29071304092747,"neighborhood":"Downtown Norfolk","city_fetched":"Portsmouth","state":"VA","country":"United States","canonicalUrl":"https://foursquare.com/v/tap-it-local/5650b274498ee6bcc782dd6f","category":"Bar","checkinsCount":154,"usersCount":97,"tipCount":3,"visitsCount":165,"tier":"","message":"","currency":"","rating":7.8},{"name":"Tap House Grill at Ghent","phone":"7576279172","address":"931 W 21st St","lat":36.8721158444216,"lng":-76.29966013474258,"neighborhood":"West 21st Street","city_fetched":"Portsmouth","state":"VA","country":"United States","canonicalUrl":"https://foursquare.com/v/tap-house-grill-at-ghent/4b4008dcf964a52094b425e3","category":"Bar","checkinsCount":2913,"usersCount":1141,"tipCount":32,"visitsCount":3079,"tier":2,"message":"Moderate","currency":"$","rating":7.6},{"name":"The Vineyards Trattoria and Pizzeria","phone":"7572220431","address":"147 Granby St","lat":36.84759068110263,"lng":-76.29155008908243,"neighborhood":"Downtown Norfolk","city_fetched":"Portsmouth","state":"VA","country":"United States","canonicalUrl":"https://foursquare.com/v/the-vineyards-trattoria-and-pizzeria/4bd9adfd2e6f0f47e7720b08","category":"Italian Restaurant","checkinsCount":391,"usersCount":262,"tipCount":12,"visitsCount":398,"url":"http://www.thevineyardsnorfolk.com","tier":2,"message":"Moderate","currency":"$","rating":7.6},{"name":"Roger Brown's Restaurant & Sports Bar","phone":"7573995377","twitter":"rogerbrowns","address":"316 High St","lat":36.83561767887157,"lng":-76.30013518486905,"city_fetched":"Portsmouth","state":"VA","country":"United States","canonicalUrl":"https://foursquare.com/v/roger-browns-restaurant--sports-bar/4b4551d1f964a5208a0a26e3","category":"Sports Bar","checkinsCount":2203,"usersCount":1376,"tipCount":39,"visitsCount":2460,"url":"http://www.rogerbrowns.com","tier":2,"message":"Moderate","currency":"$","rating":7.5},{"name":"Waterside Marina","phone":"7576253625","address":"333 Waterside Dr #106","lat":36.84425297020021,"lng":-76.29187812003397,"neighborhood":"Downtown Norfolk","city_fetched":"Portsmouth","state":"VA","country":"United States","canonicalUrl":"https://foursquare.com/v/waterside-marina/4ba668d8f964a5205b4f39e3","category":"Harbor / Marina","checkinsCount":1294,"usersCount":887,"tipCount":6,"visitsCount":1359,"url":"http://www.watersidemarina.comâ€Ž","tier":"","message":"","currency":"","rating":7.5},{"name":"757 Crave on the Harbor","phone":"7579667919","twitter":"757craver","address":"10 Crawford Pkwy","lat":36.841416834179896,"lng":-76.29804268946057,"city_fetched":"Portsmouth","state":"VA","country":"United States","canonicalUrl":"https://foursquare.com/v/757-crave-on-the-harbor/4c082a78340720a167b58293","category":"American Restaurant","checkinsCount":1104,"usersCount":470,"tipCount":12,"visitsCount":1292,"url":"http://757cravers-hub.com","tier":3,"message":"Expensive","currency":"$","rating":7.4},{"name":"Gershwin's","phone":"7572260814","address":"332 Granby St","lat":36.85056492820417,"lng":-76.28997213581084,"neighborhood":"Downtown Norfolk","city_fetched":"Portsmouth","state":"VA","country":"United States","canonicalUrl":"https://foursquare.com/v/gershwins/5361a670498ead277d927195","category":"Piano Bar","checkinsCount":151,"usersCount":117,"tipCount":7,"visitsCount":157,"url":"http://www.gershwinsnorfolk.com","tier":"","message":"","currency":"","rating":7.3},{"name":"Colley Cantina","phone":"7576220033","twitter":"novavictims","address":"1316 Colley Ave","lat":36.86696,"lng":-76.298356,"neighborhood":"Ghent","city_fetched":"Portsmouth","state":"VA","country":"United States","canonicalUrl":"https://foursquare.com/v/colley-cantina/4b0731b6f964a52057f922e3","category":"Taco Place","checkinsCount":3599,"usersCount":946,"tipCount":37,"visitsCount":3853,"url":"http://colleycantina.com","tier":2,"message":"Moderate","currency":"$","rating":7.3},{"name":"Peck & Pour","phone":"7573954176","address":"1308 Colley Ave","lat":36.866916,"lng":-76.298463,"neighborhood":"Ghent","city_fetched":"Portsmouth","state":"VA","country":"United States","canonicalUrl":"https://foursquare.com/v/peck--pour/54f258cd498e8e052f82febf","category":"Wings Joint","checkinsCount":336,"usersCount":119,"tipCount":4,"visitsCount":374,"url":"http://pecknpour.com","tier":"","message":"","currency":"","rating":7.3},{"name":"Coelacanth Brewing","phone":"7573836438","twitter":"coelacanthbrew","address":"760A W 22nd St","lat":36.87149210143347,"lng":-76.29524321851459,"neighborhood":"West 21st Street","city_fetched":"Portsmouth","state":"VA","country":"United States","canonicalUrl":"https://foursquare.com/v/coelacanth-brewing/55a3d0f3498e29417e5e7a5a","category":"Brewery","checkinsCount":174,"usersCount":160,"tipCount":2,"visitsCount":263,"url":"http://www.coelacanth.com","tier":"","message":"","currency":"","rating":7.2},{"name":"Nazef Char Grill & Hookah Bar","phone":"7576224500","address":"806 Harrington Ave","lat":36.8706,"lng":-76.29686587,"neighborhood":"West 21st Street","city_fetched":"Portsmouth","state":"VA","country":"United States","canonicalUrl":"https://foursquare.com/v/nazef-char-grill--hookah-bar/4bb3f46c643cd13a4d3f395c","category":"Hookah Bar","checkinsCount":198,"usersCount":132,"tipCount":5,"visitsCount":199,"tier":"","message":"","currency":"","rating":7.2},{"name":"Tilted Kilt","phone":"7579661822","twitter":"tiltedkiltpub","address":"2400 Portsmouth Blvd","lat":36.82654448767885,"lng":-76.41445960182415,"neighborhood":"Western Branch","city_fetched":"Portsmouth","state":"VA","country":"United States","canonicalUrl":"https://foursquare.com/v/tilted-kilt/553bdfec498e322eb47b874c","category":"Pub","checkinsCount":101,"usersCount":49,"tipCount":1,"visitsCount":105,"url":"http://www.tiltedkilt.com","tier":"","message":"","currency":"","rating":7.2},{"name":"Nazef Hookah Lounge","phone":"7579638733","address":"7734 Hampton Blvd","lat":36.917346635150004,"lng":-76.30915516015051,"neighborhood":"North Shore","city_fetched":"Portsmouth","state":"VA","country":"United States","canonicalUrl":"https://foursquare.com/v/nazef-hookah-lounge/4b9ac556f964a5200bd435e3","category":"Hookah Bar","checkinsCount":324,"usersCount":102,"tipCount":9,"visitsCount":332,"tier":"","message":"","currency":"","rating":7.2},{"name":"Big Woodys","phone":"7579662656","address":"4200 Portsmouth Blvd Ste 872","lat":36.82656997331629,"lng":-76.41403581687969,"neighborhood":"Western Branch","city_fetched":"Portsmouth","state":"VA","country":"United States","canonicalUrl":"https://foursquare.com/v/big-woodys/4eebc3e630f824cfc2ffea9b","category":"Bar","checkinsCount":957,"usersCount":385,"tipCount":12,"visitsCount":1068,"url":"http://bigwoodys.net","tier":"","message":"","currency":"","rating":7.2},{"name":"Wave Restaurant","phone":"7574405911","twitter":"thewavenorfolk","address":"4107 Colley Ave","lat":36.88264238241422,"lng":-76.29522625184464,"city_fetched":"Portsmouth","state":"VA","country":"United States","canonicalUrl":"https://foursquare.com/v/wave-restaurant/4be3728399feb713420c82f6","category":"Nightclub","checkinsCount":3515,"usersCount":941,"tipCount":22,"visitsCount":3843,"tier":1,"message":"Cheap","currency":"$","rating":7.1},{"name":"Red Dog Saloon","phone":"7576250259","address":"1421 Colley Ave","lat":36.8677711357833,"lng":-76.29818973075254,"neighborhood":"Ghent","city_fetched":"Portsmouth","state":"VA","country":"United States","canonicalUrl":"https://foursquare.com/v/red-dog-saloon/4b5880c1f964a520ea5a28e3","category":"Bar","checkinsCount":7196,"usersCount":1933,"tipCount":25,"visitsCount":7498,"url":"http://www.reddogsaloon.com","tier":2,"message":"Moderate","currency":"$","rating":7},{"name":"Todd Jurich's Bistro","phone":"7576223210","twitter":"toddsbistro","address":"150 W Main St","lat":36.84732886402614,"lng":-76.29340515004365,"neighborhood":"Downtown Norfolk","city_fetched":"Portsmouth","state":"VA","country":"United States","canonicalUrl":"https://foursquare.com/v/todd-jurichs-bistro/4b730669f964a52087962de3","category":"American Restaurant","checkinsCount":1649,"usersCount":591,"tipCount":11,"visitsCount":1731,"url":"http://www.toddjurichsbistro.com","tier":2,"message":"Moderate","currency":"$","rating":6.9}]