[{"name":"The House of Brews","phone":"7726926999","twitter":"jensenbeachthob","address":"3311 NW Main Ave","lat":27.246007142762704,"lng":-80.2691388130188,"city_fetched":"Port St. Lucie,US","state":"FL","country":"United States","canonicalUrl":"https://foursquare.com/v/the-house-of-brews/4e74e569091a4b66f1e65979","categoryId":"4bf58dd8d48988d116941735","category":"Bar","checkinsCount":1654,"usersCount":410,"tipCount":7,"visitsCount":2056,"url":"http://thehouseofbrews.com","tier":1,"message":"Cheap","currency":"$","rating":9},{"name":"Vine & Barley","phone":"7724467550","twitter":"vineandbarley","address":"1680 SW Saint Lucie West Blvd","lat":27.311307343487854,"lng":-80.40202617645264,"neighborhood":"St. Lucie West","city_fetched":"Port St. Lucie,US","state":"FL","country":"United States","canonicalUrl":"https://foursquare.com/vineandbarley","categoryId":"4bf58dd8d48988d123941735","category":"Wine Bar","checkinsCount":2334,"usersCount":681,"tipCount":16,"visitsCount":2654,"url":"http://www.vineandbarley.com","tier":2,"message":"Moderate","currency":"$","rating":8.8},{"name":"Terra Fermata","lat":27.194483,"lng":-80.252292,"city_fetched":"Port St. Lucie,US","state":"FL","country":"United States","canonicalUrl":"https://foursquare.com/v/terra-fermata/50a9627fe4b08df1a93cc7ef","categoryId":"4bf58dd8d48988d117941735","category":"Beer Garden","checkinsCount":600,"usersCount":431,"tipCount":11,"visitsCount":865,"tier":"","message":"","currency":"","rating":8.7},{"name":"Vine and Barley Palm City","phone":"7727811717","address":"2951 SW High Meadows Ave","lat":27.16939459058505,"lng":-80.29381954403856,"city_fetched":"Port St. Lucie,US","state":"FL","country":"United States","canonicalUrl":"https://foursquare.com/v/vine-and-barley-palm-city/4faaf10ce4b01a059d07e8fc","categoryId":"4bf58dd8d48988d123941735","category":"Wine Bar","checkinsCount":827,"usersCount":250,"tipCount":5,"visitsCount":1280,"url":"http://vineandbarleypalmcity.com","tier":2,"message":"Moderate","currency":"$","rating":8.7},{"name":"12a Buoy","phone":"7726724524","address":"22 Fishermans Wharf","lat":27.456187059362488,"lng":-80.32466989958621,"city_fetched":"Port St. Lucie,US","state":"FL","country":"United States","canonicalUrl":"https://foursquare.com/v/12a-buoy/4b8182dff964a5206aab30e3","categoryId":"4bf58dd8d48988d116941735","category":"Bar","checkinsCount":923,"usersCount":827,"tipCount":46,"visitsCount":1309,"tier":"","message":"","currency":"","rating":8.7},{"name":"Sailfish Brewing Company","address":"407 N 2nd St","lat":27.4515720249267,"lng":-80.32585036793854,"neighborhood":"Downtown Fort Pierce","city_fetched":"Port St. Lucie,US","state":"FL","country":"United States","canonicalUrl":"https://foursquare.com/v/sailfish-brewing-company/515b6a99e4b01a7447641e54","categoryId":"50327c8591d4c4b30a586d5d","category":"Brewery","checkinsCount":424,"usersCount":285,"tipCount":7,"visitsCount":644,"url":"http://sailfishbrewingco.com","tier":"","message":"","currency":"","rating":8.6},{"name":"St Lucie Draft House & Sports Bar","phone":"7724602338","address":"6630 S US Highway 1","lat":27.34465316821375,"lng":-80.32560013178963,"city_fetched":"Port St. Lucie,US","state":"FL","country":"United States","canonicalUrl":"https://foursquare.com/v/st-lucie-draft-house--sports-bar/4b7df797f964a520a0dc2fe3","categoryId":"4bf58dd8d48988d11d941735","category":"Sports Bar","checkinsCount":1339,"usersCount":748,"tipCount":19,"visitsCount":1990,"url":"http://www.sldrafthouse.com","tier":"","message":"","currency":"","rating":8.2},{"name":"Bonefish Mac's Sports Grille","phone":"7723446227","twitter":"archbishopyoung","address":"662 SE Becker Rd","lat":27.209450356807196,"lng":-80.32763463892462,"city_fetched":"Port St. Lucie,US","state":"FL","country":"United States","canonicalUrl":"https://foursquare.com/v/bonefish-macs-sports-grille/4b623e54f964a5203c3e2ae3","categoryId":"4bf58dd8d48988d11d941735","category":"Sports Bar","checkinsCount":1653,"usersCount":856,"tipCount":18,"visitsCount":2001,"url":"http://bonefishmacs.com","tier":2,"message":"Moderate","currency":"$","rating":8.1},{"name":"Slice Bar & Lounge Club Med Sandpiper Bay","address":"3399 SE Morningside Blvd","lat":27.244593,"lng":-80.311761,"city_fetched":"Port St. Lucie,US","state":"FL","country":"United States","canonicalUrl":"https://foursquare.com/v/slice-bar--lounge-club-med-sandpiper-bay/4da237f222a5f04de09a0c55","categoryId":"4bf58dd8d48988d121941735","category":"Lounge","checkinsCount":490,"usersCount":210,"tipCount":3,"visitsCount":497,"tier":"","message":"","currency":"","rating":8.1},{"name":"Jetty Lounge","phone":"7724611750","address":"100 S Ocean Dr","lat":27.469235199923407,"lng":-80.29159918929611,"neighborhood":"South Beach","city_fetched":"Port St. Lucie,US","state":"FL","country":"United States","canonicalUrl":"https://foursquare.com/v/jetty-lounge/4cf0962d6c29236a77ae60a2","categoryId":"4bf58dd8d48988d121941735","category":"Lounge","checkinsCount":1088,"usersCount":476,"tipCount":15,"visitsCount":1139,"tier":"","message":"","currency":"","rating":8},{"name":"Miller's Jensen Ale House","phone":"7726923611","address":"3611 NW Federal Hwy","lat":27.248538164534335,"lng":-80.2733389134861,"city_fetched":"Port St. Lucie,US","state":"FL","country":"United States","canonicalUrl":"https://foursquare.com/v/millers-jensen-ale-house/4b6dce19f964a52079912ce3","categoryId":"4bf58dd8d48988d11d941735","category":"Sports Bar","checkinsCount":2102,"usersCount":1288,"tipCount":22,"visitsCount":2899,"url":"http://www.millersalehouse.com","tier":2,"message":"Moderate","currency":"$","rating":8},{"name":"Duffy's Sports Grill","phone":"7729243565","twitter":"duffysmvp","address":"1608 NW Courtyard Cir","lat":27.315047985315083,"lng":-80.40880063130663,"neighborhood":"St. Lucie West","city_fetched":"Port St. Lucie,US","state":"FL","country":"United States","canonicalUrl":"https://foursquare.com/v/duffys-sports-grill/4e0274dd227144bc81cbe729","categoryId":"4bf58dd8d48988d11d941735","category":"Sports Bar","checkinsCount":4057,"usersCount":1507,"tipCount":37,"visitsCount":4511,"url":"http://duffysmvp.com","tier":2,"message":"Moderate","currency":"$","rating":7.8},{"name":"Duffy's Sports Grill","phone":"7727811388","twitter":"duffysmvp","address":"6431 SE Federal Hwy","lat":27.127489856703157,"lng":-80.19574197062414,"city_fetched":"Port St. Lucie,US","state":"FL","country":"United States","canonicalUrl":"https://foursquare.com/v/duffys-sports-grill/4b96ddaff964a520e8e934e3","categoryId":"4bf58dd8d48988d11d941735","category":"Sports Bar","checkinsCount":935,"usersCount":615,"tipCount":12,"visitsCount":1375,"url":"http://duffysmvp.com","tier":2,"message":"Moderate","currency":"$","rating":7.4},{"name":"Bogeys & Stogeys Cigar Bar & Lounge","phone":"7723377778","address":"1032 SE Port St Lucie Blvd","lat":27.27155710226046,"lng":-80.31920797813291,"city_fetched":"Port St. Lucie,US","state":"FL","country":"United States","canonicalUrl":"https://foursquare.com/v/bogeys--stogeys-cigar-bar--lounge/4c466cac417b20a191c9daa9","categoryId":"4bf58dd8d48988d122941735","category":"Whisky Bar","checkinsCount":547,"usersCount":113,"tipCount":9,"visitsCount":569,"tier":"","message":"","currency":"","rating":7.3},{"name":"Longneck Brew House","phone":"7722102296","twitter":"longneckbrewing","address":"950 SE Indian St","lat":27.160356995357333,"lng":-80.24034261703491,"city_fetched":"Port St. Lucie,US","state":"FL","country":"United States","canonicalUrl":"https://foursquare.com/v/longneck-brew-house/513011df011cc28997cda136","categoryId":"4bf58dd8d48988d11b941735","category":"Pub","checkinsCount":285,"usersCount":107,"tipCount":4,"visitsCount":330,"url":"http://longneckbrewhouse.com","tier":"","message":"","currency":"","rating":7.3},{"name":"Cafe Hookah","phone":"7722495754","twitter":"cafehookah638","address":"638 SW Bayshore Blvd","lat":27.313508814540942,"lng":-80.37176697425673,"city_fetched":"Port St. Lucie,US","state":"FL","country":"United States","canonicalUrl":"https://foursquare.com/v/cafe-hookah/5035897e830252a42f2c46dd","categoryId":"4bf58dd8d48988d119941735","category":"Hookah Bar","checkinsCount":63,"usersCount":36,"tipCount":3,"visitsCount":63,"tier":"","message":"","currency":"","rating":7.3},{"name":"Duffy's Sports Grill","phone":"7722214899","twitter":"duffysmvp","address":"1 SW Osceola St","lat":27.198738803179555,"lng":-80.25297045707703,"city_fetched":"Port St. Lucie,US","state":"FL","country":"United States","canonicalUrl":"https://foursquare.com/v/duffys-sports-grill/4c6b073d23971b8d8876998a","categoryId":"4bf58dd8d48988d11d941735","category":"Sports Bar","checkinsCount":1973,"usersCount":1199,"tipCount":28,"visitsCount":2333,"url":"http://duffysmvp.com","tier":1,"message":"Cheap","currency":"$","rating":7.3},{"name":"Goodtimes West","phone":"7728788844","address":"St. Lucie West","lat":27.31224238872528,"lng":-80.40884,"neighborhood":"St. Lucie West","city_fetched":"Port St. Lucie,US","state":"FL","country":"United States","canonicalUrl":"https://foursquare.com/v/goodtimes-west/4d97ec6edaec224b1cb43d3e","categoryId":"4bf58dd8d48988d11f941735","category":"Nightclub","checkinsCount":218,"usersCount":81,"tipCount":5,"visitsCount":224,"tier":"","message":"","currency":"","rating":7.2},{"name":"Harper's Pub","address":"1744 SE Port St Lucie Blvd","lat":27.2701007,"lng":-80.29917628,"city_fetched":"Port St. Lucie,US","state":"FL","country":"United States","canonicalUrl":"https://foursquare.com/v/harpers-pub/4bb6f1cc1344b71397409e04","categoryId":"4bf58dd8d48988d116941735","category":"Bar","checkinsCount":525,"usersCount":103,"tipCount":8,"visitsCount":568,"tier":"","message":"","currency":"","rating":7.1},{"name":"The Crafted Keg","phone":"7726008218","twitter":"thecraftedkeg","address":"555 S Colorado Ave","lat":27.195041019080172,"lng":-80.25263786315918,"city_fetched":"Port St. Lucie,US","state":"FL","country":"United States","canonicalUrl":"https://foursquare.com/v/the-crafted-keg/52731562498e20adc1a78165","categoryId":"4bf58dd8d48988d117941735","category":"Beer Garden","checkinsCount":303,"usersCount":198,"tipCount":6,"visitsCount":331,"url":"http://www.thecraftedkegstuart.com","tier":2,"message":"Moderate","currency":"$","rating":7},{"name":"Vâ€™s Town Tavern","phone":"7728003239","address":"790 SW Saint Lucie West Blvd","lat":27.316416837346978,"lng":-80.37958145141602,"neighborhood":"St. Lucie West","city_fetched":"Port St. Lucie,US","state":"FL","country":"United States","canonicalUrl":"https://foursquare.com/v/vs-town-tavern/532cbb7f498e966ef47f79b6","categoryId":"4bf58dd8d48988d11d941735","category":"Sports Bar","checkinsCount":46,"usersCount":38,"tipCount":4,"visitsCount":52,"url":"http://www.vstowntavern.com","tier":"","message":"","currency":"","rating":6.7},{"name":"Scooters","phone":"7725466235","address":"8913 SE Bridge Rd","lat":27.06194766117282,"lng":-80.1338599616274,"city_fetched":"Port St. Lucie,US","state":"FL","country":"United States","canonicalUrl":"https://foursquare.com/v/scooters/4b6de747f964a5207c9a2ce3","categoryId":"4bf58dd8d48988d116941735","category":"Bar","checkinsCount":468,"usersCount":284,"tipCount":6,"visitsCount":636,"tier":"","message":"","currency":"","rating":6.6},{"name":"GOOD TIMES  (EAST)","phone":"7723373546","address":"9144 S US Highway 1","lat":27.29930611233017,"lng":-80.30231948033807,"city_fetched":"Port St. Lucie,US","state":"FL","country":"United States","canonicalUrl":"https://foursquare.com/v/good-times--east/4c00701cdf6c0f47346d8b22","categoryId":"4bf58dd8d48988d116941735","category":"Bar","checkinsCount":340,"usersCount":104,"tipCount":3,"visitsCount":378,"tier":"","message":"","currency":"","rating":6.3},{"name":"Rebar","phone":"7723407777","address":"8283 S US Highway 1","lat":27.31740311823712,"lng":-80.3164768846326,"city_fetched":"Port St. Lucie,US","state":"FL","country":"United States","canonicalUrl":"https://foursquare.com/v/rebar/4bd44d6777b29c744d5b9282","categoryId":"4bf58dd8d48988d1d8941735","category":"Gay Bar","checkinsCount":843,"usersCount":252,"tipCount":10,"visitsCount":941,"tier":"","message":"","currency":"","rating":6.3},{"name":"City Limits Sports Bar","phone":"7723368201","address":"900 SW Gatlin Blvd","lat":27.258464,"lng":-80.375821,"city_fetched":"Port St. Lucie,US","state":"FL","country":"United States","canonicalUrl":"https://foursquare.com/v/city-limits-sports-bar/4c09b6a9bbc676b09cc548d5","categoryId":"4bf58dd8d48988d11d941735","category":"Sports Bar","checkinsCount":275,"usersCount":97,"tipCount":5,"visitsCount":287,"url":"http://citylimitspsl.com","tier":"","message":"","currency":"","rating":6},{"name":"B. Merry Gastro Pub","address":"23 SW Osceola St","lat":27.19911921042091,"lng":-80.2532834493724,"neighborhood":"Wust El-Balad","city_fetched":"Port St. Lucie,US","state":"FL","country":"United States","canonicalUrl":"https://foursquare.com/v/b-merry-gastro-pub/5145fdb9e4b068968eb751e5","categoryId":"4bf58dd8d48988d11b941735","category":"Pub","checkinsCount":269,"usersCount":154,"tipCount":4,"visitsCount":270,"tier":"","message":"","currency":"","rating":6},{"name":"Y NOT","lat":27.590244644647417,"lng":-80.37792136026819,"city_fetched":"Port St. Lucie,US","state":"Florida","country":"United States","canonicalUrl":"https://foursquare.com/v/y-not/4e72be8245dd41e9cca3bb27","categoryId":"4bf58dd8d48988d121941735","category":"Lounge","checkinsCount":293,"usersCount":152,"tipCount":9,"visitsCount":308,"tier":"","message":"","currency":"","rating":5.6}]