[{"name":"Next Door Gastro Pub","phone":"3605042613","twitter":"nextdoorgastro","address":"113 W 1st St Ste A","lat":48.119297,"lng":-123.434132,"city_fetched":"Port Angeles","state":"WA","country":"United States","canonicalUrl":"https://foursquare.com/v/next-door-gastro-pub/4e6d90c32271a8cabfdbeb28","category":"Gastropub","checkinsCount":1283,"usersCount":1148,"tipCount":45,"visitsCount":1658,"url":"http://nextdoorgastropub-hub.com","tier":2,"message":"Moderate","currency":"$","rating":7.9},{"name":"Michael's Seafood and Steakhouse","phone":"3604176929","twitter":"michaelspa","address":"117B E 1st St","lat":48.11878789713021,"lng":-123.43254848072512,"city_fetched":"Port Angeles","state":"WA","country":"United States","canonicalUrl":"https://foursquare.com/v/michaels-seafood-and-steakhouse/4b91b292f964a520acd033e3","category":"Seafood Restaurant","checkinsCount":510,"usersCount":335,"tipCount":6,"visitsCount":521,"url":"http://www.michaelsdining.com","tier":3,"message":"Expensive","currency":"$","rating":7.8},{"name":"Bar N9ne","phone":"3607971999","address":"229 W 1st St","lat":48.120371608404234,"lng":-123.43689463244833,"city_fetched":"Port Angeles","state":"WA","country":"United States","canonicalUrl":"https://foursquare.com/v/bar-n9ne/4c941357f7cfa1cd809fb015","category":"Bar","checkinsCount":777,"usersCount":191,"tipCount":8,"visitsCount":904,"url":"http://www.barn9nepa.com","tier":"","message":"","currency":"","rating":7.5},{"name":"The Lazy Moon Craft Tavern","phone":"3604522082","address":"130 S Lincoln St","lat":48.11758548306189,"lng":-123.43255207334957,"city_fetched":"Port Angeles","state":"WA","country":"United States","canonicalUrl":"https://foursquare.com/v/the-lazy-moon-craft-tavern/4ba965c6f964a52086243ae3","category":"Bar","checkinsCount":346,"usersCount":156,"tipCount":2,"visitsCount":347,"tier":"","message":"","currency":"","rating":7.1},{"name":"Station 51 Tap House","phone":"3605043645","address":"125 W Front St","lat":48.12046806962456,"lng":-123.43392848968506,"city_fetched":"Port Angeles","state":"WA","country":"United States","canonicalUrl":"https://foursquare.com/v/station-51-tap-house/5769baf9498e91a050dd8513","category":"Bar","checkinsCount":17,"usersCount":17,"tipCount":1,"visitsCount":18,"tier":"","message":"","currency":"","rating":6.8},{"name":"Smuggler's Landing","phone":"3604529292","address":"115 E Railroad Ave","lat":48.1206499917015,"lng":-123.43084642556732,"city_fetched":"Port Angeles","state":"WA","country":"United States","canonicalUrl":"https://foursquare.com/v/smugglers-landing/4bac40baf964a52059ed3ae3","category":"Seafood Restaurant","checkinsCount":402,"usersCount":354,"tipCount":11,"visitsCount":413,"url":"http://smugglerslanding.com","tier":2,"message":"Moderate","currency":"$","rating":6.2},{"name":"Barhop Brewing & Taproom","phone":"3607971818","address":"124 W Railroad Ave","lat":48.121077445597656,"lng":-123.43321409220916,"city_fetched":"Port Angeles","state":"WA","country":"United States","canonicalUrl":"https://foursquare.com/v/barhop-brewing--taproom/4e092f9c45ddb2875c55637b","category":"Brewery","checkinsCount":454,"usersCount":222,"tipCount":9,"visitsCount":502,"url":"http://barhopbrewing.com","tier":"","message":"","currency":"","rating":6.1}]