[{"name":"Tasty ’N Alder","phone":"5036219251","twitter":"tastynalder","address":"580 SW 12th Ave","lat":45.521264621981125,"lng":-122.68342860615894,"neighborhood":"Downtown Portland","city_fetched":"Portland","state":"OR","country":"United States","canonicalUrl":"https://foursquare.com/tastynalder","category":"American Restaurant","checkinsCount":7495,"usersCount":6271,"tipCount":169,"visitsCount":8332,"url":"http://www.tastynalder.com","tier":3,"message":"Expensive","currency":"$","rating":9.4},{"name":"Bailey's Taproom","phone":"5032951004","twitter":"baileystaproom","address":"213 SW Broadway","lat":45.522494609772515,"lng":-122.6779155435846,"neighborhood":"Downtown Portland","city_fetched":"Portland","state":"OR","country":"United States","canonicalUrl":"https://foursquare.com/v/baileys-taproom/483691cff964a520ec4f1fe3","category":"Pub","checkinsCount":21125,"usersCount":7714,"tipCount":94,"visitsCount":22174,"url":"http://www.baileystaproom.com","tier":2,"message":"Moderate","currency":"$","rating":9.3},{"name":"Fire on the Mountain","phone":"5038948973","twitter":"portlandwings","address":"3443 NE 57th Ave","lat":45.54805488483688,"lng":-122.6049542427063,"neighborhood":"Rose City Park","city_fetched":"Portland","state":"OR","country":"United States","canonicalUrl":"https://foursquare.com/v/fire-on-the-mountain/4eb5cfbf61af0dda90897210","category":"Wings Joint","checkinsCount":4363,"usersCount":2228,"tipCount":53,"visitsCount":5425,"url":"http://www.portlandwings.com","tier":1,"message":"Cheap","currency":"$","rating":9.3},{"name":"Velo Cult Bicycle Shop & Bar","phone":"5039222012","twitter":"velocult","address":"1969 NE 42nd Ave","lat":45.53708025835177,"lng":-122.6200810122004,"neighborhood":"Hollywood","city_fetched":"Portland","state":"OR","country":"United States","canonicalUrl":"https://foursquare.com/v/velo-cult-bicycle-shop--bar/4f6e82dde4b0e6e002b8a1d5","category":"Bike Shop","checkinsCount":1567,"usersCount":714,"tipCount":14,"visitsCount":1784,"url":"http://www.velocult.com","tier":"","message":"","currency":"","rating":9.3},{"name":"Mother's Bistro & Bar","phone":"5034641122","twitter":"mothersbistro","address":"212 SW Stark St","lat":45.520156243878944,"lng":-122.67371306222863,"neighborhood":"Downtown Portland","city_fetched":"Portland","state":"OR","country":"United States","canonicalUrl":"https://foursquare.com/v/mothers-bistro--bar/45a92a97f964a52022411fe3","category":"Breakfast Spot","checkinsCount":11960,"usersCount":10861,"tipCount":212,"visitsCount":14067,"url":"http://www.mothersbistro.com","tier":2,"message":"Moderate","currency":"$","rating":9.3},{"name":"Laurelhurst Market","phone":"5032063097","twitter":"laurelhurstmkt","address":"3155 E Burnside St","lat":45.523184,"lng":-122.632049,"neighborhood":"Kerns","city_fetched":"Portland","state":"OR","country":"United States","canonicalUrl":"https://foursquare.com/v/laurelhurst-market/4a52b80ef964a520f1b11fe3","category":"Steakhouse","checkinsCount":4358,"usersCount":2616,"tipCount":76,"visitsCount":5018,"url":"http://www.laurelhurstmarket.com","tier":3,"message":"Expensive","currency":"$","rating":9.3},{"name":"Multnomah Whisk{e}y Library","phone":"5037649374","address":"1124 SW Alder St","lat":45.52093582651249,"lng":-122.68345717069289,"neighborhood":"Downtown Portland","city_fetched":"Portland","state":"OR","country":"United States","canonicalUrl":"https://foursquare.com/v/multnomah-whiskey-library/524e431811d23b91f94de720","category":"Cocktail Bar","checkinsCount":3016,"usersCount":2419,"tipCount":78,"visitsCount":3227,"url":"http://www.multnomahwhiskeylibrary.com","tier":3,"message":"Expensive","currency":"$","rating":9.3},{"name":"Deschutes Brewery & Public House","phone":"5032964906","twitter":"deschutespdxpub","address":"210 NW 11th Ave","lat":45.52454204404492,"lng":-122.6819497346878,"neighborhood":"Pearl","city_fetched":"Portland","state":"OR","country":"United States","canonicalUrl":"https://foursquare.com/deschutespdxpub","category":"Brewery","checkinsCount":30480,"usersCount":23043,"tipCount":279,"visitsCount":34549,"url":"https://www.deschutesbrewery.com/pubs/portland/","tier":2,"message":"Moderate","currency":"$","rating":9.3},{"name":"Hopworks Urban Brewery","phone":"5032324677","twitter":"hopworksbrewery","address":"2944 SE Powell Blvd","lat":45.496872578789315,"lng":-122.63490084755448,"neighborhood":"Creston-Kenilworth","city_fetched":"Portland","state":"OR","country":"United States","canonicalUrl":"https://foursquare.com/v/hopworks-urban-brewery/49e18376f964a520d6611fe3","category":"Brewery","checkinsCount":12520,"usersCount":6381,"tipCount":134,"visitsCount":13866,"url":"http://www.hopworksbeer.com","tier":2,"message":"Moderate","currency":"$","rating":9.2},{"name":"The Commons Brewery","phone":"5033435501","twitter":"commonsbrewery","address":"630 SE Belmont St","lat":45.516268,"lng":-122.658964,"neighborhood":"Buckman","city_fetched":"Portland","state":"OR","country":"United States","canonicalUrl":"https://foursquare.com/v/the-commons-brewery/4ebc034f0cd674ac77374fe6","category":"Brewery","checkinsCount":3465,"usersCount":2500,"tipCount":31,"visitsCount":4545,"url":"http://www.commonsbrewery.com","tier":1,"message":"Cheap","currency":"$","rating":9.2},{"name":"Bamboo Sushi","phone":"5032325255","twitter":"bamboosushi","address":"310 SE 28th Ave","lat":45.520533641186965,"lng":-122.63717830181122,"neighborhood":"Kerns","city_fetched":"Portland","state":"OR","country":"United States","canonicalUrl":"https://foursquare.com/v/bamboo-sushi/4a1c352af964a5201f7b1fe3","category":"Sushi Restaurant","checkinsCount":3551,"usersCount":2282,"tipCount":66,"visitsCount":3957,"url":"http://bamboosushi.com","tier":3,"message":"Expensive","currency":"$","rating":9.2},{"name":"Andina","phone":"5032289535","twitter":"andinaportland","address":"1314 NW Glisan St","lat":45.52646439753041,"lng":-122.68436908721924,"neighborhood":"Pearl","city_fetched":"Portland","state":"OR","country":"United States","canonicalUrl":"https://foursquare.com/v/andina/4a83910af964a52074fb1fe3","category":"Peruvian Restaurant","checkinsCount":7656,"usersCount":6722,"tipCount":129,"visitsCount":8427,"url":"http://www.andinarestaurant.com","tier":3,"message":"Expensive","currency":"$","rating":9.2},{"name":"McMenamins Kennedy School","phone":"5032493983","twitter":"captainneon","address":"5736 NE 33rd Ave","lat":45.564564602985115,"lng":-122.63004622693717,"neighborhood":"Concordia","city_fetched":"Portland","state":"OR","country":"United States","canonicalUrl":"https://foursquare.com/v/mcmenamins-kennedy-school/40b13b00f964a520aff51ee3","category":"Hotel","checkinsCount":13112,"usersCount":8551,"tipCount":79,"visitsCount":14252,"url":"http://www.mcmenamins.com/KennedySchool","tier":"","message":"","currency":"","rating":9.2},{"name":"Breakside Brewery","phone":"5037196475","twitter":"breaksidebrews","address":"820 NE Dekum St","lat":45.57155977183571,"lng":-122.6567530632019,"neighborhood":"Woodlawn","city_fetched":"Portland","state":"OR","country":"United States","canonicalUrl":"https://foursquare.com/v/breakside-brewery/4bf05a14393fc9b6dcb3012b","category":"Brewery","checkinsCount":7923,"usersCount":3070,"tipCount":83,"visitsCount":8861,"url":"http://www.breaksidebrews.com","tier":2,"message":"Moderate","currency":"$","rating":9.2},{"name":"Cascade Brewing Barrel House","phone":"5032658603","twitter":"cascadebrewing","address":"939 SE Belmont St","lat":45.51661846759185,"lng":-122.65589994743223,"neighborhood":"Buckman","city_fetched":"Portland","state":"OR","country":"United States","canonicalUrl":"https://foursquare.com/v/cascade-brewing-barrel-house/4c9a9c21a004a1cd15ed496e","category":"Brewery","checkinsCount":11621,"usersCount":7776,"tipCount":130,"visitsCount":13281,"url":"http://www.cascadebrewingbarrelhouse.com","tier":2,"message":"Moderate","currency":"$","rating":9.2},{"name":"Hale Pele","phone":"5036628454","twitter":"halepele","address":"2733 NE Broadway St","lat":45.53529148662002,"lng":-122.63737503021629,"neighborhood":"Grant Park","city_fetched":"Portland","state":"OR","country":"United States","canonicalUrl":"https://foursquare.com/v/hale-pele/501dc271e4b0478a90103f4a","category":"Cocktail Bar","checkinsCount":2732,"usersCount":1277,"tipCount":28,"visitsCount":3068,"url":"http://halepele.com","tier":2,"message":"Moderate","currency":"$","rating":9.2},{"name":"Clyde Common","phone":"5032283333","twitter":"clydecommon","address":"1014 SW Stark St","lat":45.52198820013199,"lng":-122.6814267039299,"neighborhood":"Downtown Portland","city_fetched":"Portland","state":"OR","country":"United States","canonicalUrl":"https://foursquare.com/v/clyde-common/49c0670ef964a52063551fe3","category":"American Restaurant","checkinsCount":13638,"usersCount":9098,"tipCount":215,"visitsCount":14007,"url":"http://www.clydecommon.com","tier":3,"message":"Expensive","currency":"$","rating":9.2},{"name":"Belmont Station","phone":"5032328538","twitter":"belmontstation","address":"4500 SE Stark St","lat":45.51917292,"lng":-122.61598206,"neighborhood":"Sunnyside","city_fetched":"Portland","state":"OR","country":"United States","canonicalUrl":"https://foursquare.com/v/belmont-station/46a09fb9f964a5201e491fe3","category":"Pub","checkinsCount":6269,"usersCount":2839,"tipCount":50,"visitsCount":8042,"url":"http://www.belmont-station.com","tier":2,"message":"Moderate","currency":"$","rating":9.2},{"name":"Ground Kontrol Classic Arcade","phone":"5037969364","twitter":"groundkontrol","address":"511 NW Couch St","lat":45.523918157631435,"lng":-122.67586916685104,"neighborhood":"Old Town Chinatown","city_fetched":"Portland","state":"OR","country":"United States","canonicalUrl":"https://foursquare.com/v/ground-kontrol-classic-arcade/40d77680f964a5205d011fe3","category":"Arcade","checkinsCount":17434,"usersCount":11802,"tipCount":160,"visitsCount":19107,"url":"http://groundkontrol.com","tier":"","message":"","currency":"","rating":9.2},{"name":"Sweet Hereafter","address":"3326 SE Belmont St","lat":45.51631637037929,"lng":-122.63034906590747,"neighborhood":"Sunnyside","city_fetched":"Portland","state":"OR","country":"United States","canonicalUrl":"https://foursquare.com/v/sweet-hereafter/4e2f5f2f8877341a515250eb","category":"Bar","checkinsCount":5733,"usersCount":2334,"tipCount":54,"visitsCount":6031,"url":"http://hereafterpdx.com","tier":2,"message":"Moderate","currency":"$","rating":9.1},{"name":"Fire on the Mountain","phone":"5032309464","twitter":"portlandwings","address":"1708 E Burnside St","lat":45.522769963045924,"lng":-122.64837920665741,"neighborhood":"Buckman","city_fetched":"Portland","state":"OR","country":"United States","canonicalUrl":"https://foursquare.com/v/fire-on-the-mountain/4a57e717f964a5200db71fe3","category":"Wings Joint","checkinsCount":9711,"usersCount":4877,"tipCount":103,"visitsCount":11568,"url":"http://www.portlandwings.com","tier":2,"message":"Moderate","currency":"$","rating":9.1},{"name":"The Bye and Bye","phone":"5032810537","address":"1011 NE Alberta St","lat":45.55924020714963,"lng":-122.65521741531525,"neighborhood":"King","city_fetched":"Portland","state":"OR","country":"United States","canonicalUrl":"https://foursquare.com/v/the-bye-and-bye/49e7ad33f964a52002651fe3","category":"Bar","checkinsCount":7007,"usersCount":3486,"tipCount":85,"visitsCount":7950,"url":"http://www.thebyeandbye.com","tier":1,"message":"Cheap","currency":"$","rating":9.1},{"name":"Uwajimaya","phone":"5036434512","address":"10500 SW Beaverton Hillsdale Hwy","lat":45.48562046686088,"lng":-122.78534889221191,"neighborhood":"Raleigh West","city_fetched":"Portland","state":"OR","country":"United States","canonicalUrl":"https://foursquare.com/v/uwajimaya/4a9af401f964a520c03320e3","category":"Supermarket","checkinsCount":5992,"usersCount":3374,"tipCount":35,"visitsCount":8611,"url":"http://www.uwajimaya.com/stores/beaverton","tier":"","message":"","currency":"","rating":9.1},{"name":"Mississippi Studios","phone":"5035175751","twitter":"mississippistud","address":"3939 N Mississippi Ave","lat":45.551541,"lng":-122.675715,"neighborhood":"Boise","city_fetched":"Portland","state":"OR","country":"United States","canonicalUrl":"https://foursquare.com/v/mississippi-studios/469ff8c8f964a5201b491fe3","category":"Rock Club","checkinsCount":5178,"usersCount":2718,"tipCount":30,"visitsCount":5273,"url":"http://www.mississippistudios.com","tier":"","message":"","currency":"","rating":9.1},{"name":"Le Bistro Montage","phone":"5032341324","twitter":"montagepdx","address":"301 SE Morrison St","lat":45.517337018663845,"lng":-122.6627077723405,"neighborhood":"Buckman","city_fetched":"Portland","state":"OR","country":"United States","canonicalUrl":"https://foursquare.com/v/le-bistro-montage/41687b80f964a520841d1fe3","category":"Cajun / Creole Restaurant","checkinsCount":8110,"usersCount":5403,"tipCount":101,"visitsCount":8869,"url":"http://montageportland.com","tier":2,"message":"Moderate","currency":"$","rating":9.1},{"name":"APEX","phone":"5032739227","twitter":"apexbar","address":"1216 SE Division St","lat":45.504732,"lng":-122.653415,"neighborhood":"Hosford-Abernethy","city_fetched":"Portland","state":"OR","country":"United States","canonicalUrl":"https://foursquare.com/v/apex/4bd11653462cb713dfcbd907","category":"Bar","checkinsCount":7703,"usersCount":3340,"tipCount":65,"visitsCount":8038,"url":"http://apexbar.com","tier":1,"message":"Cheap","currency":"$","rating":9},{"name":"The Woodsman Tavern","phone":"9713738264","twitter":"woodsmantavern","address":"4537 SE Division St","lat":45.505409,"lng":-122.61533555,"neighborhood":"Richmond","city_fetched":"Portland","state":"OR","country":"United States","canonicalUrl":"https://foursquare.com/v/the-woodsman-tavern/4e9a280e30f87c966c2b3444","category":"Gastropub","checkinsCount":2736,"usersCount":1983,"tipCount":54,"visitsCount":3036,"url":"http://woodsmantavern.com","tier":3,"message":"Expensive","currency":"$","rating":9},{"name":"The BeerMongers","phone":"5032346012","twitter":"thebeermongers","address":"1125 SE Division St","lat":45.50506863333333,"lng":-122.65412986278534,"neighborhood":"Hosford-Abernethy","city_fetched":"Portland","state":"OR","country":"United States","canonicalUrl":"https://foursquare.com/thebeermongers","category":"Beer Bar","checkinsCount":8400,"usersCount":1786,"tipCount":20,"visitsCount":9191,"url":"http://www.thebeermongers.com","tier":1,"message":"Cheap","currency":"$","rating":9},{"name":"Double Dragon","phone":"5032308340","twitter":"doubledragonpdx","address":"1235 SE Division St","lat":45.50503276654088,"lng":-122.65328887537189,"neighborhood":"Hosford-Abernethy","city_fetched":"Portland","state":"OR","country":"United States","canonicalUrl":"https://foursquare.com/v/double-dragon/4ebdacd2be7b04923b74cf22","category":"Bar","checkinsCount":2691,"usersCount":1233,"tipCount":31,"visitsCount":2828,"url":"http://www.doubledragonpdx.com","tier":1,"message":"Cheap","currency":"$","rating":9},{"name":"Spin Laundry Lounge","phone":"5034775382","twitter":"spinlaundry","address":"750 N Fremont St","lat":45.54777383217221,"lng":-122.67451706940899,"neighborhood":"Boise","city_fetched":"Portland","state":"OR","country":"United States","canonicalUrl":"https://foursquare.com/v/spin-laundry-lounge/531bace2498ef80da0737fb7","category":"Laundromat","checkinsCount":785,"usersCount":514,"tipCount":18,"visitsCount":1344,"url":"http://www.spinlaundrylounge.com","tier":"","message":"","currency":"","rating":9},{"name":"Kiggins Theatre","phone":"3608160352","twitter":"kigginstheatre","address":"1011 Main St","lat":45.62923919908674,"lng":-122.6715019169225,"neighborhood":"Esther Short","city_fetched":"Portland","state":"WA","country":"United States","canonicalUrl":"https://foursquare.com/kigginstheatre","category":"Movie Theater","checkinsCount":853,"usersCount":328,"tipCount":8,"visitsCount":930,"tier":"","message":"","currency":"","rating":9},{"name":"SE Wine Collective","phone":"5032082061","twitter":"sewinecoll","address":"2425 SE 35th Pl","lat":45.50504608298912,"lng":-122.62776374816895,"neighborhood":"Richmond","city_fetched":"Portland","state":"OR","country":"United States","canonicalUrl":"https://foursquare.com/v/se-wine-collective/505ae05072daa61a07eb017f","category":"Wine Bar","checkinsCount":507,"usersCount":353,"tipCount":4,"visitsCount":529,"url":"http://sewinecollective.com","tier":"","message":"","currency":"","rating":9},{"name":"The Observatory","phone":"5034456284","address":"8115 SE Stark St","lat":45.519258,"lng":-122.580137,"neighborhood":"Montavilla","city_fetched":"Portland","state":"OR","country":"United States","canonicalUrl":"https://foursquare.com/v/the-observatory/49fe5071f964a520936f1fe3","category":"Gastropub","checkinsCount":3589,"usersCount":2004,"tipCount":64,"visitsCount":3800,"url":"http://theobservatorypdx.com","tier":2,"message":"Moderate","currency":"$","rating":9},{"name":"Saraveza","phone":"5032064252","twitter":"saraveza","address":"1004 N Killingsworth St","lat":45.562479,"lng":-122.67708,"neighborhood":"Northeast Portland","city_fetched":"Portland","state":"OR","country":"United States","canonicalUrl":"https://foursquare.com/v/saraveza/49be98edf964a520c0541fe3","category":"Pub","checkinsCount":4998,"usersCount":1690,"tipCount":45,"visitsCount":5389,"url":"http://saraveza.com","tier":2,"message":"Moderate","currency":"$","rating":9},{"name":"Imperial Bottle Shop & Taproom","phone":"9713026899","twitter":"imperialbttlshp","address":"3090 SE Division St","lat":45.504755,"lng":-122.633719,"neighborhood":"Richmond","city_fetched":"Portland","state":"OR","country":"United States","canonicalUrl":"https://foursquare.com/v/imperial-bottle-shop--taproom/51f0783d498efb97009377e2","category":"Beer Store","checkinsCount":2042,"usersCount":1138,"tipCount":15,"visitsCount":2554,"url":"http://imperialbottleshop.com","tier":"","message":"","currency":"","rating":9},{"name":"Bagdad Theater & Pub","phone":"5034677521","twitter":"captainneon","address":"3702 SE Hawthorne Blvd","lat":45.511941205579376,"lng":-122.62569402448149,"neighborhood":"Richmond","city_fetched":"Portland","state":"OR","country":"United States","canonicalUrl":"https://foursquare.com/v/bagdad-theater--pub/40b13b00f964a52040f51ee3","category":"Movie Theater","checkinsCount":8414,"usersCount":4641,"tipCount":61,"visitsCount":8849,"url":"http://www.mcmenamins.com/373-mcmenamins-breweries-home","tier":"","message":"","currency":"","rating":9},{"name":"Brewed Cafe and Pub","phone":"3605973386","twitter":"brewed360","address":"603 Main St","lat":45.625825649739866,"lng":-122.67173464076345,"neighborhood":"Esther Short","city_fetched":"Portland","state":"WA","country":"United States","canonicalUrl":"https://foursquare.com/brewed360","category":"Café","checkinsCount":1380,"usersCount":488,"tipCount":29,"visitsCount":2172,"url":"http://brewed360.com","tier":2,"message":"Moderate","currency":"$","rating":9},{"name":"Ex Novo Brewing","twitter":"exnovobrew","address":"2326 N Flint Ave","lat":45.53997351344161,"lng":-122.6686030626297,"neighborhood":"Eliot","city_fetched":"Portland","state":"OR","country":"United States","canonicalUrl":"https://foursquare.com/v/ex-novo-brewing/5340bc74498ed0ac7dbe8a90","category":"Brewery","checkinsCount":1868,"usersCount":1278,"tipCount":18,"visitsCount":2623,"url":"http://exnovobrew.com","tier":1,"message":"Cheap","currency":"$","rating":8.9},{"name":"Portland City Grill","phone":"5034500030","twitter":"pcitygrill","address":"111 SW 5th Ave","lat":45.522544455627866,"lng":-122.6760596036911,"neighborhood":"Downtown Portland","city_fetched":"Portland","state":"OR","country":"United States","canonicalUrl":"https://foursquare.com/pcitygrill","category":"Steakhouse","checkinsCount":12225,"usersCount":9043,"tipCount":147,"visitsCount":12814,"url":"http://portlandcitygrill.com","tier":3,"message":"Expensive","currency":"$","rating":8.9},{"name":"Expatriate","phone":"5038053750","twitter":"expatriatepdx","address":"5424 NE 30th Ave","lat":45.56236174255305,"lng":-122.63472747261119,"neighborhood":"Concordia","city_fetched":"Portland","state":"OR","country":"United States","canonicalUrl":"https://foursquare.com/v/expatriate/51e0c200498e134a2353fb0f","category":"Cocktail Bar","checkinsCount":1239,"usersCount":815,"tipCount":34,"visitsCount":1323,"url":"http://www.expatriatepdx.com","tier":2,"message":"Moderate","currency":"$","rating":8.9},{"name":"Horse Brass Pub","phone":"5032322202","twitter":"horsebrasspub","address":"4534 SE Belmont St","lat":45.51641406606489,"lng":-122.61542022228241,"neighborhood":"Sunnyside","city_fetched":"Portland","state":"OR","country":"United States","canonicalUrl":"https://foursquare.com/v/horse-brass-pub/40c10d00f964a520d8001fe3","category":"Pub","checkinsCount":7228,"usersCount":3720,"tipCount":68,"visitsCount":8415,"url":"http://www.horsebrass.com","tier":2,"message":"Moderate","currency":"$","rating":8.9},{"name":"Portland Cider House","phone":"5032066283","twitter":"portlandcider","address":"3638 SE Hawthorne Blvd","lat":45.51201324651518,"lng":-122.62609243136731,"neighborhood":"Richmond","city_fetched":"Portland","state":"OR","country":"United States","canonicalUrl":"https://foursquare.com/v/portland-cider-house/551cc0c8498eb45d0179fb9f","category":"Bar","checkinsCount":569,"usersCount":389,"tipCount":15,"visitsCount":591,"url":"http://portlandcider.com","tier":1,"message":"Cheap","currency":"$","rating":8.9},{"name":"Ecliptic Brewing","phone":"5032658002","twitter":"eclipticbrewing","address":"825 N Cook St","lat":45.54729789261989,"lng":-122.67487138509749,"neighborhood":"Boise","city_fetched":"Portland","state":"OR","country":"United States","canonicalUrl":"https://foursquare.com/eclipticbrewing","category":"Brewery","checkinsCount":2745,"usersCount":2380,"tipCount":23,"visitsCount":3782,"url":"http://eclipticbrewing.com","tier":2,"message":"Moderate","currency":"$","rating":8.9},{"name":"Moon & Sixpence","phone":"5032887802","address":"2014 NE 42nd Ave","lat":45.53731703960739,"lng":-122.6197600364685,"neighborhood":"Hollywood","city_fetched":"Portland","state":"OR","country":"United States","canonicalUrl":"https://foursquare.com/v/moon--sixpence/40b13b00f964a520bdf51ee3","category":"Pub","checkinsCount":4242,"usersCount":1454,"tipCount":19,"visitsCount":4620,"tier":2,"message":"Moderate","currency":"$","rating":8.9},{"name":"Doug Fir Lounge","phone":"5032319663","twitter":"dougfirlounge","address":"830 E Burnside St","lat":45.52263403207183,"lng":-122.6569199975505,"neighborhood":"Buckman","city_fetched":"Portland","state":"OR","country":"United States","canonicalUrl":"https://foursquare.com/v/doug-fir-lounge/43ba6040f964a520e62c1fe3","category":"Lounge","checkinsCount":15339,"usersCount":8838,"tipCount":119,"visitsCount":16641,"url":"http://dougfirlounge.com","tier":2,"message":"Moderate","currency":"$","rating":8.9},{"name":"Widmer Brothers Brewing Company","phone":"5032813333","twitter":"widmerbrothers","address":"955 N Russell St","lat":45.54106083554545,"lng":-122.67692386971694,"neighborhood":"Eliot","city_fetched":"Portland","state":"OR","country":"United States","canonicalUrl":"https://foursquare.com/v/widmer-brothers-brewing-company/40b13b00f964a52016f61ee3","category":"Brewery","checkinsCount":7064,"usersCount":4740,"tipCount":70,"visitsCount":8017,"url":"http://widmerbrothers.com","tier":2,"message":"Moderate","currency":"$","rating":8.9},{"name":"Rum Club","phone":"5034672469","twitter":"rumclubpx","address":"720 SE Sandy Blvd","lat":45.51903169,"lng":-122.658055,"neighborhood":"Buckman","city_fetched":"Portland","state":"OR","country":"United States","canonicalUrl":"https://foursquare.com/v/rum-club/4e24bff27d8bfa896b04e827","category":"Cocktail Bar","checkinsCount":3952,"usersCount":2101,"tipCount":41,"visitsCount":4706,"url":"http://rumclubpdx.com","tier":2,"message":"Moderate","currency":"$","rating":8.8},{"name":"TILT -  Pearl District","phone":"5038949528","twitter":"tiltitup","address":"1355 NW Everett St Ste 120","lat":45.52517789251638,"lng":-122.68416718942169,"neighborhood":"Pearl","city_fetched":"Portland","state":"OR","country":"United States","canonicalUrl":"https://foursquare.com/v/tilt---pearl-district/5220b69811d2faed4a8b484e","category":"Burger Joint","checkinsCount":5766,"usersCount":4206,"tipCount":101,"visitsCount":8224,"url":"http://tiltitup.com","tier":2,"message":"Moderate","currency":"$","rating":8.8},{"name":"Paydirt","twitter":"paydirtpdx","address":"2724 NE Pacific St","lat":45.52906125559621,"lng":-122.6380178332329,"neighborhood":"Kerns","city_fetched":"Portland","state":"OR","country":"United States","canonicalUrl":"https://foursquare.com/v/paydirt/55c3e2e9498e475efb370102","category":"Bar","checkinsCount":374,"usersCount":198,"tipCount":5,"visitsCount":397,"url":"http://www.paydirtbar.com","tier":"","message":"","currency":"","rating":8.8},{"name":"Teardrop Lounge","phone":"5034458109","twitter":"teardroplounge","address":"1015 NW Everett St","lat":45.525146,"lng":-122.681646,"neighborhood":"Pearl","city_fetched":"Portland","state":"OR","country":"United States","canonicalUrl":"https://foursquare.com/v/teardrop-lounge/4853910df964a520ab501fe3","category":"Cocktail Bar","checkinsCount":8209,"usersCount":3907,"tipCount":79,"visitsCount":8600,"url":"http://www.teardroplounge.com","tier":2,"message":"Moderate","currency":"$","rating":8.8},{"name":"Kask","phone":"5032417163","address":"1215 SW Alder St","lat":45.521456,"lng":-122.684037,"neighborhood":"Downtown Portland","city_fetched":"Portland","state":"OR","country":"United States","canonicalUrl":"https://foursquare.com/v/kask/4e1e40d8fa76920758ac91d5","category":"Cocktail Bar","checkinsCount":2775,"usersCount":1893,"tipCount":37,"visitsCount":2826,"url":"http://grunerpdx.com/kask/","tier":2,"message":"Moderate","currency":"$","rating":8.8},{"name":"Killer Burger","phone":"5039468946","twitter":"killerburgerpdx","address":"500 SW 3rd Ave","lat":45.519568656306404,"lng":-122.67469395022461,"neighborhood":"Downtown Portland","city_fetched":"Portland","state":"OR","country":"United States","canonicalUrl":"https://foursquare.com/v/killer-burger/51b23bab498e1e5cd18e1ebc","category":"Burger Joint","checkinsCount":2211,"usersCount":1834,"tipCount":49,"visitsCount":2856,"url":"http://killerburger.biz","tier":1,"message":"Cheap","currency":"$","rating":8.8},{"name":"Base Camp Brewing","phone":"5414777479","twitter":"basecampbrewing","address":"930 SE Oak St","lat":45.51991109827924,"lng":-122.65643916662432,"neighborhood":"Buckman","city_fetched":"Portland","state":"OR","country":"United States","canonicalUrl":"https://foursquare.com/v/base-camp-brewing/5091f3c3e4b045f238951577","category":"Brewery","checkinsCount":5377,"usersCount":4099,"tipCount":65,"visitsCount":6890,"url":"http://basecampbrewingco.com","tier":1,"message":"Cheap","currency":"$","rating":8.8},{"name":"New Deal Distillery","phone":"5032342513","twitter":"newdealpdx","address":"900 SE Salmon St","lat":45.51420965569823,"lng":-122.65656812525972,"neighborhood":"Buckman","city_fetched":"Portland","state":"OR","country":"United States","canonicalUrl":"https://foursquare.com/v/new-deal-distillery/4ad0fd9df964a520c8db20e3","category":"Distillery","checkinsCount":983,"usersCount":933,"tipCount":10,"visitsCount":1125,"url":"http://www.newdealdistillery.com","tier":"","message":"","currency":"","rating":8.8},{"name":"Bamboo Sushi","phone":"5038890336","twitter":"bamboosushi","address":"1409 NE Alberta St","lat":45.55917526345717,"lng":-122.65135740520364,"neighborhood":"King","city_fetched":"Portland","state":"OR","country":"United States","canonicalUrl":"https://foursquare.com/v/bamboo-sushi/542a38b6498efb9f08f5f1fa","category":"Sushi Restaurant","checkinsCount":541,"usersCount":339,"tipCount":8,"visitsCount":625,"url":"http://bambooizakaya.com","tier":"","message":"","currency":"","rating":8.8},{"name":"Urban Farmer","phone":"5032224900","twitter":"urbanfarmerpdx","address":"525 SW Morrison St","lat":45.51901775778914,"lng":-122.67813597537344,"neighborhood":"Downtown Portland","city_fetched":"Portland","state":"OR","country":"United States","canonicalUrl":"https://foursquare.com/urbanfarmerpdx","category":"Steakhouse","checkinsCount":6664,"usersCount":4178,"tipCount":95,"visitsCount":6699,"url":"http://urbanfarmerportland.com","tier":3,"message":"Expensive","currency":"$","rating":8.8},{"name":"The Iron Tap Station","phone":"5039926006","twitter":"irontap15","address":"8840 SW Hall Blvd","lat":45.45686457889949,"lng":-122.78174400329588,"city_fetched":"Portland","state":"OR","country":"United States","canonicalUrl":"https://foursquare.com/irontap15","category":"Bar","checkinsCount":148,"usersCount":59,"tipCount":9,"visitsCount":165,"url":"http://www.irontapstation.com","tier":1,"message":"Cheap","currency":"$","rating":8.8},{"name":"The Old Gold","phone":"5038948937","twitter":"theoldgold","address":"2105 N Killingsworth St","lat":45.56291339253937,"lng":-122.68915975448427,"neighborhood":"Overlook","city_fetched":"Portland","state":"OR","country":"United States","canonicalUrl":"https://foursquare.com/v/the-old-gold/4def0491636574e855db3576","category":"Bar","checkinsCount":3928,"usersCount":1199,"tipCount":25,"visitsCount":4511,"url":"http://www.theoldgoldpdx.com","tier":2,"message":"Moderate","currency":"$","rating":8.8},{"name":"Castagna","phone":"5032319959","twitter":"castagnapdx","address":"1752 SE Hawthorne Blvd","lat":45.5120911949112,"lng":-122.64771938323973,"neighborhood":"Hosford-Abernethy","city_fetched":"Portland","state":"OR","country":"United States","canonicalUrl":"https://foursquare.com/v/castagna/517978728aca04807e6cd274","category":"American Restaurant","checkinsCount":1107,"usersCount":681,"tipCount":23,"visitsCount":1131,"url":"http://www.castagnarestaurant.com","tier":2,"message":"Moderate","currency":"$","rating":8.7},{"name":"Cruzroom","phone":"5032083483","twitter":"cruzroompdx","address":"2338 NE Alberta St","lat":45.5589884519577,"lng":-122.641192,"neighborhood":"Concordia","city_fetched":"Portland","state":"OR","country":"United States","canonicalUrl":"https://foursquare.com/cruzroompdx","category":"Cocktail Bar","checkinsCount":2749,"usersCount":1551,"tipCount":36,"visitsCount":3187,"url":"http://www.cruzroom.com","tier":1,"message":"Cheap","currency":"$","rating":8.7},{"name":"Trifecta Tavern and Bakery","phone":"5038416675","address":"726 SE 6th Ave","lat":45.5176995862958,"lng":-122.65951037406921,"neighborhood":"Buckman","city_fetched":"Portland","state":"OR","country":"United States","canonicalUrl":"https://foursquare.com/v/trifecta-tavern-and-bakery/50edd9a3526227626b84bbc2","category":"Pub","checkinsCount":950,"usersCount":626,"tipCount":29,"visitsCount":975,"url":"http://www.trifectapdx.com","tier":2,"message":"Moderate","currency":"$","rating":8.7},{"name":"Sapphire Hotel","phone":"5032326333","address":"5008 SE Hawthorne Blvd","lat":45.511917,"lng":-122.611297,"neighborhood":"Mt. Tabor","city_fetched":"Portland","state":"OR","country":"United States","canonicalUrl":"https://foursquare.com/v/sapphire-hotel/42814b00f964a52004221fe3","category":"Cocktail Bar","checkinsCount":2150,"usersCount":1242,"tipCount":30,"visitsCount":2193,"url":"http://thesapphirehotel.com","tier":2,"message":"Moderate","currency":"$","rating":8.7},{"name":"10 Barrel Brewing","phone":"5032241700","twitter":"10barrelbrewing","address":"1411 NW Flanders St","lat":45.525891653499876,"lng":-122.68532119697771,"neighborhood":"Pearl","city_fetched":"Portland","state":"OR","country":"United States","canonicalUrl":"https://foursquare.com/v/10-barrel-brewing/539a2f31498e1b0751d1b49d","category":"Brewery","checkinsCount":3103,"usersCount":2897,"tipCount":40,"visitsCount":4442,"url":"http://10barrel.com","tier":2,"message":"Moderate","currency":"$","rating":8.7},{"name":"Hair of the Dog Brewery & Tasting Room","phone":"5032326585","twitter":"hairofthedog","address":"61 SE Yamhill St","lat":45.51592703134471,"lng":-122.66571416033176,"neighborhood":"Buckman","city_fetched":"Portland","state":"OR","country":"United States","canonicalUrl":"https://foursquare.com/v/hair-of-the-dog-brewery--tasting-room/4be8a5f2ee96c9282865febf","category":"Brewery","checkinsCount":7155,"usersCount":5556,"tipCount":79,"visitsCount":8222,"url":"http://www.hairofthedog.com","tier":2,"message":"Moderate","currency":"$","rating":8.7},{"name":"BridgePort Brewery & Brewpub","phone":"5032413612","twitter":"bridgeportbrew","address":"1313 NW Marshall St","lat":45.53062081605957,"lng":-122.6847231388092,"neighborhood":"Pearl","city_fetched":"Portland","state":"OR","country":"United States","canonicalUrl":"https://foursquare.com/v/bridgeport-brewery--brewpub/40b13b00f964a52054f51ee3","category":"Brewery","checkinsCount":14720,"usersCount":8601,"tipCount":113,"visitsCount":16138,"url":"http://www.bridgeportbrew.com","tier":2,"message":"Moderate","currency":"$","rating":8.7},{"name":"Pope House Bourbon Lounge","phone":"5032221056","twitter":"popehouselounge","address":"2075 NW Glisan St","lat":45.52642603088142,"lng":-122.69412835636285,"neighborhood":"Northwest District","city_fetched":"Portland","state":"OR","country":"United States","canonicalUrl":"https://foursquare.com/v/pope-house-bourbon-lounge/4a78def5f964a520a0e61fe3","category":"Whisky Bar","checkinsCount":3855,"usersCount":2007,"tipCount":45,"visitsCount":4009,"url":"http://www.popehouselounge.com","tier":2,"message":"Moderate","currency":"$","rating":8.7},{"name":"Yama Sushi","phone":"5038415463","address":"926 NW 10th Ave","lat":45.52984587138406,"lng":-122.68139870601648,"neighborhood":"Pearl","city_fetched":"Portland","state":"OR","country":"United States","canonicalUrl":"https://foursquare.com/v/yama-sushi/4e615692c65b2dc89f268dfb","category":"Sushi Restaurant","checkinsCount":3280,"usersCount":1758,"tipCount":39,"visitsCount":3462,"url":"http://yamasushiandsakebar.com","tier":3,"message":"Expensive","currency":"$","rating":8.7},{"name":"EastBurn","phone":"5032362876","twitter":"eastburn","address":"1800 E Burnside St","lat":45.52269103555241,"lng":-122.64731168746948,"neighborhood":"Buckman","city_fetched":"Portland","state":"OR","country":"United States","canonicalUrl":"https://foursquare.com/eastburn","category":"Bar","checkinsCount":7637,"usersCount":3916,"tipCount":74,"visitsCount":8438,"url":"http://www.theeastburn.com","tier":2,"message":"Moderate","currency":"$","rating":8.7},{"name":"Southpark Seafood & Oyster Bar","phone":"5033261300","twitter":"southparkpdx","address":"901 SW Salmon St","lat":45.51791349957095,"lng":-122.68197452931821,"neighborhood":"Downtown Portland","city_fetched":"Portland","state":"OR","country":"United States","canonicalUrl":"https://foursquare.com/v/southpark-seafood--oyster-bar/40b13b00f964a520fef51ee3","category":"Seafood Restaurant","checkinsCount":2947,"usersCount":2204,"tipCount":47,"visitsCount":3108,"url":"http://www.southparkseafood.com","tier":2,"message":"Moderate","currency":"$","rating":8.7},{"name":"The Civic Taproom & Bottle Shop","phone":"5034774621","twitter":"thecivictaproom","address":"621 SW 19th Ave","lat":45.52260379029638,"lng":-122.69031229363773,"neighborhood":"Goose Hollow","city_fetched":"Portland","state":"OR","country":"United States","canonicalUrl":"https://foursquare.com/v/the-civic-taproom--bottle-shop/53e3fe6a498e4d22b90dd21a","category":"Beer Store","checkinsCount":713,"usersCount":366,"tipCount":8,"visitsCount":877,"url":"http://thecivictaproom.com","tier":"","message":"","currency":"","rating":8.7},{"name":"Toro Bravo","phone":"5032814464","twitter":"torobravopdx","address":"120 NE Russell St","lat":45.5408188995806,"lng":-122.66360878944397,"neighborhood":"Eliot","city_fetched":"Portland","state":"OR","country":"United States","canonicalUrl":"https://foursquare.com/torobravopdx","category":"Tapas Restaurant","checkinsCount":3898,"usersCount":3051,"tipCount":98,"visitsCount":4015,"url":"http://www.torobravopdx.com","tier":2,"message":"Moderate","currency":"$","rating":8.7},{"name":"The Fireside Grill","phone":"5037474661","address":"8136 SW Hall Blvd","lat":45.4612540126495,"lng":-122.79394666635092,"city_fetched":"Portland","state":"OR","country":"United States","canonicalUrl":"https://foursquare.com/v/the-fireside-grill/5011e991e4b0d8233d629b61","category":"Bar","checkinsCount":1028,"usersCount":700,"tipCount":33,"visitsCount":1684,"url":"http://thefiresidegrillpdx.com","tier":2,"message":"Moderate","currency":"$","rating":8.7},{"name":"Interurban","phone":"5032846669","twitter":"interurbanbar","address":"4057 N Mississippi Ave","lat":45.552969727095174,"lng":-122.67564976537552,"neighborhood":"Boise","city_fetched":"Portland","state":"OR","country":"United States","canonicalUrl":"https://foursquare.com/v/interurban/4ec17c166c25dfd9826603d1","category":"Gastropub","checkinsCount":4309,"usersCount":2518,"tipCount":48,"visitsCount":5207,"url":"http://interurbanpdx.com","tier":2,"message":"Moderate","currency":"$","rating":8.7},{"name":"Secret Society","phone":"5034933600","twitter":"thesecrtsociety","address":"116 NE Russell St","lat":45.54081916809082,"lng":-122.663635,"neighborhood":"Eliot","city_fetched":"Portland","state":"OR","country":"United States","canonicalUrl":"https://foursquare.com/v/secret-society/4a34688bf964a520339c1fe3","category":"Lounge","checkinsCount":2863,"usersCount":1979,"tipCount":24,"visitsCount":2898,"url":"http://secretsociety.net","tier":2,"message":"Moderate","currency":"$","rating":8.7},{"name":"Academy Theater","phone":"5032520500","twitter":"academypdx","address":"7818 SE Stark St","lat":45.51905968311419,"lng":-122.58280176075412,"neighborhood":"Montavilla","city_fetched":"Portland","state":"OR","country":"United States","canonicalUrl":"https://foursquare.com/v/academy-theater/4a3c235ef964a52027a11fe3","category":"Indie Movie Theater","checkinsCount":2630,"usersCount":981,"tipCount":19,"visitsCount":2699,"url":"http://www.academytheaterpdx.com","tier":"","message":"","currency":"","rating":8.7},{"name":"Ground Breaker Brewing","phone":"5039284195","twitter":"groundbrkrbrew","address":"2030 SE 7th Ave","lat":45.508073927010216,"lng":-122.65859350741624,"neighborhood":"Hosford-Abernethy","city_fetched":"Portland","state":"OR","country":"United States","canonicalUrl":"https://foursquare.com/v/ground-breaker-brewing/4e567ee7aeb7a8268803e22e","category":"Brewery","checkinsCount":910,"usersCount":617,"tipCount":16,"visitsCount":1212,"url":"http://www.groundbreakerbrewing.com","tier":2,"message":"Moderate","currency":"$","rating":8.7},{"name":"N.W.I.P.A.","phone":"9712795876","twitter":"nwipapdx","address":"6350 SE Foster Rd","lat":45.48968197767927,"lng":-122.59719858397433,"neighborhood":"Mt. Scott-Arleta","city_fetched":"Portland","state":"OR","country":"United States","canonicalUrl":"https://foursquare.com/v/nwipa/5009d62be4b098bae24a2965","category":"Pub","checkinsCount":1468,"usersCount":475,"tipCount":13,"visitsCount":1986,"url":"http://nwipa.beer","tier":2,"message":"Moderate","currency":"$","rating":8.6},{"name":"Masu Sushi","phone":"5032216278","address":"406 SW 13th Ave","lat":45.52256887,"lng":-122.684101,"neighborhood":"Downtown Portland","city_fetched":"Portland","state":"OR","country":"United States","canonicalUrl":"https://foursquare.com/v/masu-sushi/43388b80f964a5202d281fe3","category":"Sushi Restaurant","checkinsCount":3026,"usersCount":1893,"tipCount":59,"visitsCount":3045,"url":"http://www.masusushi.com","tier":2,"message":"Moderate","currency":"$","rating":8.6},{"name":"Santeria","phone":"5039567624","twitter":"santeria23","address":"703 SW Ankeny St","lat":45.52265908867834,"lng":-122.67804712057112,"neighborhood":"Downtown Portland","city_fetched":"Portland","state":"OR","country":"United States","canonicalUrl":"https://foursquare.com/v/santeria/4a555d91f964a5201bb41fe3","category":"Mexican Restaurant","checkinsCount":4517,"usersCount":2370,"tipCount":74,"visitsCount":4541,"url":"http://thesanteria.com","tier":2,"message":"Moderate","currency":"$","rating":8.6},{"name":"Fifteenth Avenue Hophouse","phone":"9712668392","twitter":"ohophouse","address":"1517 NE Brazee St","lat":45.54083650775497,"lng":-122.6500921102219,"neighborhood":"Irvington","city_fetched":"Portland","state":"OR","country":"United States","canonicalUrl":"https://foursquare.com/v/fifteenth-avenue-hophouse/4e59da0345dd7055929d39b4","category":"Bar","checkinsCount":1755,"usersCount":682,"tipCount":14,"visitsCount":1964,"url":"http://oregonhophouse.com","tier":2,"message":"Moderate","currency":"$","rating":8.6},{"name":"Bunk Bar","phone":"5038949708","twitter":"bunksandwiches","address":"1028 SE Water Ave","lat":45.515216336683274,"lng":-122.66579937176338,"neighborhood":"Buckman","city_fetched":"Portland","state":"OR","country":"United States","canonicalUrl":"https://foursquare.com/v/bunk-bar/4c7465e12db5236ad955ba79","category":"Bar","checkinsCount":6263,"usersCount":3010,"tipCount":57,"visitsCount":6369,"url":"http://bunkbar.com","tier":2,"message":"Moderate","currency":"$","rating":8.6},{"name":"Bazi Bierbrasserie","phone":"5032348888","twitter":"bazipdx","address":"1522 SE 32nd Ave","lat":45.5117494,"lng":-122.6326449,"neighborhood":"Richmond","city_fetched":"Portland","state":"OR","country":"United States","canonicalUrl":"https://foursquare.com/v/bazi-bierbrasserie/4dcd56fd814d3a709e666207","category":"Bar","checkinsCount":2075,"usersCount":924,"tipCount":32,"visitsCount":2243,"url":"http://www.bazipdx.com","tier":"","message":"","currency":"","rating":8.6},{"name":"Double Mountain Brewery & Taproom","phone":"5032065495","twitter":"doublemountain","address":"4336 SE Woodstock Blvd","lat":45.47907732715544,"lng":-122.61771455037862,"neighborhood":"Woodstock","city_fetched":"Portland","state":"OR","country":"United States","canonicalUrl":"https://foursquare.com/v/double-mountain-brewery--taproom/57a40c49498e176e84c76cf7","category":"Brewery","checkinsCount":124,"usersCount":127,"tipCount":6,"visitsCount":156,"url":"http://www.doublemountainbrewery.com","tier":"","message":"","currency":"","rating":8.6},{"name":"Rogue Ales Public House & Distillery","phone":"5032225910","twitter":"rogueales","address":"1339 NW Flanders St","lat":45.52584059395696,"lng":-122.68501754118557,"neighborhood":"Pearl","city_fetched":"Portland","state":"OR","country":"United States","canonicalUrl":"https://foursquare.com/v/rogue-ales-public-house--distillery/40be6a00f964a520cf001fe3","category":"Brewery","checkinsCount":14333,"usersCount":10780,"tipCount":140,"visitsCount":15355,"url":"http://www.rogue.com","tier":2,"message":"Moderate","currency":"$","rating":8.6},{"name":"The Standard","phone":"5032334181","address":"14 NE 22nd Ave","lat":45.52319360271192,"lng":-122.64313747766919,"neighborhood":"Kerns","city_fetched":"Portland","state":"OR","country":"United States","canonicalUrl":"https://foursquare.com/v/the-standard/4a84848ef964a520d3fc1fe3","category":"Bar","checkinsCount":3530,"usersCount":1025,"tipCount":27,"visitsCount":3617,"url":"http://www.thestandardpdx.com","tier":1,"message":"Cheap","currency":"$","rating":8.6},{"name":"Mississippi Pizza Pub","phone":"5032883231","twitter":"mississippipizz","address":"3552 N Mississippi Ave","lat":45.54865121841431,"lng":-122.675469,"neighborhood":"Boise","city_fetched":"Portland","state":"OR","country":"United States","canonicalUrl":"https://foursquare.com/v/mississippi-pizza-pub/4259be00f964a520eb201fe3","category":"Pizza Place","checkinsCount":4801,"usersCount":2470,"tipCount":44,"visitsCount":5084,"url":"http://www.mississippipizza.com","tier":2,"message":"Moderate","currency":"$","rating":8.6},{"name":"Bar Bar","phone":"5032883895","twitter":"mississippistud","address":"3943 N Mississippi Ave","lat":45.551529,"lng":-122.675706,"neighborhood":"Boise","city_fetched":"Portland","state":"OR","country":"United States","canonicalUrl":"https://foursquare.com/v/bar-bar/4c38dd72ae2da5930a8301c6","category":"Bar","checkinsCount":5942,"usersCount":2917,"tipCount":38,"visitsCount":6116,"tier":1,"message":"Cheap","currency":"$","rating":8.6},{"name":"White Owl Social Club","phone":"5032369672","twitter":"whiteowlsocial","address":"1305 SE 8th Ave","lat":45.513607047355144,"lng":-122.65805137194951,"neighborhood":"Buckman","city_fetched":"Portland","state":"OR","country":"United States","canonicalUrl":"https://foursquare.com/v/white-owl-social-club/50f26e6ae4b04eb642dec232","category":"Lounge","checkinsCount":5282,"usersCount":3460,"tipCount":43,"visitsCount":7506,"url":"http://whiteowlsocialclub.com","tier":2,"message":"Moderate","currency":"$","rating":8.6},{"name":"Bartini","phone":"5032247919","twitter":"bartinipdx","address":"2108 NW Glisan St","lat":45.526206,"lng":-122.694728,"neighborhood":"Northwest District","city_fetched":"Portland","state":"OR","country":"United States","canonicalUrl":"https://foursquare.com/v/bartini/49c4b0f6f964a520d1561fe3","category":"Cocktail Bar","checkinsCount":3055,"usersCount":1617,"tipCount":44,"visitsCount":3070,"url":"http://www.urbanfondue.com/bartini","tier":2,"message":"Moderate","currency":"$","rating":8.6},{"name":"Bit House Saloon","address":"727 SE Grand Ave","lat":45.51748276149321,"lng":-122.66097676100745,"neighborhood":"Buckman","city_fetched":"Portland","state":"OR","country":"United States","canonicalUrl":"https://foursquare.com/v/bit-house-saloon/55ad960d498e890308e1e703","category":"Bar","checkinsCount":1046,"usersCount":746,"tipCount":14,"visitsCount":1396,"url":"http://bithousesaloon.com","tier":"","message":"","currency":"","rating":8.6},{"name":"Loowit Brewing Company","phone":"3605662323","twitter":"loowitbrewing","address":"507 Columbia St","lat":45.625143260103435,"lng":-122.67370462417601,"neighborhood":"Esther Short","city_fetched":"Portland","state":"WA","country":"United States","canonicalUrl":"https://foursquare.com/v/loowit-brewing-company/5009ff79e4b02a36e9a473ac","category":"Brewery","checkinsCount":542,"usersCount":329,"tipCount":8,"visitsCount":600,"url":"http://loowitbrewing.com","tier":1,"message":"Cheap","currency":"$","rating":8.6},{"name":"Whiskey Soda Lounge","phone":"5032320102","twitter":"pokpokpdx","address":"3131 SE Division St","lat":45.504888178168805,"lng":-122.63284921646118,"neighborhood":"Richmond","city_fetched":"Portland","state":"OR","country":"United States","canonicalUrl":"https://foursquare.com/v/whiskey-soda-lounge/4b1dc739f964a5202f1524e3","category":"Whisky Bar","checkinsCount":5785,"usersCount":4420,"tipCount":64,"visitsCount":6050,"url":"http://www.whiskeysodalounge.com","tier":2,"message":"Moderate","currency":"$","rating":8.6},{"name":"Circa 33","phone":"5034777682","twitter":"circa33","address":"3348 SE Belmont St","lat":45.516314513558314,"lng":-122.62994832347667,"neighborhood":"Sunnyside","city_fetched":"Portland","state":"OR","country":"United States","canonicalUrl":"https://foursquare.com/v/circa-33/4ca81c10b0b8236aa8a6b0e6","category":"Cocktail Bar","checkinsCount":3399,"usersCount":1636,"tipCount":48,"visitsCount":3438,"url":"http://circa33bar.com","tier":2,"message":"Moderate","currency":"$","rating":8.6},{"name":"The Upper Lip","phone":"5032951004","twitter":"the_upper_lip","address":"720 SW Ankeny St","lat":45.522483825683594,"lng":-122.67796325683594,"neighborhood":"Downtown Portland","city_fetched":"Portland","state":"OR","country":"United States","canonicalUrl":"https://foursquare.com/v/the-upper-lip/50f7562de4b0c5b2639be42e","category":"Speakeasy","checkinsCount":1182,"usersCount":295,"tipCount":4,"visitsCount":1199,"url":"http://theupperlip.net","tier":"","message":"","currency":"","rating":8.6},{"name":"Departure","phone":"5038025370","twitter":"departurepdx","address":"525 SW Morrison St","lat":45.51918804671559,"lng":-122.67802834510803,"neighborhood":"Downtown Portland","city_fetched":"Portland","state":"OR","country":"United States","canonicalUrl":"https://foursquare.com/departurepdx","category":"Lounge","checkinsCount":10669,"usersCount":7172,"tipCount":113,"visitsCount":10791,"url":"http://www.departureportland.com","tier":3,"message":"Expensive","currency":"$","rating":8.5},{"name":"Ben's Bottle Shop","phone":"3603146209","address":"8052 E Mill Plain Blvd","lat":45.62520646122967,"lng":-122.59010119410551,"neighborhood":"North Garrison Heights","city_fetched":"Portland","state":"WA","country":"United States","canonicalUrl":"https://foursquare.com/v/bens-bottle-shop/55a26ca2498e08198fb41c85","category":"Bar","checkinsCount":412,"usersCount":111,"tipCount":4,"visitsCount":468,"url":"http://www.bensbottleshop.com","tier":"","message":"","currency":"","rating":8.5},{"name":"The Deck","phone":"5032836444","address":"2901 NE Marine Dr","lat":45.60206239218837,"lng":-122.63571918010712,"city_fetched":"Portland","state":"OR","country":"United States","canonicalUrl":"https://foursquare.com/v/the-deck/4a999a8ef964a5205e2f20e3","category":"Gastropub","checkinsCount":501,"usersCount":444,"tipCount":5,"visitsCount":645,"url":"http://thedeck.bz","tier":2,"message":"Moderate","currency":"$","rating":8.5},{"name":"Thirst Wine Bar & Bistro","phone":"5032952747","twitter":"thirstpdx","address":"0315 SW Montgomery St Ste 340","lat":45.5105728,"lng":-122.67380336,"neighborhood":"Downtown Portland","city_fetched":"Portland","state":"OR","country":"United States","canonicalUrl":"https://foursquare.com/v/thirst-wine-bar--bistro/4b1731f6f964a520a0c323e3","category":"Wine Bar","checkinsCount":716,"usersCount":567,"tipCount":9,"visitsCount":717,"url":"http://www.thirstwinebar.com","tier":"","message":"","currency":"","rating":8.5},{"name":"Bible Club","address":"6716 SE 16th Ave","lat":45.474109274905494,"lng":-122.65001186758874,"neighborhood":"Sellwood-Moreland","city_fetched":"Portland","state":"OR","country":"United States","canonicalUrl":"https://foursquare.com/v/bible-club/56e0eeb8cd103eaef4a505c7","category":"Speakeasy","checkinsCount":111,"usersCount":111,"tipCount":3,"visitsCount":136,"tier":"","message":"","currency":"","rating":8.5},{"name":"The Club Lounge","phone":"5032229996","twitter":"thenineshotel","address":"525 SW Morrison St","lat":45.51915045981586,"lng":-122.67804980278015,"neighborhood":"Downtown Portland","city_fetched":"Portland","state":"OR","country":"United States","canonicalUrl":"https://foursquare.com/v/the-club-lounge/4bff2680daf9c9b6cbe1f9ef","category":"Hotel Bar","checkinsCount":640,"usersCount":284,"tipCount":6,"visitsCount":640,"tier":"","message":"","currency":"","rating":8.5},{"name":"The Lion's Eye Tavern","phone":"5037741468","twitter":"lionseyetavern","address":"5919 SE 82nd Ave","lat":45.479711,"lng":-122.579289,"neighborhood":"Mt. Scott-Arleta","city_fetched":"Portland","state":"OR","country":"United States","canonicalUrl":"https://foursquare.com/lionseyetavern","category":"Bar","checkinsCount":2274,"usersCount":412,"tipCount":17,"visitsCount":2425,"tier":1,"message":"Cheap","currency":"$","rating":8.5},{"name":"Hoplandia Beer","phone":"9712717556","twitter":"hoplandiabeer","address":"8600 N Ivanhoe St","lat":45.58967602517106,"lng":-122.75582126011817,"neighborhood":"Cathedral Park","city_fetched":"Portland","state":"OR","country":"United States","canonicalUrl":"https://foursquare.com/v/hoplandia-beer/56451f72498eefbc4ff94f75","category":"Beer Store","checkinsCount":144,"usersCount":39,"tipCount":3,"visitsCount":156,"url":"http://www.hoplandiabeer.com","tier":"","message":"","currency":"","rating":8.5},{"name":"Uptown Market","phone":"5033364783","twitter":"uptownmarketpdx","address":"6620 SW Scholls Ferry Rd","lat":45.4722660274144,"lng":-122.77254897888359,"neighborhood":"Raleigh West","city_fetched":"Portland","state":"OR","country":"United States","canonicalUrl":"https://foursquare.com/uptownmarketpdx","category":"Brewery","checkinsCount":1969,"usersCount":484,"tipCount":14,"visitsCount":2315,"url":"http://www.uptownmarketpdx.com","tier":1,"message":"Cheap","currency":"$","rating":8.5},{"name":"Bridgetown Beerhouse","phone":"5034778763","twitter":"bridgetownbeer","address":"915 N Shaver St","lat":45.552191230365814,"lng":-122.67580645844089,"neighborhood":"Boise","city_fetched":"Portland","state":"OR","country":"United States","canonicalUrl":"https://foursquare.com/v/bridgetown-beerhouse/49be9b8ef964a520c7541fe3","category":"Beer Store","checkinsCount":2497,"usersCount":561,"tipCount":9,"visitsCount":2670,"url":"http://www.bridgetownbeer.com","tier":"","message":"","currency":"","rating":8.5},{"name":"Gustav's Pub & Grill","phone":"5036394544","address":"10350 SW Greenburg Rd","lat":45.44482446716445,"lng":-122.77629274516084,"neighborhood":"Tigard Neighborhood Area 4","city_fetched":"Portland","state":"OR","country":"United States","canonicalUrl":"https://foursquare.com/v/gustavs-pub--grill/4b0f03f2f964a5202f5e23e3","category":"German Restaurant","checkinsCount":2835,"usersCount":1836,"tipCount":35,"visitsCount":3290,"url":"http://gustavs.net","tier":2,"message":"Moderate","currency":"$","rating":8.5},{"name":"Skyline Tavern","phone":"5032864788","address":"8031 NW Skyline Blvd","lat":45.57962857823533,"lng":-122.7972555923754,"neighborhood":"Forest Park","city_fetched":"Portland","state":"OR","country":"United States","canonicalUrl":"https://foursquare.com/v/skyline-tavern/4b78b721f964a5201edf2ee3","category":"Bar","checkinsCount":389,"usersCount":362,"tipCount":4,"visitsCount":562,"tier":"","message":"","currency":"","rating":8.5},{"name":"Tin Bucket","phone":"5034777689","twitter":"tinbucketpdx","address":"3520 N Williams Ave","lat":45.54895740119993,"lng":-122.66672027692078,"neighborhood":"Boise","city_fetched":"Portland","state":"OR","country":"United States","canonicalUrl":"https://foursquare.com/v/tin-bucket/519270fc2fc6e0964fc3ecfa","category":"Beer Store","checkinsCount":1572,"usersCount":657,"tipCount":11,"visitsCount":1949,"url":"http://www.tin-bucket.com","tier":"","message":"","currency":"","rating":8.5},{"name":"Bushwhacker Cider - Brooklyn","phone":"5034450577","twitter":"bushwhckr","address":"1212 SE Powell Blvd Ste D","lat":45.500323,"lng":-122.652954,"neighborhood":"Brooklyn","city_fetched":"Portland","state":"OR","country":"United States","canonicalUrl":"https://foursquare.com/v/bushwhacker-cider--brooklyn/4c82c689d4e237049e216b88","category":"Brewery","checkinsCount":2355,"usersCount":1173,"tipCount":27,"visitsCount":2491,"url":"http://www.bushwhackercider.com","tier":1,"message":"Cheap","currency":"$","rating":8.5},{"name":"C Bar","phone":"5032308808","address":"2880 SE Gladstone St","lat":45.49321515384744,"lng":-122.63581305742264,"neighborhood":"Creston-Kenilworth","city_fetched":"Portland","state":"OR","country":"United States","canonicalUrl":"https://foursquare.com/v/c-bar/4ad91ec4f964a520461821e3","category":"Cocktail Bar","checkinsCount":3899,"usersCount":1269,"tipCount":34,"visitsCount":4442,"url":"http://www.cbarpdx.com","tier":2,"message":"Moderate","currency":"$","rating":8.5},{"name":"Hopworks BikeBar","phone":"5032876258","twitter":"hopworksbeer","address":"3947 N Williams Ave","lat":45.55133819709209,"lng":-122.66696691513062,"neighborhood":"Boise","city_fetched":"Portland","state":"OR","country":"United States","canonicalUrl":"https://foursquare.com/v/hopworks-bikebar/4d7c44ea7498a1cd45237bfc","category":"Brewery","checkinsCount":4981,"usersCount":2665,"tipCount":35,"visitsCount":5616,"url":"http://hopworksbeer.com","tier":2,"message":"Moderate","currency":"$","rating":8.4},{"name":"Hawthorne Hophouse","phone":"5034779619","twitter":"hawthornehop","address":"4111 SE Hawthorne Blvd","lat":45.512477945576016,"lng":-122.62001306742482,"neighborhood":"Sunnyside","city_fetched":"Portland","state":"OR","country":"United States","canonicalUrl":"https://foursquare.com/v/hawthorne-hophouse/4cc2445a1e596dcbc0efc167","category":"Pub","checkinsCount":2554,"usersCount":1363,"tipCount":22,"visitsCount":2703,"url":"http://oregonhophouse.com","tier":2,"message":"Moderate","currency":"$","rating":8.4},{"name":"The Tannery","address":"5425 E Burnside St","lat":45.52298218287415,"lng":-122.60767936104097,"neighborhood":"North Tabor","city_fetched":"Portland","state":"OR","country":"United States","canonicalUrl":"https://foursquare.com/v/the-tannery/50a8651ee4b0268f9c4d9e49","category":"Cocktail Bar","checkinsCount":547,"usersCount":335,"tipCount":9,"visitsCount":639,"tier":2,"message":"Moderate","currency":"$","rating":8.4},{"name":"Tanker Bar","phone":"5034454635","twitter":"tankerbar","address":"4825 SE Hawthorne Blvd","lat":45.51214,"lng":-122.612503,"neighborhood":"Sunnyside","city_fetched":"Portland","state":"OR","country":"United States","canonicalUrl":"https://foursquare.com/tankerbar","category":"Dive Bar","checkinsCount":2224,"usersCount":606,"tipCount":14,"visitsCount":2254,"url":"http://www.tankerbar.com","tier":"","message":"","currency":"","rating":8.4},{"name":"Loyal Legion","phone":"5032358272","twitter":"loyallegionpdx","address":"710 SE 6th Ave","lat":45.5178048322655,"lng":-122.65952646732329,"neighborhood":"Buckman","city_fetched":"Portland","state":"OR","country":"United States","canonicalUrl":"https://foursquare.com/v/loyal-legion/559ab6d4498e62b2b70cd7d1","category":"Bar","checkinsCount":1124,"usersCount":966,"tipCount":15,"visitsCount":1562,"url":"http://loyallegionpdx.com","tier":"","message":"","currency":"","rating":8.4},{"name":"Crystal Ballroom","phone":"5032250047","twitter":"crystalballroom","address":"1332 W Burnside St","lat":45.52282637195455,"lng":-122.68470101562369,"neighborhood":"Downtown Portland","city_fetched":"Portland","state":"OR","country":"United States","canonicalUrl":"https://foursquare.com/v/crystal-ballroom/40b13b00f964a52066f51ee3","category":"Concert Hall","checkinsCount":11710,"usersCount":7269,"tipCount":47,"visitsCount":12153,"url":"http://www.mcmenamins.com","tier":"","message":"","currency":"","rating":8.4},{"name":"Enso Winery","phone":"5036833676","twitter":"ensowinery","address":"1416 SE Stark St","lat":45.519224433333335,"lng":-122.651172,"neighborhood":"Buckman","city_fetched":"Portland","state":"OR","country":"United States","canonicalUrl":"https://foursquare.com/v/enso-winery/4dbca1561e72b351cab8a374","category":"Wine Bar","checkinsCount":1216,"usersCount":670,"tipCount":12,"visitsCount":1238,"url":"http://www.ensowinery.com","tier":2,"message":"Moderate","currency":"$","rating":8.4},{"name":"Schmizza Pub & Grub","phone":"5034738119","twitter":"schmizza","address":"415 SW Montgomery St","lat":45.51127239501467,"lng":-122.68070005231017,"neighborhood":"Downtown Portland","city_fetched":"Portland","state":"OR","country":"United States","canonicalUrl":"https://foursquare.com/v/schmizza-pub--grub/4ae79d20f964a520d2ac21e3","category":"Pizza Place","checkinsCount":3564,"usersCount":1394,"tipCount":26,"visitsCount":3709,"url":"http://www.schmizza.com","tier":1,"message":"Cheap","currency":"$","rating":8.4},{"name":"Gigantic Brewing Company","phone":"5032083416","twitter":"giganticbrewing","address":"5224 SE 26th Ave","lat":45.485008024952904,"lng":-122.63953772312605,"neighborhood":"Reed","city_fetched":"Portland","state":"OR","country":"United States","canonicalUrl":"https://foursquare.com/v/gigantic-brewing-company/4f400f9be4b0e9ea79adf4f0","category":"Brewery","checkinsCount":2235,"usersCount":1309,"tipCount":20,"visitsCount":2854,"url":"http://www.giganticbrewing.com","tier":2,"message":"Moderate","currency":"$","rating":8.4},{"name":"Prost! Portland","phone":"5039542674","twitter":"prostportland","address":"4237 N Mississippi Ave","lat":45.554498,"lng":-122.67568545,"neighborhood":"Boise","city_fetched":"Portland","state":"OR","country":"United States","canonicalUrl":"https://foursquare.com/v/prost-portland/4ade6b57f964a520ce7521e3","category":"Beer Garden","checkinsCount":10315,"usersCount":4487,"tipCount":59,"visitsCount":11276,"url":"http://prostportland.com","tier":2,"message":"Moderate","currency":"$","rating":8.4},{"name":"Voicebox Karaoke - NW Portland","phone":"5033038220","twitter":"voiceboxpdx","address":"2112 NW Hoyt St","lat":45.52689405,"lng":-122.694822,"neighborhood":"Northwest District","city_fetched":"Portland","state":"OR","country":"United States","canonicalUrl":"https://foursquare.com/v/voicebox-karaoke--nw-portland/4a7bb87ef964a520b2eb1fe3","category":"Karaoke Bar","checkinsCount":2178,"usersCount":1400,"tipCount":20,"visitsCount":2259,"url":"http://voiceboxkaraoke.com","tier":"","message":"","currency":"","rating":8.4},{"name":"Casa Diablo","phone":"5032226600","twitter":"casadiablo","address":"2839 NW Saint Helens Rd","lat":45.54301308695766,"lng":-122.7212655544281,"neighborhood":"Northwest District","city_fetched":"Portland","state":"OR","country":"United States","canonicalUrl":"https://foursquare.com/v/casa-diablo/4a088e3df964a520e7731fe3","category":"Strip Club","checkinsCount":2016,"usersCount":1573,"tipCount":24,"visitsCount":3037,"url":"http://www.casadiablo.com","tier":"","message":"","currency":"","rating":8.4},{"name":"TeSoAria Tasting Room","phone":"9712290050","address":"4003 N Williams Ave","lat":45.55213058010887,"lng":-122.66701984469589,"neighborhood":"Boise","city_fetched":"Portland","state":"OR","country":"United States","canonicalUrl":"https://foursquare.com/v/tesoaria-tasting-room/5287ed9711d269ef08c458c1","category":"Wine Bar","checkinsCount":342,"usersCount":211,"tipCount":14,"visitsCount":439,"url":"http://tesoaria.com","tier":"","message":"","currency":"","rating":8.4},{"name":"The Knock Back","address":"2315 NE Alberta St","lat":45.55912177678821,"lng":-122.64153938698267,"neighborhood":"Concordia","city_fetched":"Portland","state":"OR","country":"United States","canonicalUrl":"https://foursquare.com/v/the-knock-back/523a761511d24aef434e02e8","category":"Bar","checkinsCount":781,"usersCount":631,"tipCount":14,"visitsCount":1012,"url":"http://theknockback.com","tier":"","message":"","currency":"","rating":8.4},{"name":"Gladstone Street Pub","phone":"5037753502","address":"3737 SE Gladstone St","lat":45.49345116666667,"lng":-122.623804,"neighborhood":"Creston-Kenilworth","city_fetched":"Portland","state":"OR","country":"United States","canonicalUrl":"https://foursquare.com/v/gladstone-street-pub/42250200f964a520c11f1fe3","category":"Pub","checkinsCount":1583,"usersCount":491,"tipCount":14,"visitsCount":1743,"url":"http://gladstonestreetpub.com","tier":1,"message":"Cheap","currency":"$","rating":8.4},{"name":"Victoria","address":"4835 N Albina Ave","lat":45.55809755174428,"lng":-122.67509125658715,"neighborhood":"Northeast Portland","city_fetched":"Portland","state":"OR","country":"United States","canonicalUrl":"https://foursquare.com/v/victoria/55b5a7c2498eb6242ae3b466","category":"Cocktail Bar","checkinsCount":562,"usersCount":561,"tipCount":15,"visitsCount":984,"url":"http://www.victoriapdx.com","tier":"","message":"","currency":"","rating":8.4},{"name":"Bottles","phone":"5032877022","twitter":"bottlesnw","address":"5015 NE Fremont St","lat":45.54841273,"lng":-122.610918,"neighborhood":"Cully","city_fetched":"Portland","state":"OR","country":"United States","canonicalUrl":"https://foursquare.com/v/bottles/4c5dcb0ad25320a15414c77a","category":"Beer Garden","checkinsCount":1529,"usersCount":602,"tipCount":17,"visitsCount":1666,"url":"http://bottlesnw.com","tier":"","message":"","currency":"","rating":8.4},{"name":"Burnside Brewing Co.","phone":"5032083476","twitter":"burnsidebrewco","address":"701 E Burnside St","lat":45.5231119809049,"lng":-122.6584267616272,"neighborhood":"Kerns","city_fetched":"Portland","state":"OR","country":"United States","canonicalUrl":"https://foursquare.com/v/burnside-brewing-co/4cd9e36e071ba0932956b505","category":"Brewery","checkinsCount":6268,"usersCount":4388,"tipCount":68,"visitsCount":7139,"url":"http://burnsidebrewco.com","tier":2,"message":"Moderate","currency":"$","rating":8.4},{"name":"McMenamins on the Columbia","phone":"3606991521","twitter":"captainneon","address":"1801 SE Columbia River Dr","lat":45.615038,"lng":-122.6529693,"neighborhood":"Columbia Way","city_fetched":"Portland","state":"WA","country":"United States","canonicalUrl":"https://foursquare.com/v/mcmenamins-on-the-columbia/40b13b00f964a52050f31ee3","category":"Pub","checkinsCount":3488,"usersCount":2262,"tipCount":44,"visitsCount":4366,"url":"http://www.mcmenamins.com/299-mcmenamins-on-the-columbia-home#vLEmR","tier":2,"message":"Moderate","currency":"$","rating":8.4},{"name":"Saucebox","phone":"5032413393","twitter":"sauceboxpdx","address":"214 SW Broadway","lat":45.5224144855903,"lng":-122.67798725408251,"neighborhood":"Downtown Portland","city_fetched":"Portland","state":"OR","country":"United States","canonicalUrl":"https://foursquare.com/v/saucebox/44226a49f964a5208f311fe3","category":"Lounge","checkinsCount":5130,"usersCount":3193,"tipCount":61,"visitsCount":5157,"url":"http://www.saucebox.com","tier":2,"message":"Moderate","currency":"$","rating":8.4},{"name":"Victory Bar","phone":"5032368755","twitter":"victorybar","address":"3652 SE Division St","lat":45.504753,"lng":-122.62539803981781,"neighborhood":"Richmond","city_fetched":"Portland","state":"OR","country":"United States","canonicalUrl":"https://foursquare.com/v/victory-bar/49fa0d97f964a520b26d1fe3","category":"Wine Bar","checkinsCount":2353,"usersCount":1389,"tipCount":28,"visitsCount":2597,"url":"http://www.thevictorybar.com","tier":2,"message":"Moderate","currency":"$","rating":8.4},{"name":"Cheese Bar","phone":"5032226014","twitter":"cheesebarpdx","address":"6031 SE Belmont St","lat":45.51685009376192,"lng":-122.6013332605362,"neighborhood":"Mt. Tabor","city_fetched":"Portland","state":"OR","country":"United States","canonicalUrl":"https://foursquare.com/v/cheese-bar/4b9444a1f964a520237234e3","category":"Snack Place","checkinsCount":1589,"usersCount":797,"tipCount":21,"visitsCount":1804,"url":"http://cheese-bar.com","tier":2,"message":"Moderate","currency":"$","rating":8.4},{"name":"Great Notion Brewing","phone":"5035484491","twitter":"greatnotionpdx","address":"2204 NE Alberta St #101","lat":45.558918384492635,"lng":-122.64276266098021,"neighborhood":"Concordia","city_fetched":"Portland","state":"OR","country":"United States","canonicalUrl":"https://foursquare.com/v/great-notion-brewing/55fc84d2498e818369e083ce","category":"Brewery","checkinsCount":757,"usersCount":462,"tipCount":9,"visitsCount":825,"url":"http://greatnotionpdx.com","tier":"","message":"","currency":"","rating":8.4},{"name":"Wine & Growl","phone":"5034777306","address":"8108 SW Beaverton Hillsdale Hwy","lat":45.485947,"lng":-122.760086,"city_fetched":"Portland","state":"OR","country":"United States","canonicalUrl":"https://foursquare.com/v/wine--growl/539e8c02498eab489206080a","category":"Wine Bar","checkinsCount":146,"usersCount":102,"tipCount":6,"visitsCount":198,"url":"http://www.wineandgrowl.com","tier":"","message":"","currency":"","rating":8.4},{"name":"Green Dragon Bistro & Brew Pub","phone":"5035170606","twitter":"pdxgreendragon","address":"928 SE 9th Ave","lat":45.516250554807456,"lng":-122.65653043985367,"neighborhood":"Buckman","city_fetched":"Portland","state":"OR","country":"United States","canonicalUrl":"https://foursquare.com/v/green-dragon-bistro--brew-pub/47f8f9c3f964a520cb4e1fe3","category":"Pub","checkinsCount":11525,"usersCount":5800,"tipCount":80,"visitsCount":12751,"url":"http://www.pdxgreendragon.com","tier":2,"message":"Moderate","currency":"$","rating":8.4},{"name":"Bridge City Taproom","address":"620 SE 122nd Ave","lat":45.51809253703965,"lng":-122.53734016223422,"neighborhood":"Mill Park","city_fetched":"Portland","state":"OR","country":"United States","canonicalUrl":"https://foursquare.com/v/bridge-city-taproom/54345cd8498ef90faf4e549a","category":"Restaurant","checkinsCount":311,"usersCount":150,"tipCount":5,"visitsCount":495,"tier":"","message":"","currency":"","rating":8.4},{"name":"Fat Head's Brewery","phone":"5038207721","twitter":"fatheadspdx","address":"131 NW 13th Ave","lat":45.52412511494346,"lng":-122.68415904432167,"neighborhood":"Pearl","city_fetched":"Portland","state":"OR","country":"United States","canonicalUrl":"https://foursquare.com/v/fat-heads-brewery/543fe80b498e8857a2eb1789","category":"Brewery","checkinsCount":3318,"usersCount":3187,"tipCount":38,"visitsCount":5269,"url":"http://fatheadsportland.com","tier":"","message":"","currency":"","rating":8.4},{"name":"Voicebox Southeast","phone":"5033038220","twitter":"voiceboxpdx","address":"734 SE 6th Ave","lat":45.517499,"lng":-122.659449,"neighborhood":"Buckman","city_fetched":"Portland","state":"OR","country":"United States","canonicalUrl":"https://foursquare.com/v/voicebox-southeast/528071b5498e543c66ed23fc","category":"Karaoke Bar","checkinsCount":1097,"usersCount":634,"tipCount":11,"visitsCount":1174,"url":"http://voiceboxkaraoke.com","tier":2,"message":"Moderate","currency":"$","rating":8.4},{"name":"Low Bar","phone":"3607188378","address":"809 Washington St","lat":45.627701499482384,"lng":-122.67252625234705,"neighborhood":"Esther Short","city_fetched":"Portland","state":"WA","country":"United States","canonicalUrl":"https://foursquare.com/v/low-bar/50b99caae4b0134f7c071996","category":"Cocktail Bar","checkinsCount":1000,"usersCount":481,"tipCount":29,"visitsCount":1191,"url":"http://lowbarlounge.com","tier":2,"message":"Moderate","currency":"$","rating":8.4},{"name":"Beer","phone":"5032332337","address":"1410 SE Stark St","lat":45.51921411629688,"lng":-122.65134430916353,"neighborhood":"Buckman","city_fetched":"Portland","state":"OR","country":"United States","canonicalUrl":"https://foursquare.com/v/beer/50d25627e4b03bc1e14d44dc","category":"Bar","checkinsCount":1298,"usersCount":417,"tipCount":9,"visitsCount":1314,"tier":1,"message":"Cheap","currency":"$","rating":8.4},{"name":"Angel Face","address":"14 NE 28th Ave","lat":45.523134487473385,"lng":-122.63715372756714,"neighborhood":"Kerns","city_fetched":"Portland","state":"OR","country":"United States","canonicalUrl":"https://foursquare.com/v/angel-face/531fe96f498e837156eb13c6","category":"Cocktail Bar","checkinsCount":435,"usersCount":268,"tipCount":7,"visitsCount":450,"url":"http://angelfaceportland.com","tier":2,"message":"Moderate","currency":"$","rating":8.4},{"name":"Sasquatch Brewery","phone":"5034021999","twitter":"sasquatchbrew","address":"6440 SW Capitol Hwy","lat":45.477656,"lng":-122.698802,"neighborhood":"Hillsdale","city_fetched":"Portland","state":"OR","country":"United States","canonicalUrl":"https://foursquare.com/v/sasquatch-brewery/4e72a880183816c91f6ade78","category":"Brewery","checkinsCount":1927,"usersCount":1238,"tipCount":25,"visitsCount":2418,"url":"http://sasquatchbrewery.com","tier":2,"message":"Moderate","currency":"$","rating":8.4},{"name":"Pépé le Moko","phone":"5035468537","twitter":"pepelemokopdx","address":"407 SW 10th Ave","lat":45.522041688938074,"lng":-122.68120970535378,"neighborhood":"Downtown Portland","city_fetched":"Portland","state":"OR","country":"United States","canonicalUrl":"https://foursquare.com/v/p%C3%A9p%C3%A9-le-moko/517eacd3f2e79f8a8b318608","category":"Cocktail Bar","checkinsCount":1716,"usersCount":1336,"tipCount":45,"visitsCount":1746,"url":"http://pepelemokopdx.com","tier":"","message":"","currency":"","rating":8.3},{"name":"Devils Point","phone":"5037744513","address":"5305 SE Foster Rd","lat":45.495356683333334,"lng":-122.608085,"neighborhood":"Foster-Powell","city_fetched":"Portland","state":"OR","country":"United States","canonicalUrl":"https://foursquare.com/v/devils-point/40cf8d80f964a52023011fe3","category":"Strip Club","checkinsCount":3439,"usersCount":1450,"tipCount":27,"visitsCount":4017,"url":"http://devilspoint.net","tier":"","message":"","currency":"","rating":8.3},{"name":"Leisure Public House","phone":"5032897606","twitter":"leisurepdx","address":"8002 N Lombard St","lat":45.589134,"lng":-122.74816811084747,"neighborhood":"St. Johns","city_fetched":"Portland","state":"OR","country":"United States","canonicalUrl":"https://foursquare.com/v/leisure-public-house/4a58c0e1f964a520c7b71fe3","category":"Bar","checkinsCount":1504,"usersCount":677,"tipCount":12,"visitsCount":1852,"url":"http://www.leisurepublichouse.com","tier":1,"message":"Cheap","currency":"$","rating":8.3},{"name":"Culmination Brewing","phone":"5033536368","twitter":"culminationbrew","address":"2117 NE Oregon St","lat":45.5289133781762,"lng":-122.64359981117549,"neighborhood":"Kerns","city_fetched":"Portland","state":"OR","country":"United States","canonicalUrl":"https://foursquare.com/v/culmination-brewing/540bd945498eadd8be83bdda","category":"Brewery","checkinsCount":599,"usersCount":479,"tipCount":5,"visitsCount":917,"url":"http://culminationbrewing.com","tier":"","message":"","currency":"","rating":8.3},{"name":"Grain & Gristle","phone":"5032985007","address":"1473 NE Prescott St","lat":45.5555709,"lng":-122.65012,"neighborhood":"Sabin","city_fetched":"Portland","state":"OR","country":"United States","canonicalUrl":"https://foursquare.com/v/grain--gristle/4d06c602e350b60cd5388f42","category":"Bar","checkinsCount":3080,"usersCount":1535,"tipCount":40,"visitsCount":3175,"url":"http://grainandgristle.com","tier":2,"message":"Moderate","currency":"$","rating":8.3},{"name":"Paymaster","phone":"5039432780","address":"1020 NW 17th Ave","lat":45.53037168567485,"lng":-122.68834532482742,"neighborhood":"Northwest District","city_fetched":"Portland","state":"OR","country":"United States","canonicalUrl":"https://foursquare.com/v/paymaster/5185e2f5498e4754c5916c29","category":"Dive Bar","checkinsCount":1802,"usersCount":1087,"tipCount":24,"visitsCount":2508,"url":"http://paymasterlounge.com","tier":1,"message":"Cheap","currency":"$","rating":8.3},{"name":"El Indio","phone":"5032531677","address":"11114 NE Halsey St","lat":45.53335313640927,"lng":-122.54836079728304,"neighborhood":"East Portland","city_fetched":"Portland","state":"OR","country":"United States","canonicalUrl":"https://foursquare.com/v/el-indio/4b0cc8c5f964a520d34123e3","category":"Mexican Restaurant","checkinsCount":2115,"usersCount":868,"tipCount":23,"visitsCount":2514,"url":"http://www.elindio.com","tier":2,"message":"Moderate","currency":"$","rating":8.3},{"name":"Beaches Restaurant & Bar","phone":"3606991592","twitter":"beachesrandb","address":"1919 SE Columbia River Dr","lat":45.61493838987586,"lng":-122.65214710151402,"neighborhood":"Columbia Way","city_fetched":"Portland","state":"WA","country":"United States","canonicalUrl":"https://foursquare.com/v/beaches-restaurant--bar/40b13b00f964a52048f31ee3","category":"Seafood Restaurant","checkinsCount":3320,"usersCount":2142,"tipCount":34,"visitsCount":3968,"url":"http://www.beachesrestaurantandbar.com","tier":2,"message":"Moderate","currency":"$","rating":8.3},{"name":"Elephants On Corbett","phone":"5039371075","twitter":"elephantsdeli","address":"5221 SW Corbett Ave","lat":45.48530917407965,"lng":-122.6769516822139,"neighborhood":"South Portland","city_fetched":"Portland","state":"OR","country":"United States","canonicalUrl":"https://foursquare.com/v/elephants-on-corbett/51fc5468498ec88cc4f2c011","category":"Deli / Bodega","checkinsCount":862,"usersCount":613,"tipCount":10,"visitsCount":1712,"url":"https://www.elephantsdeli.com/locations/corbett-ave","tier":2,"message":"Moderate","currency":"$","rating":8.3},{"name":"Club 21","address":"2035 NE Glisan St","lat":45.52674194,"lng":-122.64466168,"neighborhood":"Kerns","city_fetched":"Portland","state":"OR","country":"United States","canonicalUrl":"https://foursquare.com/v/club-21/40b13b00f964a52063f51ee3","category":"Dive Bar","checkinsCount":1863,"usersCount":953,"tipCount":15,"visitsCount":2391,"tier":1,"message":"Cheap","currency":"$","rating":8.3},{"name":"The Lost & Found","phone":"5034777313","twitter":"thelostfound1","address":"5426 N Gay Ave","lat":45.56243392212376,"lng":-122.68983006477356,"neighborhood":"Overlook","city_fetched":"Portland","state":"OR","country":"United States","canonicalUrl":"https://foursquare.com/v/the-lost--found/51310ab7e4b018c1b33c276f","category":"Bar","checkinsCount":1108,"usersCount":305,"tipCount":7,"visitsCount":1172,"url":"http://www.lostandfoundpdx.com","tier":1,"message":"Cheap","currency":"$","rating":8.3},{"name":"The Rookery Bar","phone":"5032227673","address":"1331 SW Broadway","lat":45.515051,"lng":-122.682235,"neighborhood":"Downtown Portland","city_fetched":"Portland","state":"OR","country":"United States","canonicalUrl":"https://foursquare.com/v/the-rookery-bar/50dfc4a0e4b07dd5ddc73595","category":"Cocktail Bar","checkinsCount":501,"usersCount":247,"tipCount":8,"visitsCount":504,"url":"http://ravenandrosepdx.com","tier":"","message":"","currency":"","rating":8.3},{"name":"Swift Lounge","phone":"5032883333","twitter":"swiftloungepdx","address":"1932 NE Broadway St","lat":45.535051,"lng":-122.64605439,"neighborhood":"Irvington","city_fetched":"Portland","state":"OR","country":"United States","canonicalUrl":"https://foursquare.com/v/swift-lounge/4b357478f964a520472d25e3","category":"Bar","checkinsCount":4704,"usersCount":2243,"tipCount":48,"visitsCount":5467,"url":"http://swiftloungepdx.com","tier":2,"message":"Moderate","currency":"$","rating":8.3},{"name":"StormBreaker Brewing","phone":"9717034516","twitter":"stormbreakerpdx","address":"832 N Beech St","lat":45.54947116547618,"lng":-122.67542660236359,"neighborhood":"Boise","city_fetched":"Portland","state":"OR","country":"United States","canonicalUrl":"https://foursquare.com/v/stormbreaker-brewing/52e97b0c498e684c472b97a8","category":"Brewery","checkinsCount":2146,"usersCount":1945,"tipCount":25,"visitsCount":2764,"url":"http://www.stormbreakerbrewing.com","tier":2,"message":"Moderate","currency":"$","rating":8.3},{"name":"Tabor Tavern","phone":"5032083544","twitter":"tabortavernpdx","address":"5425 E Burnside St","lat":45.52301,"lng":-122.608506,"neighborhood":"North Tabor","city_fetched":"Portland","state":"OR","country":"United States","canonicalUrl":"https://foursquare.com/v/tabor-tavern/4f42cfeee4b0c5334de53f96","category":"Bar","checkinsCount":1620,"usersCount":978,"tipCount":31,"visitsCount":2275,"url":"http://tabortavern.com","tier":2,"message":"Moderate","currency":"$","rating":8.3},{"name":"Liberty Glass","phone":"5035179931","address":"938 N Cook St","lat":45.546289,"lng":-122.67606496810913,"neighborhood":"Boise","city_fetched":"Portland","state":"OR","country":"United States","canonicalUrl":"https://foursquare.com/v/liberty-glass/4a374d08f964a520469e1fe3","category":"Bar","checkinsCount":1272,"usersCount":905,"tipCount":16,"visitsCount":1539,"url":"http://libertyglassbar.com","tier":1,"message":"Cheap","currency":"$","rating":8.3},{"name":"Virginia Cafe","phone":"5032270033","address":"820 SW 10th Ave","lat":45.51899781,"lng":-122.68251,"neighborhood":"Downtown Portland","city_fetched":"Portland","state":"OR","country":"United States","canonicalUrl":"https://foursquare.com/v/virginia-cafe/40d8c800f964a52067011fe3","category":"Bar","checkinsCount":2114,"usersCount":1193,"tipCount":11,"visitsCount":2150,"url":"http://virginiacafepdx.com","tier":"","message":"","currency":"","rating":8.3},{"name":"Occidental Brewing Company","phone":"5037197102","twitter":"occidentalbrews","address":"6635 N Baltimore Ave","lat":45.588758252654806,"lng":-122.76156776485061,"neighborhood":"Cathedral Park","city_fetched":"Portland","state":"OR","country":"United States","canonicalUrl":"https://foursquare.com/v/occidental-brewing-company/4e473c9e483b03d090ec356c","category":"Brewery","checkinsCount":1615,"usersCount":529,"tipCount":11,"visitsCount":1848,"url":"http://occidentalbrewing.com","tier":1,"message":"Cheap","currency":"$","rating":8.3},{"name":"Eastside Distilling","phone":"5039267060","twitter":"eastsidedistill","address":"1512 SE 7th Ave","lat":45.51215134148336,"lng":-122.65874862670898,"neighborhood":"Hosford-Abernethy","city_fetched":"Portland","state":"OR","country":"United States","canonicalUrl":"https://foursquare.com/eastsidedistill","category":"Distillery","checkinsCount":1843,"usersCount":944,"tipCount":16,"visitsCount":1954,"url":"http://www.eastsidedistilling.com","tier":"","message":"","currency":"","rating":8.3},{"name":"Driftwood Room","phone":"5032222171","twitter":"driftwood_room","address":"729 SW 15th Ave","lat":45.520889,"lng":-122.687379,"neighborhood":"Goose Hollow","city_fetched":"Portland","state":"OR","country":"United States","canonicalUrl":"https://foursquare.com/v/driftwood-room/4a6fc9b4f964a520fad61fe3","category":"Cocktail Bar","checkinsCount":2500,"usersCount":1424,"tipCount":43,"visitsCount":2578,"url":"http://www.graciesdining.com/driftwood.html","tier":2,"message":"Moderate","currency":"$","rating":8.3},{"name":"The Heathman Restaurant & Bar","phone":"5037907126","twitter":"heathmanrest","address":"1001 SW Broadway","lat":45.51698690838218,"lng":-122.68081536724956,"neighborhood":"Downtown Portland","city_fetched":"Portland","state":"OR","country":"United States","canonicalUrl":"https://foursquare.com/v/the-heathman-restaurant--bar/4a772c1df964a520cbe31fe3","category":"Wine Bar","checkinsCount":2551,"usersCount":1672,"tipCount":29,"visitsCount":2571,"url":"http://www.heathmanrestaurantandbar.com","tier":3,"message":"Expensive","currency":"$","rating":8.2},{"name":"The Oregon Public House","phone":"5038280884","twitter":"oregonpubhouse","address":"700 NE Dekum St","lat":45.571649100389195,"lng":-122.65806815557289,"neighborhood":"Woodlawn","city_fetched":"Portland","state":"OR","country":"United States","canonicalUrl":"https://foursquare.com/v/the-oregon-public-house/4ea03a4e82310652a822a3b0","category":"Brewery","checkinsCount":1280,"usersCount":822,"tipCount":15,"visitsCount":1567,"url":"http://oregonpublichouse.com","tier":"","message":"","currency":"","rating":8.2},{"name":"HOME, A Bar","twitter":"homebarpdx","address":"719 SE Morrison St","lat":45.517297408902046,"lng":-122.65796098084707,"neighborhood":"Buckman","city_fetched":"Portland","state":"OR","country":"United States","canonicalUrl":"https://foursquare.com/v/home-a-bar/567f1fd8498eabd7d5e8bf02","category":"Bar","checkinsCount":128,"usersCount":118,"tipCount":5,"visitsCount":173,"url":"http://homebarpdx.com","tier":"","message":"","currency":"","rating":8.2},{"name":"Journeys","phone":"5039290229","twitter":"journeyspdx","address":"7771 SW Capitol Hwy","lat":45.46847462654114,"lng":-122.712242603302,"neighborhood":"Multnomah","city_fetched":"Portland","state":"OR","country":"United States","canonicalUrl":"https://foursquare.com/v/journeys/4b57ed3df964a520674628e3","category":"Bar","checkinsCount":1717,"usersCount":338,"tipCount":9,"visitsCount":1754,"tier":"","message":"","currency":"","rating":8.2},{"name":"Roscoe's","phone":"5032550049","twitter":"roscoespdx","address":"8105 SE Stark St","lat":45.51930087126744,"lng":-122.58037745567573,"neighborhood":"Montavilla","city_fetched":"Portland","state":"OR","country":"United States","canonicalUrl":"https://foursquare.com/v/roscoes/40b13b00f964a520ebf51ee3","category":"Dive Bar","checkinsCount":3023,"usersCount":1247,"tipCount":27,"visitsCount":3329,"url":"http://www.roscoespdx.com","tier":1,"message":"Cheap","currency":"$","rating":8.2},{"name":"Henry's 12th Street Tavern","phone":"5032275320","twitter":"henrystavern","address":"10 NW 12th Ave","lat":45.52330185940612,"lng":-122.68289750888952,"neighborhood":"Pearl","city_fetched":"Portland","state":"OR","country":"United States","canonicalUrl":"https://foursquare.com/v/henrys-12th-street-tavern/42153000f964a5208f1f1fe3","category":"Gastropub","checkinsCount":16213,"usersCount":10105,"tipCount":150,"visitsCount":16884,"url":"http://www.henrystavern.com","tier":2,"message":"Moderate","currency":"$","rating":8.2},{"name":"Sunset Lanes","phone":"5036461116","twitter":"sunsetlanesbowl","address":"12770 SW Walker Rd","lat":45.50155753514715,"lng":-122.80849009229836,"neighborhood":"Downtown Beaverton","city_fetched":"Portland","state":"OR","country":"United States","canonicalUrl":"https://foursquare.com/v/sunset-lanes/4a81b813f964a52058f71fe3","category":"Bowling Alley","checkinsCount":4055,"usersCount":1435,"tipCount":15,"visitsCount":4761,"url":"http://sunsetlanes.com","tier":"","message":"","currency":"","rating":8.2},{"name":"Davis Street Tavern","phone":"5035055050","twitter":"davisstreet","address":"500 NW Davis St","lat":45.524426783989895,"lng":-122.67551622841029,"neighborhood":"Old Town Chinatown","city_fetched":"Portland","state":"OR","country":"United States","canonicalUrl":"https://foursquare.com/v/davis-street-tavern/49c84489f964a5200a581fe3","category":"American Restaurant","checkinsCount":3575,"usersCount":2356,"tipCount":41,"visitsCount":3723,"url":"http://www.davisstreettavern.com","tier":2,"message":"Moderate","currency":"$","rating":8.2},{"name":"The Lovecraft","phone":"9712707760","address":"421 SE Grand Ave","lat":45.520001,"lng":-122.660845,"neighborhood":"Buckman","city_fetched":"Portland","state":"OR","country":"United States","canonicalUrl":"https://foursquare.com/v/the-lovecraft/4d16a3656d103704c35e31bd","category":"Nightclub","checkinsCount":2851,"usersCount":1310,"tipCount":19,"visitsCount":3269,"url":"http://thelovecraftbar.com","tier":1,"message":"Cheap","currency":"$","rating":8.2},{"name":"The Richmond Bar","phone":"5032083075","address":"3203 SE Division St","lat":45.504864382967384,"lng":-122.63258236754056,"neighborhood":"Richmond","city_fetched":"Portland","state":"OR","country":"United States","canonicalUrl":"https://foursquare.com/v/the-richmond-bar/5254b7bf11d202d1fd003aaf","category":"Bar","checkinsCount":1013,"usersCount":700,"tipCount":18,"visitsCount":1041,"url":"http://therichmondbar.com","tier":2,"message":"Moderate","currency":"$","rating":8.2},{"name":"Lucky Labrador Beer Hall","phone":"5035174352","twitter":"luckylabpdx","address":"1945 NW Quimby St","lat":45.53375035,"lng":-122.69192653,"neighborhood":"Northwest District","city_fetched":"Portland","state":"OR","country":"United States","canonicalUrl":"https://foursquare.com/v/lucky-labrador-beer-hall/4a0f04b6f964a52018761fe3","category":"Brewery","checkinsCount":5270,"usersCount":3262,"tipCount":20,"visitsCount":6327,"url":"http://www.luckylab.com","tier":1,"message":"Cheap","currency":"$","rating":8.2},{"name":"Bar Avignon","phone":"5035170808","twitter":"baravignon","address":"2138 SE Division St","lat":45.504707,"lng":-122.643878,"neighborhood":"Hosford-Abernethy","city_fetched":"Portland","state":"OR","country":"United States","canonicalUrl":"https://foursquare.com/v/bar-avignon/4a8c32f5f964a520440d20e3","category":"Wine Bar","checkinsCount":1012,"usersCount":685,"tipCount":19,"visitsCount":1036,"url":"http://baravignon.com","tier":2,"message":"Moderate","currency":"$","rating":8.2},{"name":"Vault Martini","phone":"5032244909","twitter":"vaultmartini","address":"226 NW 12th Ave","lat":45.52483765431849,"lng":-122.68306923776157,"neighborhood":"Pearl","city_fetched":"Portland","state":"OR","country":"United States","canonicalUrl":"https://foursquare.com/v/vault-martini/41881f80f964a520f01d1fe3","category":"Cocktail Bar","checkinsCount":4622,"usersCount":2274,"tipCount":54,"visitsCount":4702,"url":"http://vaultmartinioregon.com","tier":"","message":"","currency":"","rating":8.2},{"name":"Martha's at Revolution Hall","address":"1300 SE STARK ST, PORTLAND, OR, 97214","lat":45.51874444730725,"lng":-122.65245231998566,"neighborhood":"Buckman","city_fetched":"Portland","state":"OR","country":"United States","canonicalUrl":"https://foursquare.com/v/marthas-at-revolution-hall/55f23a16498edb125e29ef0e","category":"Bar","checkinsCount":416,"usersCount":191,"tipCount":6,"visitsCount":422,"tier":"","message":"","currency":"","rating":8.2},{"name":"Park City Pub","phone":"5032847107","address":"8025 NE Sandy Blvd","lat":45.55197715759277,"lng":-122.580214,"neighborhood":"Roseway","city_fetched":"Portland","state":"OR","country":"United States","canonicalUrl":"https://foursquare.com/v/park-city-pub/4b8acfbdf964a520a98232e3","category":"Bar","checkinsCount":458,"usersCount":274,"tipCount":11,"visitsCount":595,"tier":"","message":"","currency":"","rating":8.2},{"name":"Brix Tavern","phone":"5039435995","twitter":"brixtavern","address":"1338 NW Hoyt St","lat":45.52708143474287,"lng":-122.68496882198825,"neighborhood":"Pearl","city_fetched":"Portland","state":"OR","country":"United States","canonicalUrl":"https://foursquare.com/v/brix-tavern/4da8ef9ef7b145b36febb0d3","category":"Bar","checkinsCount":5516,"usersCount":3022,"tipCount":61,"visitsCount":5886,"url":"http://brixtavern.com","tier":2,"message":"Moderate","currency":"$","rating":8.1},{"name":"Cinetopia","phone":"3602132800","twitter":"cinetopia","address":"11700 SE 7th St","lat":45.6165763526196,"lng":-122.55097656368667,"neighborhood":"Cascade Park","city_fetched":"Portland","state":"WA","country":"United States","canonicalUrl":"https://foursquare.com/v/cinetopia/4a0ee818f964a520fc751fe3","category":"Movie Theater","checkinsCount":4700,"usersCount":2552,"tipCount":37,"visitsCount":5376,"url":"http://www.cinetopia.com","tier":"","message":"","currency":"","rating":8.1},{"name":"The Steep and Thorny Way to Heaven","twitter":"steepandthorny","lat":45.512483828401336,"lng":-122.66381608667409,"neighborhood":"Buckman","city_fetched":"Portland","state":"OR","country":"United States","canonicalUrl":"https://foursquare.com/v/the-steep-and-thorny-way-to-heaven/4e8619d230f8ac3330050213","category":"Performing Arts Venue","checkinsCount":1361,"usersCount":222,"tipCount":5,"visitsCount":1493,"url":"http://thesteepandthornywaytoheaven.com","tier":"","message":"","currency":"","rating":8.1},{"name":"Slingshot Lounge","phone":"5034456649","address":"5532 SE Center St","lat":45.49380540847778,"lng":-122.605592,"neighborhood":"Creston-Kenilworth","city_fetched":"Portland","state":"OR","country":"United States","canonicalUrl":"https://foursquare.com/v/slingshot-lounge/4ad15d27f964a52038de20e3","category":"Lounge","checkinsCount":2514,"usersCount":1013,"tipCount":22,"visitsCount":3014,"tier":2,"message":"Moderate","currency":"$","rating":8.1},{"name":"Lompoc Tavern","phone":"5038949374","twitter":"lompocbeer","address":"1620 NW 23rd Ave","lat":45.5342696427914,"lng":-122.6986974477768,"neighborhood":"Northwest District","city_fetched":"Portland","state":"OR","country":"United States","canonicalUrl":"https://foursquare.com/v/lompoc-tavern/519059c3498e01b5293f251a","category":"Pub","checkinsCount":1751,"usersCount":1324,"tipCount":17,"visitsCount":2179,"url":"http://www.lompocbrewing.com","tier":1,"message":"Cheap","currency":"$","rating":8.1},{"name":"Peter's Bar & Grill","phone":"5034600544","address":"5701 NE Fremont St","lat":45.54834440496426,"lng":-122.60446253500034,"neighborhood":"Cully","city_fetched":"Portland","state":"OR","country":"United States","canonicalUrl":"https://foursquare.com/v/peters-bar--grill/44814835f964a52011341fe3","category":"Sports Bar","checkinsCount":403,"usersCount":184,"tipCount":6,"visitsCount":480,"url":"http://petercafesport.com","tier":"","message":"","currency":"","rating":8.1},{"name":"The Side St. Tavern","phone":"5032367999","address":"828 SE 34th Ave","lat":45.51673356944956,"lng":-122.6294669508934,"neighborhood":"Sunnyside","city_fetched":"Portland","state":"OR","country":"United States","canonicalUrl":"https://foursquare.com/v/the-side-st-tavern/4418900df964a52020311fe3","category":"Bar","checkinsCount":1990,"usersCount":721,"tipCount":19,"visitsCount":2012,"url":"http://sidestreetpdx.com","tier":1,"message":"Cheap","currency":"$","rating":8.1},{"name":"Raven & Rose","phone":"5032227673","twitter":"ravenandrose","address":"1331 SW Broadway","lat":45.514865628107096,"lng":-122.68246668912288,"neighborhood":"Downtown Portland","city_fetched":"Portland","state":"OR","country":"United States","canonicalUrl":"https://foursquare.com/ravenandrose","category":"Gastropub","checkinsCount":2200,"usersCount":1416,"tipCount":28,"visitsCount":2695,"url":"http://www.ravenandrosepdx.com","tier":2,"message":"Moderate","currency":"$","rating":8.1},{"name":"PINTS Urban Tap Room","phone":"5035642739","twitter":"pintsbrewing","address":"412 NW 5th Ave","lat":45.52604120940917,"lng":-122.67548903528909,"neighborhood":"Old Town Chinatown","city_fetched":"Portland","state":"OR","country":"United States","canonicalUrl":"https://foursquare.com/pintsbrewing","category":"Brewery","checkinsCount":2109,"usersCount":1842,"tipCount":18,"visitsCount":2846,"url":"http://www.pintsbrewing.com","tier":2,"message":"Moderate","currency":"$","rating":8.1},{"name":"Reel M Inn","phone":"5032313880","address":"2430 SE Division St","lat":45.504625002484,"lng":-122.64061689376831,"neighborhood":"Hosford-Abernethy","city_fetched":"Portland","state":"OR","country":"United States","canonicalUrl":"https://foursquare.com/v/reel-m-inn/40b13b00f964a520e3f51ee3","category":"Pub","checkinsCount":1781,"usersCount":826,"tipCount":25,"visitsCount":2153,"tier":1,"message":"Cheap","currency":"$","rating":8.1},{"name":"Slow Bar","phone":"5032307767","address":"533 SE Grand Ave","lat":45.518683854572544,"lng":-122.66087643051948,"neighborhood":"Buckman","city_fetched":"Portland","state":"OR","country":"United States","canonicalUrl":"https://foursquare.com/v/slow-bar/40f71a80f964a520b90a1fe3","category":"Lounge","checkinsCount":3459,"usersCount":2136,"tipCount":44,"visitsCount":3736,"url":"http://slowbar.net","tier":2,"message":"Moderate","currency":"$","rating":8.1},{"name":"Conquistador","phone":"5032323227","address":"2045 SE Belmont St","lat":45.516505926949165,"lng":-122.64464606549836,"neighborhood":"Buckman","city_fetched":"Portland","state":"OR","country":"United States","canonicalUrl":"https://foursquare.com/v/conquistador/4f0004af29c201c6fd8e6e7c","category":"Lounge","checkinsCount":2117,"usersCount":1076,"tipCount":28,"visitsCount":2612,"tier":1,"message":"Cheap","currency":"$","rating":8.1},{"name":"Tanuki","phone":"5034776030","twitter":"tanukipdx","address":"8029 SE Stark St, Portland, OR 97215","lat":45.519285129515424,"lng":-122.58082451867243,"neighborhood":"Montavilla","city_fetched":"Portland","state":"OR","country":"United States","canonicalUrl":"https://foursquare.com/v/tanuki/4ebb52bdcc2178857e6d56e8","category":"Sake Bar","checkinsCount":824,"usersCount":391,"tipCount":21,"visitsCount":868,"url":"http://tanukipdx.com","tier":"","message":"","currency":"","rating":8.1},{"name":"Radio Room","phone":"5032872346","twitter":"radioroompdx","address":"1101 NE Alberta St","lat":45.559237,"lng":-122.65435781666666,"neighborhood":"King","city_fetched":"Portland","state":"OR","country":"United States","canonicalUrl":"https://foursquare.com/radioroompdx","category":"Bar","checkinsCount":6444,"usersCount":3507,"tipCount":66,"visitsCount":7190,"url":"http://radioroompdx","tier":2,"message":"Moderate","currency":"$","rating":8.1},{"name":"Muddy Rudder Public House","phone":"5032334410","address":"8195 SE 7th Ave","lat":45.46421445922115,"lng":-122.65926425317062,"neighborhood":"Sellwood-Moreland","city_fetched":"Portland","state":"OR","country":"United States","canonicalUrl":"https://foursquare.com/v/muddy-rudder-public-house/4a9db5f8f964a5200d3920e3","category":"Pizza Place","checkinsCount":1027,"usersCount":704,"tipCount":12,"visitsCount":1245,"url":"http://muddyrudderpdx.com","tier":1,"message":"Cheap","currency":"$","rating":8.1},{"name":"Genies Cafe","phone":"5034459777","twitter":"geniescafe","address":"1101 SE Division St","lat":45.50492753952641,"lng":-122.65454438527647,"neighborhood":"Hosford-Abernethy","city_fetched":"Portland","state":"OR","country":"United States","canonicalUrl":"https://foursquare.com/v/genies-cafe/40fb0f00f964a520f60a1fe3","category":"Breakfast Spot","checkinsCount":3866,"usersCount":1814,"tipCount":34,"visitsCount":3985,"url":"http://www.geniesdivision.com","tier":2,"message":"Moderate","currency":"$","rating":8.1},{"name":"The Big Legrowlski","phone":"5032066481","address":"812 Couch St","lat":45.523702663439856,"lng":-122.67926638681377,"neighborhood":"Pearl","city_fetched":"Portland","state":"OR","country":"United States","canonicalUrl":"https://foursquare.com/v/the-big-legrowlski/53e169e1498ec5d897b9526b","category":"Beer Store","checkinsCount":821,"usersCount":598,"tipCount":12,"visitsCount":1210,"url":"http://www.biglegrowlski.com","tier":"","message":"","currency":"","rating":8.1},{"name":"The Frying Scotsman","phone":"5037063841","twitter":"frying_scotsmn","address":"SW 9th Avenue","lat":45.520771410625365,"lng":-122.68242647898438,"neighborhood":"Downtown Portland","city_fetched":"Portland","state":"OR","country":"United States","canonicalUrl":"https://foursquare.com/v/the-frying-scotsman/4c4dd92d51c2c9283504789d","category":"Food Truck","checkinsCount":916,"usersCount":582,"tipCount":24,"visitsCount":942,"url":"http://www.thefryingscotsmanpdx.com","tier":1,"message":"Cheap","currency":"$","rating":8.1},{"name":"Jimmy Mak's","phone":"5032956542","address":"221 NW 10th Ave","lat":45.52481803,"lng":-122.6814235,"neighborhood":"Pearl","city_fetched":"Portland","state":"OR","country":"United States","canonicalUrl":"https://foursquare.com/v/jimmy-maks/40b13b00f964a52090f51ee3","category":"Jazz Club","checkinsCount":1449,"usersCount":987,"tipCount":21,"visitsCount":1467,"url":"http://www.jimmymaks.com","tier":"","message":"","currency":"","rating":8.1},{"name":"Aalto Lounge","phone":"5032356041","twitter":"aaltopdx","address":"3356 SE Belmont St","lat":45.51638902642565,"lng":-122.62975414048485,"neighborhood":"Sunnyside","city_fetched":"Portland","state":"OR","country":"United States","canonicalUrl":"https://foursquare.com/v/aalto-lounge/40b13b00f964a5203bf51ee3","category":"Bar","checkinsCount":2436,"usersCount":1092,"tipCount":18,"visitsCount":2456,"url":"http://aaltolounge.com","tier":1,"message":"Cheap","currency":"$","rating":8.1},{"name":"Laurelwood Public House & Brewery","phone":"5032820622","twitter":"laurelwood1","address":"5115 NE Sandy Blvd","lat":45.540096,"lng":-122.610671,"neighborhood":"Rose City Park","city_fetched":"Portland","state":"OR","country":"United States","canonicalUrl":"https://foursquare.com/v/laurelwood-public-house--brewery/446bc3a4f964a5205e331fe3","category":"Brewery","checkinsCount":5439,"usersCount":2820,"tipCount":61,"visitsCount":6273,"url":"http://laurelwoodbrewpub.com","tier":2,"message":"Moderate","currency":"$","rating":8.1},{"name":"The Box Social","phone":"5032881111","address":"3971 N Williams Ave","lat":45.55188744080443,"lng":-122.66683220015967,"neighborhood":"Boise","city_fetched":"Portland","state":"OR","country":"United States","canonicalUrl":"https://foursquare.com/v/the-box-social/4ee12d2cf790522129bb4608","category":"Cocktail Bar","checkinsCount":1388,"usersCount":830,"tipCount":17,"visitsCount":1502,"url":"http://bxsocial.com","tier":"","message":"","currency":"","rating":8.1},{"name":"Mt. Tabor Brewing","phone":"3606965521","twitter":"mttaborbrewing","address":"113 W. 9th St.","lat":45.6279143,"lng":-122.672545,"neighborhood":"Esther Short","city_fetched":"Portland","state":"WA","country":"United States","canonicalUrl":"https://foursquare.com/v/mt-tabor-brewing/4e8f8a64f5b9f8967c553c51","category":"Brewery","checkinsCount":353,"usersCount":150,"tipCount":6,"visitsCount":374,"url":"http://www.mttaborbrewing.com","tier":"","message":"","currency":"","rating":8.1},{"name":"Gemini Lounge","phone":"5037721117","address":"6526 SE Foster Rd","lat":45.48893,"lng":-122.5953197479248,"neighborhood":"Mt. Scott-Arleta","city_fetched":"Portland","state":"OR","country":"United States","canonicalUrl":"https://foursquare.com/v/gemini-lounge/4e6acb241f6e1e74e46591c4","category":"Cocktail Bar","checkinsCount":443,"usersCount":204,"tipCount":11,"visitsCount":454,"url":"http://geminiloungepdx.com","tier":"","message":"","currency":"","rating":8.1},{"name":"Captured By Porches Beer Bus","phone":"9712073742","address":"7316 N Lombard St","lat":45.58771895741667,"lng":-122.74232280900054,"neighborhood":"St. Johns","city_fetched":"Portland","state":"OR","country":"United States","canonicalUrl":"https://foursquare.com/v/captured-by-porches-beer-bus/4ef66af79adf7bbf87df1439","category":"Bar","checkinsCount":443,"usersCount":277,"tipCount":6,"visitsCount":672,"url":"http://capturedbyporches.com","tier":"","message":"","currency":"","rating":8.1},{"name":"Niche Wine Bar","phone":"3609808352","twitter":"nichewine","address":"1013 Main St","lat":45.6292418,"lng":-122.6715315,"neighborhood":"Esther Short","city_fetched":"Portland","state":"WA","country":"United States","canonicalUrl":"https://foursquare.com/v/niche-wine-bar/4c82dcd447cc224b15728a9f","category":"Wine Bar","checkinsCount":464,"usersCount":120,"tipCount":8,"visitsCount":478,"url":"http://nichewinebar.com","tier":"","message":"","currency":"","rating":8.1},{"name":"Beech St Parlor","phone":"5039468184","address":"412 NE Beech St","lat":45.5493869,"lng":-122.6611367,"neighborhood":"King","city_fetched":"Portland","state":"OR","country":"United States","canonicalUrl":"https://foursquare.com/v/beech-st-parlor/4de6d79e7d8b79dc45767a55","category":"Speakeasy","checkinsCount":838,"usersCount":589,"tipCount":11,"visitsCount":1016,"url":"http://beechstreetparlor.com","tier":2,"message":"Moderate","currency":"$","rating":8.1},{"name":"Church","phone":"5032068962","address":"2600 NE Sandy Blvd","lat":45.52825832404656,"lng":-122.63922804760742,"neighborhood":"Kerns","city_fetched":"Portland","state":"OR","country":"United States","canonicalUrl":"https://foursquare.com/v/church/516ccccbe4b08813aebd7fea","category":"Cocktail Bar","checkinsCount":1556,"usersCount":1249,"tipCount":21,"visitsCount":2317,"url":"http://churchbarpdx.com","tier":2,"message":"Moderate","currency":"$","rating":8},{"name":"Mock Crest Tavern","phone":"5032835014","twitter":"mockcrest","address":"3435 N Lombard St","lat":45.57730898,"lng":-122.702365,"neighborhood":"Kenton","city_fetched":"Portland","state":"OR","country":"United States","canonicalUrl":"https://foursquare.com/v/mock-crest-tavern/40b13b00f964a520b9f51ee3","category":"Bar","checkinsCount":1873,"usersCount":502,"tipCount":14,"visitsCount":2083,"url":"http://www.mockcrest.com","tier":1,"message":"Cheap","currency":"$","rating":8},{"name":"Woodstock Wine and Deli","phone":"5037772208","address":"4030 SE Woodstock Blvd","lat":45.47901399375484,"lng":-122.62096702799907,"neighborhood":"Woodstock","city_fetched":"Portland","state":"OR","country":"United States","canonicalUrl":"https://foursquare.com/v/woodstock-wine-and-deli/40b13b00f964a52018f61ee3","category":"Wine Bar","checkinsCount":289,"usersCount":149,"tipCount":2,"visitsCount":315,"tier":"","message":"","currency":"","rating":8},{"name":"Night Light Lounge","phone":"5037316500","address":"2100 SE Clinton St","lat":45.50331,"lng":-122.64444376666667,"neighborhood":"Hosford-Abernethy","city_fetched":"Portland","state":"OR","country":"United States","canonicalUrl":"https://foursquare.com/v/night-light-lounge/4230df80f964a52001201fe3","category":"Lounge","checkinsCount":4484,"usersCount":1945,"tipCount":42,"visitsCount":4894,"url":"http://nightlightlounge.net","tier":2,"message":"Moderate","currency":"$","rating":8},{"name":"Concordia Ale House","phone":"5032873929","twitter":"concordiaale","address":"3276 NE Killingsworth St","lat":45.562488,"lng":-122.63098239898682,"neighborhood":"Concordia","city_fetched":"Portland","state":"OR","country":"United States","canonicalUrl":"https://foursquare.com/v/concordia-ale-house/49c831ccf964a520ff571fe3","category":"Sports Bar","checkinsCount":2155,"usersCount":1034,"tipCount":32,"visitsCount":2451,"tier":2,"message":"Moderate","currency":"$","rating":8},{"name":"Landmark Saloon","phone":"5038948132","twitter":"landmarksaloon","address":"4847 SE Division St","lat":45.505345,"lng":-122.612406,"neighborhood":"Richmond","city_fetched":"Portland","state":"OR","country":"United States","canonicalUrl":"https://foursquare.com/v/landmark-saloon/4c300751a0ced13a3fa9116e","category":"Bar","checkinsCount":1871,"usersCount":1150,"tipCount":19,"visitsCount":2171,"url":"http://www.thelandmarksaloon.com","tier":2,"message":"Moderate","currency":"$","rating":8},{"name":"A Roadside Attraction","phone":"5032330743","address":"1000 SE 12th Ave","lat":45.51567746414334,"lng":-122.65349108800046,"neighborhood":"Buckman","city_fetched":"Portland","state":"OR","country":"United States","canonicalUrl":"https://foursquare.com/v/a-roadside-attraction/49c1741cf964a520aa551fe3","category":"Lounge","checkinsCount":3874,"usersCount":2264,"tipCount":44,"visitsCount":4605,"tier":1,"message":"Cheap","currency":"$","rating":8},{"name":"Upright Brewing","phone":"5037355337","twitter":"uprightbrewing","address":"240 N Broadway","lat":45.534666,"lng":-122.668396,"neighborhood":"Lloyd District","city_fetched":"Portland","state":"OR","country":"United States","canonicalUrl":"https://foursquare.com/v/upright-brewing/4b1331cef964a5205a9523e3","category":"Brewery","checkinsCount":2192,"usersCount":1593,"tipCount":26,"visitsCount":2667,"url":"http://www.uprightbrewing.com","tier":1,"message":"Cheap","currency":"$","rating":8},{"name":"The Green Room","address":"1122 SW Alder St","lat":45.521014,"lng":-122.683469,"neighborhood":"Downtown Portland","city_fetched":"Portland","state":"OR","country":"United States","canonicalUrl":"https://foursquare.com/v/the-green-room/55a6fd61498ea7b856848b5b","category":"Cocktail Bar","checkinsCount":293,"usersCount":268,"tipCount":5,"visitsCount":295,"tier":"","message":"","currency":"","rating":8},{"name":"Growlers Hawthorne","phone":"5036288000","twitter":"growlershawth","address":"3343 SE Hawthorne Blvd","lat":45.51218141474534,"lng":-122.6298987865448,"neighborhood":"Sunnyside","city_fetched":"Portland","state":"OR","country":"United States","canonicalUrl":"https://foursquare.com/v/growlers-hawthorne/52d311cf11d2ec91d25140a0","category":"Beer Store","checkinsCount":422,"usersCount":238,"tipCount":9,"visitsCount":479,"url":"http://www.growlers.net","tier":"","message":"","currency":"","rating":8},{"name":"The Fireside","phone":"5034779505","twitter":"pdxfireside","address":"801 NW 23rd Ave","lat":45.52845390432617,"lng":-122.69868425147185,"neighborhood":"Northwest District","city_fetched":"Portland","state":"OR","country":"United States","canonicalUrl":"https://foursquare.com/v/the-fireside/51427e15e4b07932529207e9","category":"American Restaurant","checkinsCount":1116,"usersCount":931,"tipCount":27,"visitsCount":1217,"url":"http://pdxfireside.com","tier":2,"message":"Moderate","currency":"$","rating":8},{"name":"Cedar Mill Liquor","phone":"5036262611","address":"13528 NW Cornell Rd","lat":45.52693414901678,"lng":-122.81604164375926,"neighborhood":"Cedar Hills - Cedar Mill","city_fetched":"Portland","state":"OR","country":"United States","canonicalUrl":"https://foursquare.com/v/cedar-mill-liquor/4c01a7a9716bc9b65646bc55","category":"Liquor Store","checkinsCount":491,"usersCount":299,"tipCount":5,"visitsCount":645,"tier":"","message":"","currency":"","rating":8},{"name":"Barlow Tavern","phone":"5032891163","address":"6008 N Greeley Ave","lat":45.5665236835207,"lng":-122.69544273233103,"neighborhood":"Arbor Lodge","city_fetched":"Portland","state":"OR","country":"United States","canonicalUrl":"https://foursquare.com/v/barlow-tavern/50219e3ae4b0088626633602","category":"Bar","checkinsCount":1084,"usersCount":278,"tipCount":5,"visitsCount":1164,"tier":2,"message":"Moderate","currency":"$","rating":8},{"name":"Big Al's","phone":"3609446118","twitter":"ilovebigals","address":"16615 SE 18th St","lat":45.607754375812824,"lng":-122.50113357853012,"neighborhood":"Fisher's Landing East","city_fetched":"Portland","state":"WA","country":"United States","canonicalUrl":"https://foursquare.com/v/big-als/4bda4092ffafd13a21029b85","category":"Bowling Alley","checkinsCount":3660,"usersCount":2148,"tipCount":32,"visitsCount":4564,"url":"http://www.ilovebigals.com/vancouver","tier":"","message":"","currency":"","rating":8},{"name":"Morton's The Steakhouse","phone":"5032482100","twitter":"mortons","address":"213 SW Clay St","lat":45.513013334775614,"lng":-122.67791124975597,"neighborhood":"Downtown Portland","city_fetched":"Portland","state":"OR","country":"United States","canonicalUrl":"https://foursquare.com/v/mortons-the-steakhouse/4a5b8ef6f964a52068bb1fe3","category":"Steakhouse","checkinsCount":744,"usersCount":546,"tipCount":9,"visitsCount":756,"url":"http://www.mortons.com","tier":1,"message":"Cheap","currency":"$","rating":8},{"name":"House Spirits","phone":"5032353174","address":"2025 SE 7th Ave","lat":45.508276,"lng":-122.658828,"neighborhood":"Hosford-Abernethy","city_fetched":"Portland","state":"OR","country":"United States","canonicalUrl":"https://foursquare.com/v/house-spirits/4a2aef88f964a5206f961fe3","category":"Distillery","checkinsCount":680,"usersCount":588,"tipCount":10,"visitsCount":693,"url":"http://www.housespirits.com","tier":"","message":"","currency":"","rating":8},{"name":"Rontoms","phone":"5032364536","address":"600 E Burnside St","lat":45.522694,"lng":-122.6595279,"neighborhood":"Buckman","city_fetched":"Portland","state":"OR","country":"United States","canonicalUrl":"https://foursquare.com/v/rontoms/49e8d913f964a5209b651fe3","category":"Bar","checkinsCount":9605,"usersCount":4794,"tipCount":61,"visitsCount":10146,"url":"http://www.rontoms.net","tier":2,"message":"Moderate","currency":"$","rating":8},{"name":"Parkside Pub","phone":"5037196826","address":"2135 N Willis Blvd","lat":45.583956746280215,"lng":-122.68901293009547,"neighborhood":"Kenton","city_fetched":"Portland","state":"OR","country":"United States","canonicalUrl":"https://foursquare.com/v/parkside-pub/5175ef9ae4b0b278fb03bace","category":"Bar","checkinsCount":340,"usersCount":123,"tipCount":5,"visitsCount":430,"url":"http://portlandparkside.com","tier":"","message":"","currency":"","rating":8},{"name":"Vintage Cocktail Lounge","phone":"5032620696","address":"7907 SE Stark St","lat":45.519237,"lng":-122.582141,"neighborhood":"Montavilla","city_fetched":"Portland","state":"OR","country":"United States","canonicalUrl":"https://foursquare.com/v/vintage-cocktail-lounge/4a9db97ff964a5201a3920e3","category":"Lounge","checkinsCount":1334,"usersCount":495,"tipCount":17,"visitsCount":1351,"url":"http://www.vintagepdx.com","tier":2,"message":"Moderate","currency":"$","rating":8},{"name":"The Brickhouse Bar & Grill","phone":"3606953686","address":"109 W 15th St","lat":45.63232,"lng":-122.67187535762787,"neighborhood":"Esther Short","city_fetched":"Portland","state":"WA","country":"United States","canonicalUrl":"https://foursquare.com/v/the-brickhouse-bar--grill/4b58b758f964a520236728e3","category":"Bar","checkinsCount":3411,"usersCount":1429,"tipCount":31,"visitsCount":4116,"url":"http://vancouverbrickhouse.com","tier":2,"message":"Moderate","currency":"$","rating":8},{"name":"Charlie's Sports Bar & Grill","address":"3315 NE 112th Ave","lat":45.646378,"lng":-122.557652,"city_fetched":"Portland","state":"WA","country":"United States","canonicalUrl":"https://foursquare.com/v/charlies-sports-bar--grill/518aeb0e498ea67bc7ad3758","category":"Gastropub","checkinsCount":229,"usersCount":217,"tipCount":1,"visitsCount":560,"tier":"","message":"","currency":"","rating":8},{"name":"Mary's Club","phone":"5032273023","twitter":"marysclubpdx","address":"129 SW Broadway","lat":45.522564682908005,"lng":-122.67788586568639,"neighborhood":"Downtown Portland","city_fetched":"Portland","state":"OR","country":"United States","canonicalUrl":"https://foursquare.com/marysclubpdx","category":"Strip Club","checkinsCount":2690,"usersCount":1533,"tipCount":14,"visitsCount":2698,"url":"http://www.marysclub.com","tier":"","message":"","currency":"","rating":8},{"name":"Basta's Trattoria & Bar","phone":"5032741572","address":"410 NW 21st Ave","lat":45.525766270213914,"lng":-122.69440601836462,"neighborhood":"Northwest District","city_fetched":"Portland","state":"OR","country":"United States","canonicalUrl":"https://foursquare.com/v/bastas-trattoria--bar/45b79db5f964a520c3411fe3","category":"Cocktail Bar","checkinsCount":1351,"usersCount":703,"tipCount":18,"visitsCount":1396,"url":"http://bastastrattoria.com","tier":"","message":"","currency":"","rating":8},{"name":"Latte Da Coffeehouse & Wine Bar","phone":"3604487651","twitter":"lattedacoffee","address":"205 E 39th St","lat":45.64975549172256,"lng":-122.66893163194474,"city_fetched":"Portland","state":"WA","country":"United States","canonicalUrl":"https://foursquare.com/v/latte-da-coffeehouse--wine-bar/4dfeb4ff22714979b8e2c762","category":"Coffee Shop","checkinsCount":726,"usersCount":307,"tipCount":19,"visitsCount":1091,"url":"http://lattedacoffeehouse.com","tier":"","message":"","currency":"","rating":7.9},{"name":"Twilight Pizza Bistro","phone":"3608331919","twitter":"twilightpizza","address":"1905 SE 192nd Ave Ste 101","lat":45.60721822608131,"lng":-122.47553004701261,"city_fetched":"Portland","state":"WA","country":"United States","canonicalUrl":"https://foursquare.com/v/twilight-pizza-bistro/4fb1b7c1e4b04fafbc63c866","category":"Pizza Place","checkinsCount":935,"usersCount":509,"tipCount":26,"visitsCount":1270,"url":"http://www.twilightpizzabistro.com","tier":2,"message":"Moderate","currency":"$","rating":7.9},{"name":"Trap Door Brewing","lat":45.63871015448826,"lng":-122.67129406606321,"neighborhood":"Arnada","city_fetched":"Portland","state":"WA","country":"United States","canonicalUrl":"https://foursquare.com/v/trap-door-brewing/55f0abfb498e5d75779d109e","category":"Brewery","checkinsCount":188,"usersCount":109,"tipCount":2,"visitsCount":205,"tier":"","message":"","currency":"","rating":7.9},{"name":"The Jack London Bar","phone":"5032287605","address":"529 SW 4th Ave","lat":45.51942208133568,"lng":-122.67609637251962,"neighborhood":"Downtown Portland","city_fetched":"Portland","state":"OR","country":"United States","canonicalUrl":"https://foursquare.com/v/the-jack-london-bar/4dfc18fa227185f38b93d4fa","category":"Bar","checkinsCount":840,"usersCount":427,"tipCount":5,"visitsCount":844,"tier":1,"message":"Cheap","currency":"$","rating":7.9},{"name":"STAG","address":"313 NW Broadway, Portland, OR 97209","lat":45.52552415320725,"lng":-122.67777670450712,"neighborhood":"Pearl","city_fetched":"Portland","state":"OR","country":"United States","canonicalUrl":"https://foursquare.com/v/stag/55443d9b498e1e2d82b6437c","category":"Strip Club","checkinsCount":647,"usersCount":398,"tipCount":1,"visitsCount":1003,"url":"http://stagpdx.com","tier":"","message":"","currency":"","rating":7.9},{"name":"McMenamins Sunnyside","phone":"5036538011","twitter":"captainneon","address":"9757 SE Sunnyside Rd","lat":45.43401048561691,"lng":-122.56322511726565,"neighborhood":"Sunnyside","city_fetched":"Portland","state":"OR","country":"United States","canonicalUrl":"https://foursquare.com/v/mcmenamins-sunnyside/4a96fbeff964a520d52720e3","category":"Pub","checkinsCount":1502,"usersCount":936,"tipCount":18,"visitsCount":1750,"url":"http://www.mcmenamins.com/348-mcmenamins-sunnyside-home#nEy8X","tier":1,"message":"Cheap","currency":"$","rating":7.9},{"name":"Bradfords","address":"10346-10356 NE Halsey St","lat":45.53340311,"lng":-122.55590673,"neighborhood":"East Portland","city_fetched":"Portland","state":"OR","country":"United States","canonicalUrl":"https://foursquare.com/v/bradfords/4d61e61cb6b9a1cdb2cc8c51","category":"Bar","checkinsCount":375,"usersCount":133,"tipCount":7,"visitsCount":457,"url":"http://bradfordspdx.com","tier":"","message":"","currency":"","rating":7.9},{"name":"Beulahland Coffee & Alehouse","phone":"5032352794","twitter":"beulahlandpdx","address":"116 NE 28th Ave","lat":45.523891451492695,"lng":-122.63705995986469,"neighborhood":"Kerns","city_fetched":"Portland","state":"OR","country":"United States","canonicalUrl":"https://foursquare.com/v/beulahland-coffee--alehouse/413ba880f964a520e71a1fe3","category":"Bar","checkinsCount":4979,"usersCount":1620,"tipCount":48,"visitsCount":5039,"url":"http://beulahlandpdx.com","tier":1,"message":"Cheap","currency":"$","rating":7.9}]