[{"name":"D.G. Yuengling and Son","phone":"5706284890","twitter":"yuengling_beer","address":"501 Mahantongo St","lat":40.68280223598133,"lng":-76.19778156280518,"city_fetched":"Pottsville","state":"PA","country":"United States","canonicalUrl":"https://foursquare.com/v/dg-yuengling-and-son/4b366422f964a5204e3425e3","category":"Brewery","checkinsCount":2918,"usersCount":2571,"tipCount":39,"visitsCount":3397,"url":"http://www.yuengling.com/breweries/pottsville","tier":"","message":"","currency":"","rating":9},{"name":"Club 18","phone":"5706228600","address":"110 N 18th St","lat":40.678354,"lng":-76.21606293333333,"neighborhood":"Yorkville","city_fetched":"Pottsville","state":"PA","country":"United States","canonicalUrl":"https://foursquare.com/v/club-18/4c008a41379020a166bd467f","category":"Dive Bar","checkinsCount":403,"usersCount":162,"tipCount":6,"visitsCount":502,"tier":"","message":"","currency":"","rating":7.3},{"name":"Trippin' Billie'","phone":"5705818551","address":"114 N Centre St","lat":40.68611757296046,"lng":-76.19584769010544,"city_fetched":"Pottsville","state":"PA","country":"United States","canonicalUrl":"https://foursquare.com/v/trippin-billie/4c01e73cf99620a131612504","category":"Bar","checkinsCount":1790,"usersCount":178,"tipCount":6,"visitsCount":1812,"tier":"","message":"","currency":"","rating":6.1},{"name":"Rumors","phone":"5706228687","address":"661 N Centre St","lat":40.69309626462681,"lng":-76.19871896874801,"city_fetched":"Pottsville","state":"PA","country":"United States","canonicalUrl":"https://foursquare.com/v/rumors/4c01eda3b58376b0b503453c","category":"Bar","checkinsCount":436,"usersCount":119,"tipCount":8,"visitsCount":467,"tier":"","message":"","currency":"","rating":6},{"name":"The Wooden Keg II","address":"112 E Norwegian St","lat":40.685383331564864,"lng":-76.19465678930283,"city_fetched":"Pottsville","state":"PA","country":"United States","canonicalUrl":"https://foursquare.com/v/the-wooden-keg-ii/4ea7929db6345041a099bbed","category":"Bar","checkinsCount":624,"usersCount":293,"tipCount":4,"visitsCount":733,"tier":"","message":"","currency":"","rating":5.5}]