[{"name":"Prescott Brewing Company","phone":"9287712795","twitter":"prescottbrewco","address":"130 W Gurley St","lat":34.541949630371725,"lng":-112.46976554640531,"city_fetched":"Prescott","state":"AZ","country":"United States","canonicalUrl":"https://foursquare.com/v/prescott-brewing-company/4c4f30efa7351b8dbc7fb392","category":"Brewery","checkinsCount":4136,"usersCount":2802,"tipCount":61,"visitsCount":4388,"url":"http://www.prescottbrewingcompany.com","tier":2,"message":"Moderate","currency":"$","rating":8.5},{"name":"Whiskey Row Pub","lat":34.540686,"lng":-112.470321,"city_fetched":"Prescott","state":"AZ","country":"United States","canonicalUrl":"https://foursquare.com/v/whiskey-row-pub/514e4ee8e4b0010b6043baec","category":"Dive Bar","checkinsCount":361,"usersCount":261,"tipCount":4,"visitsCount":368,"tier":"","message":"","currency":"","rating":8.4},{"name":"Bird Cage Saloon","phone":"9287711913","address":"148 S Montezuma St","lat":34.540357545627224,"lng":-112.47039416288128,"city_fetched":"Prescott","state":"AZ","country":"United States","canonicalUrl":"https://foursquare.com/v/bird-cage-saloon/4ad7e88bf964a520fa0f21e3","category":"Bar","checkinsCount":601,"usersCount":541,"tipCount":9,"visitsCount":665,"url":"http://www.birdcagesaloon.com","tier":"","message":"","currency":"","rating":8.3},{"name":"Superstition Meadery","twitter":"super_mead","address":"120 W. Gurley St., Cellar 1","lat":34.542002369354755,"lng":-112.46953010559082,"city_fetched":"Prescott","state":"AZ","country":"United States","canonicalUrl":"https://foursquare.com/v/superstition-meadery/537141c0498eeac4691c8b5c","category":"Brewery","checkinsCount":175,"usersCount":123,"tipCount":4,"visitsCount":177,"tier":"","message":"","currency":"","rating":8.2},{"name":"The Barley Hound","address":"234 S. Gurley St.","lat":34.53864288330078,"lng":-112.46903991699219,"city_fetched":"Prescott","state":"AZ","country":"United States","canonicalUrl":"https://foursquare.com/v/the-barley-hound/556a57ce498e1386e3ba4b51","category":"Gastropub","checkinsCount":66,"usersCount":94,"tipCount":2,"visitsCount":152,"tier":"","message":"","currency":"","rating":8.1},{"name":"The Raven Café","phone":"9287170009","address":"142 S Cortez St.","lat":34.54343497753143,"lng":-112.46897006666667,"city_fetched":"Prescott","state":"AZ","country":"United States","canonicalUrl":"https://foursquare.com/v/the-raven-caf%C3%A9/4ad7ee23f964a520261021e3","category":"Café","checkinsCount":2052,"usersCount":1326,"tipCount":41,"visitsCount":2421,"url":"http://ravencafe.com","tier":2,"message":"Moderate","currency":"$","rating":8},{"name":"Park Plaza Liquor & Deli","phone":"9285419867","address":"402 W Goodwin St","lat":34.54058645,"lng":-112.47360176666666,"city_fetched":"Prescott","state":"AZ","country":"United States","canonicalUrl":"https://foursquare.com/v/park-plaza-liquor--deli/4b7888d2f964a520e4d42ee3","category":"Pub","checkinsCount":479,"usersCount":349,"tipCount":12,"visitsCount":793,"url":"http://www.parkplazaliquor.com","tier":"","message":"","currency":"","rating":8},{"name":"Brick & Bones","phone":"9287780203","address":"214 S Montezuma St","lat":34.53935834320303,"lng":-112.47040580392431,"city_fetched":"Prescott","state":"AZ","country":"United States","canonicalUrl":"https://foursquare.com/v/brick--bones/52da00c3498ea6cf2ea100d6","category":"Bar","checkinsCount":122,"usersCount":117,"tipCount":3,"visitsCount":153,"tier":"","message":"","currency":"","rating":7.8},{"name":"Granite Mountain Brewing","phone":"9287785535","twitter":"granitemtnbrew","address":"123 N Cortez St","lat":34.54280160904399,"lng":-112.46845010725866,"city_fetched":"Prescott","state":"AZ","country":"United States","canonicalUrl":"https://foursquare.com/v/granite-mountain-brewing/5022f223e4b090dce0f1c689","category":"Brewery","checkinsCount":381,"usersCount":280,"tipCount":8,"visitsCount":393,"url":"http://granitemountainbrewing.com","tier":"","message":"","currency":"","rating":7.7},{"name":"Black Hole Beer Company","phone":"9282379029","address":"1590 Swenson Street","lat":34.565660911157394,"lng":-112.49444433724446,"city_fetched":"Prescott","state":"AZ","country":"United States","canonicalUrl":"https://foursquare.com/v/black-hole-beer-company/53363d6f498ed7ec61a1223c","category":"Brewery","checkinsCount":115,"usersCount":145,"tipCount":3,"visitsCount":213,"url":"http://www.blackholebeercompany.com","tier":"","message":"","currency":"","rating":7.7},{"name":"Jersey Lilly Saloon","phone":"9285417854","address":"116 S Montezuma St","lat":34.54131423336531,"lng":-112.4703243166209,"city_fetched":"Prescott","state":"AZ","country":"United States","canonicalUrl":"https://foursquare.com/v/jersey-lilly-saloon/4ad7e96bf964a520021021e3","category":"Bar","checkinsCount":754,"usersCount":554,"tipCount":13,"visitsCount":759,"url":"http://www.jerseylillysaloon.com","tier":"","message":"","currency":"","rating":7.6},{"name":"The Office Restaraunt & Bar","address":"128 Cortez","lat":34.5428563,"lng":-112.468753,"city_fetched":"Prescott","state":"AZ","country":"United States","canonicalUrl":"https://foursquare.com/v/the-office-restaraunt--bar/4ad7f0f5f964a520371021e3","category":"Brewery","checkinsCount":470,"usersCount":314,"tipCount":9,"visitsCount":480,"tier":"","message":"","currency":"","rating":7.5},{"name":"Hotel Vendome","phone":"9287760900","twitter":"vendomehotel","address":"230 S Cortez St","lat":34.53883867284278,"lng":-112.46906708330421,"city_fetched":"Prescott","state":"AZ","country":"United States","canonicalUrl":"https://foursquare.com/vendomehotel","category":"Hotel","checkinsCount":227,"usersCount":129,"tipCount":8,"visitsCount":227,"url":"http://www.vendomehotel.com","tier":"","message":"","currency":"","rating":7.2},{"name":"Hooligan's Pub","phone":"9287710997","address":"114 S Montezuma","lat":34.54146314220888,"lng":-112.47042908601007,"city_fetched":"Prescott","state":"AZ","country":"United States","canonicalUrl":"https://foursquare.com/v/hooligans-pub/4ad7e9f3f964a520061021e3","category":"Bar","checkinsCount":608,"usersCount":444,"tipCount":10,"visitsCount":611,"tier":"","message":"","currency":"","rating":7.1},{"name":"Matt's Saloon","phone":"9287718788","address":"112 S Montezuma St","lat":34.541492002279576,"lng":-112.4702428293125,"city_fetched":"Prescott","state":"AZ","country":"United States","canonicalUrl":"https://foursquare.com/v/matts-saloon/4ad7e9adf964a520031021e3","category":"Bar","checkinsCount":1207,"usersCount":757,"tipCount":6,"visitsCount":1224,"url":"http://mattssaloon.com","tier":"","message":"","currency":"","rating":7.1},{"name":"Lyzzards","address":"120 N Cortez St","lat":34.54252516711014,"lng":-112.46894485222366,"city_fetched":"Prescott","state":"AZ","country":"United States","canonicalUrl":"https://foursquare.com/v/lyzzards/4c70cede9c6d6dcb52e7d37a","category":"Bar","checkinsCount":452,"usersCount":266,"tipCount":7,"visitsCount":457,"tier":"","message":"","currency":"","rating":7.1},{"name":"The Drunken Lass","phone":"9287784211","address":"218 W Gurley St","lat":34.54198458,"lng":-112.47084,"city_fetched":"Prescott","state":"AZ","country":"United States","canonicalUrl":"https://foursquare.com/v/the-drunken-lass/4ba158f4f964a520fbae37e3","category":"Bar","checkinsCount":619,"usersCount":221,"tipCount":8,"visitsCount":620,"url":"http://www.thedrunkenlass.com","tier":"","message":"","currency":"","rating":6.9},{"name":"Scores Sports Bar And Grille","phone":"9287782211","address":"1011 Commerce Dr","lat":34.603571,"lng":-112.45688645000001,"city_fetched":"Prescott","state":"AZ","country":"United States","canonicalUrl":"https://foursquare.com/v/scores-sports-bar-and-grille/4ad68816f964a520ae0721e3","category":"American Restaurant","checkinsCount":473,"usersCount":146,"tipCount":4,"visitsCount":548,"tier":1,"message":"Cheap","currency":"$","rating":6.6},{"name":"Macayo's Mexican Kitchen Prescott","phone":"9287767711","twitter":"macayosince1946","address":"3250 Gateway Blvd #516","lat":34.548189,"lng":-112.408604649932,"city_fetched":"Prescott","state":"AZ","country":"United States","canonicalUrl":"https://foursquare.com/v/macayos-mexican-kitchen-prescott/4b6899e2f964a52043822be3","category":"Mexican Restaurant","checkinsCount":341,"usersCount":242,"tipCount":6,"visitsCount":343,"tier":2,"message":"Moderate","currency":"$","rating":6.5},{"name":"Wyndham Garden Hotel","address":"4499 Arizona 69","lat":34.551023244657735,"lng":-112.38406146620567,"city_fetched":"Prescott","state":"AZ","country":"United States","canonicalUrl":"https://foursquare.com/v/wyndham-garden-hotel/4b5ba59cf964a520740d29e3","category":"Hotel","checkinsCount":403,"usersCount":154,"tipCount":3,"visitsCount":404,"tier":"","message":"","currency":"","rating":5.8}]