[{"name":"ABG's Bar","phone":"8013731200","twitter":"abgsbar","address":"190 W Center St","lat":40.2339763060414,"lng":-111.66219188815357,"neighborhood":"Central Business District","city_fetched":"Provo","state":"UT","country":"United States","canonicalUrl":"https://foursquare.com/abgsbar","category":"Bar","checkinsCount":501,"usersCount":312,"tipCount":20,"visitsCount":571,"url":"http://abgsbar.com","tier":"","message":"","currency":"","rating":6.8},{"name":"The Wall","phone":"8014224470","twitter":"thewallbyu","address":"1151 Wilkinson Student Center","lat":40.24844301249862,"lng":-111.64644816529015,"neighborhood":"University","city_fetched":"Provo","state":"UT","country":"United States","canonicalUrl":"https://foursquare.com/v/the-wall/50f5bc04e4b070b4adca2cdf","category":"Lounge","checkinsCount":113,"usersCount":61,"tipCount":6,"visitsCount":113,"url":"http://thewall.byu.edu","tier":"","message":"","currency":"","rating":6.7},{"name":"State Liquor Store","phone":"8013736270","address":"166 S Freedom Blvd","lat":40.23137257059622,"lng":-111.66238984911962,"neighborhood":"Central Business District","city_fetched":"Provo","state":"UT","country":"United States","canonicalUrl":"https://foursquare.com/v/state-liquor-store/4b7710aaf964a520a5792ee3","category":"Liquor Store","checkinsCount":111,"usersCount":78,"tipCount":5,"visitsCount":117,"tier":"","message":"","currency":"","rating":6.5},{"name":"Wing Nutz","phone":"8016551433","twitter":"wingnutzcorp","address":"1054 S 750 E","lat":40.2776854,"lng":-111.6776618,"city_fetched":"Provo","state":"UT","country":"United States","canonicalUrl":"https://foursquare.com/v/wing-nutz/4b5a0f59f964a520aeaa28e3","category":"Fried Chicken Joint","checkinsCount":746,"usersCount":349,"tipCount":20,"visitsCount":748,"url":"http://www.bakedwingsarebetter.com","tier":2,"message":"Moderate","currency":"$","rating":6.4},{"name":"Iggy's Sports Grill","phone":"8014347800","address":"1087 S 750 E","lat":40.27705619593319,"lng":-111.67709135782337,"city_fetched":"Provo","state":"UT","country":"United States","canonicalUrl":"https://foursquare.com/v/iggys-sports-grill/4ae372e3f964a5203b9521e3","category":"Sports Bar","checkinsCount":779,"usersCount":471,"tipCount":10,"visitsCount":796,"url":"http://iggyssportsgrill.com","tier":"","message":"","currency":"","rating":6.1},{"name":"The Madison","phone":"8013759000","address":"295 West Centet St.","lat":40.23346327931189,"lng":-111.66369988489025,"neighborhood":"Central Business District","city_fetched":"Provo","state":"UT","country":"United States","canonicalUrl":"https://foursquare.com/v/the-madison/4e97bb13f5b9dd852f93c1c8","category":"Bar","checkinsCount":329,"usersCount":237,"tipCount":6,"visitsCount":414,"url":"http://themadisonprovo.com","tier":"","message":"","currency":"","rating":5.8}]