[{"name":"The Eddy","phone":"4018313339","address":"95 Eddy St","lat":41.82289349190051,"lng":-71.4119771201754,"neighborhood":"Downtown Providence","city_fetched":"Providence","state":"RI","country":"United States","canonicalUrl":"https://foursquare.com/v/the-eddy/50de5bd1e4b075c2dccbe798","category":"Bar","checkinsCount":1742,"usersCount":1116,"tipCount":28,"visitsCount":2110,"url":"http://eddybar.com","tier":"","message":"","currency":"","rating":9.3},{"name":"Julians","phone":"4018611770","address":"318 Broadway","lat":41.82003401981302,"lng":-71.42825209201517,"neighborhood":"Federal Hill","city_fetched":"Providence","state":"RI","country":"United States","canonicalUrl":"https://foursquare.com/v/julians/4a8844dff964a520a40520e3","category":"New American Restaurant","checkinsCount":6254,"usersCount":3593,"tipCount":94,"visitsCount":7609,"url":"http://www.juliansprovidence.com","tier":2,"message":"Moderate","currency":"$","rating":9.2},{"name":"Cook & Brown Public House","phone":"4012737275","twitter":"cookandbrown","address":"959 Hope St","lat":41.85315321,"lng":-71.39291945,"neighborhood":"Hope","city_fetched":"Providence","state":"RI","country":"United States","canonicalUrl":"https://foursquare.com/v/cook--brown-public-house/4b756f13f964a5204a0c2ee3","category":"Gastropub","checkinsCount":1032,"usersCount":690,"tipCount":19,"visitsCount":1243,"url":"http://www.cookandbrown.com","tier":2,"message":"Moderate","currency":"$","rating":9},{"name":"Tea in Sahara","phone":"4017093252","twitter":"teainsahara","address":"69 Governor St","lat":41.822522,"lng":-71.393832,"neighborhood":"Fox Point","city_fetched":"Providence","state":"RI","country":"United States","canonicalUrl":"https://foursquare.com/v/tea-in-sahara/4bd77a76f645c9b60218a6e0","category":"Café","checkinsCount":679,"usersCount":277,"tipCount":19,"visitsCount":798,"url":"http://teainsahara.com","tier":1,"message":"Cheap","currency":"$","rating":8.9},{"name":"New Rivers American Bistro","phone":"4017510350","twitter":"newriversbeau","address":"7 Steeple St","lat":41.82738661766052,"lng":-71.409476,"neighborhood":"Downtown Providence","city_fetched":"Providence","state":"RI","country":"United States","canonicalUrl":"https://foursquare.com/v/new-rivers-american-bistro/4b0586adf964a520d66922e3","category":"New American Restaurant","checkinsCount":649,"usersCount":460,"tipCount":16,"visitsCount":673,"url":"http://newriversrestaurant.com","tier":2,"message":"Moderate","currency":"$","rating":8.8},{"name":"Birch","phone":"4012723105","twitter":"birchpvd","address":"200 Washington St","lat":41.822022343251554,"lng":-71.41612275628388,"neighborhood":"Downtown Providence","city_fetched":"Providence","state":"RI","country":"United States","canonicalUrl":"https://foursquare.com/v/birch/51d0da90498ece310afcbd93","category":"Gastropub","checkinsCount":305,"usersCount":223,"tipCount":23,"visitsCount":307,"url":"http://www.birchrestaurant.com","tier":"","message":"","currency":"","rating":8.7},{"name":"Alley Cat","phone":"4012726369","address":"17 Snow St","lat":41.82222760722232,"lng":-71.4153342193743,"neighborhood":"Downtown Providence","city_fetched":"Providence","state":"RI","country":"United States","canonicalUrl":"https://foursquare.com/v/alley-cat/4b74cc88f964a520a6f22de3","category":"Bar","checkinsCount":5210,"usersCount":762,"tipCount":15,"visitsCount":5303,"url":"http://www.localconnectserv.com","tier":"","message":"","currency":"","rating":8.6},{"name":"Graduate Center Bar","phone":"4014210270","address":"42 Charlesfield St","lat":41.82327745824167,"lng":-71.40106648206711,"neighborhood":"College Hill","city_fetched":"Providence","state":"RI","country":"United States","canonicalUrl":"https://foursquare.com/v/graduate-center-bar/4ae24277f964a520898c21e3","category":"Bar","checkinsCount":2563,"usersCount":829,"tipCount":10,"visitsCount":3259,"url":"http://students.brown.edu/gsc/resources/spaces/grad-center-bar-gcb/","tier":1,"message":"Cheap","currency":"$","rating":8.6},{"name":"Ogie's Trailer Park","phone":"4013838200","address":"1155 Westminster St","lat":41.817265053255895,"lng":-71.42755054979247,"neighborhood":"Federal Hill","city_fetched":"Providence","state":"RI","country":"United States","canonicalUrl":"https://foursquare.com/v/ogies-trailer-park/548cf72c498e0c4238f1bfff","category":"Bar","checkinsCount":768,"usersCount":702,"tipCount":9,"visitsCount":1556,"tier":"","message":"","currency":"","rating":8.6},{"name":"Justine's","address":"11 Onyville sq.","lat":41.81667638182835,"lng":-71.44341898362833,"neighborhood":"Olneyville","city_fetched":"Providence","state":"RI","country":"United States","canonicalUrl":"https://foursquare.com/v/justines/5137e078e4b04d8c1500578f","category":"Cocktail Bar","checkinsCount":532,"usersCount":310,"tipCount":10,"visitsCount":611,"tier":"","message":"","currency":"","rating":8.6},{"name":"Bottles Fine Wine","phone":"4013722030","address":"141 Pitman St","lat":41.826014039916544,"lng":-71.386899358939,"neighborhood":"Fox Point","city_fetched":"Providence","state":"RI","country":"United States","canonicalUrl":"https://foursquare.com/v/bottles-fine-wine/4c0a66c06071a593f76ddf32","category":"Liquor Store","checkinsCount":1402,"usersCount":435,"tipCount":18,"visitsCount":1426,"url":"http://www.bottlesfinewine.com","tier":"","message":"","currency":"","rating":8.6},{"name":"The Dorrance","phone":"4015216000","twitter":"thedorrance","address":"60 Dorrance St","lat":41.82354,"lng":-71.411443,"neighborhood":"Downtown Providence","city_fetched":"Providence","state":"RI","country":"United States","canonicalUrl":"https://foursquare.com/v/the-dorrance/4e78d70d22714e6e5f2fa733","category":"Cocktail Bar","checkinsCount":1605,"usersCount":1170,"tipCount":35,"visitsCount":1833,"url":"http://www.thedorrance.com","tier":4,"message":"Very Expensive","currency":"$","rating":8.6},{"name":"What Cheer Tavern","phone":"4016807639","twitter":"whatcheertavern","address":"228 New York Ave","lat":41.7909127740426,"lng":-71.39649868011475,"city_fetched":"Providence","state":"RI","country":"United States","canonicalUrl":"https://foursquare.com/v/what-cheer-tavern/504a65138302d0d1f73497a3","category":"Pub","checkinsCount":563,"usersCount":299,"tipCount":9,"visitsCount":846,"url":"http://whatcheertavern.com","tier":"","message":"","currency":"","rating":8.5},{"name":"The Avery","phone":"4017515920","address":"18 Luongo Memorial Square","lat":41.81864733260603,"lng":-71.42626921707618,"neighborhood":"Federal Hill","city_fetched":"Providence","state":"RI","country":"United States","canonicalUrl":"https://foursquare.com/v/the-avery/4b074d12f964a52091fb22e3","category":"Bar","checkinsCount":2436,"usersCount":1151,"tipCount":21,"visitsCount":2660,"url":"http://averyprovidence.com","tier":2,"message":"Moderate","currency":"$","rating":8.5},{"name":"Lili Marlene's","phone":"4017514996","address":"422 Atwells Ave","lat":41.823891,"lng":-71.431428,"neighborhood":"Federal Hill","city_fetched":"Providence","state":"RI","country":"United States","canonicalUrl":"https://foursquare.com/v/lili-marlenes/4b1f1b8df964a5200a2424e3","category":"Bar","checkinsCount":1097,"usersCount":590,"tipCount":17,"visitsCount":1361,"tier":"","message":"","currency":"","rating":8.4},{"name":"Red Fez","phone":"4012721212","address":"49 Peck St","lat":41.822918955036954,"lng":-71.40914762375066,"neighborhood":"Downtown Providence","city_fetched":"Providence","state":"RI","country":"United States","canonicalUrl":"https://foursquare.com/v/red-fez/4b06f4d7f964a5202ef422e3","category":"Lounge","checkinsCount":2445,"usersCount":1278,"tipCount":42,"visitsCount":2671,"tier":2,"message":"Moderate","currency":"$","rating":8.4},{"name":"Fleming's Prime Steakhouse & Wine Bar","phone":"4015339000","address":"1 W Exchange St","lat":41.825229,"lng":-71.415656,"neighborhood":"Downtown Providence","city_fetched":"Providence","state":"RI","country":"United States","canonicalUrl":"https://foursquare.com/v/flemings-prime-steakhouse--wine-bar/4b0586adf964a520f06922e3","category":"Steakhouse","checkinsCount":1816,"usersCount":926,"tipCount":17,"visitsCount":1837,"url":"http://www.flemingssteakhouse.com/locations/ri/providence","tier":3,"message":"Expensive","currency":"$","rating":8.4},{"name":"Byblos Hookah Lounge","phone":"4014539727","twitter":"bybloslounge","address":"235 Meeting St","lat":41.8291737,"lng":-71.4004604,"neighborhood":"College Hill","city_fetched":"Providence","state":"RI","country":"United States","canonicalUrl":"https://foursquare.com/bybloslounge","category":"Hookah Bar","checkinsCount":1592,"usersCount":963,"tipCount":21,"visitsCount":1695,"url":"http://www.providencebyblos.com","tier":"","message":"","currency":"","rating":8.4},{"name":"Faust","address":"121 Fountain Street","lat":41.82324596984277,"lng":-71.41591982415558,"neighborhood":"Downtown Providence","city_fetched":"Providence","state":"RI","country":"United States","canonicalUrl":"https://foursquare.com/v/faust/533c7d79498eaaededd7af7a","category":"German Restaurant","checkinsCount":577,"usersCount":391,"tipCount":12,"visitsCount":616,"url":"http://faustprovidence.com","tier":"","message":"","currency":"","rating":8.4},{"name":"Local 121","phone":"4012742121","twitter":"local121","address":"121 Washington St","lat":41.8231035587487,"lng":-71.41482978677155,"neighborhood":"Downtown Providence","city_fetched":"Providence","state":"RI","country":"United States","canonicalUrl":"https://foursquare.com/v/local-121/4b0586adf964a520f46922e3","category":"New American Restaurant","checkinsCount":4408,"usersCount":2266,"tipCount":49,"visitsCount":4440,"url":"http://www.local121.com","tier":2,"message":"Moderate","currency":"$","rating":8.3},{"name":"EGO","phone":"4013831208","address":"71 Richmond St","lat":41.82027919410091,"lng":-71.41137957572937,"neighborhood":"Downtown Providence","city_fetched":"Providence","state":"RI","country":"United States","canonicalUrl":"https://foursquare.com/v/ego/51b7cdcd454a19acb8542c7e","category":"Nightclub","checkinsCount":960,"usersCount":501,"tipCount":4,"visitsCount":1550,"url":"http://egopvd.com","tier":"","message":"","currency":"","rating":8.3},{"name":"The Malted Barley","address":"334 Westminster St","lat":41.821578710571764,"lng":-71.41430795919962,"neighborhood":"Downtown Providence","city_fetched":"Providence","state":"RI","country":"United States","canonicalUrl":"https://foursquare.com/v/the-malted-barley/56c61b28498e88a21b02274f","category":"Bar","checkinsCount":288,"usersCount":337,"tipCount":7,"visitsCount":498,"url":"http://www.themaltedbarleyri.com","tier":"","message":"","currency":"","rating":8.2},{"name":"Elmhurst Pub","address":"670 Smith St","lat":41.837422,"lng":-71.433301,"neighborhood":"Elmhurst","city_fetched":"Providence","state":"RI","country":"United States","canonicalUrl":"https://foursquare.com/v/elmhurst-pub/4b593bdaf964a5206d8228e3","category":"Bar","checkinsCount":736,"usersCount":212,"tipCount":3,"visitsCount":767,"url":"http://elmhurstpubri.com","tier":"","message":"","currency":"","rating":8.2},{"name":"Trinity Brewhouse","phone":"4014532337","twitter":"trinitybrew","address":"186 Fountain St","lat":41.82249764088927,"lng":-71.41685331100109,"neighborhood":"Downtown Providence","city_fetched":"Providence","state":"RI","country":"United States","canonicalUrl":"https://foursquare.com/v/trinity-brewhouse/4a6f5798f964a520ead51fe3","category":"Brewery","checkinsCount":9621,"usersCount":5178,"tipCount":88,"visitsCount":10584,"url":"http://www.trinitybrewhouse.com","tier":2,"message":"Moderate","currency":"$","rating":8.2},{"name":"Bravo Brasserie Restaurant","phone":"4014905112","address":"123 Empire St","lat":41.82186499145226,"lng":-71.41634308246545,"neighborhood":"Downtown Providence","city_fetched":"Providence","state":"RI","country":"United States","canonicalUrl":"https://foursquare.com/v/bravo-brasserie-restaurant/4abac0daf964a520c88220e3","category":"Gastropub","checkinsCount":2448,"usersCount":1168,"tipCount":17,"visitsCount":2509,"url":"http://www.bravobrasserie.com","tier":4,"message":"Very Expensive","currency":"$","rating":8.2},{"name":"Long Live Beerworks","twitter":"longlivebeerri","address":"425 W Fountain St","lat":41.81881110333211,"lng":-71.42371813382779,"neighborhood":"Federal Hill","city_fetched":"Providence","state":"RI","country":"United States","canonicalUrl":"https://foursquare.com/v/long-live-beerworks/5668308c498e5d4882161e99","category":"Brewery","checkinsCount":125,"usersCount":72,"tipCount":1,"visitsCount":134,"url":"http://longlivebeerworks.com","tier":"","message":"","currency":"","rating":8.2},{"name":"Campus Dance","address":"Brown University","lat":41.82622583635514,"lng":-71.40248546387555,"neighborhood":"College Hill","city_fetched":"Providence","state":"RI","country":"United States","canonicalUrl":"https://foursquare.com/v/campus-dance/4c006d8e34ccc928869de1cd","category":"Speakeasy","checkinsCount":277,"usersCount":263,"tipCount":3,"visitsCount":310,"tier":"","message":"","currency":"","rating":8.2},{"name":"English Cellar Alehouse","phone":"4014543434","twitter":"englishcellarri","address":"165 Angell St","lat":41.8280595,"lng":-71.40123631999998,"neighborhood":"College Hill","city_fetched":"Providence","state":"RI","country":"United States","canonicalUrl":"https://foursquare.com/v/english-cellar-alehouse/4bb6a08f2f70c9b61ec58530","category":"Pub","checkinsCount":3725,"usersCount":1882,"tipCount":27,"visitsCount":3948,"url":"http://www.englishcellaralehouse.com","tier":2,"message":"Moderate","currency":"$","rating":8.1},{"name":"148 Pavillion","address":"148 Pavilion Ave","lat":41.79683939925435,"lng":-71.40676456758628,"city_fetched":"Providence","state":"RI","country":"United States","canonicalUrl":"https://foursquare.com/v/148-pavillion/5105c26ee4b0f8688fdbbf7c","category":"Bar","checkinsCount":279,"usersCount":84,"tipCount":3,"visitsCount":406,"tier":"","message":"","currency":"","rating":8.1},{"name":"The Rooftop at the Providence G","address":"61 Orange St","lat":41.823064130233575,"lng":-71.41062035620986,"neighborhood":"Downtown Providence","city_fetched":"Providence","state":"RI","country":"United States","canonicalUrl":"https://foursquare.com/v/the-rooftop-at-the-providence-g/53af6509498e6360c17c6001","category":"Bar","checkinsCount":463,"usersCount":397,"tipCount":6,"visitsCount":524,"tier":"","message":"","currency":"","rating":8},{"name":"Nick-A-Nees","address":"75 South St","lat":41.817229289440796,"lng":-71.40844604436849,"city_fetched":"Providence","state":"RI","country":"United States","canonicalUrl":"https://foursquare.com/v/nickanees/4b6ca2a4f964a52048482ce3","category":"Bar","checkinsCount":695,"usersCount":356,"tipCount":9,"visitsCount":743,"tier":"","message":"","currency":"","rating":8},{"name":"New Harvest Coffee & Spirits","phone":"4012724604","address":"130 Westminster St","lat":41.82408410398988,"lng":-71.41045800804388,"neighborhood":"Downtown Providence","city_fetched":"Providence","state":"RI","country":"United States","canonicalUrl":"https://foursquare.com/v/new-harvest-coffee--spirits/525a04c1498e5585d7bf080c","category":"Coffee Shop","checkinsCount":927,"usersCount":474,"tipCount":10,"visitsCount":1190,"url":"http://newharvestcoffee.com","tier":1,"message":"Cheap","currency":"$","rating":7.9},{"name":"The Magdalenae Room","address":"122 Fountain St","lat":41.823204040527344,"lng":-71.41583251953125,"neighborhood":"Downtown Providence","city_fetched":"Providence","state":"RI","country":"United States","canonicalUrl":"https://foursquare.com/v/the-magdalenae-room/533886ba498ef1de71ba0ad7","category":"Cocktail Bar","checkinsCount":291,"usersCount":218,"tipCount":5,"visitsCount":293,"tier":"","message":"","currency":"","rating":7.9},{"name":"The Dark Lady","address":"17 Snow St","lat":41.82216089094154,"lng":-71.41528783479657,"neighborhood":"Downtown Providence","city_fetched":"Providence","state":"RI","country":"United States","canonicalUrl":"https://foursquare.com/v/the-dark-lady/4dc4a37a7d8b14fb4616d41d","category":"Gay Bar","checkinsCount":4265,"usersCount":951,"tipCount":7,"visitsCount":4380,"tier":2,"message":"Moderate","currency":"$","rating":7.9},{"name":"Pane e Vino Ristorante","phone":"4012232230","twitter":"panevinoprov","address":"365 Atwells Ave","lat":41.823879,"lng":-71.429844,"neighborhood":"Federal Hill","city_fetched":"Providence","state":"RI","country":"United States","canonicalUrl":"https://foursquare.com/v/pane-e-vino-ristorante/4bc10624abf49521fd63c093","category":"Italian Restaurant","checkinsCount":683,"usersCount":691,"tipCount":18,"visitsCount":807,"url":"http://www.panevino.net","tier":4,"message":"Very Expensive","currency":"$","rating":7.9},{"name":"The Hot Club","phone":"4018619007","address":"575 S Water St","lat":41.81722478,"lng":-71.40173,"neighborhood":"Fox Point","city_fetched":"Providence","state":"RI","country":"United States","canonicalUrl":"https://foursquare.com/v/the-hot-club/4b0586aaf964a520776922e3","category":"Bar","checkinsCount":5462,"usersCount":2457,"tipCount":43,"visitsCount":6568,"url":"http://hotclubprov.com","tier":1,"message":"Cheap","currency":"$","rating":7.9},{"name":"Federal Taphouse & Kitchen","phone":"4014548881","twitter":"federaltaphouse","address":"279 Atwells Ave","lat":41.82368238467058,"lng":-71.42733023046489,"neighborhood":"Federal Hill","city_fetched":"Providence","state":"RI","country":"United States","canonicalUrl":"https://foursquare.com/v/federal-taphouse--kitchen/4d59373524466ea8e1ed749f","category":"Gastropub","checkinsCount":423,"usersCount":324,"tipCount":7,"visitsCount":431,"url":"http://www.federaltandk.com","tier":3,"message":"Expensive","currency":"$","rating":7.9},{"name":".:Therapy","twitter":"therapyri","address":"62 Dike St","lat":41.81573295223922,"lng":-71.44224786272804,"neighborhood":"Olneyville","city_fetched":"Providence","state":"RI","country":"United States","canonicalUrl":"https://foursquare.com/v/therapy/5276f1d211d2ba4a34455f50","category":"Nightclub","checkinsCount":194,"usersCount":145,"tipCount":2,"visitsCount":287,"url":"http://clubtherapyri.com","tier":"","message":"","currency":"","rating":7.9},{"name":"Circe Restaurant & Bar","phone":"4014378991","twitter":"circerestaurant","address":"50 Weybosset St","lat":41.82400296057105,"lng":-71.4096404679577,"neighborhood":"Downtown Providence","city_fetched":"Providence","state":"RI","country":"United States","canonicalUrl":"https://foursquare.com/v/circe-restaurant--bar/5068b4ede4b0600e182303e2","category":"Restaurant","checkinsCount":780,"usersCount":526,"tipCount":6,"visitsCount":870,"url":"http://www.circerestaurantbar.com","tier":4,"message":"Very Expensive","currency":"$","rating":7.9},{"name":"The Point Tavern","address":"302 Wickenden St","lat":41.81962181293868,"lng":-71.39713361405246,"neighborhood":"Fox Point","city_fetched":"Providence","state":"RI","country":"United States","canonicalUrl":"https://foursquare.com/v/the-point-tavern/4ed58e96f5b93be4f27f6918","category":"Bar","checkinsCount":606,"usersCount":320,"tipCount":11,"visitsCount":622,"url":"http://pointtavern.com","tier":"","message":"","currency":"","rating":7.8},{"name":"Nara Hookah Lounge","phone":"4012736272","address":"248 Atwells Ave","lat":41.82355191507204,"lng":-71.42626921707618,"neighborhood":"Federal Hill","city_fetched":"Providence","state":"RI","country":"United States","canonicalUrl":"https://foursquare.com/v/nara-hookah-lounge/4b5764bdf964a5207c3528e3","category":"Hookah Bar","checkinsCount":1391,"usersCount":817,"tipCount":13,"visitsCount":1432,"url":"http://www.providencenara.com","tier":2,"message":"Moderate","currency":"$","rating":7.8},{"name":"Dave & Buster's","phone":"4012704555","twitter":"daveandbusters","address":"40 Providence Pl","lat":41.8277466100349,"lng":-71.41705513000488,"neighborhood":"Downtown Providence","city_fetched":"Providence","state":"RI","country":"United States","canonicalUrl":"https://foursquare.com/v/dave--busters/4b0586aaf964a520856922e3","category":"Sports Bar","checkinsCount":9979,"usersCount":6471,"tipCount":53,"visitsCount":10527,"url":"http://daveandbusters.com/locations/StoreInformation.aspx?StoreId=23","tier":2,"message":"Moderate","currency":"$","rating":7.8},{"name":"Red Bridge Tavern","phone":"4014383899","address":"22 Waterman Ave","lat":41.825388715492856,"lng":-71.37693735476019,"city_fetched":"Providence","state":"RI","country":"United States","canonicalUrl":"https://foursquare.com/v/red-bridge-tavern/4b0586aaf964a520826922e3","category":"Bar","checkinsCount":379,"usersCount":232,"tipCount":8,"visitsCount":532,"tier":"","message":"","currency":"","rating":7.8},{"name":"T & T's 133 Club","address":"29 Warren Ave","lat":41.817943383333336,"lng":-71.383741,"city_fetched":"Providence","state":"RI","country":"United States","canonicalUrl":"https://foursquare.com/v/t--ts-133-club/4b36cddff964a520c73c25e3","category":"Pub","checkinsCount":421,"usersCount":158,"tipCount":5,"visitsCount":475,"tier":"","message":"","currency":"","rating":7.8},{"name":"Simon's 681","address":"677 Valley St","lat":41.83091468017027,"lng":-71.42907538775357,"neighborhood":"Valley","city_fetched":"Providence","state":"RI","country":"United States","canonicalUrl":"https://foursquare.com/v/simons-681/510097f78ca3c1ecb7e5c676","category":"Music Venue","checkinsCount":197,"usersCount":102,"tipCount":5,"visitsCount":202,"tier":"","message":"","currency":"","rating":7.8},{"name":"Opa Hookah Lounge","address":"Atwells Ave.","lat":41.82351192703948,"lng":-71.42574160816046,"neighborhood":"Federal Hill","city_fetched":"Providence","state":"RI","country":"United States","canonicalUrl":"https://foursquare.com/v/opa-hookah-lounge/4d8d4dfa1716a143c25716f7","category":"American Restaurant","checkinsCount":884,"usersCount":555,"tipCount":6,"visitsCount":886,"tier":"","message":"","currency":"","rating":7.7},{"name":"CENTRO at The Omni Providence","phone":"4012286802","twitter":"centroprov","address":"1 W Exchange St","lat":41.82578202878086,"lng":-71.41606477568745,"neighborhood":"Downtown Providence","city_fetched":"Providence","state":"RI","country":"United States","canonicalUrl":"https://foursquare.com/v/centro-at-the-omni-providence/4c783d4ab085ef3b447d2516","category":"Italian Restaurant","checkinsCount":1360,"usersCount":576,"tipCount":16,"visitsCount":1366,"tier":3,"message":"Expensive","currency":"$","rating":7.7},{"name":"Constantino's Venda Bar and Ristorante","phone":"4014219105","address":"265 Atwells Ave","lat":41.82366719956831,"lng":-71.4268721977466,"neighborhood":"Federal Hill","city_fetched":"Providence","state":"RI","country":"United States","canonicalUrl":"https://foursquare.com/v/constantinos-venda-bar-and-ristorante/4fe91cd2e4b01c1a49db2276","category":"Italian Restaurant","checkinsCount":644,"usersCount":448,"tipCount":8,"visitsCount":665,"url":"http://www.costantinosristorante.com","tier":"","message":"","currency":"","rating":7.7},{"name":"The Stable","phone":"4012726950","address":"125 Washington St","lat":41.823043018634934,"lng":-71.41507910412305,"neighborhood":"Downtown Providence","city_fetched":"Providence","state":"RI","country":"United States","canonicalUrl":"https://foursquare.com/v/the-stable/4bbe81a7006dc9b68058fb3f","category":"Gay Bar","checkinsCount":11061,"usersCount":1729,"tipCount":35,"visitsCount":11447,"tier":2,"message":"Moderate","currency":"$","rating":7.7},{"name":"Ladder 133","phone":"4012727427","twitter":"ladder133prov","address":"133 Douglas Ave","lat":41.836587,"lng":-71.420585,"neighborhood":"Smith Hill","city_fetched":"Providence","state":"RI","country":"United States","canonicalUrl":"https://foursquare.com/v/ladder-133/4b6e1180f964a52015a82ce3","category":"Sports Bar","checkinsCount":1813,"usersCount":1186,"tipCount":17,"visitsCount":2295,"url":"http://www.ladder133.com","tier":2,"message":"Moderate","currency":"$","rating":7.6},{"name":"Rick's Roadhouse","phone":"4012727675","twitter":"ricksroadhouse","address":"370 Richmond St","lat":41.81710987628333,"lng":-71.40731737017632,"city_fetched":"Providence","state":"RI","country":"United States","canonicalUrl":"https://foursquare.com/v/ricks-roadhouse/4b32d758f964a520e11425e3","category":"BBQ Joint","checkinsCount":3138,"usersCount":1479,"tipCount":28,"visitsCount":3244,"url":"http://www.ricksroadhouseri.com","tier":2,"message":"Moderate","currency":"$","rating":7.6},{"name":"Ruth's Chris Steak House","phone":"4012722271","twitter":"ruths_chris","address":"10 Memorial Blvd","lat":41.82644040002104,"lng":-71.41459206541562,"neighborhood":"Downtown Providence","city_fetched":"Providence","state":"RI","country":"United States","canonicalUrl":"https://foursquare.com/v/ruths-chris-steak-house/525da4dd498eb92d634abcf9","category":"Steakhouse","checkinsCount":869,"usersCount":626,"tipCount":14,"visitsCount":873,"url":"http://www.ruthschris.com/Restaurant-Locations/providence","tier":"","message":"","currency":"","rating":7.6},{"name":"Eno","phone":"4015212000","twitter":"enofinewines","address":"225 Westminster St","lat":41.823067091535485,"lng":-71.41256852851545,"neighborhood":"Downtown Providence","city_fetched":"Providence","state":"RI","country":"United States","canonicalUrl":"https://foursquare.com/v/eno/4b451a7ef964a520be0426e3","category":"Wine Shop","checkinsCount":582,"usersCount":284,"tipCount":8,"visitsCount":582,"url":"http://www.enofinewines.com","tier":"","message":"","currency":"","rating":7.6},{"name":"Kartabar","phone":"4013318111","twitter":"kartabar","address":"284 Thayer St","lat":41.829617713231606,"lng":-71.40087353908208,"neighborhood":"College Hill","city_fetched":"Providence","state":"RI","country":"United States","canonicalUrl":"https://foursquare.com/v/kartabar/4adcd5fff964a520583021e3","category":"Bar","checkinsCount":2538,"usersCount":1296,"tipCount":26,"visitsCount":2572,"url":"http://www.kartabar.com","tier":2,"message":"Moderate","currency":"$","rating":7.6},{"name":"Brutopia Brewery & Kitchen","twitter":"brutopiabrewery","address":"505 Atwood Ave","lat":41.789787309637255,"lng":-71.47186676386194,"city_fetched":"Providence","state":"RI","country":"United States","canonicalUrl":"https://foursquare.com/v/brutopia-brewery--kitchen/5362deab11d2672be4fd12bc","category":"Brewery","checkinsCount":656,"usersCount":630,"tipCount":24,"visitsCount":1156,"url":"http://www.brutopiabrewery.com","tier":2,"message":"Moderate","currency":"$","rating":7.6},{"name":"Art Bar","phone":"4012720177","address":"171 Chestnut St","lat":41.8178169,"lng":-71.40971095,"city_fetched":"Providence","state":"RI","country":"United States","canonicalUrl":"https://foursquare.com/v/art-bar/4c531f80479fc928a92df890","category":"Nightclub","checkinsCount":293,"usersCount":100,"tipCount":6,"visitsCount":300,"url":"http://www.artbarprovidenceri.com","tier":"","message":"","currency":"","rating":7.6},{"name":"The Boombox","phone":"4018610040","twitter":"theboomboxpvd","address":"122 Fountain St","lat":41.823007341988315,"lng":-71.41567630545102,"neighborhood":"Downtown Providence","city_fetched":"Providence","state":"RI","country":"United States","canonicalUrl":"https://foursquare.com/v/the-boombox/5340a185498eaf5fb4962a40","category":"Karaoke Bar","checkinsCount":370,"usersCount":238,"tipCount":1,"visitsCount":407,"tier":"","message":"","currency":"","rating":7.6},{"name":"Fat Belly's Irish Pub","phone":"4013513434","twitter":"fat_bellys_pub","address":"125 Canal St","lat":41.8273410553749,"lng":-71.41005793546664,"neighborhood":"Downtown Providence","city_fetched":"Providence","state":"RI","country":"United States","canonicalUrl":"https://foursquare.com/v/fat-bellys-irish-pub/4cf98113c6cca35d08678032","category":"Bar","checkinsCount":3491,"usersCount":2098,"tipCount":26,"visitsCount":3898,"url":"http://fatbellyspub.com","tier":2,"message":"Moderate","currency":"$","rating":7.5},{"name":"G pub","phone":"4016324782","twitter":"provgpub","address":"61 Orange St","lat":41.82321865719341,"lng":-71.41035943947898,"neighborhood":"Downtown Providence","city_fetched":"Providence","state":"RI","country":"United States","canonicalUrl":"https://foursquare.com/v/g-pub/5317b109498e310d28aa0455","category":"Beer Garden","checkinsCount":1037,"usersCount":705,"tipCount":24,"visitsCount":1207,"url":"http://www.providencegpub.com","tier":2,"message":"Moderate","currency":"$","rating":7.5},{"name":"Wickenden Pub","phone":"4018612555","address":"320 Wickenden St","lat":41.81960060700369,"lng":-71.39686688924553,"neighborhood":"Fox Point","city_fetched":"Providence","state":"RI","country":"United States","canonicalUrl":"https://foursquare.com/v/wickenden-pub/4aeb5b85f964a5205bc121e3","category":"Dive Bar","checkinsCount":2928,"usersCount":705,"tipCount":10,"visitsCount":2981,"tier":2,"message":"Moderate","currency":"$","rating":7.4},{"name":"Tortilla Flats","phone":"4017516777","address":"355 Hope St","lat":41.83585785168002,"lng":-71.40148815873319,"city_fetched":"Providence","state":"RI","country":"United States","canonicalUrl":"https://foursquare.com/v/tortilla-flats/4b133654f964a520959523e3","category":"Bar","checkinsCount":2998,"usersCount":1698,"tipCount":46,"visitsCount":3666,"url":"http://tortillaflatsri.com","tier":2,"message":"Moderate","currency":"$","rating":7.4},{"name":"Solo","lat":41.824088,"lng":-71.426858,"neighborhood":"Federal Hill","city_fetched":"Providence","state":"RI","country":"United States","canonicalUrl":"https://foursquare.com/v/solo/4c009023379020a1a7c7467f","category":"Bar","checkinsCount":357,"usersCount":216,"tipCount":7,"visitsCount":358,"tier":"","message":"","currency":"","rating":7.4},{"name":"The Providence Eagle","phone":"4014211447","address":"124 Snow St","lat":41.82093482651927,"lng":-71.4137613773346,"neighborhood":"Downtown Providence","city_fetched":"Providence","state":"RI","country":"United States","canonicalUrl":"https://foursquare.com/v/the-providence-eagle/4cb2741339458cfad79213a0","category":"Gay Bar","checkinsCount":1597,"usersCount":558,"tipCount":8,"visitsCount":1975,"url":"http://providenceeagle.com","tier":"","message":"","currency":"","rating":7.4},{"name":"Pasha Hookah Bar","phone":"4013832529","address":"840 Allens Ave","lat":41.791824,"lng":-71.396688,"city_fetched":"Providence","state":"RI","country":"United States","canonicalUrl":"https://foursquare.com/v/pasha-hookah-bar/50f89beae4b04bfe96e96377","category":"Hookah Bar","checkinsCount":113,"usersCount":63,"tipCount":3,"visitsCount":126,"tier":"","message":"","currency":"","rating":7.4},{"name":"Point Street Dueling Pianos","phone":"4012707828","twitter":"pointstpianos","address":"3 Davol Square","lat":41.817685144661375,"lng":-71.4059528173792,"city_fetched":"Providence","state":"RI","country":"United States","canonicalUrl":"https://foursquare.com/v/point-street-dueling-pianos/4eef98224fc61dea41bdf8d1","category":"Piano Bar","checkinsCount":1835,"usersCount":1355,"tipCount":17,"visitsCount":2198,"tier":"","message":"","currency":"","rating":7.4},{"name":"Viva","address":"234 Thayer St","lat":41.82787000810398,"lng":-71.400616,"neighborhood":"College Hill","city_fetched":"Providence","state":"RI","country":"United States","canonicalUrl":"https://foursquare.com/v/viva/4c00a6b8ad46c9b6e1e98f66","category":"Lounge","checkinsCount":570,"usersCount":384,"tipCount":4,"visitsCount":580,"tier":"","message":"","currency":"","rating":7.3},{"name":"Brass Monkey","phone":"4017851818","address":"800 Allens Ave","lat":41.793128967285156,"lng":-71.39710235595703,"city_fetched":"Providence","state":"RI","country":"United States","canonicalUrl":"https://foursquare.com/v/brass-monkey/5409f434498e1524a646fb02","category":"Pub","checkinsCount":185,"usersCount":146,"tipCount":4,"visitsCount":353,"tier":"","message":"","currency":"","rating":7.3},{"name":"Dive Bar","phone":"4012722000","address":"201 Westminster St","lat":41.823313167162446,"lng":-71.41223223761723,"neighborhood":"Downtown Providence","city_fetched":"Providence","state":"RI","country":"United States","canonicalUrl":"https://foursquare.com/v/dive-bar/4fb51c96e4b0b88193bcdaa0","category":"Lounge","checkinsCount":561,"usersCount":215,"tipCount":5,"visitsCount":571,"tier":2,"message":"Moderate","currency":"$","rating":7.3},{"name":"The Village","phone":"4012287222","address":"373 Richmond St","lat":41.816911415810736,"lng":-71.40772127085116,"city_fetched":"Providence","state":"RI","country":"United States","canonicalUrl":"https://foursquare.com/v/the-village/5443e62b498e363630871f0b","category":"Bar","checkinsCount":469,"usersCount":109,"tipCount":5,"visitsCount":515,"url":"http://thevillageri.com","tier":"","message":"","currency":"","rating":7.2},{"name":"E & O Tap","phone":"4014544827","address":"289 Knight St","lat":41.81811620096995,"lng":-71.42747517740612,"neighborhood":"Federal Hill","city_fetched":"Providence","state":"RI","country":"United States","canonicalUrl":"https://foursquare.com/v/e--o-tap/4b0752ddf964a52004fc22e3","category":"Lounge","checkinsCount":1652,"usersCount":646,"tipCount":18,"visitsCount":1953,"url":"http://eandotap.com","tier":1,"message":"Cheap","currency":"$","rating":7.2},{"name":"The Scurvy Dog","phone":"4012707980","address":"1718 Westminster St","lat":41.81562930871725,"lng":-71.43846778298415,"neighborhood":"West End Providence","city_fetched":"Providence","state":"RI","country":"United States","canonicalUrl":"https://foursquare.com/v/the-scurvy-dog/4b1497faf964a520f8a423e3","category":"Dive Bar","checkinsCount":1547,"usersCount":525,"tipCount":9,"visitsCount":1778,"url":"http://scurvydogbar.com","tier":"","message":"","currency":"","rating":7.2},{"name":"Cadillac Lounge","phone":"4015217469","address":"361 Charles St","lat":41.841356,"lng":-71.417425,"neighborhood":"Charles","city_fetched":"Providence","state":"RI","country":"United States","canonicalUrl":"https://foursquare.com/v/cadillac-lounge/4b575fe6f964a520653428e3","category":"Strip Club","checkinsCount":1090,"usersCount":480,"tipCount":5,"visitsCount":1404,"url":"http://thecadillaclounge.com","tier":"","message":"","currency":"","rating":7.1},{"name":"Pearl Restaurant & Lounge","phone":"4013313000","address":"393 Charles St","lat":41.84536557761658,"lng":-71.41852314480049,"neighborhood":"Charles","city_fetched":"Providence","state":"RI","country":"United States","canonicalUrl":"https://foursquare.com/v/pearl-restaurant--lounge/4b575fa0f964a520533428e3","category":"Nightclub","checkinsCount":569,"usersCount":407,"tipCount":4,"visitsCount":630,"url":"http://www.pearlrestaurant.net","tier":"","message":"","currency":"","rating":7.1},{"name":"Union Station Brewery","phone":"4012742739","address":"36 Exchange Ter","lat":41.82568835585863,"lng":-71.41375714038908,"neighborhood":"Downtown Providence","city_fetched":"Providence","state":"RI","country":"United States","canonicalUrl":"https://foursquare.com/v/union-station-brewery/4b075d44f964a520abfc22e3","category":"Brewery","checkinsCount":3888,"usersCount":2809,"tipCount":42,"visitsCount":4139,"url":"http://www.johnharvards.com","tier":1,"message":"Cheap","currency":"$","rating":7.1},{"name":"Bucket Brewery","phone":"4013050597","address":"545 Carver Street","lat":41.859913,"lng":-71.398744,"city_fetched":"Providence","state":"RI","country":"United States","canonicalUrl":"https://foursquare.com/v/bucket-brewery/5290c02411d2721ac91aa879","category":"Brewery","checkinsCount":183,"usersCount":191,"tipCount":4,"visitsCount":313,"url":"http://bucketbrewery.com","tier":"","message":"","currency":"","rating":7.1},{"name":"The Salon","phone":"4018656330","address":"57 Eddy St","lat":41.82370611264787,"lng":-71.41280625120297,"neighborhood":"Downtown Providence","city_fetched":"Providence","state":"RI","country":"United States","canonicalUrl":"https://foursquare.com/v/the-salon/4d0311e6347da1cd1b76238f","category":"Bar","checkinsCount":1960,"usersCount":1090,"tipCount":17,"visitsCount":2190,"url":"http://thesalonpvd.com","tier":"","message":"","currency":"","rating":7.1},{"name":"Teas And Javas","phone":"4016217700","twitter":"teasjavas","address":"199 Wayland Ave","lat":41.82971325776841,"lng":-71.38802289962769,"neighborhood":"Wayland","city_fetched":"Providence","state":"RI","country":"United States","canonicalUrl":"https://foursquare.com/v/teas-and-javas/4ff9af0be4b0a0306d485a1a","category":"Café","checkinsCount":964,"usersCount":433,"tipCount":19,"visitsCount":1004,"url":"http://www.teasandjavas.com","tier":2,"message":"Moderate","currency":"$","rating":7.1},{"name":"Murphy's Deli & Bar","phone":"4014211188","address":"100 Fountain St","lat":41.82376949794675,"lng":-71.41566470931814,"neighborhood":"Downtown Providence","city_fetched":"Providence","state":"RI","country":"United States","canonicalUrl":"https://foursquare.com/v/murphys-deli--bar/4c8ed6e7daa937049f3250b1","category":"Deli / Bodega","checkinsCount":4828,"usersCount":1833,"tipCount":35,"visitsCount":5063,"url":"http://murphysdeliandbar.com","tier":2,"message":"Moderate","currency":"$","rating":7.1},{"name":"Blake's Tavern","phone":"4012741230","twitter":"blakesprov","address":"122 Washington St","lat":41.82307286088135,"lng":-71.41472542131748,"neighborhood":"Downtown Providence","city_fetched":"Providence","state":"RI","country":"United States","canonicalUrl":"https://foursquare.com/v/blakes-tavern/4b0586aaf964a520906922e3","category":"Pub","checkinsCount":2442,"usersCount":1264,"tipCount":17,"visitsCount":2471,"url":"http://blakestavern.com","tier":"","message":"","currency":"","rating":7.1},{"name":"Cigar Masters","address":"1 W Exchange St","lat":41.825128683510634,"lng":-71.41506170989481,"neighborhood":"Downtown Providence","city_fetched":"Providence","state":"RI","country":"United States","canonicalUrl":"https://foursquare.com/v/cigar-masters/4b36cd31f964a520bb3c25e3","category":"Lounge","checkinsCount":987,"usersCount":373,"tipCount":12,"visitsCount":999,"tier":"","message":"","currency":"","rating":7.1},{"name":"Snookers","phone":"4013517665","address":"53 Ashburton St","lat":41.83772272101739,"lng":-71.41487617140811,"city_fetched":"Providence","state":"RI","country":"United States","canonicalUrl":"https://foursquare.com/v/snookers/4b20776bf964a5207b3224e3","category":"Pool Hall","checkinsCount":3865,"usersCount":1989,"tipCount":31,"visitsCount":4539,"url":"http://www.snookersri.com","tier":"","message":"","currency":"","rating":7.1},{"name":"Wild Colonial Tavern","phone":"4016215644","address":"250 S Water St","lat":41.82248258475395,"lng":-71.40544257346068,"neighborhood":"College Hill","city_fetched":"Providence","state":"RI","country":"United States","canonicalUrl":"https://foursquare.com/v/wild-colonial-tavern/4a359a6df964a5203c9d1fe3","category":"Bar","checkinsCount":2633,"usersCount":1374,"tipCount":22,"visitsCount":2975,"url":"http://www.wildcolonial.com","tier":2,"message":"Moderate","currency":"$","rating":7},{"name":"Hope Street Pizza","phone":"4012735955","address":"772 Hope St","lat":41.84787255642011,"lng":-71.39555065743984,"neighborhood":"Hope","city_fetched":"Providence","state":"RI","country":"United States","canonicalUrl":"https://foursquare.com/v/hope-street-pizza/4c3a03723849c928d431c2b1","category":"Greek Restaurant","checkinsCount":1020,"usersCount":390,"tipCount":6,"visitsCount":1062,"url":"http://www.hopestreetpizzari.com","tier":1,"message":"Cheap","currency":"$","rating":7},{"name":"Chilangos Tacqueria & Tequila Bar","phone":"4013834877","address":"447 Manton Ave","lat":41.82539313279327,"lng":-71.45464299716397,"neighborhood":"Mount Pleasant","city_fetched":"Providence","state":"RI","country":"United States","canonicalUrl":"https://foursquare.com/v/chilangos-tacqueria--tequila-bar/4d61bf761ee8721e3cf9b921","category":"Mexican Restaurant","checkinsCount":457,"usersCount":286,"tipCount":14,"visitsCount":552,"tier":2,"message":"Moderate","currency":"$","rating":6.9},{"name":"Harry's Bar & Burger","phone":"4012283336","address":"301 Atwells Ave","lat":41.823727,"lng":-71.42817,"neighborhood":"Federal Hill","city_fetched":"Providence","state":"RI","country":"United States","canonicalUrl":"https://foursquare.com/v/harrys-bar--burger/5478d943498e7162d99c042e","category":"Burger Joint","checkinsCount":262,"usersCount":162,"tipCount":2,"visitsCount":283,"url":"http://www.harrysbarburger.com","tier":"","message":"","currency":"","rating":6.9},{"name":"Firehouse No 13","address":"41 Central St","lat":41.81443746,"lng":-71.42229,"neighborhood":"West End Providence","city_fetched":"Providence","state":"RI","country":"United States","canonicalUrl":"https://foursquare.com/v/firehouse-no-13/4b0586acf964a520ba6922e3","category":"Art Gallery","checkinsCount":624,"usersCount":452,"tipCount":6,"visitsCount":655,"tier":"","message":"","currency":"","rating":6.9},{"name":"Tammany Hall Pub And Parlor","phone":"4018313180","twitter":"tammanyhallri","address":"409 Atwells Ave","lat":41.82385815,"lng":-71.431011,"neighborhood":"Federal Hill","city_fetched":"Providence","state":"RI","country":"United States","canonicalUrl":"https://foursquare.com/v/tammany-hall-pub-and-parlor/4b4a17fbf964a520557a26e3","category":"Bar","checkinsCount":871,"usersCount":367,"tipCount":8,"visitsCount":915,"tier":"","message":"","currency":"","rating":6.9}]