[{"name":"Gray's Coors Tavern","phone":"7194550455","address":"515 W 4th St","lat":38.27083295363635,"lng":-104.61395470347206,"neighborhood":"Downtown Pueblo","city_fetched":"Pueblo","state":"CO","country":"United States","canonicalUrl":"https://foursquare.com/v/grays-coors-tavern/4beef7170e0120a1e21b5031","category":"Burger Joint","checkinsCount":823,"usersCount":575,"tipCount":16,"visitsCount":1073,"tier":"","message":"","currency":"","rating":8.5},{"name":"Brues Alehouse Brewing Co.","address":"120 Riverwalk Pl","lat":38.265454542799745,"lng":-104.60970291701216,"neighborhood":"Downtown Pueblo","city_fetched":"Pueblo","state":"CO","country":"United States","canonicalUrl":"https://foursquare.com/v/brues-alehouse-brewing-co/56784d28498ece7ec1047515","category":"Brewery","checkinsCount":134,"usersCount":160,"tipCount":6,"visitsCount":274,"tier":"","message":"","currency":"","rating":8.3},{"name":"Shamrock Brewing Co.","phone":"7195429974","address":"108 W 3rd St","lat":38.26960568705472,"lng":-104.60784673690796,"neighborhood":"Downtown Pueblo","city_fetched":"Pueblo","state":"CO","country":"United States","canonicalUrl":"https://foursquare.com/v/shamrock-brewing-co/4b0f2173f964a520825f23e3","category":"Irish Pub","checkinsCount":2188,"usersCount":1163,"tipCount":36,"visitsCount":2746,"url":"http://shamrockbrewing.com","tier":2,"message":"Moderate","currency":"$","rating":8.2},{"name":"Gus' Place","phone":"7195420755","address":"1201 Elm St","lat":38.245929479599,"lng":-104.61277663707733,"neighborhood":"Bessemer","city_fetched":"Pueblo","state":"CO","country":"United States","canonicalUrl":"https://foursquare.com/v/gus-place/4b9b1664f964a520b8f135e3","category":"Bar","checkinsCount":185,"usersCount":88,"tipCount":8,"visitsCount":199,"tier":"","message":"","currency":"","rating":7.9},{"name":"The Downtown Bar","phone":"7195441499","address":"103 Central Plz","lat":38.267855248976176,"lng":-104.60906544390325,"neighborhood":"Downtown Pueblo","city_fetched":"Pueblo","state":"CO","country":"United States","canonicalUrl":"https://foursquare.com/v/the-downtown-bar/4c5e235b9b28d13a8ccf5b70","category":"Bar","checkinsCount":791,"usersCount":150,"tipCount":8,"visitsCount":934,"url":"http://www.thedowntownbar.com","tier":2,"message":"Moderate","currency":"$","rating":7.5},{"name":"Polito's Beer Barrel","phone":"7195649915","address":"2113 E Evans Ave","lat":38.230899683333334,"lng":-104.61501896381378,"neighborhood":"Bessemer","city_fetched":"Pueblo","state":"CO","country":"United States","canonicalUrl":"https://foursquare.com/v/politos-beer-barrel/4c82b17be602b1f76d2a9f7a","category":"Bar","checkinsCount":146,"usersCount":123,"tipCount":2,"visitsCount":288,"tier":"","message":"","currency":"","rating":7.5},{"name":"Andy McCarthys","address":"2149 Jerry Murphy Rd","lat":38.30682635307312,"lng":-104.59896054,"neighborhood":"Belmont","city_fetched":"Pueblo","state":"CO","country":"United States","canonicalUrl":"https://foursquare.com/v/andy-mccarthys/4b5fc5d5f964a52042cc29e3","category":"Sports Bar","checkinsCount":911,"usersCount":212,"tipCount":7,"visitsCount":1042,"tier":"","message":"","currency":"","rating":7.5},{"name":"Gold Dust Saloon","address":"221 S Union Ave","lat":38.26395179000848,"lng":-104.61446505,"neighborhood":"Downtown Pueblo","city_fetched":"Pueblo","state":"CO","country":"United States","canonicalUrl":"https://foursquare.com/v/gold-dust-saloon/4c7e9e88e4b06dcb74a944d7","category":"Bar","checkinsCount":277,"usersCount":172,"tipCount":6,"visitsCount":300,"url":"http://golddustsaloon.net","tier":"","message":"","currency":"","rating":7.2},{"name":"Visions Ultra-Lounge","address":"4001 N Elizabeth St","lat":38.309941,"lng":-104.616142,"city_fetched":"Pueblo","state":"CO","country":"United States","canonicalUrl":"https://foursquare.com/v/visions-ultralounge/4cc1152621a4f04d93196255","category":"Hotel Bar","checkinsCount":140,"usersCount":48,"tipCount":1,"visitsCount":141,"tier":"","message":"","currency":"","rating":7},{"name":"Spectators","phone":"7195446111","address":"1002 Constitution Rd","lat":38.289554,"lng":-104.59415546666666,"neighborhood":"Belmont","city_fetched":"Pueblo","state":"CO","country":"United States","canonicalUrl":"https://foursquare.com/v/spectators/4c785d633badb1f71eae4b54","category":"Bar","checkinsCount":427,"usersCount":95,"tipCount":4,"visitsCount":498,"tier":"","message":"","currency":"","rating":7},{"name":"Cactus Flower","phone":"7195458218","twitter":"cactusflowerpub","address":"4610 N Elizabeth St","lat":38.319511087565594,"lng":-104.61730726698597,"city_fetched":"Pueblo","state":"CO","country":"United States","canonicalUrl":"https://foursquare.com/v/cactus-flower/4b985567f964a520653c35e3","category":"Mexican Restaurant","checkinsCount":1289,"usersCount":582,"tipCount":24,"visitsCount":1434,"url":"http://cactusflowerrestaurant.com","tier":2,"message":"Moderate","currency":"$","rating":6.8},{"name":"First  & Main Bar & Grill","phone":"7195422483","address":"117 N Main St","lat":38.26856732368469,"lng":-104.60858702659607,"neighborhood":"Downtown Pueblo","city_fetched":"Pueblo","state":"CO","country":"United States","canonicalUrl":"https://foursquare.com/v/first---main-bar--grill/4b64fef4f964a52066de2ae3","category":"Karaoke Bar","checkinsCount":494,"usersCount":112,"tipCount":2,"visitsCount":539,"tier":"","message":"","currency":"","rating":6.5},{"name":"Riverside Bar & Grill","address":"4021 Jerry Murphy Rd","lat":38.31075061399615,"lng":-104.59958334779922,"city_fetched":"Pueblo","state":"CO","country":"United States","canonicalUrl":"https://foursquare.com/v/riverside-bar--grill/4eadad1c29c2a9bb97ba4848","category":"Bar","checkinsCount":360,"usersCount":142,"tipCount":4,"visitsCount":450,"tier":1,"message":"Cheap","currency":"$","rating":6.5},{"name":"Smitty's Greenlight Tavern","address":"901 E C St","lat":38.26956223095826,"lng":-104.60732948160626,"neighborhood":"Downtown Pueblo","city_fetched":"Pueblo","state":"CO","country":"United States","canonicalUrl":"https://foursquare.com/v/smittys-greenlight-tavern/4bcfe5079854d13a94f1f64d","category":"Bar","checkinsCount":534,"usersCount":180,"tipCount":3,"visitsCount":537,"tier":"","message":"","currency":"","rating":6.3}]