[{"name":"Fat Point Brewing","phone":"8003807405","twitter":"fatpointbrewing","address":"611 Charlotte St.","lat":26.94248208229161,"lng":-82.02887177467346,"city_fetched":"Punta Gorda,US","state":"FL","country":"United States","canonicalUrl":"https://foursquare.com/v/fat-point-brewing/529e464211d284dac80d1600","categoryId":"50327c8591d4c4b30a586d5d","category":"Brewery","checkinsCount":272,"usersCount":239,"tipCount":7,"visitsCount":439,"url":"http://fatpoint.com","tier":"","message":"","currency":"","rating":8.7},{"name":"Ice House Pub","phone":"9415750866","address":"408 Tamiami Trl","lat":26.93412197371897,"lng":-82.04761732888768,"city_fetched":"Punta Gorda,US","state":"FL","country":"United States","canonicalUrl":"https://foursquare.com/v/ice-house-pub/4b513710f964a5208a4727e3","categoryId":"4bf58dd8d48988d11b941735","category":"Pub","checkinsCount":2039,"usersCount":805,"tipCount":33,"visitsCount":2435,"url":"http://www.theicehousepub.com","tier":2,"message":"Moderate","currency":"$","rating":7.9},{"name":"TTâ€™s Tiki Bar at Four Points By Sheraton Punta Gorda Harborside Hotel","phone":"9416376770","address":"33 Tamiami Trl","lat":26.938621282798703,"lng":-82.05419847363936,"city_fetched":"Punta Gorda,US","state":"FL","country":"United States","canonicalUrl":"https://foursquare.com/v/tts-tiki-bar-at-four-points-by-sheraton-punta-gorda-harborside-hotel/4de98575fa76cc1b8acd9c59","categoryId":"4bf58dd8d48988d1d5941735","category":"Hotel Bar","checkinsCount":882,"usersCount":749,"tipCount":10,"visitsCount":1338,"url":"http://fourpointspuntagordaharborside.com","tier":2,"message":"Moderate","currency":"$","rating":7.8},{"name":"Emil's Sports Bar And Grill","phone":"9417640640","address":"24901 Sandhill Blvd","lat":27.0169105,"lng":-82.0422618,"city_fetched":"Punta Gorda,US","state":"FL","country":"United States","canonicalUrl":"https://foursquare.com/v/emils-sports-bar-and-grill/4c5ce1c79b28d13ae24b5870","categoryId":"4bf58dd8d48988d120941735","category":"Karaoke Bar","checkinsCount":816,"usersCount":358,"tipCount":14,"visitsCount":1130,"url":"http://emilssportsbar.net","tier":"","message":"","currency":"","rating":7.8},{"name":"Jack's Restaurant","phone":"9416378800","address":"201 W Marion Ave","lat":26.935117,"lng":-82.05107578,"city_fetched":"Punta Gorda,US","state":"FL","country":"United States","canonicalUrl":"https://foursquare.com/v/jacks-restaurant/4b89f0a3f964a520915732e3","categoryId":"4bf58dd8d48988d116941735","category":"Bar","checkinsCount":647,"usersCount":452,"tipCount":24,"visitsCount":699,"url":"http://www.jackspuntagorda.com","tier":"","message":"","currency":"","rating":7.8},{"name":"The Portside Tavern","phone":"9416293055","twitter":"portsidetavern","address":"3636 Tamiami Trl","lat":26.97727218,"lng":-82.09097389,"city_fetched":"Punta Gorda,US","state":"FL","country":"United States","canonicalUrl":"https://foursquare.com/v/the-portside-tavern/4c54208b30f92d7f7134e9b9","categoryId":"4bf58dd8d48988d11b941735","category":"Pub","checkinsCount":95,"usersCount":65,"tipCount":3,"visitsCount":126,"url":"http://www.theportside.com","tier":"","message":"","currency":"","rating":7.7},{"name":"Chubby'z 2 Tavern","phone":"9416130002","address":"4109 Tamiami Trl","lat":26.970035859759655,"lng":-82.08293668416165,"city_fetched":"Punta Gorda,US","state":"FL","country":"United States","canonicalUrl":"https://foursquare.com/v/chubbyz-2-tavern/4bb924383db7b713d70c229a","categoryId":"4bf58dd8d48988d118941735","category":"Dive Bar","checkinsCount":439,"usersCount":233,"tipCount":11,"visitsCount":543,"url":"http://www.chubbyz2tavern.com","tier":"","message":"","currency":"","rating":7.4},{"name":"Shorty's Place","phone":"9416392337","address":"306 W Marion Ave","lat":26.934369,"lng":-82.052506,"city_fetched":"Punta Gorda,US","state":"FL","country":"United States","canonicalUrl":"https://foursquare.com/v/shortys-place/4e28ecf62271752a459a2b31","categoryId":"4bf58dd8d48988d116941735","category":"Bar","checkinsCount":206,"usersCount":107,"tipCount":2,"visitsCount":210,"tier":"","message":"","currency":"","rating":7.3},{"name":"Linksters Tap Room","phone":"9414260177","twitter":"linknrt","address":"4371 Aidan Ln","lat":27.033990734799783,"lng":-82.21128481786289,"city_fetched":"Punta Gorda,US","state":"FL","country":"United States","canonicalUrl":"https://foursquare.com/v/linksters-tap-room/4b7df890f964a520d8dc2fe3","categoryId":"4bf58dd8d48988d116941735","category":"Bar","checkinsCount":632,"usersCount":197,"tipCount":7,"visitsCount":672,"url":"http://linksterstaproom.com","tier":"","message":"","currency":"","rating":7.1},{"name":"Boomer's","phone":"9417434140","address":"2360 Tamiami Trl","lat":26.997611860681065,"lng":-82.11947705407104,"city_fetched":"Punta Gorda,US","state":"FL","country":"United States","canonicalUrl":"https://foursquare.com/v/boomers/4b533c46f964a5207f9327e3","categoryId":"4bf58dd8d48988d116941735","category":"Bar","checkinsCount":359,"usersCount":196,"tipCount":7,"visitsCount":452,"url":"http://boomersportcharlotte.com","tier":"","message":"","currency":"","rating":6.7},{"name":"Torch Bistro","address":"2113 Tamiami Trl","lat":26.91921830177307,"lng":-82.04790472984314,"city_fetched":"Punta Gorda,US","state":"FL","country":"United States","canonicalUrl":"https://foursquare.com/v/torch-bistro/4bd22cfd77b29c74ae318e82","categoryId":"4bf58dd8d48988d11e941735","category":"Cocktail Bar","checkinsCount":138,"usersCount":95,"tipCount":8,"visitsCount":138,"tier":"","message":"","currency":"","rating":6.7},{"name":"Biehl's Slip Knot","phone":"9416397677","address":"1601 Tamiami Trl","lat":26.923763460313562,"lng":-82.04785675055307,"city_fetched":"Punta Gorda,US","state":"FL","country":"United States","canonicalUrl":"https://foursquare.com/v/biehls-slip-knot/4bb41d80bd4b9c747c6732f5","categoryId":"4bf58dd8d48988d116941735","category":"Bar","checkinsCount":226,"usersCount":140,"tipCount":4,"visitsCount":226,"tier":"","message":"","currency":"","rating":6.6},{"name":"Ryan's Subs & Sports Grill","phone":"9415057827","address":"5268 Duncan Rd","lat":26.955029808093315,"lng":-81.99302673339844,"city_fetched":"Punta Gorda,US","state":"FL","country":"United States","canonicalUrl":"https://foursquare.com/v/ryans-subs--sports-grill/4bb924f83db7b713c10d229a","categoryId":"4bf58dd8d48988d11d941735","category":"Sports Bar","checkinsCount":209,"usersCount":125,"tipCount":7,"visitsCount":291,"tier":"","message":"","currency":"","rating":6.5},{"name":"Scotty's Brewhouse","lat":26.928675,"lng":-82.064476,"city_fetched":"Punta Gorda,US","state":"FL","country":"United States","canonicalUrl":"https://foursquare.com/v/scottys-brewhouse/571e257f498e9e393120a51c","categoryId":"50327c8591d4c4b30a586d5d","category":"Brewery","checkinsCount":47,"usersCount":39,"tipCount":3,"visitsCount":58,"tier":"","message":"","currency":"","rating":6.5}]