[{"name":"Samuel Adams Brewery","phone":"6173685080","twitter":"samueladamsbeer","address":"30 Germania St","lat":42.31451354657694,"lng":-71.1031807831952,"neighborhood":"Jamaica Plain","city_fetched":"Quincy,US","state":"MA","country":"United States","canonicalUrl":"https://foursquare.com/samueladamsbeer","categoryId":"50327c8591d4c4b30a586d5d","category":"Brewery","checkinsCount":23557,"usersCount":20440,"tipCount":219,"visitsCount":25422,"url":"http://www.samueladams.com/brewery-and-craft/our-brewery","tier":1,"message":"Cheap","currency":"$","rating":9.6},{"name":"Night Shift Brewing, Inc.","phone":"6172944233","twitter":"nightshiftbeer","address":"87 Santilli Hwy","lat":42.40574533555862,"lng":-71.06781005859375,"city_fetched":"Quincy,US","state":"MA","country":"United States","canonicalUrl":"https://foursquare.com/nightshiftbeer","categoryId":"50327c8591d4c4b30a586d5d","category":"Brewery","checkinsCount":6062,"usersCount":3287,"tipCount":60,"visitsCount":8173,"url":"http://www.nightshiftbrewing.com","tier":1,"message":"Cheap","currency":"$","rating":9.4},{"name":"Harpoon Brewery","phone":"6174562322","twitter":"harpoon_brewery","address":"306 Northern Ave","lat":42.34699969120303,"lng":-71.03450775146484,"neighborhood":"Seaport District","city_fetched":"Quincy,US","state":"MA","country":"United States","canonicalUrl":"https://foursquare.com/v/harpoon-brewery/40b28c80f964a52073f81ee3","categoryId":"50327c8591d4c4b30a586d5d","category":"Brewery","checkinsCount":28850,"usersCount":20034,"tipCount":266,"visitsCount":32660,"url":"http://www.harpoonbrewery.com","tier":2,"message":"Moderate","currency":"$","rating":9.4},{"name":"Aeronaut Brewing Company","phone":"6179874236","twitter":"aeronautbrewing","address":"14 Tyler St","lat":42.381443731437365,"lng":-71.10440611839294,"city_fetched":"Quincy,US","state":"MA","country":"United States","canonicalUrl":"https://foursquare.com/v/aeronaut-brewing-company/52a1da9d11d2623b045bd2a0","categoryId":"50327c8591d4c4b30a586d5d","category":"Brewery","checkinsCount":2734,"usersCount":1883,"tipCount":26,"visitsCount":3357,"url":"http://www.aeronautbrewing.com","tier":2,"message":"Moderate","currency":"$","rating":9.3},{"name":"Trillium Brewing Company","phone":"6174538745","twitter":"trilliumbrewing","address":"369 Congress St","lat":42.349784376011634,"lng":-71.04776002495406,"neighborhood":"Seaport District","city_fetched":"Quincy,US","state":"MA","country":"United States","canonicalUrl":"https://foursquare.com/v/trillium-brewing-company/4e3d729daeb73139a178d4fa","categoryId":"50327c8591d4c4b30a586d5d","category":"Brewery","checkinsCount":2615,"usersCount":1518,"tipCount":36,"visitsCount":3066,"url":"http://www.trilliumbrewing.com","tier":2,"message":"Moderate","currency":"$","rating":9.2},{"name":"Trillium Brewing Company (Canton)","twitter":"trilliumbrewing","address":"110 Shawmut Rd","lat":42.18511580855792,"lng":-71.15268162251101,"city_fetched":"Quincy,US","state":"MA","country":"United States","canonicalUrl":"https://foursquare.com/v/trillium-brewing-company-canton/566ef9ad498e6cd6f4636e1e","categoryId":"50327c8591d4c4b30a586d5d","category":"Brewery","checkinsCount":745,"usersCount":743,"tipCount":16,"visitsCount":1389,"url":"http://www.trilliumbrewing.com","tier":2,"message":"Moderate","currency":"$","rating":9.1},{"name":"Posto","phone":"6176250600","twitter":"pizzeriaposto","address":"187 Elm St","lat":42.393127,"lng":-71.12042837,"neighborhood":"Davis Square","city_fetched":"Quincy,US","state":"MA","country":"United States","canonicalUrl":"https://foursquare.com/v/posto/4bb5ea84941ad13ac7a21ee3","categoryId":"4bf58dd8d48988d123941735","category":"Wine Bar","checkinsCount":4179,"usersCount":2825,"tipCount":84,"visitsCount":5179,"url":"http://www.postoboston.com","tier":2,"message":"Moderate","currency":"$","rating":9.1},{"name":"The Druid","phone":"6174970965","address":"1357 Cambridge St","lat":42.37366871829149,"lng":-71.10029697418213,"neighborhood":"Inman Square","city_fetched":"Quincy,US","state":"MA","country":"United States","canonicalUrl":"https://foursquare.com/v/the-druid/40b28c80f964a52049f81ee3","categoryId":"4bf58dd8d48988d11b941735","category":"Pub","checkinsCount":5227,"usersCount":2695,"tipCount":68,"visitsCount":5280,"url":"http://druidpub.com","tier":2,"message":"Moderate","currency":"$","rating":9},{"name":"Trina's Starlite Lounge","phone":"6175760006","twitter":"trinastarlite","address":"3 Beacon St","lat":42.37446879403717,"lng":-71.10163142603781,"neighborhood":"Inman Square","city_fetched":"Quincy,US","state":"MA","country":"United States","canonicalUrl":"https://foursquare.com/v/trinas-starlite-lounge/4abd2eb7f964a520e28820e3","categoryId":"4bf58dd8d48988d116941735","category":"Bar","checkinsCount":11371,"usersCount":3705,"tipCount":125,"visitsCount":12209,"url":"http://trinastarlitelounge.com","tier":2,"message":"Moderate","currency":"$","rating":9},{"name":"Drink","phone":"6176951806","twitter":"drinkboston","address":"348 Congress St","lat":42.35039340633491,"lng":-71.04862689971924,"neighborhood":"Seaport District","city_fetched":"Quincy,US","state":"MA","country":"United States","canonicalUrl":"https://foursquare.com/v/drink/49c01e77f964a5204a551fe3","categoryId":"4bf58dd8d48988d11e941735","category":"Cocktail Bar","checkinsCount":12849,"usersCount":7603,"tipCount":220,"visitsCount":13091,"url":"http://www.drinkfortpoint.com","tier":3,"message":"Expensive","currency":"$","rating":9},{"name":"Les Zygomates Wine Bar Bistro","phone":"6175425108","twitter":"leszygomate","address":"129 South St","lat":42.351385535515156,"lng":-71.05729525245125,"neighborhood":"Downtown Boston","city_fetched":"Quincy,US","state":"MA","country":"United States","canonicalUrl":"https://foursquare.com/v/les-zygomates-wine-bar-bistro/3fd66200f964a52066ec1ee3","categoryId":"4bf58dd8d48988d123941735","category":"Wine Bar","checkinsCount":3351,"usersCount":2201,"tipCount":46,"visitsCount":3568,"url":"http://winebar129.com","tier":2,"message":"Moderate","currency":"$","rating":8.9},{"name":"The Lower Depths","phone":"6172666662","twitter":"lowerdepthsbos","address":"476 Commonwealth Ave","lat":42.348729,"lng":-71.093918,"neighborhood":"Kenmore","city_fetched":"Quincy,US","state":"MA","country":"United States","canonicalUrl":"https://foursquare.com/v/the-lower-depths/48a093dff964a52088511fe3","categoryId":"4bf58dd8d48988d116941735","category":"Bar","checkinsCount":9754,"usersCount":4590,"tipCount":114,"visitsCount":10540,"url":"http://thelowerdepths.com","tier":1,"message":"Cheap","currency":"$","rating":8.9},{"name":"All Seasons Table","phone":"7813978788","address":"64 Pleasant St","lat":42.42694998432124,"lng":-71.06894847348042,"neighborhood":"Malden Center","city_fetched":"Quincy,US","state":"MA","country":"United States","canonicalUrl":"https://foursquare.com/v/all-seasons-table/4b01e3faf964a5204e4622e3","categoryId":"4bf58dd8d48988d11c941735","category":"Sake Bar","checkinsCount":3341,"usersCount":1671,"tipCount":39,"visitsCount":3842,"url":"http://astrestaurant.com","tier":2,"message":"Moderate","currency":"$","rating":8.9},{"name":"The Hawthorne","phone":"6175329150","twitter":"bar500a","address":"500A Commonwealth Ave","lat":42.3488,"lng":-71.095484,"neighborhood":"Kenmore","city_fetched":"Quincy,US","state":"MA","country":"United States","canonicalUrl":"https://foursquare.com/v/the-hawthorne/4ec2a66f29c276d58354e98d","categoryId":"4bf58dd8d48988d11e941735","category":"Cocktail Bar","checkinsCount":6510,"usersCount":3236,"tipCount":99,"visitsCount":6553,"url":"http://www.thehawthornebar.com","tier":3,"message":"Expensive","currency":"$","rating":8.8},{"name":"Green Street","phone":"6178761655","address":"280 Green St","lat":42.3646499126496,"lng":-71.10418467060916,"city_fetched":"Quincy,US","state":"MA","country":"United States","canonicalUrl":"https://foursquare.com/v/green-street/40b28c80f964a5204af81ee3","categoryId":"4bf58dd8d48988d11e941735","category":"Cocktail Bar","checkinsCount":8570,"usersCount":4656,"tipCount":99,"visitsCount":9606,"url":"http://greenstreetgrill.com","tier":3,"message":"Expensive","currency":"$","rating":8.8},{"name":"Warren Tavern","phone":"6172418142","twitter":"warrentavern","address":"2 Pleasant St","lat":42.374177865450235,"lng":-71.06309288745587,"neighborhood":"Thompson Square - Bunker Hill","city_fetched":"Quincy,US","state":"MA","country":"United States","canonicalUrl":"https://foursquare.com/v/warren-tavern/44394daff964a5201c321fe3","categoryId":"4bf58dd8d48988d11b941735","category":"Pub","checkinsCount":6346,"usersCount":3786,"tipCount":85,"visitsCount":7199,"url":"http://warrentavern.com","tier":2,"message":"Moderate","currency":"$","rating":8.8},{"name":"Scarlet Oak Tavern","phone":"7817498200","address":"1217 Main St","lat":42.175764772192075,"lng":-70.88570348566265,"city_fetched":"Quincy,US","state":"MA","country":"United States","canonicalUrl":"https://foursquare.com/v/scarlet-oak-tavern/4a89d584f964a520220920e3","categoryId":"4bf58dd8d48988d116941735","category":"Bar","checkinsCount":2066,"usersCount":1361,"tipCount":20,"visitsCount":2733,"url":"http://www.scarletoaktavern.com","tier":2,"message":"Moderate","currency":"$","rating":8.7},{"name":"Sunset Grill & Tap","phone":"6172541331","twitter":"sunsetgt","address":"130 Brighton Ave","lat":42.352752247580234,"lng":-71.13164395093918,"neighborhood":"Brighton","city_fetched":"Quincy,US","state":"MA","country":"United States","canonicalUrl":"https://foursquare.com/v/sunset-grill--tap/4ad0d7a5f964a5204cda20e3","categoryId":"4bf58dd8d48988d116941735","category":"Bar","checkinsCount":22398,"usersCount":10977,"tipCount":204,"visitsCount":23650,"url":"http://www.allstonsfinest.com","tier":2,"message":"Moderate","currency":"$","rating":8.7},{"name":"Meadhall","phone":"6177144372","twitter":"meadhall","address":"4 Cambridge Ctr","lat":42.36365726858562,"lng":-71.08726143836975,"neighborhood":"Kendall Square","city_fetched":"Quincy,US","state":"MA","country":"United States","canonicalUrl":"https://foursquare.com/v/meadhall/4db81694f7b15ca52ce24788","categoryId":"4bf58dd8d48988d116941735","category":"Bar","checkinsCount":17070,"usersCount":9099,"tipCount":179,"visitsCount":18931,"url":"http://themeadhall.com","tier":3,"message":"Expensive","currency":"$","rating":8.7},{"name":"Mystic Brewery","phone":"6174662079","address":"174 Williams St","lat":42.39181587806693,"lng":-71.04426043074731,"city_fetched":"Quincy,US","state":"MA","country":"United States","canonicalUrl":"https://foursquare.com/v/mystic-brewery/4eda6a27f790c04545b983c0","categoryId":"50327c8591d4c4b30a586d5d","category":"Brewery","checkinsCount":903,"usersCount":802,"tipCount":14,"visitsCount":1255,"url":"http://mystic-brewery.com","tier":"","message":"","currency":"","rating":8.6},{"name":"Brendan Behan Pub","phone":"6175225386","address":"378 Centre St","lat":42.32210589637807,"lng":-71.10932592762688,"neighborhood":"Hyde Square","city_fetched":"Quincy,US","state":"MA","country":"United States","canonicalUrl":"https://foursquare.com/v/brendan-behan-pub/40a2ba80f964a52005f31ee3","categoryId":"4bf58dd8d48988d11b941735","category":"Pub","checkinsCount":3450,"usersCount":1231,"tipCount":38,"visitsCount":3650,"url":"http://www.brendanbehanpub.com","tier":1,"message":"Cheap","currency":"$","rating":8.6},{"name":"Bleacher Bar","phone":"6172622424","twitter":"bleacherbar","address":"82A Lansdowne St","lat":42.34693825360386,"lng":-71.09677441392516,"neighborhood":"Fenway - Kenmore - Audubon Circle - Longwood","city_fetched":"Quincy,US","state":"MA","country":"United States","canonicalUrl":"https://foursquare.com/v/bleacher-bar/4a5d25abf964a52047bd1fe3","categoryId":"4bf58dd8d48988d11d941735","category":"Sports Bar","checkinsCount":12098,"usersCount":8728,"tipCount":85,"visitsCount":12112,"url":"http://bleacherbarboston.com","tier":2,"message":"Moderate","currency":"$","rating":8.6},{"name":"Harpoon Beer hall","address":"306 Northern Ave","lat":42.347267407290154,"lng":-71.03543296420406,"neighborhood":"Seaport District","city_fetched":"Quincy,US","state":"MA","country":"United States","canonicalUrl":"https://foursquare.com/v/harpoon-beer-hall/53d033a6498ee87a0bf3a66e","categoryId":"50327c8591d4c4b30a586d5d","category":"Brewery","checkinsCount":269,"usersCount":229,"tipCount":9,"visitsCount":274,"tier":"","message":"","currency":"","rating":8.6},{"name":"Bull McCabe's","phone":"6174406045","twitter":"bullmccabesma","address":"366A Somerville Ave","lat":42.380979,"lng":-71.099457,"city_fetched":"Quincy,US","state":"MA","country":"United States","canonicalUrl":"https://foursquare.com/v/bull-mccabes/4a904aa2f964a5201a1720e3","categoryId":"4bf58dd8d48988d11b941735","category":"Pub","checkinsCount":2171,"usersCount":1120,"tipCount":34,"visitsCount":2462,"url":"http://bullmccabesboston.com","tier":"","message":"","currency":"","rating":8.6},{"name":"R. F. O'Sullivan & Son Pub","phone":"6174919638","address":"282 Beacon St","lat":42.383174,"lng":-71.112317,"city_fetched":"Quincy,US","state":"MA","country":"United States","canonicalUrl":"https://foursquare.com/v/r-f-osullivan--son-pub/49d2cbfdf964a520da5b1fe3","categoryId":"4bf58dd8d48988d11b941735","category":"Pub","checkinsCount":3338,"usersCount":1921,"tipCount":74,"visitsCount":3785,"url":"http://www.rf-osullivan.com","tier":2,"message":"Moderate","currency":"$","rating":8.6},{"name":"Cambridge Common","phone":"6175471228","address":"1667 Massachusetts Ave","lat":42.382089624489545,"lng":-71.11947476863861,"neighborhood":"Aggasiz - Harvard University","city_fetched":"Quincy,US","state":"MA","country":"United States","canonicalUrl":"https://foursquare.com/v/cambridge-common/40b28c80f964a5202cf81ee3","categoryId":"4bf58dd8d48988d11b941735","category":"Pub","checkinsCount":11867,"usersCount":5226,"tipCount":108,"visitsCount":12805,"url":"http://cambridgecommonrestaurant.com","tier":2,"message":"Moderate","currency":"$","rating":8.6},{"name":"Doyle's Cafe","phone":"6175242345","address":"3484 Washington St","lat":42.306415549446825,"lng":-71.10737040080987,"neighborhood":"Jamaica Plain","city_fetched":"Quincy,US","state":"MA","country":"United States","canonicalUrl":"https://foursquare.com/v/doyles-cafe/4575cf5df964a520a23e1fe3","categoryId":"4bf58dd8d48988d11b941735","category":"Pub","checkinsCount":12580,"usersCount":9625,"tipCount":120,"visitsCount":13929,"url":"http://www.doylescafeboston.com","tier":2,"message":"Moderate","currency":"$","rating":8.5},{"name":"Waterclub","phone":"6173286500","twitter":"waterclubmb","address":"319 Victory Rd","lat":42.29956020367389,"lng":-71.02859024213629,"neighborhood":"Marina Bay","city_fetched":"Quincy,US","state":"MA","country":"United States","canonicalUrl":"https://foursquare.com/v/waterclub/4baf3223f964a5205cf03be3","categoryId":"4bf58dd8d48988d116941735","category":"Bar","checkinsCount":4143,"usersCount":1631,"tipCount":8,"visitsCount":4216,"url":"http://thewaterclub.com","tier":2,"message":"Moderate","currency":"$","rating":8.5},{"name":"Cambridge Brewing Company","phone":"6174941994","twitter":"cambridgebrewer","address":"1 Kendall Square, Building 100","lat":42.36645556205954,"lng":-71.09083414077759,"neighborhood":"Kendall Square","city_fetched":"Quincy,US","state":"MA","country":"United States","canonicalUrl":"https://foursquare.com/v/cambridge-brewing-company/40b28c80f964a52044f81ee3","categoryId":"50327c8591d4c4b30a586d5d","category":"Brewery","checkinsCount":15487,"usersCount":8070,"tipCount":114,"visitsCount":16198,"url":"http://cambridgebrewingcompany.com","tier":2,"message":"Moderate","currency":"$","rating":8.5},{"name":"J.J. Foley's Cafe","phone":"6177289101","twitter":"jjfoleyscafe","address":"117 E Berkeley St","lat":42.343668243908056,"lng":-71.06538522299476,"neighborhood":"South End","city_fetched":"Quincy,US","state":"MA","country":"United States","canonicalUrl":"https://foursquare.com/v/jj-foleys-cafe/40a2ba80f964a520fdf21ee3","categoryId":"4bf58dd8d48988d11b941735","category":"Pub","checkinsCount":6581,"usersCount":2535,"tipCount":38,"visitsCount":7069,"url":"http://jjfoleyscafe.com","tier":2,"message":"Moderate","currency":"$","rating":8.5},{"name":"EMC Club","address":"Fenway Park","lat":42.34636877414081,"lng":-71.09799302460456,"neighborhood":"Fenway - Kenmore - Audubon Circle - Longwood","city_fetched":"Quincy,US","state":"MA","country":"United States","canonicalUrl":"https://foursquare.com/v/emc-club/4bcb476efb84c9b6437c1e3e","categoryId":"4bf58dd8d48988d11d941735","category":"Sports Bar","checkinsCount":2131,"usersCount":895,"tipCount":6,"visitsCount":2132,"tier":"","message":"","currency":"","rating":8.5},{"name":"Metropolis","phone":"6172472931","address":"584 Tremont St","lat":42.343398,"lng":-71.072741,"neighborhood":"South End","city_fetched":"Quincy,US","state":"MA","country":"United States","canonicalUrl":"https://foursquare.com/v/metropolis/4a820424f964a52051f81fe3","categoryId":"4bf58dd8d48988d123941735","category":"Wine Bar","checkinsCount":2723,"usersCount":1554,"tipCount":32,"visitsCount":2767,"url":"http://www.metropolisboston.com","tier":2,"message":"Moderate","currency":"$","rating":8.4},{"name":"Downeast Cider House","twitter":"downeastcider","address":"200 Terminal St","lat":42.38269984863099,"lng":-71.05047225952148,"neighborhood":"Thompson Square - Bunker Hill","city_fetched":"Quincy,US","state":"MA","country":"United States","canonicalUrl":"https://foursquare.com/v/downeast-cider-house/521aa6b2498eaada1823de98","categoryId":"50327c8591d4c4b30a586d5d","category":"Brewery","checkinsCount":938,"usersCount":1089,"tipCount":17,"visitsCount":1514,"url":"http://www.downeastcider.com","tier":"","message":"","currency":"","rating":8.4},{"name":"Hopster's","phone":"6179160752","twitter":"hopstersbrew","address":"292 Centre St","lat":42.358150482177734,"lng":-71.1847915649414,"neighborhood":"Newton Corner","city_fetched":"Quincy,US","state":"MA","country":"United States","canonicalUrl":"https://foursquare.com/v/hopsters/523b7a7511d21f3a2a642a3f","categoryId":"50327c8591d4c4b30a586d5d","category":"Brewery","checkinsCount":989,"usersCount":689,"tipCount":25,"visitsCount":1105,"url":"http://www.hopsters.net","tier":"","message":"","currency":"","rating":8.3},{"name":"Winter Hill Brewing Company","address":"328 Broadway","lat":42.39274349905896,"lng":-71.09377429483466,"neighborhood":"Winter Hill","city_fetched":"Quincy,US","state":"MA","country":"United States","canonicalUrl":"https://foursquare.com/v/winter-hill-brewing-company/56fda0e4498e0beb2b1b7f23","categoryId":"50327c8591d4c4b30a586d5d","category":"Brewery","checkinsCount":344,"usersCount":281,"tipCount":7,"visitsCount":508,"url":"http://winterhillbrewing.com","tier":"","message":"","currency":"","rating":8.3},{"name":"BU Pub","phone":"6173537782","twitter":"budiningservice","address":"225 Bay State Rd","lat":42.35095,"lng":-71.10354,"neighborhood":"Kenmore","city_fetched":"Quincy,US","state":"MA","country":"United States","canonicalUrl":"https://foursquare.com/v/bu-pub/4448d608f964a52071321fe3","categoryId":"4bf58dd8d48988d11b941735","category":"Pub","checkinsCount":6948,"usersCount":1663,"tipCount":21,"visitsCount":7165,"url":"http://www.bu.edu/dining","tier":2,"message":"Moderate","currency":"$","rating":8.3},{"name":"Bukowski Tavern","phone":"6174379999","twitter":"bukowskiboston","address":"50 Dalton St","lat":42.34761695357469,"lng":-71.08566167577462,"neighborhood":"Fenway - Kenmore - Audubon Circle - Longwood","city_fetched":"Quincy,US","state":"MA","country":"United States","canonicalUrl":"https://foursquare.com/v/bukowski-tavern/40b28c80f964a520f2f71ee3","categoryId":"4bf58dd8d48988d116941735","category":"Bar","checkinsCount":14807,"usersCount":6677,"tipCount":136,"visitsCount":15459,"url":"http://www.bukowskitavern.net","tier":2,"message":"Moderate","currency":"$","rating":8.3},{"name":"Donohue's Bar and Grill","phone":"6179244900","twitter":"donohues","address":"87 Bigelow Ave","lat":42.36832193327475,"lng":-71.15752635104671,"neighborhood":"East Watertown","city_fetched":"Quincy,US","state":"MA","country":"United States","canonicalUrl":"https://foursquare.com/v/donohues-bar-and-grill/49e8971bf964a52056651fe3","categoryId":"4bf58dd8d48988d11d941735","category":"Sports Bar","checkinsCount":3510,"usersCount":1242,"tipCount":36,"visitsCount":4176,"url":"http://www.donohuesbar.com","tier":2,"message":"Moderate","currency":"$","rating":8.3},{"name":"Miracle of Science Bar & Grill","phone":"6178682866","twitter":"miraclescience","address":"321 Massachusetts Ave","lat":42.3625553567826,"lng":-71.09875202178955,"city_fetched":"Quincy,US","state":"MA","country":"United States","canonicalUrl":"https://foursquare.com/v/miracle-of-science-bar--grill/40b28c80f964a5204df81ee3","categoryId":"4bf58dd8d48988d116941735","category":"Bar","checkinsCount":10015,"usersCount":5698,"tipCount":89,"visitsCount":10491,"url":"http://miracleofscience.us","tier":2,"message":"Moderate","currency":"$","rating":8.3},{"name":"Somerville Brewing Company - Slumbrew","phone":"8004281150","twitter":"slumbrew","address":"15 Ward St","lat":42.37490478041099,"lng":-71.08906226405043,"city_fetched":"Quincy,US","state":"MA","country":"United States","canonicalUrl":"https://foursquare.com/v/somerville-brewing-company--slumbrew/5616cfee498ed6c1f2ab1652","categoryId":"50327c8591d4c4b30a586d5d","category":"Brewery","checkinsCount":1015,"usersCount":866,"tipCount":14,"visitsCount":1519,"url":"http://www.slumbrew.com","tier":"","message":"","currency":"","rating":8.3},{"name":"The Plough and Stars","phone":"6175760032","twitter":"ploughandstarma","address":"912 Massachusetts Ave","lat":42.36830651,"lng":-71.1088316,"city_fetched":"Quincy,US","state":"MA","country":"United States","canonicalUrl":"https://foursquare.com/v/the-plough-and-stars/40b28c80f964a52050f81ee3","categoryId":"4bf58dd8d48988d11b941735","category":"Pub","checkinsCount":4848,"usersCount":2600,"tipCount":54,"visitsCount":5292,"url":"http://ploughandstars.com","tier":2,"message":"Moderate","currency":"$","rating":8.2},{"name":"The Corrib Pub and Restaurant","phone":"6177870882","address":"396 Market St","lat":42.349872,"lng":-71.152783,"neighborhood":"Brighton","city_fetched":"Quincy,US","state":"MA","country":"United States","canonicalUrl":"https://foursquare.com/v/the-corrib-pub-and-restaurant/43a6baf0f964a520612c1fe3","categoryId":"4bf58dd8d48988d11b941735","category":"Pub","checkinsCount":904,"usersCount":531,"tipCount":8,"visitsCount":928,"url":"http://www.corribpub.com","tier":"","message":"","currency":"","rating":8.2},{"name":"Harry's Bar and Grill","phone":"6177389990","twitter":"harrys1430comm","address":"1430 Commonwealth Ave","lat":42.348467,"lng":-71.140003,"neighborhood":"Brighton","city_fetched":"Quincy,US","state":"MA","country":"United States","canonicalUrl":"https://foursquare.com/v/harrys-bar-and-grill/43a976d5f964a5207b2c1fe3","categoryId":"4bf58dd8d48988d116941735","category":"Bar","checkinsCount":7758,"usersCount":2838,"tipCount":63,"visitsCount":9358,"url":"http://www.harrysboston.com","tier":2,"message":"Moderate","currency":"$","rating":8.2},{"name":"Kelley's Square Pub","phone":"6175674627","address":"84 Bennington St","lat":42.376184258978796,"lng":-71.03575217239573,"neighborhood":"Central Maverick Square - Paris Street","city_fetched":"Quincy,US","state":"MA","country":"United States","canonicalUrl":"https://foursquare.com/v/kelleys-square-pub/4bcbb2310687ef3b2e4ddecc","categoryId":"4bf58dd8d48988d11b941735","category":"Pub","checkinsCount":1686,"usersCount":712,"tipCount":22,"visitsCount":2158,"url":"http://www.kelleyssquarepub.com","tier":1,"message":"Cheap","currency":"$","rating":8.2},{"name":"Bantam Cidery","phone":"6172998600","twitter":"bantamcider","address":"230 Somerville Ave","lat":42.37773166226736,"lng":-71.09181869265568,"city_fetched":"Quincy,US","state":"MA","country":"United States","canonicalUrl":"https://foursquare.com/v/bantam-cidery/531bb084498ebc415d3aa083","categoryId":"50327c8591d4c4b30a586d5d","category":"Brewery","checkinsCount":774,"usersCount":685,"tipCount":23,"visitsCount":984,"url":"http://www.bantamcider.com/find-us/taproom","tier":1,"message":"Cheap","currency":"$","rating":8.2},{"name":"Thirsty Scholar Pub","phone":"6174972294","address":"70 Beacon Street","lat":42.37639054656029,"lng":-71.10414728522301,"city_fetched":"Quincy,US","state":"MA","country":"United States","canonicalUrl":"https://foursquare.com/v/thirsty-scholar-pub/40b28c80f964a52062f81ee3","categoryId":"4bf58dd8d48988d11b941735","category":"Pub","checkinsCount":4408,"usersCount":2567,"tipCount":26,"visitsCount":5082,"url":"http://www.thirstyscholarpub.com","tier":2,"message":"Moderate","currency":"$","rating":8.1},{"name":"The Four's","phone":"7816594414","address":"285 Washington St","lat":42.164178353851916,"lng":-70.8670025131054,"city_fetched":"Quincy,US","state":"MA","country":"United States","canonicalUrl":"https://foursquare.com/v/the-fours/4ab40368f964a520836f20e3","categoryId":"4bf58dd8d48988d11d941735","category":"Sports Bar","checkinsCount":2523,"usersCount":1452,"tipCount":22,"visitsCount":3206,"url":"http://www.thefours.com","tier":"","message":"","currency":"","rating":8.1},{"name":"The Fours","phone":"6174714447","address":"15 Cottage Ave","lat":42.248585551587475,"lng":-71.00096864419159,"neighborhood":"Quincy Center","city_fetched":"Quincy,US","state":"MA","country":"United States","canonicalUrl":"https://foursquare.com/v/the-fours/4a95c3d5f964a5208e2420e3","categoryId":"4bf58dd8d48988d11d941735","category":"Sports Bar","checkinsCount":5255,"usersCount":2460,"tipCount":45,"visitsCount":5856,"url":"http://www.thefours.com/quincy/","tier":2,"message":"Moderate","currency":"$","rating":8.1},{"name":"Pour House Bar & Grill","phone":"6172361767","twitter":"pourboston","address":"907 Boylston St","lat":42.348246585636474,"lng":-71.08428418636322,"neighborhood":"Back Bay West","city_fetched":"Quincy,US","state":"MA","country":"United States","canonicalUrl":"https://foursquare.com/pourboston","categoryId":"4bf58dd8d48988d116941735","category":"Bar","checkinsCount":27396,"usersCount":12965,"tipCount":168,"visitsCount":27763,"url":"http://www.pourhouseboston.com","tier":2,"message":"Moderate","currency":"$","rating":8.1},{"name":"W Lounge","phone":"6172618700","address":"100 Stuart St","lat":42.35103950870976,"lng":-71.06544325663914,"neighborhood":"Downtown Boston","city_fetched":"Quincy,US","state":"MA","country":"United States","canonicalUrl":"https://foursquare.com/v/w-lounge/4b50fd60f964a520343c27e3","categoryId":"4bf58dd8d48988d1d5941735","category":"Hotel Bar","checkinsCount":3498,"usersCount":1820,"tipCount":20,"visitsCount":3521,"url":"http://wboston.com","tier":"","message":"","currency":"","rating":8.1},{"name":"Boston Beer Works","phone":"6175362337","twitter":"beer_works","address":"61 Brookline Ave","lat":42.34701753247426,"lng":-71.09893709421158,"neighborhood":"Kenmore","city_fetched":"Quincy,US","state":"MA","country":"United States","canonicalUrl":"https://foursquare.com/v/boston-beer-works/3fd66200f964a52040f11ee3","categoryId":"50327c8591d4c4b30a586d5d","category":"Brewery","checkinsCount":18121,"usersCount":14106,"tipCount":157,"visitsCount":19643,"url":"http://www.beerworks.net","tier":2,"message":"Moderate","currency":"$","rating":8.1},{"name":"Tavern at the End of the World","phone":"6172414999","twitter":"tavernendworld","address":"108 Cambridge St","lat":42.382176799730004,"lng":-71.07933819293976,"neighborhood":"Charlestown","city_fetched":"Quincy,US","state":"MA","country":"United States","canonicalUrl":"https://foursquare.com/v/tavern-at-the-end-of-the-world/4a7dfc6af964a52082f01fe3","categoryId":"4bf58dd8d48988d11b941735","category":"Pub","checkinsCount":3155,"usersCount":1905,"tipCount":32,"visitsCount":3783,"url":"http://tavernattheendoftheworld.com","tier":2,"message":"Moderate","currency":"$","rating":8.1},{"name":"The Four's","phone":"6177204455","address":"166 Canal St","lat":42.36513585593103,"lng":-71.06085857337197,"neighborhood":"Downtown Boston","city_fetched":"Quincy,US","state":"MA","country":"United States","canonicalUrl":"https://foursquare.com/v/the-fours/40b28c80f964a520e3f71ee3","categoryId":"4bf58dd8d48988d11d941735","category":"Sports Bar","checkinsCount":11222,"usersCount":6072,"tipCount":69,"visitsCount":11688,"url":"http://www.thefours.com","tier":2,"message":"Moderate","currency":"$","rating":8.1},{"name":"The Banshee Bar","phone":"6174369747","twitter":"bansheeboston","address":"934 Dorchester Ave","lat":42.31903421544646,"lng":-71.05656623840332,"neighborhood":"Dorchester","city_fetched":"Quincy,US","state":"MA","country":"United States","canonicalUrl":"https://foursquare.com/bansheeboston","categoryId":"4bf58dd8d48988d11b941735","category":"Pub","checkinsCount":4762,"usersCount":1811,"tipCount":37,"visitsCount":5732,"url":"http://www.bansheeboston.com","tier":1,"message":"Cheap","currency":"$","rating":8.1},{"name":"Mr. Dooley's","phone":"6173385656","address":"77 Broad St","lat":42.35768570577897,"lng":-71.05359569191933,"neighborhood":"Financial District","city_fetched":"Quincy,US","state":"MA","country":"United States","canonicalUrl":"https://foursquare.com/v/mr-dooleys/4bd1ddb677b29c74906f8d82","categoryId":"4bf58dd8d48988d11b941735","category":"Pub","checkinsCount":4471,"usersCount":3172,"tipCount":48,"visitsCount":4796,"url":"http://www.somerspubs.com","tier":2,"message":"Moderate","currency":"$","rating":8.1},{"name":"The Phoenix Landing","phone":"6175766260","address":"512 Massachusetts Ave","lat":42.364178392732526,"lng":-71.1018171170972,"city_fetched":"Quincy,US","state":"MA","country":"United States","canonicalUrl":"https://foursquare.com/v/the-phoenix-landing/40b28c80f964a5204ff81ee3","categoryId":"4bf58dd8d48988d116941735","category":"Bar","checkinsCount":10022,"usersCount":4354,"tipCount":65,"visitsCount":10464,"url":"http://phoenixlandingbar.com","tier":2,"message":"Moderate","currency":"$","rating":8},{"name":"Navy Yard Bistro","phone":"6172420036","address":"1 1st Ave","lat":42.375147133333336,"lng":-71.0548146,"neighborhood":"Thompson Square - Bunker Hill","city_fetched":"Quincy,US","state":"MA","country":"United States","canonicalUrl":"https://foursquare.com/v/navy-yard-bistro/4b0dc3f2f964a520a34f23e3","categoryId":"4bf58dd8d48988d123941735","category":"Wine Bar","checkinsCount":1261,"usersCount":733,"tipCount":20,"visitsCount":1366,"url":"http://www.navyyardbistro.com","tier":"","message":"","currency":"","rating":8},{"name":"Southside Tavern","phone":"7818480511","address":"941 Washington St","lat":42.20259841715113,"lng":-71.00547273194205,"neighborhood":"South Braintree","city_fetched":"Quincy,US","state":"MA","country":"United States","canonicalUrl":"https://foursquare.com/v/southside-tavern/4f7380a6e4b060af1b292682","categoryId":"4bf58dd8d48988d11d941735","category":"Sports Bar","checkinsCount":2536,"usersCount":1028,"tipCount":18,"visitsCount":3074,"url":"http://sstavern.com","tier":2,"message":"Moderate","currency":"$","rating":8},{"name":"Bell In Hand Tavern","phone":"6172272098","twitter":"bellinhandtav","address":"45 Union St","lat":42.36145156505159,"lng":-71.05729602322587,"neighborhood":"Downtown Boston","city_fetched":"Quincy,US","state":"MA","country":"United States","canonicalUrl":"https://foursquare.com/v/bell-in-hand-tavern/40b28c80f964a52090f71ee3","categoryId":"4bf58dd8d48988d11b941735","category":"Pub","checkinsCount":17379,"usersCount":13631,"tipCount":109,"visitsCount":17760,"url":"http://www.bellinhand.com","tier":2,"message":"Moderate","currency":"$","rating":8},{"name":"Parlor Sports","phone":"6175760231","address":"1 Beacon St","lat":42.3743877172212,"lng":-71.10159080610718,"neighborhood":"Inman Square","city_fetched":"Quincy,US","state":"MA","country":"United States","canonicalUrl":"https://foursquare.com/v/parlor-sports/4eb014ee0cd6528d8349a0f1","categoryId":"4bf58dd8d48988d11d941735","category":"Sports Bar","checkinsCount":2716,"usersCount":766,"tipCount":25,"visitsCount":2766,"url":"http://parlorsportsbar.com/#!/","tier":2,"message":"Moderate","currency":"$","rating":8},{"name":"Eugene O'Neill's Pub","phone":"6175532492","address":"3700 Washington St","lat":42.300569,"lng":-71.112808,"neighborhood":"Forest Hills - Woodbourne","city_fetched":"Quincy,US","state":"MA","country":"United States","canonicalUrl":"https://foursquare.com/v/eugene-oneills-pub/50592500e4b0cd60fec17941","categoryId":"4bf58dd8d48988d11b941735","category":"Pub","checkinsCount":836,"usersCount":319,"tipCount":14,"visitsCount":884,"tier":"","message":"","currency":"","rating":8},{"name":"Buff's Pub","phone":"6173329134","address":"317 Washington St","lat":42.357061364254264,"lng":-71.18656754493713,"neighborhood":"Newton Corner","city_fetched":"Quincy,US","state":"MA","country":"United States","canonicalUrl":"https://foursquare.com/v/buffs-pub/4a22164ff964a5205e7d1fe3","categoryId":"4bf58dd8d48988d11d941735","category":"Sports Bar","checkinsCount":4458,"usersCount":2174,"tipCount":71,"visitsCount":5072,"url":"http://buffspubofnewton.com","tier":2,"message":"Moderate","currency":"$","rating":8},{"name":"Cagney's","phone":"6178473940","address":"214 Washington St","lat":42.25001784018136,"lng":-70.99400346476973,"neighborhood":"Quincy Point","city_fetched":"Quincy,US","state":"MA","country":"United States","canonicalUrl":"https://foursquare.com/v/cagneys/4ba57662f964a520a60939e3","categoryId":"4bf58dd8d48988d116941735","category":"Bar","checkinsCount":1972,"usersCount":829,"tipCount":8,"visitsCount":2632,"url":"http://cagneysquincy.com","tier":"","message":"","currency":"","rating":8},{"name":"Irish Village","phone":"6177875427","address":"224 Market St","lat":42.355008,"lng":-71.149633,"neighborhood":"Brighton","city_fetched":"Quincy,US","state":"MA","country":"United States","canonicalUrl":"https://foursquare.com/v/irish-village/49bfeff8f964a52036551fe3","categoryId":"4bf58dd8d48988d11b941735","category":"Pub","checkinsCount":1153,"usersCount":537,"tipCount":5,"visitsCount":1317,"url":"http://irishvillageboston.com","tier":"","message":"","currency":"","rating":8},{"name":"Boston Beer Works","phone":"6178962337","twitter":"beer_works","address":"112 Canal St","lat":42.36461792255766,"lng":-71.06023180255647,"neighborhood":"Downtown Boston","city_fetched":"Quincy,US","state":"MA","country":"United States","canonicalUrl":"https://foursquare.com/v/boston-beer-works/4420e943f964a52089311fe3","categoryId":"50327c8591d4c4b30a586d5d","category":"Brewery","checkinsCount":14567,"usersCount":9103,"tipCount":118,"visitsCount":15521,"url":"http://www.beerworks.net","tier":2,"message":"Moderate","currency":"$","rating":8},{"name":"Olde Magoun's Saloon","phone":"6177762600","twitter":"magounssaloon","address":"518 Medford St","lat":42.39671052907866,"lng":-71.10399898064013,"neighborhood":"Magoun Square","city_fetched":"Quincy,US","state":"MA","country":"United States","canonicalUrl":"https://foursquare.com/magounssaloon","categoryId":"4bf58dd8d48988d116941735","category":"Bar","checkinsCount":7611,"usersCount":2613,"tipCount":58,"visitsCount":8541,"url":"http://www.magounssaloon.com","tier":2,"message":"Moderate","currency":"$","rating":8},{"name":"Durty Nelly's","phone":"6177422090","address":"108 Blackstone St","lat":42.361764584423376,"lng":-71.05663329362869,"neighborhood":"Downtown Boston","city_fetched":"Quincy,US","state":"MA","country":"United States","canonicalUrl":"https://foursquare.com/v/durty-nellys/4af6498bf964a520dc0222e3","categoryId":"4bf58dd8d48988d11b941735","category":"Pub","checkinsCount":5547,"usersCount":2320,"tipCount":31,"visitsCount":5730,"url":"http://durtynellysboston.com","tier":2,"message":"Moderate","currency":"$","rating":7.9},{"name":"The Yard","address":"Liberty Hotel","lat":42.362179,"lng":-71.070401,"neighborhood":"West End","city_fetched":"Quincy,US","state":"MA","country":"United States","canonicalUrl":"https://foursquare.com/v/the-yard/4bef201e2ff520a13929e8a2","categoryId":"4bf58dd8d48988d1d5941735","category":"Hotel Bar","checkinsCount":332,"usersCount":225,"tipCount":6,"visitsCount":332,"url":"http://www.libertyhotel.com/food_and_drink/yard.html","tier":"","message":"","currency":"","rating":7.9},{"name":"Green Briar Restaurant & Pub","phone":"6177894100","twitter":"greenbriarpub","address":"304 Washington St","lat":42.348990542164465,"lng":-71.15123109344664,"neighborhood":"St. Elizabeth's","city_fetched":"Quincy,US","state":"MA","country":"United States","canonicalUrl":"https://foursquare.com/v/green-briar-restaurant--pub/40b28c80f964a520f8ff1ee3","categoryId":"4bf58dd8d48988d11b941735","category":"Pub","checkinsCount":4954,"usersCount":2505,"tipCount":21,"visitsCount":5823,"url":"http://www.greenbriarpub.com","tier":2,"message":"Moderate","currency":"$","rating":7.9},{"name":"Hillside Pub","phone":"7818287778","address":"2 Royall Ave","lat":42.207737,"lng":-71.120378,"city_fetched":"Quincy,US","state":"MA","country":"United States","canonicalUrl":"https://foursquare.com/v/hillside-pub/4ac15002f964a520b49620e3","categoryId":"4bf58dd8d48988d11b941735","category":"Pub","checkinsCount":1086,"usersCount":480,"tipCount":10,"visitsCount":1191,"url":"http://hillsidepub.com","tier":1,"message":"Cheap","currency":"$","rating":7.9},{"name":"Cathedral Station","phone":"6173386060","twitter":"cssportsbar","address":"1222 Washington St","lat":42.34284760647527,"lng":-71.06673740476865,"neighborhood":"South End","city_fetched":"Quincy,US","state":"MA","country":"United States","canonicalUrl":"https://foursquare.com/v/cathedral-station/536bb4c0498e1d4e3e9b6afc","categoryId":"4bf58dd8d48988d1d8941735","category":"Gay Bar","checkinsCount":1753,"usersCount":629,"tipCount":6,"visitsCount":2469,"url":"http://cathedralstation.com","tier":2,"message":"Moderate","currency":"$","rating":7.9},{"name":"Crossing 9's at Granite Links","lat":42.243252,"lng":-71.050709,"city_fetched":"Quincy,US","state":"MA","country":"United States","canonicalUrl":"https://foursquare.com/v/crossing-9s-at-granite-links/4e1240df8877ac23b66842ce","categoryId":"4bf58dd8d48988d116941735","category":"Bar","checkinsCount":412,"usersCount":160,"tipCount":4,"visitsCount":433,"tier":"","message":"","currency":"","rating":7.9},{"name":"Tavern in the Square","phone":"6172630404","twitter":"taverninthesq","address":"120 Beverly St","lat":42.365727,"lng":-71.060087,"neighborhood":"Downtown Boston","city_fetched":"Quincy,US","state":"MA","country":"United States","canonicalUrl":"https://foursquare.com/v/tavern-in-the-square/54089dc6498e743eaa3d97e9","categoryId":"4bf58dd8d48988d11d941735","category":"Sports Bar","checkinsCount":1534,"usersCount":1385,"tipCount":11,"visitsCount":2290,"url":"http://taverninthesquare.com","tier":"","message":"","currency":"","rating":7.9},{"name":"Green Dragon Tavern","phone":"6173670055","address":"11 Marshall St","lat":42.3614940547525,"lng":-71.0568505525589,"neighborhood":"Downtown Boston","city_fetched":"Quincy,US","state":"MA","country":"United States","canonicalUrl":"https://foursquare.com/v/green-dragon-tavern/40b28c80f964a520a7f71ee3","categoryId":"4bf58dd8d48988d11b941735","category":"Pub","checkinsCount":7736,"usersCount":6086,"tipCount":80,"visitsCount":7800,"url":"http://www.somerspubs.com","tier":2,"message":"Moderate","currency":"$","rating":7.8},{"name":"Budweiser Right Field Roof Deck","address":"Fenway Park","lat":42.34627902800643,"lng":-71.0962521510804,"neighborhood":"Fenway - Kenmore - Audubon Circle - Longwood","city_fetched":"Quincy,US","state":"MA","country":"United States","canonicalUrl":"https://foursquare.com/v/budweiser-right-field-roof-deck/4f8b5278e4b00597a0058272","categoryId":"4bf58dd8d48988d11d941735","category":"Sports Bar","checkinsCount":528,"usersCount":382,"tipCount":4,"visitsCount":528,"tier":"","message":"","currency":"","rating":7.8},{"name":"Minibar","phone":"6174248500","address":"51 Huntington Ave","lat":42.348122585488326,"lng":-71.07866890901106,"neighborhood":"Prudential - St. Botolph","city_fetched":"Quincy,US","state":"MA","country":"United States","canonicalUrl":"https://foursquare.com/v/minibar/4a468775f964a5200aa91fe3","categoryId":"4bf58dd8d48988d1d5941735","category":"Hotel Bar","checkinsCount":4397,"usersCount":2523,"tipCount":35,"visitsCount":4449,"url":"http://www.minibarboston.com","tier":2,"message":"Moderate","currency":"$","rating":7.8},{"name":"J.J. Foley's Bar & Grille","phone":"6176952529","twitter":"jjfoleys","address":"21 Kingston St","lat":42.35369987707582,"lng":-71.05877513705055,"neighborhood":"Downtown Boston","city_fetched":"Quincy,US","state":"MA","country":"United States","canonicalUrl":"https://foursquare.com/v/jj-foleys-bar--grille/40b28c80f964a520cbf71ee3","categoryId":"4bf58dd8d48988d11b941735","category":"Pub","checkinsCount":6460,"usersCount":3041,"tipCount":32,"visitsCount":6769,"url":"http://www.jjfoleysbarandgrill.com","tier":2,"message":"Moderate","currency":"$","rating":7.8},{"name":"Harp & Bard","phone":"6172652893","address":"1090 Dorchester Ave","lat":42.312903,"lng":-71.057188,"neighborhood":"Dorchester","city_fetched":"Quincy,US","state":"MA","country":"United States","canonicalUrl":"https://foursquare.com/v/harp--bard/4abe8701f964a5203b8e20e3","categoryId":"4bf58dd8d48988d11b941735","category":"Pub","checkinsCount":2057,"usersCount":1053,"tipCount":24,"visitsCount":2610,"url":"http://harpbard.com","tier":2,"message":"Moderate","currency":"$","rating":7.7},{"name":"The Muddy Charles","phone":"6172532086","address":"142 Memorial Dr","lat":42.359126,"lng":-71.0879082,"neighborhood":"MIT","city_fetched":"Quincy,US","state":"MA","country":"United States","canonicalUrl":"https://foursquare.com/v/the-muddy-charles/49ca2c25f964a5209e581fe3","categoryId":"4bf58dd8d48988d11b941735","category":"Pub","checkinsCount":3089,"usersCount":995,"tipCount":17,"visitsCount":3337,"url":"http://web.mit.edu/muddy/","tier":1,"message":"Cheap","currency":"$","rating":7.7},{"name":"The Townshend","phone":"6174819694","address":"1250 Hancock St","lat":42.25189695106945,"lng":-71.00348188469697,"neighborhood":"Quincy Center","city_fetched":"Quincy,US","state":"MA","country":"United States","canonicalUrl":"https://foursquare.com/v/the-townshend/55558f09498ee878cc8141a5","categoryId":"4bf58dd8d48988d11e941735","category":"Cocktail Bar","checkinsCount":153,"usersCount":110,"tipCount":3,"visitsCount":168,"tier":"","message":"","currency":"","rating":7.7},{"name":"Daddy's Beach Club","phone":"7819253600","twitter":"daddysbeachclub","address":"280 Nantasket Beach","lat":42.27418608567096,"lng":-70.86078416254348,"city_fetched":"Quincy,US","state":"MA","country":"United States","canonicalUrl":"https://foursquare.com/v/daddys-beach-club/4beb2c246295c9b6b6648708","categoryId":"52e81612bcbc57f1066b7a0d","category":"Beach Bar","checkinsCount":598,"usersCount":382,"tipCount":13,"visitsCount":617,"tier":"","message":"","currency":"","rating":7.7},{"name":"Tony C's Sports Bar & Grill","address":"1265 Boylston St","lat":42.345192,"lng":-71.09633,"neighborhood":"Fenway - Kenmore - Audubon Circle - Longwood","city_fetched":"Quincy,US","state":"MA","country":"United States","canonicalUrl":"https://foursquare.com/v/tony-cs-sports-bar--grill/5729325a498e410e72ee17ec","categoryId":"4bf58dd8d48988d11d941735","category":"Sports Bar","checkinsCount":181,"usersCount":168,"tipCount":2,"visitsCount":186,"tier":"","message":"","currency":"","rating":7.7},{"name":"Cask 'n Flagon","phone":"6175364840","twitter":"thecasknflagon","address":"62 Brookline Ave","lat":42.347269507010026,"lng":-71.09824254919504,"neighborhood":"Fenway - Kenmore - Audubon Circle - Longwood","city_fetched":"Quincy,US","state":"MA","country":"United States","canonicalUrl":"https://foursquare.com/v/cask-n-flagon/40b28c80f964a5207bf81ee3","categoryId":"4bf58dd8d48988d11d941735","category":"Sports Bar","checkinsCount":18464,"usersCount":12933,"tipCount":100,"visitsCount":19059,"url":"http://www.casknflagon.com","tier":2,"message":"Moderate","currency":"$","rating":7.7},{"name":"Southside Tavern","phone":"6173280511","address":"73 Liberty St","lat":42.23921317898964,"lng":-71.00744035300154,"neighborhood":"South Quincy","city_fetched":"Quincy,US","state":"MA","country":"United States","canonicalUrl":"https://foursquare.com/v/southside-tavern/4b467ad6f964a5203f2226e3","categoryId":"4bf58dd8d48988d116941735","category":"Bar","checkinsCount":2040,"usersCount":423,"tipCount":13,"visitsCount":2268,"url":"http://sstavern.com","tier":"","message":"","currency":"","rating":7.7},{"name":"Machine","phone":"6172660151","twitter":"machine_boston","address":"1256 Boylston St.","lat":42.34505791635876,"lng":-71.09588656668758,"neighborhood":"Fenway - Kenmore - Audubon Circle - Longwood","city_fetched":"Quincy,US","state":"MA","country":"United States","canonicalUrl":"https://foursquare.com/v/machine/40b28c80f964a52087f81ee3","categoryId":"4bf58dd8d48988d1d8941735","category":"Gay Bar","checkinsCount":6003,"usersCount":2529,"tipCount":29,"visitsCount":6288,"url":"http://www.machine-boston.com","tier":2,"message":"Moderate","currency":"$","rating":7.7},{"name":"The Last Hurrah","phone":"6172278600","address":"60 School St","lat":42.357985180710706,"lng":-71.06037688847869,"neighborhood":"Downtown Boston","city_fetched":"Quincy,US","state":"MA","country":"United States","canonicalUrl":"https://foursquare.com/v/the-last-hurrah/4acfb351f964a52069d520e3","categoryId":"4bf58dd8d48988d1d5941735","category":"Hotel Bar","checkinsCount":1711,"usersCount":1318,"tipCount":18,"visitsCount":1713,"tier":2,"message":"Moderate","currency":"$","rating":7.7},{"name":"Freeport Tavern","phone":"6172827700","address":"780 William T Morrissey Blvd","lat":42.29553420171739,"lng":-71.04720868123974,"neighborhood":"Neponset - Port Norfolk","city_fetched":"Quincy,US","state":"MA","country":"United States","canonicalUrl":"https://foursquare.com/v/freeport-tavern/4b9afcdaf964a52095e935e3","categoryId":"4bf58dd8d48988d11b941735","category":"Pub","checkinsCount":1175,"usersCount":618,"tipCount":13,"visitsCount":1271,"url":"http://www.freeporttavern.com","tier":"","message":"","currency":"","rating":7.7},{"name":"The Snug","phone":"7817499774","address":"116 North St","lat":42.24264883161783,"lng":-70.88870286941528,"city_fetched":"Quincy,US","state":"MA","country":"United States","canonicalUrl":"https://foursquare.com/v/the-snug/4a4d2975f964a520a4ad1fe3","categoryId":"4bf58dd8d48988d11b941735","category":"Pub","checkinsCount":1354,"usersCount":480,"tipCount":16,"visitsCount":1611,"url":"http://snugpub.com","tier":"","message":"","currency":"","rating":7.6},{"name":"The Galway House","phone":"6175249677","address":"720 Centre St","lat":42.31135904788971,"lng":-71.11428965,"neighborhood":"Jamaica Plain","city_fetched":"Quincy,US","state":"MA","country":"United States","canonicalUrl":"https://foursquare.com/v/the-galway-house/4a099beff964a5203f741fe3","categoryId":"4bf58dd8d48988d11b941735","category":"Pub","checkinsCount":4293,"usersCount":959,"tipCount":36,"visitsCount":4462,"url":"http://galwayhouse.net","tier":1,"message":"Cheap","currency":"$","rating":7.6},{"name":"Jerry Remy's Upper Deck","phone":"6172367369","address":"Boylston Street","lat":42.345298767089844,"lng":-71.09642791748047,"neighborhood":"Fenway - Kenmore - Audubon Circle - Longwood","city_fetched":"Quincy,US","state":"MA","country":"United States","canonicalUrl":"https://foursquare.com/v/jerry-remys-upper-deck/4fb29771e4b0bb3b41b6ca33","categoryId":"4bf58dd8d48988d11d941735","category":"Sports Bar","checkinsCount":462,"usersCount":393,"tipCount":4,"visitsCount":466,"tier":"","message":"","currency":"","rating":7.6},{"name":"The Chantey","phone":"6177704121","address":"333 Victory Rd","lat":42.29934147478402,"lng":-71.02815628051758,"neighborhood":"Marina Bay","city_fetched":"Quincy,US","state":"MA","country":"United States","canonicalUrl":"https://foursquare.com/v/the-chantey/4bedf568e24d20a152507214","categoryId":"4bf58dd8d48988d118941735","category":"Dive Bar","checkinsCount":814,"usersCount":395,"tipCount":13,"visitsCount":852,"url":"http://thechanteyatmarinabay.com","tier":"","message":"","currency":"","rating":7.6},{"name":"Rocco's Cucina & Bar","phone":"6175230613","twitter":"roccos_cucina","address":"450 Commercial St","lat":42.3673691422165,"lng":-71.05340525507927,"neighborhood":"Waterfront","city_fetched":"Quincy,US","state":"MA","country":"United States","canonicalUrl":"https://foursquare.com/v/roccos-cucina--bar/4a9dddc6f964a520b73920e3","categoryId":"4bf58dd8d48988d11d941735","category":"Sports Bar","checkinsCount":2255,"usersCount":1276,"tipCount":22,"visitsCount":2577,"url":"http://roccoscucina.com","tier":2,"message":"Moderate","currency":"$","rating":7.6},{"name":"The Landing at Long Wharf","phone":"6172274321","twitter":"cruisebhc","address":"1 Long Wharf","lat":42.359762340037165,"lng":-71.05043548238429,"neighborhood":"Waterfront","city_fetched":"Quincy,US","state":"MA","country":"United States","canonicalUrl":"https://foursquare.com/v/the-landing-at-long-wharf/4bcf2d240adfb713b830af55","categoryId":"4bf58dd8d48988d116941735","category":"Bar","checkinsCount":6024,"usersCount":4146,"tipCount":21,"visitsCount":6293,"url":"http://www.bostonharborcruises.com/the-landing-at-long-wharf/","tier":2,"message":"Moderate","currency":"$","rating":7.6},{"name":"Napper Tandy's","phone":"6173238400","address":"4187-4195 Washington St","lat":42.28725809571625,"lng":-71.12747647569608,"neighborhood":"Roslindale","city_fetched":"Quincy,US","state":"MA","country":"United States","canonicalUrl":"https://foursquare.com/v/napper-tandys/4feb8aa0e4b01d42444b6344","categoryId":"4bf58dd8d48988d11b941735","category":"Pub","checkinsCount":776,"usersCount":333,"tipCount":9,"visitsCount":897,"tier":"","message":"","currency":"","rating":7.6},{"name":"Dockside Restaurant in Malden","phone":"7813213000","twitter":"dineatdockside","address":"229 Centre St","lat":42.425187839729396,"lng":-71.06576824489544,"neighborhood":"Malden Center","city_fetched":"Quincy,US","state":"MA","country":"United States","canonicalUrl":"https://foursquare.com/v/dockside-restaurant-in-malden/4a4d5f3df964a520efad1fe3","categoryId":"4bf58dd8d48988d11d941735","category":"Sports Bar","checkinsCount":3615,"usersCount":1025,"tipCount":29,"visitsCount":4053,"url":"http://www.docksiderestaurants.com","tier":1,"message":"Cheap","currency":"$","rating":7.6},{"name":"Blarney Stone Bar","phone":"6174368223","address":"1509 Dorchester Ave","lat":42.29924,"lng":-71.06064856052399,"neighborhood":"Dorchester","city_fetched":"Quincy,US","state":"MA","country":"United States","canonicalUrl":"https://foursquare.com/v/blarney-stone-bar/49e6b3d8f964a52067641fe3","categoryId":"4bf58dd8d48988d11b941735","category":"Pub","checkinsCount":2447,"usersCount":1210,"tipCount":18,"visitsCount":2993,"url":"http://blarneystoneboston.com","tier":2,"message":"Moderate","currency":"$","rating":7.6},{"name":"Hajjar's Bar and Grille","phone":"7813401870","twitter":"hajjarsweymouth","address":"969 Washington St","lat":42.19913581426163,"lng":-70.93734327308309,"neighborhood":"East Weymouth","city_fetched":"Quincy,US","state":"MA","country":"United States","canonicalUrl":"https://foursquare.com/v/hajjars-bar-and-grille/4ba3e1a6f964a520b66938e3","categoryId":"4bf58dd8d48988d11b941735","category":"Pub","checkinsCount":763,"usersCount":247,"tipCount":6,"visitsCount":924,"url":"http://hajjars.net","tier":"","message":"","currency":"","rating":7.6},{"name":"Mr. Dooley's","phone":"7813833366","address":"9 Depot Ct","lat":42.24114999298652,"lng":-70.80303239070031,"city_fetched":"Quincy,US","state":"MA","country":"United States","canonicalUrl":"https://foursquare.com/v/mr-dooleys/4e794324483b48648b9725ef","categoryId":"4bf58dd8d48988d11b941735","category":"Pub","checkinsCount":635,"usersCount":389,"tipCount":5,"visitsCount":818,"tier":"","message":"","currency":"","rating":7.6},{"name":"Avery Bar","phone":"6175747100","address":"10 Avery St","lat":42.3532695342359,"lng":-71.06321475878245,"neighborhood":"Chinatown - Leather District","city_fetched":"Quincy,US","state":"MA","country":"United States","canonicalUrl":"https://foursquare.com/v/avery-bar/4e20e685d164740632014bba","categoryId":"4bf58dd8d48988d1d5941735","category":"Hotel Bar","checkinsCount":628,"usersCount":455,"tipCount":10,"visitsCount":628,"tier":"","message":"","currency":"","rating":7.6},{"name":"Grendel's Den Restaurant & Bar","phone":"6174911160","twitter":"grendels_den","address":"89 Winthrop St","lat":42.37237675230346,"lng":-71.12077832221985,"neighborhood":"Harvard Square","city_fetched":"Quincy,US","state":"MA","country":"United States","canonicalUrl":"https://foursquare.com/v/grendels-den-restaurant--bar/3fd66200f964a520bced1ee3","categoryId":"4bf58dd8d48988d116941735","category":"Bar","checkinsCount":11497,"usersCount":6152,"tipCount":106,"visitsCount":11634,"url":"http://www.grendelsden.com","tier":2,"message":"Moderate","currency":"$","rating":7.5},{"name":"Hancock Tavern","phone":"6174725554","address":"668 Hancock St","lat":42.267713442291516,"lng":-71.01611750935137,"neighborhood":"Wollaston","city_fetched":"Quincy,US","state":"MA","country":"United States","canonicalUrl":"https://foursquare.com/v/hancock-tavern/4b46a895f964a5206a2626e3","categoryId":"4bf58dd8d48988d11b941735","category":"Pub","checkinsCount":2182,"usersCount":594,"tipCount":16,"visitsCount":2250,"url":"http://www.hancocktavern.com","tier":2,"message":"Moderate","currency":"$","rating":7.5},{"name":"Cheers","phone":"6172270150","twitter":"cheersboston","address":"2 Faneuil Hall Market Pl","lat":42.35993810437687,"lng":-71.05538068916881,"neighborhood":"Downtown Boston","city_fetched":"Quincy,US","state":"MA","country":"United States","canonicalUrl":"https://foursquare.com/v/cheers/4a74a202f964a520f9de1fe3","categoryId":"4bf58dd8d48988d116941735","category":"Bar","checkinsCount":13860,"usersCount":12508,"tipCount":100,"visitsCount":13895,"url":"http://www.cheersboston.com","tier":2,"message":"Moderate","currency":"$","rating":7.5},{"name":"@ZuZuBar & Restaurant","phone":"6178643278","twitter":"zuzubar","address":"474 Massachusetts Ave","lat":42.363910023691446,"lng":-71.10133548073523,"city_fetched":"Quincy,US","state":"MA","country":"United States","canonicalUrl":"https://foursquare.com/v/zuzubar--restaurant/4197f180f964a520121e1fe3","categoryId":"4bf58dd8d48988d116941735","category":"Bar","checkinsCount":5948,"usersCount":2889,"tipCount":39,"visitsCount":5982,"url":"http://www.zuzubar.com","tier":2,"message":"Moderate","currency":"$","rating":7.5},{"name":"Conor Larkin's","phone":"6178670084","twitter":"conorlarkinsbos","address":"329 Huntington Ave","lat":42.34079488007968,"lng":-71.08819761205596,"neighborhood":"Fenway - Kenmore - Audubon Circle - Longwood","city_fetched":"Quincy,US","state":"MA","country":"United States","canonicalUrl":"https://foursquare.com/v/conor-larkins/4ab95852f964a520047f20e3","categoryId":"4bf58dd8d48988d11d941735","category":"Sports Bar","checkinsCount":6194,"usersCount":2013,"tipCount":32,"visitsCount":6605,"url":"http://conorlarkinsboston.com","tier":1,"message":"Cheap","currency":"$","rating":7.5},{"name":"Slap Shotz Family Sports Pub","phone":"5085849200","twitter":"slapshotzpub","address":"39 E Main St","lat":42.13007820728414,"lng":-71.03964068875752,"city_fetched":"Quincy,US","state":"MA","country":"United States","canonicalUrl":"https://foursquare.com/slapshotzpub","categoryId":"4bf58dd8d48988d11b941735","category":"Pub","checkinsCount":1458,"usersCount":246,"tipCount":11,"visitsCount":1680,"url":"http://slapshotzpub.com","tier":"","message":"","currency":"","rating":7.5},{"name":"Cornwall's","phone":"6172623749","twitter":"cornwallspub","address":"654 Beacon St","lat":42.349160997045026,"lng":-71.09600262526081,"neighborhood":"Kenmore","city_fetched":"Quincy,US","state":"MA","country":"United States","canonicalUrl":"https://foursquare.com/v/cornwalls/40b28c80f964a5207ef81ee3","categoryId":"4bf58dd8d48988d11b941735","category":"Pub","checkinsCount":8185,"usersCount":3484,"tipCount":54,"visitsCount":8419,"url":"http://cornwalls.com","tier":2,"message":"Moderate","currency":"$","rating":7.5},{"name":"Tavern in the Square","phone":"6177828100","twitter":"taverninthesq","address":"161 Brighton Ave","lat":42.35319972365014,"lng":-71.1325565725565,"neighborhood":"Allston Village","city_fetched":"Quincy,US","state":"MA","country":"United States","canonicalUrl":"https://foursquare.com/v/tavern-in-the-square/4cd450c0122ba1430ea424a1","categoryId":"4bf58dd8d48988d11d941735","category":"Sports Bar","checkinsCount":22356,"usersCount":9094,"tipCount":117,"visitsCount":23564,"url":"http://taverninthesquare.com","tier":2,"message":"Moderate","currency":"$","rating":7.4},{"name":"Flann O'Brien's","phone":"6175667744","address":"1619 Tremont St","lat":42.3337589635165,"lng":-71.10320399449313,"neighborhood":"Mission Hill","city_fetched":"Quincy,US","state":"MA","country":"United States","canonicalUrl":"https://foursquare.com/v/flann-obriens/4acf61d2f964a52051d320e3","categoryId":"4bf58dd8d48988d11b941735","category":"Pub","checkinsCount":4153,"usersCount":1751,"tipCount":29,"visitsCount":4721,"url":"http://www.flanns.com","tier":2,"message":"Moderate","currency":"$","rating":7.4},{"name":"Alibi Bar and Lounge","phone":"8572411144","address":"215 Charles St","lat":42.36168922175683,"lng":-71.07028323357522,"neighborhood":"West End","city_fetched":"Quincy,US","state":"MA","country":"United States","canonicalUrl":"https://foursquare.com/v/alibi-bar-and-lounge/5425e8a4498e786c47f77d26","categoryId":"4bf58dd8d48988d1d5941735","category":"Hotel Bar","checkinsCount":754,"usersCount":588,"tipCount":9,"visitsCount":766,"url":"http://alibiboston.com","tier":"","message":"","currency":"","rating":7.4},{"name":"Trophy Room","phone":"6174823450","twitter":"trophyboston","address":"26 Chandler St","lat":42.3470675123181,"lng":-71.07092739884214,"neighborhood":"South End","city_fetched":"Quincy,US","state":"MA","country":"United States","canonicalUrl":"https://foursquare.com/v/trophy-room/535565e9498e7c38a9e51ec0","categoryId":"4bf58dd8d48988d11e941735","category":"Cocktail Bar","checkinsCount":1643,"usersCount":1281,"tipCount":12,"visitsCount":2577,"url":"http://www.trophyroomboston.com","tier":2,"message":"Moderate","currency":"$","rating":7.4},{"name":"The North Star","phone":"6177233222","twitter":"northstarboston","address":"222 Friend St","lat":42.36413754741995,"lng":-71.06088178708745,"neighborhood":"Downtown Boston","city_fetched":"Quincy,US","state":"MA","country":"United States","canonicalUrl":"https://foursquare.com/v/the-north-star/4cadf4a009339c74a511ddcb","categoryId":"4bf58dd8d48988d11d941735","category":"Sports Bar","checkinsCount":5121,"usersCount":3028,"tipCount":31,"visitsCount":5524,"url":"http://www.northstarboston.com","tier":"","message":"","currency":"","rating":7.4},{"name":"Beacon Hill Bistro","phone":"6177231133","twitter":"beaconhillhotel","address":"25 Charles St","lat":42.356822,"lng":-71.069817,"neighborhood":"Beacon Hill","city_fetched":"Quincy,US","state":"MA","country":"United States","canonicalUrl":"https://foursquare.com/v/beacon-hill-bistro/4a4b7a9df964a52068ac1fe3","categoryId":"4bf58dd8d48988d1d5941735","category":"Hotel Bar","checkinsCount":2497,"usersCount":1627,"tipCount":38,"visitsCount":2529,"url":"http://www.beaconhillhotel.com","tier":"","message":"","currency":"","rating":7.4},{"name":"Slades Bar & Grill","phone":"6174424600","address":"958 Tremont St","lat":42.33722038374523,"lng":-71.08372924687005,"neighborhood":"Roxbury","city_fetched":"Quincy,US","state":"MA","country":"United States","canonicalUrl":"https://foursquare.com/v/slades-bar--grill/4c50ca335ee81b8df11a2cff","categoryId":"4bf58dd8d48988d11d941735","category":"Sports Bar","checkinsCount":1019,"usersCount":595,"tipCount":18,"visitsCount":1626,"url":"http://sladesbarandgrill.com","tier":"","message":"","currency":"","rating":7.4},{"name":"Coop's","phone":"6174722667","address":"520 Washington St","lat":42.24750530144931,"lng":-70.98020046012353,"neighborhood":"Quincy Point","city_fetched":"Quincy,US","state":"MA","country":"United States","canonicalUrl":"https://foursquare.com/v/coops/4a59206cf964a520bcb81fe3","categoryId":"4bf58dd8d48988d116941735","category":"Bar","checkinsCount":3186,"usersCount":830,"tipCount":31,"visitsCount":3615,"url":"http://www.coopsbarandgrille.com","tier":"","message":"","currency":"","rating":7.3},{"name":"Charlie's Beer Garden","address":"Harvard Square","lat":42.37249199324073,"lng":-71.12134901686096,"neighborhood":"Harvard Square","city_fetched":"Quincy,US","state":"MA","country":"United States","canonicalUrl":"https://foursquare.com/v/charlies-beer-garden/53bf759d498e79280129c54b","categoryId":"4bf58dd8d48988d117941735","category":"Beer Garden","checkinsCount":358,"usersCount":288,"tipCount":1,"visitsCount":361,"url":"http://charlieskitchen.com","tier":"","message":"","currency":"","rating":7.3},{"name":"Players Sports Bar & Restaurant","phone":"7816819999","address":"86 Vfw Dr","lat":42.1471412246529,"lng":-70.91861548963477,"city_fetched":"Quincy,US","state":"MA","country":"United States","canonicalUrl":"https://foursquare.com/v/players-sports-bar--restaurant/4bba7380cf2fc9b67296a102","categoryId":"4bf58dd8d48988d116941735","category":"Bar","checkinsCount":1055,"usersCount":477,"tipCount":8,"visitsCount":1335,"tier":"","message":"","currency":"","rating":7.3},{"name":"Barracuda Tavern","phone":"6174820301","twitter":"barracudatavern","address":"15 Bosworth St","lat":42.35711865185129,"lng":-71.06059741898206,"neighborhood":"Downtown Boston","city_fetched":"Quincy,US","state":"MA","country":"United States","canonicalUrl":"https://foursquare.com/v/barracuda-tavern/4c508b41bd099521c3d9515e","categoryId":"4bf58dd8d48988d117941735","category":"Beer Garden","checkinsCount":2898,"usersCount":1769,"tipCount":35,"visitsCount":2931,"url":"http://barracudatavern.com","tier":1,"message":"Cheap","currency":"$","rating":7.3},{"name":"Tavern in the Square","phone":"8572334717","twitter":"taverninthesq","address":"640 Atlantic Ave","lat":42.3515835941543,"lng":-71.05500867516129,"neighborhood":"Downtown Boston","city_fetched":"Quincy,US","state":"MA","country":"United States","canonicalUrl":"https://foursquare.com/v/tavern-in-the-square/52f0296e498e623635830951","categoryId":"4bf58dd8d48988d11d941735","category":"Sports Bar","checkinsCount":1035,"usersCount":686,"tipCount":9,"visitsCount":1073,"url":"http://taverninthesquare.com","tier":2,"message":"Moderate","currency":"$","rating":7.3},{"name":"Stanza dei Sigari","phone":"6172270295","twitter":"stanzadeisigari","address":"292 Hanover St","lat":42.364042,"lng":-71.054223,"neighborhood":"North End","city_fetched":"Quincy,US","state":"MA","country":"United States","canonicalUrl":"https://foursquare.com/v/stanza-dei-sigari/45bc5b62f964a520fa411fe3","categoryId":"4bf58dd8d48988d119941735","category":"Hookah Bar","checkinsCount":3469,"usersCount":2295,"tipCount":40,"visitsCount":3484,"url":"http://www.stanzadeisigari.com","tier":2,"message":"Moderate","currency":"$","rating":7.3},{"name":"John Harvard's Brewery & Ale House","phone":"6178683585","twitter":"brewersjhbh1","address":"33 Dunster St","lat":42.372439371668804,"lng":-71.1193413252859,"neighborhood":"Harvard Square","city_fetched":"Quincy,US","state":"MA","country":"United States","canonicalUrl":"https://foursquare.com/v/john-harvards-brewery--ale-house/40b28c80f964a52038f81ee3","categoryId":"50327c8591d4c4b30a586d5d","category":"Brewery","checkinsCount":10053,"usersCount":6823,"tipCount":63,"visitsCount":10144,"url":"http://www.johnharvards.com","tier":2,"message":"Moderate","currency":"$","rating":7.3},{"name":"Nile Lounge","phone":"6172023011","twitter":"nilelounge","address":"70 Brighton Ave","lat":42.352475518054234,"lng":-71.12865437605471,"neighborhood":"Brighton","city_fetched":"Quincy,US","state":"MA","country":"United States","canonicalUrl":"https://foursquare.com/v/nile-lounge/4bc0d2a54cdfc9b65e8d9321","categoryId":"4bf58dd8d48988d119941735","category":"Hookah Bar","checkinsCount":2562,"usersCount":1084,"tipCount":23,"visitsCount":2641,"url":"http://nilelounge.com","tier":2,"message":"Moderate","currency":"$","rating":7.3},{"name":"Liberty Bar","phone":"6172244000","address":"215 Charles St","lat":42.361907950849705,"lng":-71.07017877424695,"neighborhood":"West End","city_fetched":"Quincy,US","state":"MA","country":"United States","canonicalUrl":"https://foursquare.com/v/liberty-bar/4ca01fc17c096dcbcab3e4d1","categoryId":"4bf58dd8d48988d1d5941735","category":"Hotel Bar","checkinsCount":1221,"usersCount":855,"tipCount":16,"visitsCount":1223,"url":"http://libertyhotel.com","tier":"","message":"","currency":"","rating":7.3},{"name":"Sister Sorel","phone":"6172664600","address":"645 Tremont St","lat":42.342135,"lng":-71.075285,"neighborhood":"South End","city_fetched":"Quincy,US","state":"MA","country":"United States","canonicalUrl":"https://foursquare.com/v/sister-sorel/4acbf219f964a5206ac820e3","categoryId":"4bf58dd8d48988d121941735","category":"Lounge","checkinsCount":3058,"usersCount":910,"tipCount":11,"visitsCount":3070,"tier":2,"message":"Moderate","currency":"$","rating":7.3},{"name":"Rags Tavern","address":"375 Washington St","lat":42.249008836744075,"lng":-70.98688144944514,"neighborhood":"Quincy Point","city_fetched":"Quincy,US","state":"MA","country":"United States","canonicalUrl":"https://foursquare.com/v/rags-tavern/4bf846c25efe2d7f1f7c6a34","categoryId":"4bf58dd8d48988d11b941735","category":"Pub","checkinsCount":792,"usersCount":172,"tipCount":5,"visitsCount":1023,"tier":"","message":"","currency":"","rating":7.2},{"name":"The Lansdowne Pub","phone":"6172471222","twitter":"thelansdowne","address":"9 Lansdowne St.","lat":42.34721451873426,"lng":-71.0951321851495,"neighborhood":"Fenway - Kenmore - Audubon Circle - Longwood","city_fetched":"Quincy,US","state":"MA","country":"United States","canonicalUrl":"https://foursquare.com/v/the-lansdowne-pub/49f5e41cf964a520cc6b1fe3","categoryId":"4bf58dd8d48988d11b941735","category":"Pub","checkinsCount":16512,"usersCount":9892,"tipCount":64,"visitsCount":17063,"url":"http://www.lansdownepubboston.com","tier":2,"message":"Moderate","currency":"$","rating":7.2},{"name":"Tony C's Sports Bar & Grill","address":"699 Assembly Row","lat":42.39568747786618,"lng":-71.07935948635192,"neighborhood":"Mystic River","city_fetched":"Quincy,US","state":"MA","country":"United States","canonicalUrl":"https://foursquare.com/v/tony-cs-sports-bar--grill/54a06daf498efa1bc767705a","categoryId":"4bf58dd8d48988d11d941735","category":"Sports Bar","checkinsCount":1454,"usersCount":972,"tipCount":12,"visitsCount":1678,"url":"http://tonycssportsbar.com","tier":"","message":"","currency":"","rating":7.2},{"name":"The Field","phone":"6173547345","twitter":"thefieldpub","address":"20 Prospect St","lat":42.365861034213765,"lng":-71.10354244709015,"city_fetched":"Quincy,US","state":"MA","country":"United States","canonicalUrl":"https://foursquare.com/v/the-field/3fd66200f964a5204ff11ee3","categoryId":"4bf58dd8d48988d11b941735","category":"Pub","checkinsCount":14208,"usersCount":4989,"tipCount":66,"visitsCount":14866,"url":"http://thefield.com","tier":2,"message":"Moderate","currency":"$","rating":7.2},{"name":"Shays Pub & Wine Bar","phone":"6178649161","twitter":"shayspubwinebar","address":"58 JFK St","lat":42.37179226212243,"lng":-71.12077456278482,"neighborhood":"Harvard Square","city_fetched":"Quincy,US","state":"MA","country":"United States","canonicalUrl":"https://foursquare.com/v/shays-pub--wine-bar/40b28c80f964a5203df81ee3","categoryId":"4bf58dd8d48988d123941735","category":"Wine Bar","checkinsCount":5272,"usersCount":2259,"tipCount":33,"visitsCount":5311,"url":"http://www.shayspubwinebar.com","tier":2,"message":"Moderate","currency":"$","rating":7.2},{"name":"Hingham Beer Works","phone":"7817492337","twitter":"beer_works","address":"18 Shipyard Dr","lat":42.25205585342759,"lng":-70.92258635847325,"city_fetched":"Quincy,US","state":"MA","country":"United States","canonicalUrl":"https://foursquare.com/v/hingham-beer-works/4ca7942776d3a09342230d6b","categoryId":"50327c8591d4c4b30a586d5d","category":"Brewery","checkinsCount":5816,"usersCount":2386,"tipCount":58,"visitsCount":6022,"url":"http://www.beerworks.net","tier":2,"message":"Moderate","currency":"$","rating":7.2},{"name":"Sheesha Lounge","phone":"6177827433","twitter":"sheeshalounge","address":"417 Cambridge St","lat":42.3551030718675,"lng":-71.1340069770813,"neighborhood":"Allston","city_fetched":"Quincy,US","state":"MA","country":"United States","canonicalUrl":"https://foursquare.com/v/sheesha-lounge/4bad96e3f964a520785d3be3","categoryId":"4bf58dd8d48988d119941735","category":"Hookah Bar","checkinsCount":1063,"usersCount":702,"tipCount":16,"visitsCount":1082,"url":"http://www.sheeshaboston.com","tier":"","message":"","currency":"","rating":7.2},{"name":"The Corrib Pub and Restaurant","phone":"6174694177","address":"2030 Centre St","lat":42.28075067593816,"lng":-71.15797890948289,"neighborhood":"West Roxbury","city_fetched":"Quincy,US","state":"MA","country":"United States","canonicalUrl":"https://foursquare.com/v/the-corrib-pub-and-restaurant/4a43fb28f964a520ffa61fe3","categoryId":"4bf58dd8d48988d11b941735","category":"Pub","checkinsCount":2037,"usersCount":597,"tipCount":11,"visitsCount":2195,"url":"http://corribpub.com","tier":"","message":"","currency":"","rating":7.2},{"name":"The Harp","phone":"6177421010","twitter":"theharpboston","address":"85 Causeway St","lat":42.364779576780585,"lng":-71.06257058135947,"neighborhood":"Downtown Boston","city_fetched":"Quincy,US","state":"MA","country":"United States","canonicalUrl":"https://foursquare.com/v/the-harp/4b3d2bc0f964a5207f8f25e3","categoryId":"4bf58dd8d48988d116941735","category":"Bar","checkinsCount":10888,"usersCount":7431,"tipCount":44,"visitsCount":12047,"url":"http://briargroup.com","tier":2,"message":"Moderate","currency":"$","rating":7.1},{"name":"L Street Tavern","phone":"6172684335","address":"658 E 8th St","lat":42.33157897505313,"lng":-71.03543043136597,"neighborhood":"South Boston","city_fetched":"Quincy,US","state":"MA","country":"United States","canonicalUrl":"https://foursquare.com/v/l-street-tavern/4abe6927f964a5205f8d20e3","categoryId":"4bf58dd8d48988d11b941735","category":"Pub","checkinsCount":1290,"usersCount":1082,"tipCount":10,"visitsCount":1602,"tier":"","message":"","currency":"","rating":7.1},{"name":"Casey's Bar","phone":"6176255195","address":"173 Broadway","lat":42.38891780376434,"lng":-71.086327,"neighborhood":"East Somerville","city_fetched":"Quincy,US","state":"MA","country":"United States","canonicalUrl":"https://foursquare.com/v/caseys-bar/4ba58508f964a520c70e39e3","categoryId":"4bf58dd8d48988d11b941735","category":"Pub","checkinsCount":737,"usersCount":350,"tipCount":8,"visitsCount":820,"url":"http://www.caseyssomerville.com","tier":"","message":"","currency":"","rating":7.1},{"name":"Beantown Pub","phone":"6174260111","twitter":"beantownpub","address":"100 Tremont St","lat":42.35729326325898,"lng":-71.06105625629425,"neighborhood":"Downtown Boston","city_fetched":"Quincy,US","state":"MA","country":"United States","canonicalUrl":"https://foursquare.com/v/beantown-pub/43091580f964a52030271fe3","categoryId":"4bf58dd8d48988d11b941735","category":"Pub","checkinsCount":13933,"usersCount":9453,"tipCount":111,"visitsCount":14136,"url":"http://www.beantownpub.com","tier":2,"message":"Moderate","currency":"$","rating":7.1},{"name":"The Asgard","phone":"6175779100","twitter":"asgardcambridge","address":"350 Massachusetts Ave.","lat":42.362753543784045,"lng":-71.09966397285461,"city_fetched":"Quincy,US","state":"MA","country":"United States","canonicalUrl":"https://foursquare.com/v/the-asgard/43349700f964a52015281fe3","categoryId":"4bf58dd8d48988d11b941735","category":"Pub","checkinsCount":12881,"usersCount":7004,"tipCount":99,"visitsCount":13912,"url":"http://www.classicirish.com","tier":2,"message":"Moderate","currency":"$","rating":7.1},{"name":"Rooftop Lounge","phone":"6174821800","address":"200 Stuart St","lat":42.35033957414629,"lng":-71.06786325227468,"neighborhood":"Bay Village","city_fetched":"Quincy,US","state":"MA","country":"United States","canonicalUrl":"https://foursquare.com/v/rooftop-lounge/51a93463498e2fcb217e6f44","categoryId":"4bf58dd8d48988d1d5941735","category":"Hotel Bar","checkinsCount":695,"usersCount":600,"tipCount":12,"visitsCount":696,"url":"http://www.reverehotel.com/#rooftop","tier":"","message":"","currency":"","rating":7.1},{"name":"Omni Parker House Parker's Pub","address":"20-24 School St","lat":42.357914034337064,"lng":-71.05971529625639,"neighborhood":"Downtown Boston","city_fetched":"Quincy,US","state":"MA","country":"United States","canonicalUrl":"https://foursquare.com/v/omni-parker-house-parkers-pub/4d78353ce215721eaaa80eb0","categoryId":"4bf58dd8d48988d1d5941735","category":"Hotel Bar","checkinsCount":359,"usersCount":323,"tipCount":6,"visitsCount":359,"url":"http://www.omnihotels.com/hotels/boston-parker-house/dining/parkers-bar","tier":"","message":"","currency":"","rating":7.1},{"name":"Kinsale","phone":"6177425577","twitter":"kinsale_boston","address":"2 Center Plz","lat":42.360372812308384,"lng":-71.06019117848903,"neighborhood":"Downtown Boston","city_fetched":"Quincy,US","state":"MA","country":"United States","canonicalUrl":"https://foursquare.com/v/kinsale/3fd66200f964a52033ec1ee3","categoryId":"4bf58dd8d48988d11b941735","category":"Pub","checkinsCount":9575,"usersCount":5274,"tipCount":71,"visitsCount":10420,"url":"http://classicirish.com","tier":2,"message":"Moderate","currency":"$","rating":7.1},{"name":"Club Cafe","phone":"6175360966","twitter":"clubcafeboston","address":"209 Columbus Ave","lat":42.348474552532686,"lng":-71.07231080532074,"neighborhood":"Prudential - St. Botolph","city_fetched":"Quincy,US","state":"MA","country":"United States","canonicalUrl":"https://foursquare.com/v/club-cafe/40b28c80f964a52007f81ee3","categoryId":"4bf58dd8d48988d1d8941735","category":"Gay Bar","checkinsCount":15516,"usersCount":5582,"tipCount":61,"visitsCount":17009,"url":"http://www.clubcafe.com","tier":2,"message":"Moderate","currency":"$","rating":7.1},{"name":"Grumpy White's","phone":"6177702835","address":"211 Sea St","lat":42.261472,"lng":-70.99210327,"neighborhood":"Merrymount","city_fetched":"Quincy,US","state":"MA","country":"United States","canonicalUrl":"https://foursquare.com/v/grumpy-whites/4b2ff0a3f964a520fbf224e3","categoryId":"4bf58dd8d48988d11b941735","category":"Pub","checkinsCount":1917,"usersCount":892,"tipCount":22,"visitsCount":2242,"url":"http://www.grumpywhites.com","tier":2,"message":"Moderate","currency":"$","rating":7},{"name":"Kilroy's Irish Pub","phone":"6177742078","address":"1000 Marriot Dr","lat":42.22957395031934,"lng":-71.01867198944092,"neighborhood":"South Quincy","city_fetched":"Quincy,US","state":"MA","country":"United States","canonicalUrl":"https://foursquare.com/v/kilroys-irish-pub/4b50c946f964a5207a3227e3","categoryId":"4bf58dd8d48988d1d5941735","category":"Hotel Bar","checkinsCount":888,"usersCount":486,"tipCount":5,"visitsCount":972,"tier":"","message":"","currency":"","rating":7},{"name":"The Boathouse","phone":"6173491650","address":"49 Mount Auburn St","lat":42.37140413215364,"lng":-71.11674755856328,"neighborhood":"Harvard Square","city_fetched":"Quincy,US","state":"MA","country":"United States","canonicalUrl":"https://foursquare.com/v/the-boathouse/50620ab3e4b0100721c85f46","categoryId":"4bf58dd8d48988d11b941735","category":"Pub","checkinsCount":1464,"usersCount":1030,"tipCount":18,"visitsCount":1499,"url":"http://theboathouseharvardsquare.com","tier":"","message":"","currency":"","rating":7},{"name":"American Fresh Brewhouse Beer Garden","phone":"8004281150","twitter":"slumbrew","address":"301 Canal St","lat":42.393874225597536,"lng":-71.08039825174045,"neighborhood":"Mystic River","city_fetched":"Quincy,US","state":"MA","country":"United States","canonicalUrl":"https://foursquare.com/v/american-fresh-brewhouse-beer-garden/5470c2b4498e4b05247d9507","categoryId":"4bf58dd8d48988d116941735","category":"Bar","checkinsCount":1561,"usersCount":978,"tipCount":10,"visitsCount":1889,"url":"http://www.slumbrew.com/Assembly_Row","tier":"","message":"","currency":"","rating":7},{"name":"Oyster Bar At Marina Bay","lat":42.30015250550737,"lng":-71.0280214611693,"neighborhood":"Marina Bay","city_fetched":"Quincy,US","state":"MA","country":"United States","canonicalUrl":"https://foursquare.com/v/oyster-bar-at-marina-bay/4de19cead164df8574e837e6","categoryId":"4bf58dd8d48988d116941735","category":"Bar","checkinsCount":273,"usersCount":156,"tipCount":4,"visitsCount":273,"tier":"","message":"","currency":"","rating":7},{"name":"Ironside Grille","phone":"6172421384","address":"25 Park St","lat":42.372742599850945,"lng":-71.0611313344459,"neighborhood":"Thompson Square - Bunker Hill","city_fetched":"Quincy,US","state":"MA","country":"United States","canonicalUrl":"https://foursquare.com/v/ironside-grille/40b28c80f964a52021f81ee3","categoryId":"4bf58dd8d48988d116941735","category":"Bar","checkinsCount":3431,"usersCount":1619,"tipCount":26,"visitsCount":3836,"url":"http://www.ironside-grill.com","tier":2,"message":"Moderate","currency":"$","rating":7},{"name":"Coolidge Corner Clubhouse","phone":"6175664948","twitter":"bostonsportsbar","address":"307 Harvard St","lat":42.343128,"lng":-71.122908,"neighborhood":"Coolidge Corner","city_fetched":"Quincy,US","state":"MA","country":"United States","canonicalUrl":"https://foursquare.com/v/coolidge-corner-clubhouse/3fd66200f964a52025ec1ee3","categoryId":"4bf58dd8d48988d11d941735","category":"Sports Bar","checkinsCount":6499,"usersCount":3016,"tipCount":53,"visitsCount":6608,"url":"http://www.thecoolidgecornerclubhouse.com","tier":2,"message":"Moderate","currency":"$","rating":7},{"name":"Jake n JOES Sports Grille","phone":"7813494880","twitter":"jakenjoes","address":"475 Providence Hwy.","lat":42.19501495172175,"lng":-71.18466854095459,"city_fetched":"Quincy,US","state":"MA","country":"United States","canonicalUrl":"https://foursquare.com/v/jake-n-joes-sports-grille/4c18c3a5838020a12895e461","categoryId":"4bf58dd8d48988d11d941735","category":"Sports Bar","checkinsCount":4978,"usersCount":2534,"tipCount":37,"visitsCount":5944,"url":"http://jakenjoes.com","tier":2,"message":"Moderate","currency":"$","rating":7},{"name":"Game On!","phone":"6173517001","twitter":"gameonfenway","address":"82 Lansdowne St","lat":42.34700510774972,"lng":-71.09840503024087,"neighborhood":"Fenway - Kenmore - Audubon Circle - Longwood","city_fetched":"Quincy,US","state":"MA","country":"United States","canonicalUrl":"https://foursquare.com/v/game-on/434ef500f964a520a9281fe3","categoryId":"4bf58dd8d48988d11d941735","category":"Sports Bar","checkinsCount":14622,"usersCount":10061,"tipCount":75,"visitsCount":14708,"url":"http://gameonboston.com","tier":2,"message":"Moderate","currency":"$","rating":6.9},{"name":"The Irish Pub","phone":"6177740222","address":"51 Billings Rd","lat":42.27378125710396,"lng":-71.0248293086217,"neighborhood":"North Quincy","city_fetched":"Quincy,US","state":"MA","country":"United States","canonicalUrl":"https://foursquare.com/v/the-irish-pub/4ba157caf964a52087ae37e3","categoryId":"4bf58dd8d48988d116941735","category":"Bar","checkinsCount":2242,"usersCount":325,"tipCount":12,"visitsCount":2486,"tier":"","message":"","currency":"","rating":6.9},{"name":"21st Amendment","phone":"6172277100","twitter":"21amendment","address":"150 Bowdoin St","lat":42.35824435507273,"lng":-71.0627388800633,"neighborhood":"Beacon Hill","city_fetched":"Quincy,US","state":"MA","country":"United States","canonicalUrl":"https://foursquare.com/v/21st-amendment/3fd66200f964a520edeb1ee3","categoryId":"4bf58dd8d48988d11b941735","category":"Pub","checkinsCount":5697,"usersCount":3884,"tipCount":36,"visitsCount":5872,"url":"http://21stboston.com","tier":2,"message":"Moderate","currency":"$","rating":6.9},{"name":"Julep Bar","phone":"6172614200","twitter":"julepbar","address":"200 High St","lat":42.35649264584691,"lng":-71.05212431965434,"neighborhood":"Financial District","city_fetched":"Quincy,US","state":"MA","country":"United States","canonicalUrl":"https://foursquare.com/v/julep-bar/4ec586cc5c5c09569bca6a9d","categoryId":"4bf58dd8d48988d121941735","category":"Lounge","checkinsCount":2570,"usersCount":1711,"tipCount":19,"visitsCount":2595,"url":"http://www.julepbar.com","tier":"","message":"","currency":"","rating":6.9},{"name":"Jacques Cabaret","phone":"6174268902","address":"79 Broadway","lat":42.34998712519123,"lng":-71.0674221989821,"neighborhood":"Bay Village","city_fetched":"Quincy,US","state":"MA","country":"United States","canonicalUrl":"https://foursquare.com/v/jacques-cabaret/4bde4f0cffdec9281174e8a1","categoryId":"4bf58dd8d48988d1d8941735","category":"Gay Bar","checkinsCount":2202,"usersCount":1677,"tipCount":21,"visitsCount":2301,"url":"http://www.jacquescabaret.com","tier":"","message":"","currency":"","rating":6.9},{"name":"Stats","phone":"6172689300","twitter":"sbgsouthie77","address":"77 Dorchester St","lat":42.335824125512715,"lng":-71.04532249979286,"neighborhood":"D Street - West Broadway","city_fetched":"Quincy,US","state":"MA","country":"United States","canonicalUrl":"https://foursquare.com/v/stats/4c3fa3ece26920a155c85be7","categoryId":"4bf58dd8d48988d11d941735","category":"Sports Bar","checkinsCount":5814,"usersCount":2797,"tipCount":21,"visitsCount":6639,"url":"http://statsboston.com","tier":1,"message":"Cheap","currency":"$","rating":6.9},{"name":"The Hill Tavern","phone":"6177426192","address":"228 Cambridge St","lat":42.3612269806759,"lng":-71.06660973114428,"neighborhood":"West End","city_fetched":"Quincy,US","state":"MA","country":"United States","canonicalUrl":"https://foursquare.com/v/the-hill-tavern/3fd66200f964a52027ec1ee3","categoryId":"4bf58dd8d48988d11b941735","category":"Pub","checkinsCount":6465,"usersCount":3009,"tipCount":53,"visitsCount":6544,"url":"http://thehilltavern.com","tier":2,"message":"Moderate","currency":"$","rating":6.9},{"name":"Noir at the Charles Hotel","phone":"6176618010","twitter":"charleshotel","address":"1 Bennett St","lat":42.372342233333335,"lng":-71.12231111666667,"neighborhood":"Harvard Square","city_fetched":"Quincy,US","state":"MA","country":"United States","canonicalUrl":"https://foursquare.com/v/noir-at-the-charles-hotel/42717900f964a52075211fe3","categoryId":"4bf58dd8d48988d1d5941735","category":"Hotel Bar","checkinsCount":4358,"usersCount":2208,"tipCount":27,"visitsCount":4372,"url":"http://www.noir-bar.com","tier":3,"message":"Expensive","currency":"$","rating":6.9},{"name":"The Living Room","phone":"6177235101","twitter":"livingroombos","address":"101 Atlantic Ave","lat":42.36174490989627,"lng":-71.05226360489266,"neighborhood":"Waterfront","city_fetched":"Quincy,US","state":"MA","country":"United States","canonicalUrl":"https://foursquare.com/v/the-living-room/41f43a80f964a5201a1f1fe3","categoryId":"4bf58dd8d48988d121941735","category":"Lounge","checkinsCount":4463,"usersCount":3308,"tipCount":39,"visitsCount":4906,"url":"http://www.livingroomboston.com","tier":2,"message":"Moderate","currency":"$","rating":6.8},{"name":"The Junction","phone":"6172686429","address":"110 Dorchester St","lat":42.335326,"lng":-71.0461,"neighborhood":"D Street - West Broadway","city_fetched":"Quincy,US","state":"MA","country":"United States","canonicalUrl":"https://foursquare.com/v/the-junction/4a5fdbaef964a5205ac01fe3","categoryId":"4bf58dd8d48988d11d941735","category":"Sports Bar","checkinsCount":3637,"usersCount":1384,"tipCount":16,"visitsCount":3762,"url":"http://www.thejunctionbar.com","tier":"","message":"","currency":"","rating":6.8},{"name":"Jerry Remys Sports Bar & Grill","phone":"6178567369","twitter":"jerry_remys_sea","address":"240 Northern Ave","lat":42.34893939176521,"lng":-71.03858440882864,"neighborhood":"Seaport District","city_fetched":"Quincy,US","state":"MA","country":"United States","canonicalUrl":"https://foursquare.com/v/jerry-remys-sports-bar--grill/4d123ac1ffa36ea81577f7da","categoryId":"4bf58dd8d48988d11d941735","category":"Sports Bar","checkinsCount":11958,"usersCount":8032,"tipCount":91,"visitsCount":12085,"url":"http://jerryremysseaport.com","tier":2,"message":"Moderate","currency":"$","rating":6.8},{"name":"Sully's","phone":"6174799489","address":"28 Chesnut St","lat":42.249538035221235,"lng":-71.0012820745463,"neighborhood":"Quincy Center","city_fetched":"Quincy,US","state":"MA","country":"United States","canonicalUrl":"https://foursquare.com/v/sullys/4c007fd0360a9c74e3fbd8a0","categoryId":"4bf58dd8d48988d118941735","category":"Dive Bar","checkinsCount":199,"usersCount":134,"tipCount":4,"visitsCount":199,"tier":"","message":"","currency":"","rating":6.8},{"name":"Porters Bar and Grill","phone":"6177427678","twitter":"portersbar","address":"173 Portland St","lat":42.36423596272781,"lng":-71.06152296066284,"neighborhood":"Downtown Boston","city_fetched":"Quincy,US","state":"MA","country":"United States","canonicalUrl":"https://foursquare.com/v/porters-bar-and-grill/49c6be9cf964a52078571fe3","categoryId":"4bf58dd8d48988d116941735","category":"Bar","checkinsCount":3435,"usersCount":1945,"tipCount":26,"visitsCount":3554,"url":"http://www.portersbar.com","tier":2,"message":"Moderate","currency":"$","rating":6.8},{"name":"Brownstone","phone":"6172927695","twitter":"brownstonebos","address":"111 Dartmouth St","lat":42.34636113986516,"lng":-71.07552937876474,"neighborhood":"South End","city_fetched":"Quincy,US","state":"MA","country":"United States","canonicalUrl":"https://foursquare.com/v/brownstone/4a2b1b8df964a5209e961fe3","categoryId":"4bf58dd8d48988d116941735","category":"Bar","checkinsCount":6518,"usersCount":3424,"tipCount":39,"visitsCount":6774,"url":"http://www.brownstoneboston.com","tier":2,"message":"Moderate","currency":"$","rating":6.8},{"name":"Darcy's Village Pub","phone":"6174729213","address":"97 Willard St","lat":42.25200263167325,"lng":-71.03696516127677,"neighborhood":"South Quincy","city_fetched":"Quincy,US","state":"MA","country":"United States","canonicalUrl":"https://foursquare.com/v/darcys-village-pub/4d2a113d342d6dcb871f09cb","categoryId":"4bf58dd8d48988d11b941735","category":"Pub","checkinsCount":1837,"usersCount":373,"tipCount":13,"visitsCount":1909,"tier":"","message":"","currency":"","rating":6.8},{"name":"Langham Hotel Bond Bar","twitter":"bondboston1","address":"250 Franklin St","lat":42.356397952002105,"lng":-71.05512474538142,"neighborhood":"Financial District","city_fetched":"Quincy,US","state":"MA","country":"United States","canonicalUrl":"https://foursquare.com/v/langham-hotel-bond-bar/4dfe4600483b4f9e7847cec2","categoryId":"4bf58dd8d48988d1d5941735","category":"Hotel Bar","checkinsCount":155,"usersCount":143,"tipCount":3,"visitsCount":155,"url":"http://bondboston.com","tier":"","message":"","currency":"","rating":6.8},{"name":"Koullshi","phone":"6172426009","address":"83 Main St","lat":42.373673,"lng":-71.06273,"neighborhood":"Thompson Square - Bunker Hill","city_fetched":"Quincy,US","state":"MA","country":"United States","canonicalUrl":"https://foursquare.com/v/koullshi/4c25718ff7ced13a96b6246d","categoryId":"4bf58dd8d48988d121941735","category":"Lounge","checkinsCount":348,"usersCount":203,"tipCount":1,"visitsCount":360,"url":"http://koullshi.com","tier":"","message":"","currency":"","rating":6.8},{"name":"Alley Bar","phone":"6172631449","address":"14 Pi Alley","lat":42.357972208962984,"lng":-71.05865326440302,"neighborhood":"Downtown Boston","city_fetched":"Quincy,US","state":"MA","country":"United States","canonicalUrl":"https://foursquare.com/v/alley-bar/450eb86ff964a52065391fe3","categoryId":"4bf58dd8d48988d1d8941735","category":"Gay Bar","checkinsCount":3829,"usersCount":1181,"tipCount":17,"visitsCount":4084,"url":"http://www.thealleybar.com","tier":1,"message":"Cheap","currency":"$","rating":6.7},{"name":"Paddy O's","phone":"6172637771","twitter":"paddyos1","address":"33 Union St","lat":42.36106893434492,"lng":-71.05687737464905,"neighborhood":"Downtown Boston","city_fetched":"Quincy,US","state":"MA","country":"United States","canonicalUrl":"https://foursquare.com/v/paddy-os/49d7b74bf964a520525d1fe3","categoryId":"4bf58dd8d48988d11b941735","category":"Pub","checkinsCount":5741,"usersCount":3964,"tipCount":42,"visitsCount":5771,"url":"http://www.somerspubs.com","tier":1,"message":"Cheap","currency":"$","rating":6.7},{"name":"Joe Angelo's Cafe","phone":"5085888331","twitter":"joeangeloscafe","address":"11 Crescent St","lat":42.08115622568691,"lng":-71.01992726325989,"city_fetched":"Quincy,US","state":"MA","country":"United States","canonicalUrl":"https://foursquare.com/joeangeloscafe","categoryId":"4bf58dd8d48988d11b941735","category":"Pub","checkinsCount":479,"usersCount":130,"tipCount":4,"visitsCount":535,"url":"http://www.joeangeloscafe.com","tier":"","message":"","currency":"","rating":6.7},{"name":"Tavern in the Square","phone":"6173547766","twitter":"taverninthesq","address":"1815 Massachusetts Ave","lat":42.38749540771476,"lng":-71.11897576186442,"neighborhood":"Porter Square","city_fetched":"Quincy,US","state":"MA","country":"United States","canonicalUrl":"https://foursquare.com/v/tavern-in-the-square/49d2c4c1f964a520d25b1fe3","categoryId":"4bf58dd8d48988d11d941735","category":"Sports Bar","checkinsCount":8008,"usersCount":3570,"tipCount":51,"visitsCount":8266,"url":"http://taverninthesquare.com","tier":2,"message":"Moderate","currency":"$","rating":6.7},{"name":"Jeanie Johnston Pub","phone":"6179839432","address":"144 South St","lat":42.305053,"lng":-71.114583,"neighborhood":"Jamaica Plain","city_fetched":"Quincy,US","state":"MA","country":"United States","canonicalUrl":"https://foursquare.com/v/jeanie-johnston-pub/4b5cd81af964a520ea4629e3","categoryId":"4bf58dd8d48988d11b941735","category":"Pub","checkinsCount":2331,"usersCount":671,"tipCount":24,"visitsCount":2677,"url":"http://www.jeaniejohnstonjp.com","tier":"","message":"","currency":"","rating":6.6},{"name":"Intermission Tavern","phone":"6174515997","twitter":"itbosto","address":"228 Tremont St","lat":42.351267821967966,"lng":-71.06472944224099,"neighborhood":"Chinatown - Leather District","city_fetched":"Quincy,US","state":"MA","country":"United States","canonicalUrl":"https://foursquare.com/v/intermission-tavern/4ac7e23bf964a52051ba20e3","categoryId":"4bf58dd8d48988d11b941735","category":"Pub","checkinsCount":5447,"usersCount":3176,"tipCount":34,"visitsCount":5514,"url":"http://intermissiontavern.com","tier":2,"message":"Moderate","currency":"$","rating":6.6},{"name":"TKO Shea's","phone":"7818718574","address":"932 Hingham St","lat":42.16102109902916,"lng":-70.90249942644165,"city_fetched":"Quincy,US","state":"MA","country":"United States","canonicalUrl":"https://foursquare.com/v/tko-sheas/4b7ef3c4f964a520d30b30e3","categoryId":"4bf58dd8d48988d11d941735","category":"Sports Bar","checkinsCount":975,"usersCount":381,"tipCount":1,"visitsCount":1118,"tier":"","message":"","currency":"","rating":6.6},{"name":"Jerry Remy's Sports Bar & Grill","phone":"6172367369","twitter":"jerryremysgrill","address":"1265 Boylston St","lat":42.34532140989989,"lng":-71.09637981539368,"neighborhood":"Fenway - Kenmore - Audubon Circle - Longwood","city_fetched":"Quincy,US","state":"MA","country":"United States","canonicalUrl":"https://foursquare.com/v/jerry-remys-sports-bar--grill/4b82bed4f964a520f6e130e3","categoryId":"4bf58dd8d48988d11d941735","category":"Sports Bar","checkinsCount":13433,"usersCount":8273,"tipCount":119,"visitsCount":13690,"url":"http://jerryremys.com/fenway/","tier":2,"message":"Moderate","currency":"$","rating":6.6},{"name":"Cityside Restaurant & Bar","phone":"6175661002","address":"1960 Beacon St","lat":42.3361195375635,"lng":-71.1505937576294,"neighborhood":"Brighton","city_fetched":"Quincy,US","state":"MA","country":"United States","canonicalUrl":"https://foursquare.com/v/cityside-restaurant--bar/3fd66200f964a520b7eb1ee3","categoryId":"4bf58dd8d48988d116941735","category":"Bar","checkinsCount":11424,"usersCount":4343,"tipCount":49,"visitsCount":12378,"url":"http://www.citysidebar.com","tier":2,"message":"Moderate","currency":"$","rating":6.6},{"name":"Cronin's Publick House","address":"23 Desmoines Rd","lat":42.24207507498663,"lng":-70.97982896847442,"neighborhood":"Quincy Point","city_fetched":"Quincy,US","state":"MA","country":"United States","canonicalUrl":"https://foursquare.com/v/cronins-publick-house/4b9ade33f964a520c4dd35e3","categoryId":"4bf58dd8d48988d11b941735","category":"Pub","checkinsCount":530,"usersCount":192,"tipCount":7,"visitsCount":642,"tier":"","message":"","currency":"","rating":6.6},{"name":"Rock Bottom Restaurant and Brewery","phone":"6177422739","twitter":"rockbottombos","address":"115 Stuart St","lat":42.351049467880806,"lng":-71.0653039758788,"neighborhood":"Downtown Boston","city_fetched":"Quincy,US","state":"MA","country":"United States","canonicalUrl":"https://foursquare.com/v/rock-bottom-restaurant-and-brewery/4a3408e3f964a5209a9b1fe3","categoryId":"50327c8591d4c4b30a586d5d","category":"Brewery","checkinsCount":12690,"usersCount":7810,"tipCount":95,"visitsCount":12809,"url":"http://www.rockbottom.com","tier":2,"message":"Moderate","currency":"$","rating":6.6},{"name":"The Littlest Bar","phone":"6175428469","twitter":"thelittlestbar","address":"102 Broad St","lat":42.35735349258417,"lng":-71.05226360489266,"neighborhood":"Financial District","city_fetched":"Quincy,US","state":"MA","country":"United States","canonicalUrl":"https://foursquare.com/v/the-littlest-bar/40b28c80f964a52094f71ee3","categoryId":"4bf58dd8d48988d11b941735","category":"Pub","checkinsCount":2983,"usersCount":1749,"tipCount":22,"visitsCount":3011,"tier":"","message":"","currency":"","rating":6.5},{"name":"Tommy Doyle's","address":"East Ashland Street","lat":42.095930133342605,"lng":-71.00902489066328,"city_fetched":"Quincy,US","state":"MA","country":"United States","canonicalUrl":"https://foursquare.com/v/tommy-doyles/532e2c85498efa25dc98774f","categoryId":"4bf58dd8d48988d11d941735","category":"Sports Bar","checkinsCount":174,"usersCount":117,"tipCount":4,"visitsCount":345,"url":"http://tommydoylespub.com","tier":"","message":"","currency":"","rating":6.5},{"name":"Iron Furnace","address":"1495 Hancock St","lat":42.248268,"lng":-71.001618,"neighborhood":"Quincy Center","city_fetched":"Quincy,US","state":"MA","country":"United States","canonicalUrl":"https://foursquare.com/v/iron-furnace/55f86e37498e986ad6d668c0","categoryId":"4bf58dd8d48988d11d941735","category":"Sports Bar","checkinsCount":205,"usersCount":137,"tipCount":3,"visitsCount":250,"tier":"","message":"","currency":"","rating":6.5},{"name":"The Baseball Tavern","phone":"6178676526","twitter":"baseballtavern","address":"1270 Boylston St","lat":42.34476354512131,"lng":-71.09675645828247,"neighborhood":"Fenway - Kenmore - Audubon Circle - Longwood","city_fetched":"Quincy,US","state":"MA","country":"United States","canonicalUrl":"https://foursquare.com/v/the-baseball-tavern/40bd1880f964a520b6001fe3","categoryId":"4bf58dd8d48988d11d941735","category":"Sports Bar","checkinsCount":9358,"usersCount":5092,"tipCount":58,"visitsCount":9591,"url":"http://www.thebaseballtavern.com","tier":2,"message":"Moderate","currency":"$","rating":6.5},{"name":"Sonny's Pub & Restaurant","phone":"6174369432","address":"750 Adams St","lat":42.283969094139,"lng":-71.05535108221628,"neighborhood":"Neponset - Port Norfolk","city_fetched":"Quincy,US","state":"MA","country":"United States","canonicalUrl":"https://foursquare.com/v/sonnys-pub--restaurant/4c0ec98e98102d7f033ee406","categoryId":"4bf58dd8d48988d11b941735","category":"Pub","checkinsCount":1106,"usersCount":326,"tipCount":12,"visitsCount":1178,"url":"http://sonnysfamilypub.com","tier":2,"message":"Moderate","currency":"$","rating":6.5},{"name":"Lir","phone":"6177780089","twitter":"lironboylston","address":"903 Boylston St","lat":42.34825563333333,"lng":-71.083964,"neighborhood":"Prudential - St. Botolph","city_fetched":"Quincy,US","state":"MA","country":"United States","canonicalUrl":"https://foursquare.com/v/lir/40b28c80f964a520f6f71ee3","categoryId":"4bf58dd8d48988d11b941735","category":"Pub","checkinsCount":10930,"usersCount":6188,"tipCount":40,"visitsCount":11026,"url":"http://www.lironboylston.com","tier":2,"message":"Moderate","currency":"$","rating":6.5},{"name":"Fowler House","phone":"6177739000","address":"1049 Hancock St","lat":42.256358,"lng":-71.00749966,"neighborhood":"Quincy Center","city_fetched":"Quincy,US","state":"MA","country":"United States","canonicalUrl":"https://foursquare.com/v/fowler-house/4a7a2fa4f964a520cbe81fe3","categoryId":"4bf58dd8d48988d116941735","category":"Bar","checkinsCount":1454,"usersCount":571,"tipCount":9,"visitsCount":1523,"url":"http://www.fowlerhousecafe.com","tier":"","message":"","currency":"","rating":6.5},{"name":"Sly Fox","phone":"6173286422","address":"139 Copeland St","lat":42.243088,"lng":-71.0217903,"neighborhood":"South Quincy","city_fetched":"Quincy,US","state":"MA","country":"United States","canonicalUrl":"https://foursquare.com/v/sly-fox/4bedf085946c0f475136a363","categoryId":"4bf58dd8d48988d116941735","category":"Bar","checkinsCount":785,"usersCount":229,"tipCount":6,"visitsCount":812,"tier":"","message":"","currency":"","rating":6.5},{"name":"Whitey's","address":"268 W Broadway","lat":42.339193428469194,"lng":-71.05135244643643,"neighborhood":"D Street - West Broadway","city_fetched":"Quincy,US","state":"MA","country":"United States","canonicalUrl":"https://foursquare.com/v/whiteys/4cd4f92f67adf04d65a62a91","categoryId":"4bf58dd8d48988d11b941735","category":"Pub","checkinsCount":1043,"usersCount":377,"tipCount":6,"visitsCount":1106,"tier":"","message":"","currency":"","rating":6.4},{"name":"Battery Park Bar & Lounge","phone":"6173507275","twitter":"batteryparkbos","address":"33 Batterymarch St","lat":42.35758374549891,"lng":-71.0541091298427,"neighborhood":"Financial District","city_fetched":"Quincy,US","state":"MA","country":"United States","canonicalUrl":"https://foursquare.com/v/battery-park-bar--lounge/4c9394dcf7cfa1cdc3aaab15","categoryId":"4bf58dd8d48988d11d941735","category":"Sports Bar","checkinsCount":3831,"usersCount":2289,"tipCount":37,"visitsCount":3867,"url":"http://www.batteryparkboston.com","tier":2,"message":"Moderate","currency":"$","rating":6.4},{"name":"Whiskey's","phone":"6172625551","address":"885 Boylston St","lat":42.348442418741804,"lng":-71.08364800341134,"neighborhood":"Back Bay West","city_fetched":"Quincy,US","state":"MA","country":"United States","canonicalUrl":"https://foursquare.com/v/whiskeys/3fd66200f964a52064ec1ee3","categoryId":"4bf58dd8d48988d11d941735","category":"Sports Bar","checkinsCount":16761,"usersCount":10197,"tipCount":117,"visitsCount":17054,"url":"http://www.whiskeysboston.com/menu.htm","tier":2,"message":"Moderate","currency":"$","rating":6.4},{"name":"Sweet Caroline's Restaurant & Bar","phone":"6174241260","twitter":"sweet_carolins","address":"1260 Boylston St","lat":42.345008009303896,"lng":-71.09633919493474,"neighborhood":"Fenway - Kenmore - Audubon Circle - Longwood","city_fetched":"Quincy,US","state":"MA","country":"United States","canonicalUrl":"https://foursquare.com/v/sweet-carolines-restaurant--bar/4e61a1cbd4c06542aa9b6330","categoryId":"4bf58dd8d48988d11d941735","category":"Sports Bar","checkinsCount":3716,"usersCount":2350,"tipCount":39,"visitsCount":3730,"url":"http://sweetcarolinesboston.com","tier":2,"message":"Moderate","currency":"$","rating":6.4},{"name":"Hennessey's","phone":"6177422121","twitter":"hennessysboston","address":"25 Union St","lat":42.36101413611058,"lng":-71.05697025747118,"neighborhood":"Downtown Boston","city_fetched":"Quincy,US","state":"MA","country":"United States","canonicalUrl":"https://foursquare.com/v/hennesseys/49d78ac0f964a5202f5d1fe3","categoryId":"4bf58dd8d48988d11b941735","category":"Pub","checkinsCount":8781,"usersCount":5620,"tipCount":58,"visitsCount":8863,"url":"http://somerspubs.com","tier":2,"message":"Moderate","currency":"$","rating":6.4},{"name":"Nix's Mate Kitchen & Cocktails","phone":"6175560006","address":"89 Broad St","lat":42.3575397831221,"lng":-71.05298904807894,"neighborhood":"Financial District","city_fetched":"Quincy,US","state":"MA","country":"United States","canonicalUrl":"https://foursquare.com/v/nixs-mate-kitchen--cocktails/50ca02c6245f2d4aa8c2c686","categoryId":"4bf58dd8d48988d11e941735","category":"Cocktail Bar","checkinsCount":2277,"usersCount":1534,"tipCount":27,"visitsCount":2304,"url":"http://www.nixsmate.com","tier":3,"message":"Expensive","currency":"$","rating":6.4},{"name":"Tavern in the Square","phone":"6178688800","twitter":"taverninthesq","address":"730 Massachusetts Ave","lat":42.36608238148131,"lng":-71.10517114713485,"city_fetched":"Quincy,US","state":"MA","country":"United States","canonicalUrl":"https://foursquare.com/v/tavern-in-the-square/4a819d5af964a52009f71fe3","categoryId":"4bf58dd8d48988d11d941735","category":"Sports Bar","checkinsCount":12313,"usersCount":6325,"tipCount":66,"visitsCount":12796,"url":"http://taverninthesquare.com","tier":2,"message":"Moderate","currency":"$","rating":6.4},{"name":"Who's On First?","phone":"6172473353","address":"19 Yawkey Way","lat":42.346053494651464,"lng":-71.09857911700313,"neighborhood":"Fenway - Kenmore - Audubon Circle - Longwood","city_fetched":"Quincy,US","state":"MA","country":"United States","canonicalUrl":"https://foursquare.com/v/whos-on-first/40b28c80f964a5208ff81ee3","categoryId":"4bf58dd8d48988d11d941735","category":"Sports Bar","checkinsCount":3673,"usersCount":1979,"tipCount":11,"visitsCount":3693,"url":"http://www.whosonfirstatfenway.com","tier":2,"message":"Moderate","currency":"$","rating":6.4},{"name":"Hugh O'Neill's","phone":"7813389977","twitter":"hughoneillspub","address":"45 Pleasant St","lat":42.4268078,"lng":-71.068309,"neighborhood":"Malden Center","city_fetched":"Quincy,US","state":"MA","country":"United States","canonicalUrl":"https://foursquare.com/v/hugh-oneills/4a71e95ef964a520d6d91fe3","categoryId":"4bf58dd8d48988d11b941735","category":"Pub","checkinsCount":3834,"usersCount":1553,"tipCount":26,"visitsCount":4436,"url":"http://www.hughoneills.com","tier":2,"message":"Moderate","currency":"$","rating":6.4},{"name":"The Sheraton Boston Club Lounge","twitter":"sheratonboston","address":"39 Dalton St","lat":42.346920757182424,"lng":-71.08472737946485,"neighborhood":"Prudential - St. Botolph","city_fetched":"Quincy,US","state":"MA","country":"United States","canonicalUrl":"https://foursquare.com/v/the-sheraton-boston-club-lounge/4fdbee95e4b01dfebf3b7df3","categoryId":"4bf58dd8d48988d1d5941735","category":"Hotel Bar","checkinsCount":444,"usersCount":263,"tipCount":2,"visitsCount":448,"url":"http://sheratonbostonhotel.com","tier":"","message":"","currency":"","rating":6.3},{"name":"Blue Hills Brewery","phone":"7818212337","twitter":"bhbcanton","address":"1020 Turnpike St #3B","lat":42.1506788,"lng":-71.10501229763031,"city_fetched":"Quincy,US","state":"MA","country":"United States","canonicalUrl":"https://foursquare.com/v/blue-hills-brewery/4b9bf6a5f964a5202d3b36e3","categoryId":"50327c8591d4c4b30a586d5d","category":"Brewery","checkinsCount":514,"usersCount":413,"tipCount":11,"visitsCount":605,"url":"http://bluehillsbrewery.com","tier":"","message":"","currency":"","rating":6.3},{"name":"The Glass Slipper","phone":"6173382290","address":"22 Lagrange St","lat":42.35157373470394,"lng":-71.06358617593487,"neighborhood":"Chinatown - Leather District","city_fetched":"Quincy,US","state":"MA","country":"United States","canonicalUrl":"https://foursquare.com/v/the-glass-slipper/3fd66200f964a520b1ed1ee3","categoryId":"4bf58dd8d48988d1d6941735","category":"Strip Club","checkinsCount":613,"usersCount":334,"tipCount":8,"visitsCount":614,"url":"http://www.glassslipperboston.com","tier":"","message":"","currency":"","rating":6.3},{"name":"Champions","phone":"6175780658","address":"110 Huntington Ave","lat":42.347365890581536,"lng":-71.07961482557603,"neighborhood":"Prudential - St. Botolph","city_fetched":"Quincy,US","state":"MA","country":"United States","canonicalUrl":"https://foursquare.com/v/champions/3fd66200f964a52011ec1ee3","categoryId":"4bf58dd8d48988d11d941735","category":"Sports Bar","checkinsCount":7598,"usersCount":4715,"tipCount":62,"visitsCount":7675,"url":"http://championsboston.com","tier":2,"message":"Moderate","currency":"$","rating":6.3},{"name":"Shenanigans","phone":"6172699509","address":"332 W Broadway","lat":42.338268749361525,"lng":-71.04992476734212,"neighborhood":"D Street - West Broadway","city_fetched":"Quincy,US","state":"MA","country":"United States","canonicalUrl":"https://foursquare.com/v/shenanigans/4297b480f964a52067241fe3","categoryId":"4bf58dd8d48988d116941735","category":"Bar","checkinsCount":3839,"usersCount":1994,"tipCount":32,"visitsCount":4440,"url":"http://shenannigansirishpubbostonma.com","tier":"","message":"","currency":"","rating":6.2},{"name":"Sheraton Lobby","address":"Sheraton Boston","lat":42.34638079569847,"lng":-71.08426893514752,"neighborhood":"Prudential - St. Botolph","city_fetched":"Quincy,US","state":"MA","country":"United States","canonicalUrl":"https://foursquare.com/v/sheraton-lobby/5002d650e4b0b1602c3df590","categoryId":"4bf58dd8d48988d1d5941735","category":"Hotel Bar","checkinsCount":563,"usersCount":306,"tipCount":2,"visitsCount":563,"tier":"","message":"","currency":"","rating":6.2},{"name":"Dillon's","phone":"6174211818","twitter":"dillonsboston","address":"955 Boylston St","lat":42.34789540197147,"lng":-71.08600405711357,"neighborhood":"Back Bay West","city_fetched":"Quincy,US","state":"MA","country":"United States","canonicalUrl":"https://foursquare.com/v/dillons/4238c880f964a5202c201fe3","categoryId":"4bf58dd8d48988d11b941735","category":"Pub","checkinsCount":13333,"usersCount":8787,"tipCount":69,"visitsCount":14108,"url":"http://www.dillonsboston.com","tier":2,"message":"Moderate","currency":"$","rating":6.1},{"name":"Paddy Barry's","phone":"6177703620","twitter":"paddybarrys","address":"1574 Hancock St","lat":42.24702282010926,"lng":-71.00077710330389,"neighborhood":"Quincy Center","city_fetched":"Quincy,US","state":"MA","country":"United States","canonicalUrl":"https://foursquare.com/v/paddy-barrys/4b5bc8bbf964a520091629e3","categoryId":"4bf58dd8d48988d11b941735","category":"Pub","checkinsCount":614,"usersCount":334,"tipCount":4,"visitsCount":637,"url":"http://www.paddybarrys.com","tier":"","message":"","currency":"","rating":6.1},{"name":"Sports Grille Boston","phone":"6173679302","address":"132 Canal St","lat":42.3648328,"lng":-71.06047,"neighborhood":"Downtown Boston","city_fetched":"Quincy,US","state":"MA","country":"United States","canonicalUrl":"https://foursquare.com/v/sports-grille-boston/4709e122f964a5206b4b1fe3","categoryId":"4bf58dd8d48988d11d941735","category":"Sports Bar","checkinsCount":4518,"usersCount":2053,"tipCount":22,"visitsCount":4536,"url":"http://www.sportsgrilleboston.com","tier":2,"message":"Moderate","currency":"$","rating":6.1},{"name":"Maggy's Lounge","address":"609 Washington St","lat":42.24632642302282,"lng":-70.97665966706991,"neighborhood":"Quincy Point","city_fetched":"Quincy,US","state":"MA","country":"United States","canonicalUrl":"https://foursquare.com/v/maggys-lounge/517c709ee4b0e71101ca9d9c","categoryId":"4bf58dd8d48988d116941735","category":"Bar","checkinsCount":178,"usersCount":153,"tipCount":1,"visitsCount":257,"tier":"","message":"","currency":"","rating":6.1},{"name":"The Whiskey Priest","phone":"6174268111","twitter":"thewhskeypriest","address":"150 Northern Ave","lat":42.35083743027395,"lng":-71.0427474975586,"neighborhood":"Seaport District","city_fetched":"Quincy,US","state":"MA","country":"United States","canonicalUrl":"https://foursquare.com/v/the-whiskey-priest/4bc8f1363740b713bcc55d65","categoryId":"4bf58dd8d48988d122941735","category":"Whisky Bar","checkinsCount":15281,"usersCount":10833,"tipCount":91,"visitsCount":15876,"url":"http://whiskey-priest.com","tier":3,"message":"Expensive","currency":"$","rating":6},{"name":"MJ O'Connor's","phone":"6174430800","address":"425 Summer St","lat":42.3463739436728,"lng":-71.04349434645822,"neighborhood":"Seaport District","city_fetched":"Quincy,US","state":"MA","country":"United States","canonicalUrl":"https://foursquare.com/v/mj-oconnors/4b53456ef964a520269527e3","categoryId":"4bf58dd8d48988d11b941735","category":"Pub","checkinsCount":4658,"usersCount":3163,"tipCount":25,"visitsCount":4681,"url":"http://www.mjoconnors.com","tier":2,"message":"Moderate","currency":"$","rating":6},{"name":"Cisco Brewers of Nantucket","address":"1 Harborside Drive (Terminal E)","lat":42.36864251624246,"lng":-71.01841590981697,"neighborhood":"Jeffries Point","city_fetched":"Quincy,US","state":"MA","country":"United States","canonicalUrl":"https://foursquare.com/v/cisco-brewers-of-nantucket/51e09690498eb911389cc53e","categoryId":"50327c8591d4c4b30a586d5d","category":"Brewery","checkinsCount":240,"usersCount":219,"tipCount":3,"visitsCount":240,"tier":"","message":"","currency":"","rating":6},{"name":"Storyville","phone":"6172361134","twitter":"storyvillebos","address":"90 Exeter St","lat":42.3481480242972,"lng":-71.07881398838161,"neighborhood":"Prudential - St. Botolph","city_fetched":"Quincy,US","state":"MA","country":"United States","canonicalUrl":"https://foursquare.com/v/storyville/4e7157df62e116e945428db6","categoryId":"4bf58dd8d48988d11f941735","category":"Nightclub","checkinsCount":4865,"usersCount":3191,"tipCount":30,"visitsCount":5178,"url":"http://storyvilleboston.com","tier":2,"message":"Moderate","currency":"$","rating":6},{"name":"MJ O'Connor's","phone":"6174822255","twitter":"mjoconnorspark","address":"27 Columbus Ave","lat":42.35113138126495,"lng":-71.0688498171263,"neighborhood":"Back Bay","city_fetched":"Quincy,US","state":"MA","country":"United States","canonicalUrl":"https://foursquare.com/v/mj-oconnors/4a22354ff964a5206b7d1fe3","categoryId":"4bf58dd8d48988d11b941735","category":"Pub","checkinsCount":7749,"usersCount":4333,"tipCount":33,"visitsCount":7845,"url":"http://www.back-bay.mjoconnors.com/about","tier":2,"message":"Moderate","currency":"$","rating":6},{"name":"Mari's Place","address":"35 Washington St","lat":42.251399974234815,"lng":-71.00205404090161,"neighborhood":"Quincy Center","city_fetched":"Quincy,US","state":"MA","country":"United States","canonicalUrl":"https://foursquare.com/v/maris-place/4b3966dff964a5200e5c25e3","categoryId":"4bf58dd8d48988d118941735","category":"Dive Bar","checkinsCount":278,"usersCount":118,"tipCount":8,"visitsCount":278,"tier":"","message":"","currency":"","rating":6},{"name":"Four Winds","phone":"6177423922","address":"266 Commercial St","lat":42.36415365815547,"lng":-71.05112030383174,"neighborhood":"Waterfront","city_fetched":"Quincy,US","state":"MA","country":"United States","canonicalUrl":"https://foursquare.com/v/four-winds/40b28c80f964a520a6f71ee3","categoryId":"4bf58dd8d48988d11d941735","category":"Sports Bar","checkinsCount":1335,"usersCount":610,"tipCount":7,"visitsCount":1383,"url":"http://fourwindsbarandgrill.com","tier":"","message":"","currency":"","rating":6},{"name":"The Half Door","phone":"6174728600","address":"1514 Hancock St","lat":42.24797100724234,"lng":-71.00119501058239,"neighborhood":"Quincy Center","city_fetched":"Quincy,US","state":"MA","country":"United States","canonicalUrl":"https://foursquare.com/v/the-half-door/4b0df786f964a520455323e3","categoryId":"4bf58dd8d48988d116941735","category":"Bar","checkinsCount":1809,"usersCount":722,"tipCount":15,"visitsCount":1828,"url":"http://halfdoorpub.com","tier":1,"message":"Cheap","currency":"$","rating":6},{"name":"Paradise","phone":"6178683000","address":"180 Massachusetts Ave","lat":42.36080732035671,"lng":-71.09647214412688,"city_fetched":"Quincy,US","state":"MA","country":"United States","canonicalUrl":"https://foursquare.com/v/paradise/4aadcd02f964a520796120e3","categoryId":"4bf58dd8d48988d1d8941735","category":"Gay Bar","checkinsCount":2949,"usersCount":1310,"tipCount":16,"visitsCount":3273,"url":"http://www.paradisecambridge.com","tier":"","message":"","currency":"","rating":6},{"name":"Jerry Remy's Sports Bar & Grill","phone":"6175675379","address":"Terminal C","lat":42.366154335320886,"lng":-71.01661205291748,"neighborhood":"Jeffries Point","city_fetched":"Quincy,US","state":"MA","country":"United States","canonicalUrl":"https://foursquare.com/v/jerry-remys-sports-bar--grill/4a568e00f964a52060b51fe3","categoryId":"4bf58dd8d48988d11d941735","category":"Sports Bar","checkinsCount":2380,"usersCount":1965,"tipCount":39,"visitsCount":2380,"url":"http://jerryremysseaport.com","tier":2,"message":"Moderate","currency":"$","rating":5.9},{"name":"Foxy Lady","phone":"5088944040","address":"265 N Pearl St","lat":42.09925995718511,"lng":-71.06564057096841,"city_fetched":"Quincy,US","state":"MA","country":"United States","canonicalUrl":"https://foursquare.com/v/foxy-lady/4c2d520f987f20a1db5949aa","categoryId":"4bf58dd8d48988d1d6941735","category":"Strip Club","checkinsCount":602,"usersCount":316,"tipCount":5,"visitsCount":608,"url":"http://www.thefoxylady.net/BrocktonHome.html","tier":"","message":"","currency":"","rating":5.9},{"name":"Jamie's Grille and Pub","phone":"7813565544","address":"63 Columbian St","lat":42.18650873505172,"lng":-70.9755045494811,"neighborhood":"South Braintree","city_fetched":"Quincy,US","state":"MA","country":"United States","canonicalUrl":"https://foursquare.com/v/jamies-grille-and-pub/4c8c11395e048cfac18bc9cd","categoryId":"4bf58dd8d48988d11b941735","category":"Pub","checkinsCount":750,"usersCount":304,"tipCount":5,"visitsCount":960,"url":"http://www.jamiesgrill.com","tier":"","message":"","currency":"","rating":5.9},{"name":"Porter Belly's","phone":"6172543300","address":"338 Washington St","lat":42.34903872013092,"lng":-71.15257322788239,"neighborhood":"St. Elizabeth's","city_fetched":"Quincy,US","state":"MA","country":"United States","canonicalUrl":"https://foursquare.com/v/porter-bellys/40b28c80f964a52026f81ee3","categoryId":"4bf58dd8d48988d11b941735","category":"Pub","checkinsCount":2115,"usersCount":1008,"tipCount":18,"visitsCount":2137,"url":"http://www.porterbellyspub.com","tier":"","message":"","currency":"","rating":5.9},{"name":"T's Pub","phone":"6172540807","twitter":"tspub","address":"973 Commonwealth Ave","lat":42.351702,"lng":-71.119566,"neighborhood":"Allston","city_fetched":"Quincy,US","state":"MA","country":"United States","canonicalUrl":"https://foursquare.com/v/ts-pub/4a7a43bef964a52003e91fe3","categoryId":"4bf58dd8d48988d11b941735","category":"Pub","checkinsCount":5779,"usersCount":2631,"tipCount":38,"visitsCount":5871,"url":"http://www.tspub.com","tier":1,"message":"Cheap","currency":"$","rating":5.9},{"name":"Boston Beer Works","phone":"6175692277","twitter":"beer_works","address":"Logan Airport","lat":42.36634458395547,"lng":-71.01665496826172,"neighborhood":"Jeffries Point","city_fetched":"Quincy,US","state":"MA","country":"United States","canonicalUrl":"https://foursquare.com/v/boston-beer-works/4aad6dd7f964a5203a6020e3","categoryId":"50327c8591d4c4b30a586d5d","category":"Brewery","checkinsCount":7938,"usersCount":6049,"tipCount":126,"visitsCount":7940,"url":"http://www.beerworks.net","tier":2,"message":"Moderate","currency":"$","rating":5.9},{"name":"Harpoon Tap Room","phone":"6175749551","twitter":"harpoon_brewery","lat":42.363950579981406,"lng":-71.02480888366699,"neighborhood":"Jeffries Point","city_fetched":"Quincy,US","state":"MA","country":"United States","canonicalUrl":"https://foursquare.com/v/harpoon-tap-room/4ba142cbf964a5200ba737e3","categoryId":"4bf58dd8d48988d116941735","category":"Bar","checkinsCount":2112,"usersCount":1881,"tipCount":40,"visitsCount":2131,"url":"http://www.harpoonbrewery.com","tier":1,"message":"Cheap","currency":"$","rating":5.9},{"name":"Atlantic Beer Garden","phone":"6173578000","twitter":"atlantcbeergrdn","address":"146 Seaport Blvd","lat":42.350843971257476,"lng":-71.0431670281689,"neighborhood":"Seaport District","city_fetched":"Quincy,US","state":"MA","country":"United States","canonicalUrl":"https://foursquare.com/v/atlantic-beer-garden/4a4149a8f964a52009a51fe3","categoryId":"4bf58dd8d48988d11d941735","category":"Sports Bar","checkinsCount":12079,"usersCount":8258,"tipCount":82,"visitsCount":12273,"url":"http://www.atlanticbeergarden.com","tier":2,"message":"Moderate","currency":"$","rating":5.8},{"name":"Costello's Tavern","phone":"6175229263","twitter":"costellostavern","address":"723 Centre St","lat":42.31124426666667,"lng":-71.114615,"neighborhood":"Jamaica Hills - Pond","city_fetched":"Quincy,US","state":"MA","country":"United States","canonicalUrl":"https://foursquare.com/costellostavern","categoryId":"4bf58dd8d48988d116941735","category":"Bar","checkinsCount":2411,"usersCount":894,"tipCount":20,"visitsCount":2497,"url":"http://costellostavern.com","tier":2,"message":"Moderate","currency":"$","rating":5.8},{"name":"Centerfolds Gentlemen's Club","phone":"6172922600","twitter":"cfoldsboston","address":"12 Lagrange St","lat":42.351499495857695,"lng":-71.06332540512085,"neighborhood":"Chinatown - Leather District","city_fetched":"Quincy,US","state":"MA","country":"United States","canonicalUrl":"https://foursquare.com/v/centerfolds-gentlemens-club/40b28c80f964a520f4ff1ee3","categoryId":"4bf58dd8d48988d1d6941735","category":"Strip Club","checkinsCount":2358,"usersCount":822,"tipCount":13,"visitsCount":2367,"url":"http://centerfoldsboston.com","tier":"","message":"","currency":"","rating":5.8},{"name":"Sullivan's Tap","phone":"6176177617","address":"168 Canal St","lat":42.365189540701756,"lng":-71.06099205221808,"neighborhood":"Downtown Boston","city_fetched":"Quincy,US","state":"MA","country":"United States","canonicalUrl":"https://foursquare.com/v/sullivans-tap/40b28c80f964a520edf71ee3","categoryId":"4bf58dd8d48988d11d941735","category":"Sports Bar","checkinsCount":4436,"usersCount":2487,"tipCount":33,"visitsCount":4462,"tier":1,"message":"Cheap","currency":"$","rating":5.8},{"name":"Ramrod","phone":"6172662986","address":"1254 Boylston St","lat":42.34513520607164,"lng":-71.09590977840489,"neighborhood":"Fenway - Kenmore - Audubon Circle - Longwood","city_fetched":"Quincy,US","state":"MA","country":"United States","canonicalUrl":"https://foursquare.com/v/ramrod/40b28c80f964a5208bf81ee3","categoryId":"4bf58dd8d48988d1d8941735","category":"Gay Bar","checkinsCount":1365,"usersCount":451,"tipCount":9,"visitsCount":1365,"url":"http://ramrod-boston.com","tier":"","message":"","currency":"","rating":5.8},{"name":"Paulaner Bier Garten","address":"Causeway St","lat":42.36623148058458,"lng":-71.06208309506822,"neighborhood":"Downtown Boston","city_fetched":"Quincy,US","state":"MA","country":"United States","canonicalUrl":"https://foursquare.com/v/paulaner-bier-garten/4f72410ae4b08f62bd89cf73","categoryId":"4bf58dd8d48988d117941735","category":"Beer Garden","checkinsCount":810,"usersCount":411,"tipCount":8,"visitsCount":821,"tier":"","message":"","currency":"","rating":5.8},{"name":"Bar 10","phone":"6174247446","twitter":"bar10_boston","address":"10 Huntington Ave","lat":42.3485413280724,"lng":-71.07798413368378,"neighborhood":"Prudential - St. Botolph","city_fetched":"Quincy,US","state":"MA","country":"United States","canonicalUrl":"https://foursquare.com/v/bar-10/4a2c41b3f964a52040971fe3","categoryId":"4bf58dd8d48988d1d5941735","category":"Hotel Bar","checkinsCount":2573,"usersCount":1790,"tipCount":25,"visitsCount":2575,"url":"http://www.bar10boston.com","tier":"","message":"","currency":"","rating":5.8},{"name":"Clash of the Ash","phone":"6173760030","address":"1464 Hancock St","lat":42.24870800971985,"lng":-71.001878,"neighborhood":"Quincy Center","city_fetched":"Quincy,US","state":"MA","country":"United States","canonicalUrl":"https://foursquare.com/v/clash-of-the-ash/4b6cd1e3f964a520cb562ce3","categoryId":"4bf58dd8d48988d118941735","category":"Dive Bar","checkinsCount":697,"usersCount":379,"tipCount":5,"visitsCount":712,"tier":2,"message":"Moderate","currency":"$","rating":5.8},{"name":"The Joshua Tree","phone":"6176239910","twitter":"joshuatreebar","address":"256 Elm St","lat":42.39554091720936,"lng":-71.1220121383667,"neighborhood":"Davis Square","city_fetched":"Quincy,US","state":"MA","country":"United States","canonicalUrl":"https://foursquare.com/v/the-joshua-tree/40b28c80f964a5206af81ee3","categoryId":"4bf58dd8d48988d11d941735","category":"Sports Bar","checkinsCount":7645,"usersCount":3815,"tipCount":58,"visitsCount":7704,"url":"http://www.joshuatreedavis.com","tier":2,"message":"Moderate","currency":"$","rating":5.8},{"name":"The Adams Pub","phone":"6173281500","address":"29 Hancock St","lat":42.282684,"lng":-71.038418,"neighborhood":"Montclair","city_fetched":"Quincy,US","state":"MA","country":"United States","canonicalUrl":"https://foursquare.com/v/the-adams-pub/4bae9c71f964a52087c63be3","categoryId":"4bf58dd8d48988d1d5941735","category":"Hotel Bar","checkinsCount":864,"usersCount":317,"tipCount":12,"visitsCount":875,"tier":"","message":"","currency":"","rating":5.7},{"name":"Club Alex's","phone":"7813442175","twitter":"clubalexs","address":"584 Washington St","lat":42.13012742396589,"lng":-71.1015675947164,"city_fetched":"Quincy,US","state":"MA","country":"United States","canonicalUrl":"https://foursquare.com/v/club-alexs/4c4886acdd91ef3be875b0b7","categoryId":"4bf58dd8d48988d1d6941735","category":"Strip Club","checkinsCount":413,"usersCount":229,"tipCount":10,"visitsCount":427,"url":"http://www.clubalexs.com","tier":"","message":"","currency":"","rating":5.7},{"name":"Boston Beer Garden","phone":"6172690990","twitter":"bosbeergarden","address":"732 E Broadway","lat":42.33567798264167,"lng":-71.03599593121255,"neighborhood":"South Boston","city_fetched":"Quincy,US","state":"MA","country":"United States","canonicalUrl":"https://foursquare.com/bosbeergarden","categoryId":"4bf58dd8d48988d117941735","category":"Beer Garden","checkinsCount":3863,"usersCount":2173,"tipCount":18,"visitsCount":4205,"url":"http://bostonbeergarden.com","tier":2,"message":"Moderate","currency":"$","rating":5.7},{"name":"The Boston Eagle","phone":"6175424494","address":"520 Tremont St","lat":42.344885528568255,"lng":-71.0702716269845,"neighborhood":"South End","city_fetched":"Quincy,US","state":"MA","country":"United States","canonicalUrl":"https://foursquare.com/v/the-boston-eagle/40b28c80f964a52002f81ee3","categoryId":"4bf58dd8d48988d116941735","category":"Bar","checkinsCount":1698,"usersCount":741,"tipCount":15,"visitsCount":1724,"tier":"","message":"","currency":"","rating":5.6},{"name":"The Wild Rover","address":"61 Chatham St.","lat":42.35971698479006,"lng":-71.05404529106778,"neighborhood":"Downtown Boston","city_fetched":"Quincy,US","state":"MA","country":"United States","canonicalUrl":"https://foursquare.com/v/the-wild-rover/4fa5a0fee4b0ddd49656701e","categoryId":"4bf58dd8d48988d11b941735","category":"Pub","checkinsCount":3155,"usersCount":1838,"tipCount":26,"visitsCount":3228,"tier":2,"message":"Moderate","currency":"$","rating":5.6},{"name":"The Commonwealth","phone":"6177733400","address":"79 Parkingway","lat":42.2471741320235,"lng":-71.00366762011738,"neighborhood":"Quincy Center","city_fetched":"Quincy,US","state":"MA","country":"United States","canonicalUrl":"https://foursquare.com/v/the-commonwealth/4b7848aef964a5201ac22ee3","categoryId":"4bf58dd8d48988d11f941735","category":"Nightclub","checkinsCount":1101,"usersCount":529,"tipCount":11,"visitsCount":1116,"url":"http://commonwealthrestaurant.com","tier":"","message":"","currency":"","rating":5.5},{"name":"Champions Sports Bar","phone":"6172524444","twitter":"championskendal","address":"50 Broadway","lat":42.36271390643378,"lng":-71.085684299469,"neighborhood":"Kendall Square","city_fetched":"Quincy,US","state":"MA","country":"United States","canonicalUrl":"https://foursquare.com/v/champions-sports-bar/4e5421aa1f6e7ab6b1aea553","categoryId":"4bf58dd8d48988d11d941735","category":"Sports Bar","checkinsCount":2504,"usersCount":1530,"tipCount":14,"visitsCount":2570,"url":"http://www.championscambridge.com","tier":2,"message":"Moderate","currency":"$","rating":5.5},{"name":"Lucky's Lounge","phone":"6175672299","address":"at Terminal A","lat":42.36472745219673,"lng":-71.02163314819336,"neighborhood":"Jeffries Point","city_fetched":"Quincy,US","state":"MA","country":"United States","canonicalUrl":"https://foursquare.com/v/luckys-lounge/4acb4a8af964a52069c320e3","categoryId":"4bf58dd8d48988d116941735","category":"Bar","checkinsCount":1613,"usersCount":1286,"tipCount":31,"visitsCount":1615,"tier":2,"message":"Moderate","currency":"$","rating":5.4},{"name":"S6","phone":"6177741550","address":"1550 Hancock St","lat":42.24752266571588,"lng":-71.00104990393568,"neighborhood":"Quincy Center","city_fetched":"Quincy,US","state":"MA","country":"United States","canonicalUrl":"https://foursquare.com/v/s6/4ac3fc28f964a520c09d20e3","categoryId":"4bf58dd8d48988d116941735","category":"Bar","checkinsCount":1902,"usersCount":332,"tipCount":7,"visitsCount":1907,"tier":"","message":"","currency":"","rating":5.4},{"name":"Cisco Brew Pub of Nantucket","phone":"6175618782","address":"1 Harborside Drive (Terminal B)","lat":42.36307538954769,"lng":-71.01759754140836,"neighborhood":"Jeffries Point","city_fetched":"Quincy,US","state":"MA","country":"United States","canonicalUrl":"https://foursquare.com/v/cisco-brew-pub-of-nantucket/4b08059ff964a5206a0223e3","categoryId":"50327c8591d4c4b30a586d5d","category":"Brewery","checkinsCount":1742,"usersCount":1525,"tipCount":39,"visitsCount":1742,"url":"http://ciscobrewers.com","tier":2,"message":"Moderate","currency":"$","rating":5.4},{"name":"City Bar","phone":"6174430888","twitter":"citybarh2o","address":"425 Summer St","lat":42.34639017141165,"lng":-71.04360461625419,"neighborhood":"Seaport District","city_fetched":"Quincy,US","state":"MA","country":"United States","canonicalUrl":"https://foursquare.com/v/city-bar/4bfd5f02ee20ef3b7f5b3c5e","categoryId":"4bf58dd8d48988d1d5941735","category":"Hotel Bar","checkinsCount":1221,"usersCount":890,"tipCount":10,"visitsCount":1222,"url":"http://www.starwoodhotels.com/westin/pr","tier":"","message":"","currency":"","rating":5.4},{"name":"Habibis Hookah Bar","phone":"6179552064","address":"1217A Commonwealth Ave","lat":42.3506696846677,"lng":-71.13081288395055,"neighborhood":"Brighton","city_fetched":"Quincy,US","state":"MA","country":"United States","canonicalUrl":"https://foursquare.com/v/habibis-hookah-bar/4a8b76c7f964a520860c20e3","categoryId":"4bf58dd8d48988d119941735","category":"Hookah Bar","checkinsCount":1134,"usersCount":868,"tipCount":14,"visitsCount":1337,"url":"http://habibislounge.com","tier":"","message":"","currency":"","rating":5.3},{"name":"Canton Junction Sports Pub","phone":"7818287878","twitter":"cjunctionpub","address":"399 Neponset St","lat":42.160171834945174,"lng":-71.15583795538468,"city_fetched":"Quincy,US","state":"MA","country":"United States","canonicalUrl":"https://foursquare.com/v/canton-junction-sports-pub/4c5b8feb2815c928b1ecaf67","categoryId":"4bf58dd8d48988d11b941735","category":"Pub","checkinsCount":554,"usersCount":303,"tipCount":6,"visitsCount":698,"url":"http://www.junctionsportspub.com","tier":"","message":"","currency":"","rating":5.2},{"name":"Home Team Sports","address":"Terminal B, Logan Airport","lat":42.36181371466581,"lng":-71.02055178574335,"neighborhood":"Jeffries Point","city_fetched":"Quincy,US","state":"MA","country":"United States","canonicalUrl":"https://foursquare.com/v/home-team-sports/52a1ed2811d2c5b21d421b2d","categoryId":"4bf58dd8d48988d11d941735","category":"Sports Bar","checkinsCount":236,"usersCount":217,"tipCount":7,"visitsCount":237,"tier":"","message":"","currency":"","rating":5},{"name":"Braintree Brewhouse","phone":"7813564500","address":"703 Granite St","lat":42.207131511571724,"lng":-71.02310553604143,"neighborhood":"South Braintree","city_fetched":"Quincy,US","state":"MA","country":"United States","canonicalUrl":"https://foursquare.com/v/braintree-brewhouse/4f7f5089e4b0cc51644a6c43","categoryId":"4bf58dd8d48988d116941735","category":"Bar","checkinsCount":501,"usersCount":203,"tipCount":5,"visitsCount":511,"url":"http://www.braintreebrewhouse.com","tier":"","message":"","currency":"","rating":5},{"name":"Deadwood Cafe Brewery","phone":"6177401440","address":"820 William T Morrissey Blvd","lat":42.293967440907295,"lng":-71.04641938790064,"neighborhood":"Neponset - Port Norfolk","city_fetched":"Quincy,US","state":"MA","country":"United States","canonicalUrl":"https://foursquare.com/v/deadwood-cafe-brewery/4caff0d7ef1b370495f43600","categoryId":"50327c8591d4c4b30a586d5d","category":"Brewery","checkinsCount":256,"usersCount":189,"tipCount":7,"visitsCount":256,"tier":"","message":"","currency":"","rating":4.9}]