[{"name":"Yardarm Bar & Grill","phone":"2626338270","address":"920 Erie St","lat":42.7326128,"lng":-87.78727651,"city_fetched":"Racine","state":"WI","country":"United States","canonicalUrl":"https://foursquare.com/v/yardarm-bar--grill/4b53838ef964a52090a027e3","category":"American Restaurant","checkinsCount":1371,"usersCount":751,"tipCount":44,"visitsCount":1670,"url":"http://www.foodspot.com/yardarm","tier":2,"message":"Moderate","currency":"$","rating":8.7},{"name":"Toad Hall","phone":"2626326389","address":"611 Wisconsin Ave","lat":42.72642388522675,"lng":-87.78380067156517,"city_fetched":"Racine","state":"WI","country":"United States","canonicalUrl":"https://foursquare.com/v/toad-hall/4e1cce5f8877a470239e0058","category":"Pub","checkinsCount":3470,"usersCount":597,"tipCount":14,"visitsCount":3906,"url":"http://toadhallracine.com","tier":2,"message":"Moderate","currency":"$","rating":8.6},{"name":"The Ivanhoe Pub & Eatery","phone":"2626374730","address":"231 Main St","lat":42.73123077021347,"lng":-87.78338758305568,"city_fetched":"Racine","state":"WI","country":"United States","canonicalUrl":"https://foursquare.com/v/the-ivanhoe-pub--eatery/4aef64e2f964a52014d821e3","category":"Pub","checkinsCount":3337,"usersCount":1227,"tipCount":26,"visitsCount":3835,"url":"http://www.theivanhoepub.com","tier":2,"message":"Moderate","currency":"$","rating":8.3},{"name":"Buckets Pub","phone":"2626338951","address":"2031 Lathrop Ave","lat":42.7052587575566,"lng":-87.82558472243221,"city_fetched":"Racine","state":"WI","country":"United States","canonicalUrl":"https://foursquare.com/v/buckets-pub/4b624342f964a520323f2ae3","category":"Sports Bar","checkinsCount":2954,"usersCount":942,"tipCount":26,"visitsCount":3483,"tier":2,"message":"Moderate","currency":"$","rating":8.3},{"name":"Uncorkt","phone":"2626329463","address":"240 Main St","lat":42.73086665,"lng":-87.783585,"city_fetched":"Racine","state":"WI","country":"United States","canonicalUrl":"https://foursquare.com/v/uncorkt/4b77514ff964a52085912ee3","category":"Wine Shop","checkinsCount":606,"usersCount":234,"tipCount":3,"visitsCount":662,"url":"http://www.uncorkt.com","tier":"","message":"","currency":"","rating":8},{"name":"Scores","address":"4915 Washington Ave","lat":42.71815521130954,"lng":-87.83843429947426,"city_fetched":"Racine","state":"WI","country":"United States","canonicalUrl":"https://foursquare.com/v/scores/545a60fd498ee6fdb4320ea0","category":"Bar","checkinsCount":175,"usersCount":104,"tipCount":5,"visitsCount":222,"tier":"","message":"","currency":"","rating":7.9},{"name":"Pepi's Pub and Grill","phone":"2626336111","address":"618 6th St","lat":42.7263259,"lng":-87.78808556666667,"city_fetched":"Racine","state":"WI","country":"United States","canonicalUrl":"https://foursquare.com/v/pepis-pub-and-grill/4c194e5f98f4a5934ee3fff5","category":"Pub","checkinsCount":2135,"usersCount":739,"tipCount":18,"visitsCount":2779,"url":"http://homeofthebambino.com","tier":"","message":"","currency":"","rating":7.9},{"name":"Reefpoint Brew House","phone":"2628987333","twitter":"reefpointbrew","address":"2 Christopher Columbus","lat":42.73021084242349,"lng":-87.77586486878319,"city_fetched":"Racine","state":"WI","country":"United States","canonicalUrl":"https://foursquare.com/v/reefpoint-brew-house/5149e5ace4b00d7f7794c174","category":"Gastropub","checkinsCount":226,"usersCount":153,"tipCount":4,"visitsCount":227,"url":"http://www.reefpointbrewhouse.com","tier":"","message":"","currency":"","rating":7.8},{"name":"McAuliffe's Pub","phone":"2625549695","address":"3700 Meachem Rd","lat":42.688902408602985,"lng":-87.83672332763672,"city_fetched":"Racine","state":"WI","country":"United States","canonicalUrl":"https://foursquare.com/v/mcauliffes-pub/4b671b69f964a520023b2be3","category":"Rock Club","checkinsCount":3026,"usersCount":370,"tipCount":6,"visitsCount":3165,"url":"http://www.mcauliffespub.com","tier":"","message":"","currency":"","rating":7.8},{"name":"Envi","phone":"2627704297","address":"316 Main St","lat":42.730047,"lng":-87.78356339999999,"city_fetched":"Racine","state":"WI","country":"United States","canonicalUrl":"https://foursquare.com/v/envi/4e17c34e14957dc705d13c2f","category":"Cocktail Bar","checkinsCount":1617,"usersCount":611,"tipCount":9,"visitsCount":1762,"url":"http://www.enviultralounge.com","tier":"","message":"","currency":"","rating":7.6},{"name":"Tbg's","phone":"2626347000","address":"1814 Taylor Ave","lat":42.70864278,"lng":-87.807735625,"city_fetched":"Racine","state":"WI","country":"United States","canonicalUrl":"https://foursquare.com/v/tbgs/4c69de8635d3be9a56932006","category":"Bar","checkinsCount":1002,"usersCount":205,"tipCount":9,"visitsCount":1200,"tier":"","message":"","currency":"","rating":7.5},{"name":"George's Tavern","phone":"2626326469","address":"1201 N Main St","lat":42.735723149530095,"lng":-87.78462683724966,"city_fetched":"Racine","state":"WI","country":"United States","canonicalUrl":"https://foursquare.com/v/georges-tavern/4d731ee15838a093949915db","category":"Bar","checkinsCount":123,"usersCount":97,"tipCount":1,"visitsCount":126,"tier":"","message":"","currency":"","rating":7.4},{"name":"Brass Monkey","phone":"2628981567","address":"1436 Junction Ave","lat":42.71446139995541,"lng":-87.79671498634461,"city_fetched":"Racine","state":"WI","country":"United States","canonicalUrl":"https://foursquare.com/v/brass-monkey/4c4bb8c7f7cc1b8d73164340","category":"Bar","checkinsCount":449,"usersCount":154,"tipCount":6,"visitsCount":509,"tier":"","message":"","currency":"","rating":7.4},{"name":"Third Coast Wood Fire Pizza & Pub","address":"207 Gas Light Cir","lat":42.73184852456963,"lng":-87.77994343064125,"city_fetched":"Racine","state":"WI","country":"United States","canonicalUrl":"https://foursquare.com/v/third-coast-wood-fire-pizza--pub/56aea224498e46367c32022d","category":"Pizza Place","checkinsCount":93,"usersCount":132,"tipCount":3,"visitsCount":223,"tier":"","message":"","currency":"","rating":7.3},{"name":"Fritz's","phone":"2626394627","address":"4234 Douglas Ave","lat":42.77363,"lng":-87.8043383359909,"city_fetched":"Racine","state":"WI","country":"United States","canonicalUrl":"https://foursquare.com/v/fritzs/4bab95f9f964a52075b63ae3","category":"Bar","checkinsCount":219,"usersCount":127,"tipCount":4,"visitsCount":250,"tier":"","message":"","currency":"","rating":7.3},{"name":"Hammes Tavern","phone":"2626346566","address":"2005 Taylor Ave","lat":42.705520149755394,"lng":-87.81009606071733,"city_fetched":"Racine","state":"WI","country":"United States","canonicalUrl":"https://foursquare.com/v/hammes-tavern/4c54e244a724e21e38c215f7","category":"Bar","checkinsCount":201,"usersCount":79,"tipCount":2,"visitsCount":232,"tier":"","message":"","currency":"","rating":7.3},{"name":"Cham Tap","lat":42.696889949843076,"lng":-87.81013446497532,"city_fetched":"Racine","state":"WI","country":"United States","canonicalUrl":"https://foursquare.com/v/cham-tap/4cd4d6ea7da9a35ded51e6b9","category":"Bar","checkinsCount":380,"usersCount":112,"tipCount":2,"visitsCount":475,"tier":"","message":"","currency":"","rating":7.2},{"name":"Evelyns Club Main","phone":"2626329613","address":"331 Main St","lat":42.72959212887512,"lng":-87.7833683695447,"city_fetched":"Racine","state":"WI","country":"United States","canonicalUrl":"https://foursquare.com/v/evelyns-club-main/4b5b8d34f964a520700629e3","category":"Bar","checkinsCount":1873,"usersCount":340,"tipCount":12,"visitsCount":1913,"tier":"","message":"","currency":"","rating":7.2},{"name":"Joey's Pub  on Lathrop","lat":42.7046098340515,"lng":-87.82584866028132,"city_fetched":"Racine","state":"WI","country":"United States","canonicalUrl":"https://foursquare.com/v/joeys-pub--on-lathrop/4c426dd7ff711b8d319b1305","category":"Bar","checkinsCount":830,"usersCount":238,"tipCount":4,"visitsCount":1090,"tier":"","message":"","currency":"","rating":7.1},{"name":"Reefpoint Brewhouse","phone":"2628987333","address":"2 Christopher Columbus","lat":42.73036,"lng":-87.776039,"city_fetched":"Racine","state":"WI","country":"United States","canonicalUrl":"https://foursquare.com/v/reefpoint-brewhouse/51a01e2b498ef31a5194ef08","category":"Bar","checkinsCount":518,"usersCount":494,"tipCount":8,"visitsCount":858,"url":"http://reefpointbrewhouse.com","tier":"","message":"","currency":"","rating":7},{"name":"Paul's Pub Racine","phone":"2625980411","twitter":"paulspubracine","address":"2416 Lathrop Ave","lat":42.701068,"lng":-87.826441,"city_fetched":"Racine","state":"WI","country":"United States","canonicalUrl":"https://foursquare.com/paulspubracine","category":"Pub","checkinsCount":1977,"usersCount":165,"tipCount":6,"visitsCount":2120,"url":"http://paulspubracine.com","tier":1,"message":"Cheap","currency":"$","rating":6.9},{"name":"Michigan's Pub","phone":"2626346109","address":"1300 Michigan Blvd","lat":42.736974,"lng":-87.78296113014221,"city_fetched":"Racine","state":"WI","country":"United States","canonicalUrl":"https://foursquare.com/v/michigans-pub/4c32d4fa6f1fef3b425fec3d","category":"Bar","checkinsCount":714,"usersCount":249,"tipCount":6,"visitsCount":797,"tier":"","message":"","currency":"","rating":6.9},{"name":"Henry & Wanda's","phone":"2626321772","address":"501 6th St","lat":42.72634071423195,"lng":-87.78630313861892,"city_fetched":"Racine","state":"WI","country":"United States","canonicalUrl":"https://foursquare.com/v/henry--wandas/4bbe527953e99521d6182da9","category":"Cocktail Bar","checkinsCount":608,"usersCount":279,"tipCount":5,"visitsCount":674,"tier":"","message":"","currency":"","rating":6.9},{"name":"Deweys Sports Bar","address":"600 Main St","lat":42.72688413955615,"lng":-87.7829312599615,"city_fetched":"Racine","state":"WI","country":"United States","canonicalUrl":"https://foursquare.com/v/deweys-sports-bar/509ebf64e4b0b72b993b7795","category":"Sports Bar","checkinsCount":696,"usersCount":405,"tipCount":8,"visitsCount":883,"tier":"","message":"","currency":"","rating":6.8},{"name":"Teezer's","address":"1936 Lathrop Ave","lat":42.70658927232365,"lng":-87.82597822920465,"city_fetched":"Racine","state":"WI","country":"United States","canonicalUrl":"https://foursquare.com/v/teezers/4ce89cafd99f721e88d5b173","category":"Bar","checkinsCount":320,"usersCount":144,"tipCount":3,"visitsCount":360,"tier":"","message":"","currency":"","rating":6.7},{"name":"Bar 525","phone":"262","address":"525 Wisconsin Ave","lat":42.7269878727404,"lng":-87.7840216243333,"city_fetched":"Racine","state":"WI","country":"United States","canonicalUrl":"https://foursquare.com/v/bar-525/4e0e4962b61c3fe478023a13","category":"Bar","checkinsCount":240,"usersCount":120,"tipCount":1,"visitsCount":240,"tier":"","message":"","currency":"","rating":6.7},{"name":"McAuliffeâ€™s On The Square","phone":"2628839054","address":"213 6th St","lat":42.726777,"lng":-87.78362943,"city_fetched":"Racine","state":"WI","country":"United States","canonicalUrl":"https://foursquare.com/v/mcauliffes-on-the-square/4b6718d6f964a5204c3a2be3","category":"Bar","checkinsCount":1486,"usersCount":383,"tipCount":7,"visitsCount":1542,"tier":2,"message":"Moderate","currency":"$","rating":6.6},{"name":"Coasters","phone":"2626379006","address":"1301 N Main St","lat":42.73698875,"lng":-87.784571,"city_fetched":"Racine","state":"WI","country":"United States","canonicalUrl":"https://foursquare.com/v/coasters/4c0082e4379020a118b0467f","category":"Bar","checkinsCount":1059,"usersCount":352,"tipCount":11,"visitsCount":1357,"tier":1,"message":"Cheap","currency":"$","rating":6.6},{"name":"Boiler Room","address":"5200 Washington Ave","lat":42.71943699263021,"lng":-87.84217620468193,"city_fetched":"Racine","state":"WI","country":"United States","canonicalUrl":"https://foursquare.com/v/boiler-room/4b9dc678f964a5205dbd36e3","category":"Bar","checkinsCount":1024,"usersCount":270,"tipCount":5,"visitsCount":1161,"tier":"","message":"","currency":"","rating":6.4},{"name":"The Pink Magnolia","phone":"2628981811","address":"240B Main St","lat":42.730818,"lng":-87.783603,"city_fetched":"Racine","state":"WI","country":"United States","canonicalUrl":"https://foursquare.com/v/the-pink-magnolia/4c5355041b46c9b6ce7cc3cc","category":"Lounge","checkinsCount":220,"usersCount":137,"tipCount":2,"visitsCount":223,"url":"http://thepinkmagnoliacuisine.com","tier":"","message":"","currency":"","rating":6.4},{"name":"20 & Oakes Bar And Grill","address":"7111 Washington Ave","lat":42.718501417103234,"lng":-87.86928611492853,"city_fetched":"Racine","state":"WI","country":"United States","canonicalUrl":"https://foursquare.com/v/20--oakes-bar-and-grill/4e43324462e1b6355a9da3c4","category":"Bar","checkinsCount":430,"usersCount":209,"tipCount":6,"visitsCount":438,"tier":"","message":"","currency":"","rating":6.4},{"name":"Curmudgeons","lat":42.752463396826464,"lng":-87.81990728469476,"city_fetched":"Racine","state":"WI","country":"United States","canonicalUrl":"https://foursquare.com/v/curmudgeons/512d6c65e4b0db5aa174df7a","category":"Bar","checkinsCount":189,"usersCount":62,"tipCount":3,"visitsCount":194,"tier":"","message":"","currency":"","rating":6.1},{"name":"Ricky's Place","address":"236 Main St","lat":42.731069830998834,"lng":-87.78366137469929,"city_fetched":"Racine","state":"WI","country":"United States","canonicalUrl":"https://foursquare.com/v/rickys-place/4b779a69f964a5208aa32ee3","category":"Bar","checkinsCount":749,"usersCount":293,"tipCount":2,"visitsCount":758,"tier":"","message":"","currency":"","rating":5.8},{"name":"Freddie's Friki Tiki","phone":"2626350533","address":"207 Gas Light Cir","lat":42.7317524,"lng":-87.779765,"city_fetched":"Racine","state":"WI","country":"United States","canonicalUrl":"https://foursquare.com/v/freddies-friki-tiki/4c11804ed41e76b07590310d","category":"Bar","checkinsCount":672,"usersCount":302,"tipCount":5,"visitsCount":673,"tier":"","message":"","currency":"","rating":5.6},{"name":"2 Sheets To The Wind Pub & Grill","twitter":"2sheetsracine","address":"3316 Douglas Ave","lat":42.75966582762299,"lng":-87.80130062401787,"city_fetched":"Racine","state":"WI","country":"United States","canonicalUrl":"https://foursquare.com/v/2-sheets-to-the-wind-pub--grill/504a9685e4b086a8f9a12c1f","category":"Bar","checkinsCount":191,"usersCount":58,"tipCount":6,"visitsCount":196,"tier":"","message":"","currency":"","rating":5.6}]