[{"name":"Trophy Brewing & Pizza","phone":"9198034849","twitter":"trophybrewing","address":"827 W Morgan St","lat":35.77964658344781,"lng":-78.65333318710327,"city_fetched":"Raleigh,US","state":"NC","country":"United States","canonicalUrl":"https://foursquare.com/v/trophy-brewing--pizza/50ef772952628b00a83ba36a","categoryId":"50327c8591d4c4b30a586d5d","category":"Brewery","checkinsCount":6986,"usersCount":3280,"tipCount":84,"visitsCount":9165,"url":"http://www.trophybrewing.com","tier":2,"message":"Moderate","currency":"$","rating":9.2},{"name":"Lonerider Brewing Company","phone":"9194428004","address":"8816 Gulf Ct","lat":35.90365564827539,"lng":-78.76262247562408,"city_fetched":"Raleigh,US","state":"NC","country":"United States","canonicalUrl":"https://foursquare.com/v/lonerider-brewing-company/4b2e661af964a5207adf24e3","categoryId":"50327c8591d4c4b30a586d5d","category":"Brewery","checkinsCount":4410,"usersCount":2056,"tipCount":69,"visitsCount":5212,"url":"http://www.loneriderbeer.com","tier":1,"message":"Cheap","currency":"$","rating":9.2},{"name":"Trophy Brewing Co. & Taproom","phone":"9198031333","twitter":"trophybrewing","address":"656 Maywood Ave","lat":35.76142869305508,"lng":-78.65725149701191,"neighborhood":"Southwest Raleigh","city_fetched":"Raleigh,US","state":"NC","country":"United States","canonicalUrl":"https://foursquare.com/v/trophy-brewing-co--taproom/567309e2498ed898c592d8c0","categoryId":"50327c8591d4c4b30a586d5d","category":"Brewery","checkinsCount":609,"usersCount":532,"tipCount":7,"visitsCount":1043,"url":"http://trophybrewing.com","tier":"","message":"","currency":"","rating":9.1},{"name":"Flying Saucer Draught Emporium","phone":"9198217401","twitter":"flyingsaucerral","address":"328 W Morgan St","lat":35.779978992209976,"lng":-78.64487987991008,"neighborhood":"Central Raleigh","city_fetched":"Raleigh,US","state":"NC","country":"United States","canonicalUrl":"https://foursquare.com/v/flying-saucer-draught-emporium/4ad4c008f964a520cbec20e3","categoryId":"4bf58dd8d48988d117941735","category":"Beer Garden","checkinsCount":44298,"usersCount":9653,"tipCount":151,"visitsCount":47557,"url":"http://www.beerknurd.com","tier":2,"message":"Moderate","currency":"$","rating":9},{"name":"Raleigh Brewing Company","phone":"9194009086","twitter":"raleighbrewing","address":"3709 Neil St","lat":35.79305246722381,"lng":-78.68704679065296,"city_fetched":"Raleigh,US","state":"NC","country":"United States","canonicalUrl":"https://foursquare.com/v/raleigh-brewing-company/5038b9b4e4b0bb320973e4c9","categoryId":"50327c8591d4c4b30a586d5d","category":"Brewery","checkinsCount":5066,"usersCount":2384,"tipCount":48,"visitsCount":6862,"url":"http://raleighbrewingcompany.com","tier":1,"message":"Cheap","currency":"$","rating":9},{"name":"Boxcar Bar+Arcade","phone":"9198032796","twitter":"boxcarral","address":"330 W Davie St","lat":35.775892045811965,"lng":-78.64499623452942,"neighborhood":"Central Raleigh","city_fetched":"Raleigh,US","state":"NC","country":"United States","canonicalUrl":"https://foursquare.com/boxcarral","categoryId":"4bf58dd8d48988d116941735","category":"Bar","checkinsCount":2410,"usersCount":1607,"tipCount":26,"visitsCount":3184,"url":"http://theboxcarbar.com/raleigh","tier":"","message":"","currency":"","rating":9},{"name":"Busy Bee Cafe","phone":"9194247817","twitter":"busybeecafe","address":"225 S Wilmington St","lat":35.777405825506825,"lng":-78.63823636103652,"neighborhood":"Central Raleigh","city_fetched":"Raleigh,US","state":"NC","country":"United States","canonicalUrl":"https://foursquare.com/v/busy-bee-cafe/4ad939c5f964a5203d1921e3","categoryId":"4bf58dd8d48988d116941735","category":"Bar","checkinsCount":20477,"usersCount":7015,"tipCount":128,"visitsCount":20743,"url":"http://busybeeraleigh.com","tier":2,"message":"Moderate","currency":"$","rating":8.9},{"name":"Foundation","phone":"9198966016","twitter":"foundationbar","address":"213 Fayetteville St","lat":35.77775236759166,"lng":-78.63928361719822,"neighborhood":"Central Raleigh","city_fetched":"Raleigh,US","state":"NC","country":"United States","canonicalUrl":"https://foursquare.com/v/foundation/4ad7e545f964a520e50f21e3","categoryId":"4bf58dd8d48988d11e941735","category":"Cocktail Bar","checkinsCount":9312,"usersCount":3290,"tipCount":68,"visitsCount":9449,"url":"http://foundationnc.com","tier":2,"message":"Moderate","currency":"$","rating":8.9},{"name":"Crank Arm Brewing Company","twitter":"crankarmbrew","address":"319 W Davie St","lat":35.77567746054973,"lng":-78.64393472671509,"neighborhood":"Central Raleigh","city_fetched":"Raleigh,US","state":"NC","country":"United States","canonicalUrl":"https://foursquare.com/crankarmbrew","categoryId":"50327c8591d4c4b30a586d5d","category":"Brewery","checkinsCount":4104,"usersCount":2641,"tipCount":50,"visitsCount":5086,"url":"http://www.crankarmbrewing.com","tier":1,"message":"Cheap","currency":"$","rating":8.9},{"name":"Big Boss Brewing Company","phone":"9198340045","twitter":"bigbossbeer","address":"1249 Wicker Dr","lat":35.809717438615635,"lng":-78.6172002651952,"neighborhood":"East Raleigh","city_fetched":"Raleigh,US","state":"NC","country":"United States","canonicalUrl":"https://foursquare.com/v/big-boss-brewing-company/4a594fbbf964a52036b91fe3","categoryId":"50327c8591d4c4b30a586d5d","category":"Brewery","checkinsCount":8883,"usersCount":3080,"tipCount":72,"visitsCount":10072,"url":"http://www.bigbossbrewing.com","tier":1,"message":"Cheap","currency":"$","rating":8.8},{"name":"Bittersweet","phone":"9199773829","twitter":"bittersweetral","address":"16 E Martin St","lat":35.777024657691356,"lng":-78.638740596851,"neighborhood":"Central Raleigh","city_fetched":"Raleigh,US","state":"NC","country":"United States","canonicalUrl":"https://foursquare.com/v/bittersweet/534405c6498ea063076e5651","categoryId":"4bf58dd8d48988d11e941735","category":"Cocktail Bar","checkinsCount":1263,"usersCount":683,"tipCount":9,"visitsCount":1330,"url":"http://bittersweetraleigh.com","tier":"","message":"","currency":"","rating":8.8},{"name":"Clouds Brewing","phone":"9193078335","address":"126 West St","lat":35.78253173828125,"lng":-78.64564514160156,"neighborhood":"Central Raleigh","city_fetched":"Raleigh,US","state":"NC","country":"United States","canonicalUrl":"https://foursquare.com/v/clouds-brewing/53ffa072498ec5fabc06d18b","categoryId":"50327c8591d4c4b30a586d5d","category":"Brewery","checkinsCount":1728,"usersCount":1568,"tipCount":26,"visitsCount":2867,"url":"http://www.cloudsbrewing.com","tier":"","message":"","currency":"","rating":8.8},{"name":"Person Street Bar","phone":"9199775953","address":"805 N Person St","lat":35.79041603333781,"lng":-78.63451269494266,"neighborhood":"Central Raleigh","city_fetched":"Raleigh,US","state":"NC","country":"United States","canonicalUrl":"https://foursquare.com/v/person-street-bar/53225def498ee17fc74afb38","categoryId":"4bf58dd8d48988d116941735","category":"Bar","checkinsCount":1355,"usersCount":589,"tipCount":7,"visitsCount":1712,"url":"http://person-street.com","tier":2,"message":"Moderate","currency":"$","rating":8.8},{"name":"Compass Rose Brewery","twitter":"compassrosebrew","address":"3201 Northside Dr","lat":35.88367212707418,"lng":-78.5824278532232,"neighborhood":"North Raleigh","city_fetched":"Raleigh,US","state":"NC","country":"United States","canonicalUrl":"https://foursquare.com/v/compass-rose-brewery/543fff0c498e8f02109781d8","categoryId":"50327c8591d4c4b30a586d5d","category":"Brewery","checkinsCount":691,"usersCount":438,"tipCount":6,"visitsCount":1162,"url":"http://compassrosebrewery.com","tier":"","message":"","currency":"","rating":8.7},{"name":"Wakefield Tavern","phone":"9195540673","address":"13200 Falls of Neuse Rd","lat":35.94012520497445,"lng":-78.56072187423706,"neighborhood":"North Raleigh","city_fetched":"Raleigh,US","state":"NC","country":"United States","canonicalUrl":"https://foursquare.com/v/wakefield-tavern/4cfc7429c671721ee7d7c818","categoryId":"4bf58dd8d48988d116941735","category":"Bar","checkinsCount":1434,"usersCount":547,"tipCount":35,"visitsCount":1692,"url":"http://wakefieldtavern.com","tier":2,"message":"Moderate","currency":"$","rating":8.7},{"name":"Lynnwood Brewing Concern","phone":"9194247533","twitter":"brewinglynnwood","address":"1053 E Whitaker Mill Rd","lat":35.80807829911387,"lng":-78.62199417868725,"neighborhood":"East Raleigh","city_fetched":"Raleigh,US","state":"NC","country":"United States","canonicalUrl":"https://foursquare.com/v/lynnwood-brewing-concern/562c5e65498e5d0ef524ca16","categoryId":"50327c8591d4c4b30a586d5d","category":"Brewery","checkinsCount":471,"usersCount":377,"tipCount":2,"visitsCount":763,"tier":"","message":"","currency":"","rating":8.7},{"name":"Fifteen","phone":"9196152758","address":"317 W Morgan St","lat":35.77972283264099,"lng":-78.64362767402184,"neighborhood":"Central Raleigh","city_fetched":"Raleigh,US","state":"NC","country":"United States","canonicalUrl":"https://foursquare.com/v/fifteen/50d66294498e6fa6358c1169","categoryId":"4bf58dd8d48988d121941735","category":"Lounge","checkinsCount":3055,"usersCount":470,"tipCount":10,"visitsCount":3305,"url":"http://www.fifteenraleigh.com","tier":2,"message":"Moderate","currency":"$","rating":8.7},{"name":"William & Company","phone":"9842424788","twitter":"willcobar","address":"616 N Person St","lat":35.78870973558812,"lng":-78.63418575931989,"neighborhood":"Oakwood","city_fetched":"Raleigh,US","state":"NC","country":"United States","canonicalUrl":"https://foursquare.com/v/william--company/553987af498e037083a59c82","categoryId":"4bf58dd8d48988d11e941735","category":"Cocktail Bar","checkinsCount":343,"usersCount":187,"tipCount":0,"visitsCount":410,"tier":"","message":"","currency":"","rating":8.6},{"name":"The Oak","phone":"9197879100","twitter":"theoakraleigh","address":"4035 Lake Boone Trl Ste 115","lat":35.81519,"lng":-78.696862,"neighborhood":"Northwest Raleigh","city_fetched":"Raleigh,US","state":"NC","country":"United States","canonicalUrl":"https://foursquare.com/v/the-oak/53586025498e22a333d9a15b","categoryId":"4bf58dd8d48988d11e941735","category":"Cocktail Bar","checkinsCount":373,"usersCount":228,"tipCount":10,"visitsCount":419,"url":"http://www.theoakraleigh.com","tier":2,"message":"Moderate","currency":"$","rating":8.6},{"name":"The Green Light Bar","phone":"9196995256","twitter":"ncgreenlightbar","address":"108 1/2 E Hargett St","lat":35.77814433460133,"lng":-78.63794822514623,"neighborhood":"Central Raleigh","city_fetched":"Raleigh,US","state":"NC","country":"United States","canonicalUrl":"https://foursquare.com/v/the-green-light-bar/52212d5811d25b22ef416249","categoryId":"4bf58dd8d48988d121941735","category":"Lounge","checkinsCount":618,"usersCount":352,"tipCount":6,"visitsCount":632,"url":"http://www.architectbar.com","tier":"","message":"","currency":"","rating":8.6},{"name":"Gallo Pelón","twitter":"gallopelon","address":"106½  South Wilmington St.","lat":35.779372406987086,"lng":-78.63836646080017,"neighborhood":"Central Raleigh","city_fetched":"Raleigh,US","state":"NC","country":"United States","canonicalUrl":"https://foursquare.com/v/gallo-pel%C3%B3n/53c2e7a1498e06db62294821","categoryId":"4bf58dd8d48988d11e941735","category":"Cocktail Bar","checkinsCount":195,"usersCount":117,"tipCount":6,"visitsCount":202,"url":"http://instagram.com/GalloPelon","tier":"","message":"","currency":"","rating":8.6},{"name":"The Players' Retreat","phone":"9197559589","twitter":"prraleigh","address":"105 Oberlin Rd","lat":35.78613950199673,"lng":-78.66145223379135,"neighborhood":"Cameron Park","city_fetched":"Raleigh,US","state":"NC","country":"United States","canonicalUrl":"https://foursquare.com/prraleigh","categoryId":"4bf58dd8d48988d11d941735","category":"Sports Bar","checkinsCount":14157,"usersCount":3847,"tipCount":92,"visitsCount":15773,"url":"http://www.playersretreat.net","tier":2,"message":"Moderate","currency":"$","rating":8.5},{"name":"Havana Deluxe","phone":"9198310991","twitter":"haveacigar_nc","address":"437 Glenwood Ave","lat":35.78613950199673,"lng":-78.64782929420471,"city_fetched":"Raleigh,US","state":"NC","country":"United States","canonicalUrl":"https://foursquare.com/v/havana-deluxe/4ad4c008f964a520c5ec20e3","categoryId":"4bf58dd8d48988d116941735","category":"Bar","checkinsCount":6975,"usersCount":964,"tipCount":28,"visitsCount":7112,"url":"http://havanadrlux.com","tier":2,"message":"Moderate","currency":"$","rating":8.5},{"name":"Fox Liquor Bar","phone":"9193220128","address":"237 S Wilmington St","lat":35.777017,"lng":-78.638333,"neighborhood":"Central Raleigh","city_fetched":"Raleigh,US","state":"NC","country":"United States","canonicalUrl":"https://foursquare.com/v/fox-liquor-bar/4e693e741f6ee8476e62ac43","categoryId":"4bf58dd8d48988d11e941735","category":"Cocktail Bar","checkinsCount":6097,"usersCount":2925,"tipCount":59,"visitsCount":6129,"url":"http://www.ac-restaurants.com/fox/","tier":3,"message":"Expensive","currency":"$","rating":8.5},{"name":"C. Grace","phone":"9198993675","twitter":"cgracebar","address":"407 Glenwood Ave","lat":35.78543245139155,"lng":-78.64752829918648,"city_fetched":"Raleigh,US","state":"NC","country":"United States","canonicalUrl":"https://foursquare.com/v/c-grace/4eb1aecacc21adeaf82cf1e8","categoryId":"4bf58dd8d48988d11e941735","category":"Cocktail Bar","checkinsCount":4238,"usersCount":1720,"tipCount":44,"visitsCount":4300,"url":"http://cgracebar.com","tier":2,"message":"Moderate","currency":"$","rating":8.5},{"name":"Wild Turkey Bar & Lounge","phone":"9197812444","address":"9401 Glenwood Ave","lat":35.899166559806645,"lng":-78.76372904805486,"city_fetched":"Raleigh,US","state":"NC","country":"United States","canonicalUrl":"https://foursquare.com/v/wild-turkey-bar--lounge/4ba40900f964a520287a38e3","categoryId":"4bf58dd8d48988d11e941735","category":"Cocktail Bar","checkinsCount":1426,"usersCount":726,"tipCount":7,"visitsCount":1451,"url":"http://thewildturkeybar.com","tier":"","message":"","currency":"","rating":8.4},{"name":"Cornerstone Tavern","phone":"9198095560","address":"603 Glenwood Ave","lat":35.78745062777138,"lng":-78.64738424470953,"city_fetched":"Raleigh,US","state":"NC","country":"United States","canonicalUrl":"https://foursquare.com/v/cornerstone-tavern/5091dface4b0b52577ded48a","categoryId":"4bf58dd8d48988d116941735","category":"Bar","checkinsCount":4116,"usersCount":1624,"tipCount":14,"visitsCount":4648,"url":"http://cornerstoneraleigh.com","tier":2,"message":"Moderate","currency":"$","rating":8.3},{"name":"The Borough","phone":"9198328433","twitter":"theborough","address":"317 W Morgan St","lat":35.7797901993118,"lng":-78.64349484443665,"neighborhood":"Central Raleigh","city_fetched":"Raleigh,US","state":"NC","country":"United States","canonicalUrl":"https://foursquare.com/v/the-borough/4ad7b392f964a520d30d21e3","categoryId":"4bf58dd8d48988d116941735","category":"Bar","checkinsCount":14760,"usersCount":2812,"tipCount":84,"visitsCount":15333,"url":"http://theboroughraleigh.com","tier":2,"message":"Moderate","currency":"$","rating":8.3},{"name":"Pipers Tavern","phone":"9196767413","address":"8304 Falls of Neuse Rd","lat":35.89470469253539,"lng":-78.61993254682952,"neighborhood":"North Raleigh","city_fetched":"Raleigh,US","state":"NC","country":"United States","canonicalUrl":"https://foursquare.com/v/pipers-tavern/4ada0b11f964a520b11d21e3","categoryId":"4bf58dd8d48988d11b941735","category":"Pub","checkinsCount":3351,"usersCount":1596,"tipCount":49,"visitsCount":4190,"url":"http://thepiperstavern.com","tier":2,"message":"Moderate","currency":"$","rating":8.2},{"name":"Village Draft House","phone":"9198331373","address":"428 Daniels St","lat":35.78985897222591,"lng":-78.66071303720102,"city_fetched":"Raleigh,US","state":"NC","country":"United States","canonicalUrl":"https://foursquare.com/v/village-draft-house/4ada0680f964a5206c1d21e3","categoryId":"4bf58dd8d48988d116941735","category":"Bar","checkinsCount":11463,"usersCount":4764,"tipCount":57,"visitsCount":12217,"url":"http://www.villagedrafthouse.com","tier":2,"message":"Moderate","currency":"$","rating":8.2},{"name":"Vinos Finos","phone":"9197479233","twitter":"vinosfinoscafe","address":"8450 Honeycutt Rd Ste 110","lat":35.89426511127807,"lng":-78.62224102020264,"neighborhood":"North Raleigh","city_fetched":"Raleigh,US","state":"NC","country":"United States","canonicalUrl":"https://foursquare.com/v/vinos-finos/4d33ab072e56236ae85928b4","categoryId":"4bf58dd8d48988d123941735","category":"Wine Bar","checkinsCount":798,"usersCount":393,"tipCount":15,"visitsCount":803,"url":"http://www.vinosfinosraleigh.com","tier":2,"message":"Moderate","currency":"$","rating":8.2},{"name":"The Station at Person Street","phone":"9199771567","twitter":"stationraleigh","address":"701 N Person St","lat":35.78923934983634,"lng":-78.63451823621521,"neighborhood":"Central Raleigh","city_fetched":"Raleigh,US","state":"NC","country":"United States","canonicalUrl":"https://foursquare.com/v/the-station-at-person-street/526ed5ca11d2bf8187824bf8","categoryId":"4bf58dd8d48988d116941735","category":"Bar","checkinsCount":3008,"usersCount":1793,"tipCount":39,"visitsCount":4282,"url":"http://stationraleigh.com","tier":2,"message":"Moderate","currency":"$","rating":8.2},{"name":"Hibernian Pub","phone":"9198030290","address":"8021 Falls of Neuse Rd","lat":35.893864733396995,"lng":-78.62448803160756,"neighborhood":"North Raleigh","city_fetched":"Raleigh,US","state":"NC","country":"United States","canonicalUrl":"https://foursquare.com/v/hibernian-pub/511560d6e4b03f38709e3c98","categoryId":"4bf58dd8d48988d11b941735","category":"Pub","checkinsCount":2416,"usersCount":1573,"tipCount":31,"visitsCount":3504,"url":"http://hibernianpub.com","tier":2,"message":"Moderate","currency":"$","rating":8.2},{"name":"Crafty Beer Shop","phone":"9196153008","twitter":"craftybeershop","address":"2005 Fairview Rd","lat":35.804303,"lng":-78.646687,"city_fetched":"Raleigh,US","state":"NC","country":"United States","canonicalUrl":"https://foursquare.com/v/crafty-beer-shop/51f1a51d498efff643581dd2","categoryId":"50327c8591d4c4b30a586d5d","category":"Brewery","checkinsCount":1029,"usersCount":511,"tipCount":14,"visitsCount":1249,"url":"http://craftybeershop.com","tier":"","message":"","currency":"","rating":8.1},{"name":"Landmark Tavern","phone":"9198219865","address":"117 E Hargett St","lat":35.778303,"lng":-78.637533,"neighborhood":"Central Raleigh","city_fetched":"Raleigh,US","state":"NC","country":"United States","canonicalUrl":"https://foursquare.com/v/landmark-tavern/4ad937b5f964a5202a1921e3","categoryId":"4bf58dd8d48988d116941735","category":"Bar","checkinsCount":11532,"usersCount":3413,"tipCount":30,"visitsCount":11934,"url":"http://thelandmarktavern.org","tier":2,"message":"Moderate","currency":"$","rating":8.1},{"name":"TJ'S Night Life","phone":"9197131300","address":"4801 Leigh Dr","lat":35.85184767073432,"lng":-78.58533294291215,"neighborhood":"Northeast Raleigh","city_fetched":"Raleigh,US","state":"NC","country":"United States","canonicalUrl":"https://foursquare.com/v/tjs-night-life/4babf4b8f964a52006d93ae3","categoryId":"4bf58dd8d48988d11f941735","category":"Nightclub","checkinsCount":782,"usersCount":457,"tipCount":8,"visitsCount":1163,"url":"http://tjsnightlife.com","tier":"","message":"","currency":"","rating":8.1},{"name":"Stag's Head Beer Hall and Bottle Shop","twitter":"stagsheadnc","address":"106 Glenwood Ave","lat":35.782048514101454,"lng":-78.64731775795795,"city_fetched":"Raleigh,US","state":"NC","country":"United States","canonicalUrl":"https://foursquare.com/v/stags-head-beer-hall-and-bottle-shop/53e63602498e01b8faf5ef4e","categoryId":"4bf58dd8d48988d117941735","category":"Beer Garden","checkinsCount":855,"usersCount":337,"tipCount":6,"visitsCount":966,"tier":"","message":"","currency":"","rating":8},{"name":"Raleigh Beer Garden","phone":"9193243415","twitter":"ralbeergarden","address":"614 Glenwood Ave","lat":35.78807483221118,"lng":-78.6470185670294,"neighborhood":"Glenwood","city_fetched":"Raleigh,US","state":"NC","country":"United States","canonicalUrl":"https://foursquare.com/v/raleigh-beer-garden/55a8503a498ea92463e6558c","categoryId":"4bf58dd8d48988d117941735","category":"Beer Garden","checkinsCount":2363,"usersCount":2378,"tipCount":35,"visitsCount":4004,"url":"http://theraleighbeergarden.com","tier":2,"message":"Moderate","currency":"$","rating":8},{"name":"Circa 1888","lat":35.776066390868905,"lng":-78.64553368030224,"neighborhood":"Central Raleigh","city_fetched":"Raleigh,US","state":"NC","country":"United States","canonicalUrl":"https://foursquare.com/v/circa-1888/54f134f1498e3eb5cc9717f6","categoryId":"4bf58dd8d48988d121941735","category":"Lounge","checkinsCount":431,"usersCount":282,"tipCount":2,"visitsCount":628,"tier":"","message":"","currency":"","rating":8},{"name":"Lynnwood Brewing Concern","address":"4821 Grove Barton Rd","lat":35.8704948425293,"lng":-78.71745300292969,"neighborhood":"Northwest Raleigh","city_fetched":"Raleigh,US","state":"NC","country":"United States","canonicalUrl":"https://foursquare.com/v/lynnwood-brewing-concern/527fd61311d29713fe50c889","categoryId":"50327c8591d4c4b30a586d5d","category":"Brewery","checkinsCount":305,"usersCount":158,"tipCount":7,"visitsCount":312,"url":"http://lynnwoodgrill.com","tier":"","message":"","currency":"","rating":8},{"name":"Hibernian Pub","phone":"9198332258","twitter":"hibernianpub","address":"311 Glenwood Ave","lat":35.784795935034445,"lng":-78.64740086639051,"city_fetched":"Raleigh,US","state":"NC","country":"United States","canonicalUrl":"https://foursquare.com/v/hibernian-pub/51302d4be4b06aa0931c42d9","categoryId":"4bf58dd8d48988d116941735","category":"Bar","checkinsCount":3345,"usersCount":2003,"tipCount":18,"visitsCount":3980,"url":"http://hibernianpub.com","tier":2,"message":"Moderate","currency":"$","rating":8},{"name":"Mosaic Wine Lounge","phone":"9198295886","twitter":"mosaicwineloung","address":"517 W Jones St","lat":35.782762554244854,"lng":-78.64710509777069,"city_fetched":"Raleigh,US","state":"NC","country":"United States","canonicalUrl":"https://foursquare.com/mosaicwineloung","categoryId":"4bf58dd8d48988d121941735","category":"Lounge","checkinsCount":3068,"usersCount":1560,"tipCount":28,"visitsCount":3242,"url":"http://www.mosaicwinelounge.com","tier":2,"message":"Moderate","currency":"$","rating":7.9},{"name":"Mitch's Tavern","phone":"9198217771","twitter":"mitchstavern","address":"2426 Hillsborough St","lat":35.787827922072466,"lng":-78.66762399673462,"city_fetched":"Raleigh,US","state":"NC","country":"United States","canonicalUrl":"https://foursquare.com/v/mitchs-tavern/4ad899baf964a520b51221e3","categoryId":"4bf58dd8d48988d11b941735","category":"Pub","checkinsCount":5493,"usersCount":2039,"tipCount":43,"visitsCount":5637,"url":"http://www.mitchstavern.com","tier":1,"message":"Cheap","currency":"$","rating":7.9},{"name":"Clockwork","phone":"9198342211","twitter":"cwraleigh","address":"519 W North St","lat":35.784931524059395,"lng":-78.64702964819087,"city_fetched":"Raleigh,US","state":"NC","country":"United States","canonicalUrl":"https://foursquare.com/v/clockwork/50be987be4b089ddbd60aaa7","categoryId":"4bf58dd8d48988d116941735","category":"Bar","checkinsCount":2515,"usersCount":1185,"tipCount":27,"visitsCount":2624,"url":"http://clockworkraleigh.com","tier":2,"message":"Moderate","currency":"$","rating":7.9},{"name":"Sawmill Tap Room","phone":"9198457889","twitter":"sawmilltaproom","address":"7701 Lead Mine Rd","lat":35.885019117263596,"lng":-78.66026521944232,"neighborhood":"North Raleigh","city_fetched":"Raleigh,US","state":"NC","country":"United States","canonicalUrl":"https://foursquare.com/v/sawmill-tap-room/4b43fec0f964a520cdef25e3","categoryId":"4bf58dd8d48988d116941735","category":"Bar","checkinsCount":5322,"usersCount":1533,"tipCount":35,"visitsCount":5623,"url":"http://sawmilltaproom.com","tier":2,"message":"Moderate","currency":"$","rating":7.8},{"name":"Wakefield Wine Cellar","phone":"9195565725","address":"13600 Falls of Neuse Rd","lat":35.943063605181905,"lng":-78.55836894397142,"neighborhood":"North Raleigh","city_fetched":"Raleigh,US","state":"NC","country":"United States","canonicalUrl":"https://foursquare.com/v/wakefield-wine-cellar/50fb3cfce4b0192efabf42d0","categoryId":"4bf58dd8d48988d123941735","category":"Wine Bar","checkinsCount":162,"usersCount":112,"tipCount":2,"visitsCount":187,"url":"http://wakefieldwinecellar.com","tier":"","message":"","currency":"","rating":7.8},{"name":"Coglin's Raleigh","phone":"9194106427","twitter":"coglinsraleigh","address":"226 Fayetteville St","lat":35.77729409943592,"lng":-78.63922266608138,"neighborhood":"Central Raleigh","city_fetched":"Raleigh,US","state":"NC","country":"United States","canonicalUrl":"https://foursquare.com/coglinsraleigh","categoryId":"4bf58dd8d48988d116941735","category":"Bar","checkinsCount":4528,"usersCount":1765,"tipCount":12,"visitsCount":4748,"url":"http://www.coglins.com","tier":2,"message":"Moderate","currency":"$","rating":7.8},{"name":"Tír na nÓg Irish Pub","phone":"9198337795","twitter":"tnnraleigh","address":"218 S Blount St","lat":35.77734434221569,"lng":-78.63678395748138,"neighborhood":"Central Raleigh","city_fetched":"Raleigh,US","state":"NC","country":"United States","canonicalUrl":"https://foursquare.com/v/t%C3%ADr-na-n%C3%B3g-irish-pub/4ad4c008f964a520c9ec20e3","categoryId":"4bf58dd8d48988d11b941735","category":"Pub","checkinsCount":17792,"usersCount":6254,"tipCount":111,"visitsCount":18501,"url":"http://tirnanogirishpub.com","tier":2,"message":"Moderate","currency":"$","rating":7.7},{"name":"Paddy O'Beers","twitter":"paddyobeers","address":"121 Fayetteville St","lat":35.77914610189446,"lng":-78.63898605108261,"neighborhood":"Central Raleigh","city_fetched":"Raleigh,US","state":"NC","country":"United States","canonicalUrl":"https://foursquare.com/v/paddy-obeers/52709357498eae372107b24d","categoryId":"4bf58dd8d48988d117941735","category":"Beer Garden","checkinsCount":2149,"usersCount":803,"tipCount":13,"visitsCount":2561,"url":"http://www.paddyobeers.com","tier":1,"message":"Cheap","currency":"$","rating":7.7},{"name":"Tribeca Tavern","phone":"9197909992","twitter":"tribecatavern","address":"6004 Falls of Neuse Rd","lat":35.8655906340628,"lng":-78.6199768834439,"neighborhood":"North Raleigh","city_fetched":"Raleigh,US","state":"NC","country":"United States","canonicalUrl":"https://foursquare.com/v/tribeca-tavern/4d7bd30e8f89224bb2719826","categoryId":"4bf58dd8d48988d116941735","category":"Bar","checkinsCount":4496,"usersCount":2024,"tipCount":47,"visitsCount":4867,"url":"http://www.tribecatavernnc.com","tier":2,"message":"Moderate","currency":"$","rating":7.7},{"name":"The Bison","phone":"9197548670","address":"815 E Whitaker Mill Rd","lat":35.807696267172275,"lng":-78.62525280075491,"city_fetched":"Raleigh,US","state":"NC","country":"United States","canonicalUrl":"https://foursquare.com/v/the-bison/4d03bcb38620224b5bc2a440","categoryId":"4bf58dd8d48988d118941735","category":"Dive Bar","checkinsCount":11057,"usersCount":1493,"tipCount":28,"visitsCount":12374,"tier":1,"message":"Cheap","currency":"$","rating":7.7},{"name":"Neptunes Parlour","phone":"9198967063","twitter":"neptunesparlour","address":"14 W Martin St","lat":35.776959820958965,"lng":-78.63985988047052,"neighborhood":"Central Raleigh","city_fetched":"Raleigh,US","state":"NC","country":"United States","canonicalUrl":"https://foursquare.com/v/neptunes-parlour/4c37ca8a3849c9281f6cbeb1","categoryId":"4bf58dd8d48988d116941735","category":"Bar","checkinsCount":6387,"usersCount":1804,"tipCount":29,"visitsCount":6431,"url":"http://neptunesparlour.com","tier":1,"message":"Cheap","currency":"$","rating":7.7},{"name":"Sammy's Tap & Grill","phone":"9197553880","twitter":"sammysncsu","address":"2235 Avent Ferry Rd","lat":35.777749088887845,"lng":-78.67730140686035,"neighborhood":"Southwest Raleigh","city_fetched":"Raleigh,US","state":"NC","country":"United States","canonicalUrl":"https://foursquare.com/v/sammys-tap--grill/4ae3a6c6f964a520b89721e3","categoryId":"4bf58dd8d48988d11d941735","category":"Sports Bar","checkinsCount":7215,"usersCount":3161,"tipCount":36,"visitsCount":8229,"url":"http://m.mainstreethub.com/sammysncsu","tier":2,"message":"Moderate","currency":"$","rating":7.6},{"name":"Capital Cabaret Gentleman's Club","phone":"9192064040","address":"6713 Mt. Herman Rd.","lat":35.90303862728887,"lng":-78.77117335796356,"city_fetched":"Raleigh,US","state":"NC","country":"United States","canonicalUrl":"https://foursquare.com/v/capital-cabaret-gentlemans-club/4b5a5859f964a520d4be28e3","categoryId":"4bf58dd8d48988d1d6941735","category":"Strip Club","checkinsCount":1464,"usersCount":947,"tipCount":12,"visitsCount":2270,"url":"http://capitalcabaret.com","tier":"","message":"","currency":"","rating":7.6},{"name":"Alchemy","phone":"9196150638","address":"606 Glenwood Ave","lat":35.78764830718796,"lng":-78.64702410761028,"neighborhood":"Glenwood","city_fetched":"Raleigh,US","state":"NC","country":"United States","canonicalUrl":"https://foursquare.com/v/alchemy/5529d57c498e1c4b954f0436","categoryId":"4bf58dd8d48988d11f941735","category":"Nightclub","checkinsCount":192,"usersCount":118,"tipCount":0,"visitsCount":196,"tier":"","message":"","currency":"","rating":7.6},{"name":"Leesville Tap Room","phone":"9198701515","address":"13200 Strickland Rd","lat":35.908005075225844,"lng":-78.72515738010406,"neighborhood":"Northwest Raleigh","city_fetched":"Raleigh,US","state":"NC","country":"United States","canonicalUrl":"https://foursquare.com/v/leesville-tap-room/4ad794b1f964a520660c21e3","categoryId":"4bf58dd8d48988d116941735","category":"Bar","checkinsCount":2989,"usersCount":1109,"tipCount":16,"visitsCount":3300,"url":"http://leesvilletaproom.com","tier":2,"message":"Moderate","currency":"$","rating":7.6},{"name":"Vita Vite","phone":"9198033156","address":"313 W Hargett St","lat":35.77835,"lng":-78.644143,"neighborhood":"Central Raleigh","city_fetched":"Raleigh,US","state":"NC","country":"United States","canonicalUrl":"https://foursquare.com/v/vita-vite/5668a7d3498ec17e3c664582","categoryId":"4bf58dd8d48988d123941735","category":"Wine Bar","checkinsCount":216,"usersCount":113,"tipCount":1,"visitsCount":225,"url":"http://vitaviteraleigh.com","tier":"","message":"","currency":"","rating":7.6},{"name":"Ruby Deluxe","address":"414 Fayetteville St","lat":35.77511119458552,"lng":-78.63987650340036,"neighborhood":"Central Raleigh","city_fetched":"Raleigh,US","state":"NC","country":"United States","canonicalUrl":"https://foursquare.com/v/ruby-deluxe/55d663e8498efcb3c92abdf9","categoryId":"4bf58dd8d48988d118941735","category":"Dive Bar","checkinsCount":351,"usersCount":126,"tipCount":4,"visitsCount":395,"tier":"","message":"","currency":"","rating":7.6},{"name":"Legends","phone":"9198318888","address":"330 W Hargett St","lat":35.77874795397826,"lng":-78.64488542060931,"neighborhood":"Central Raleigh","city_fetched":"Raleigh,US","state":"NC","country":"United States","canonicalUrl":"https://foursquare.com/v/legends/4b2fe5a6f964a5202df224e3","categoryId":"4bf58dd8d48988d1d8941735","category":"Gay Bar","checkinsCount":6945,"usersCount":2415,"tipCount":32,"visitsCount":7908,"url":"http://www.legends-club.com","tier":2,"message":"Moderate","currency":"$","rating":7.6},{"name":"Solas Lounge & Rooftop Bar","phone":"9197550755","twitter":"solasraleigh","address":"419 Glenwood Ave","lat":35.78567605052191,"lng":-78.64753156900406,"city_fetched":"Raleigh,US","state":"NC","country":"United States","canonicalUrl":"https://foursquare.com/solasraleigh","categoryId":"4bf58dd8d48988d11f941735","category":"Nightclub","checkinsCount":11362,"usersCount":3788,"tipCount":54,"visitsCount":11464,"url":"http://solasraleigh.com","tier":2,"message":"Moderate","currency":"$","rating":7.6},{"name":"The Architect","phone":"9198334949","twitter":"architectbar","address":"108 1/2 E Hargett St","lat":35.77805328156209,"lng":-78.63788727321713,"neighborhood":"Central Raleigh","city_fetched":"Raleigh,US","state":"NC","country":"United States","canonicalUrl":"https://foursquare.com/v/the-architect/4ee40aa2be7b4845a3f35eb7","categoryId":"4bf58dd8d48988d116941735","category":"Bar","checkinsCount":6761,"usersCount":2629,"tipCount":17,"visitsCount":6822,"url":"http://www.architectbar.com","tier":2,"message":"Moderate","currency":"$","rating":7.6},{"name":"World of Beer","phone":"9197849261","address":"4208-150 Six Forks Rd","lat":35.836992149281514,"lng":-78.63949971631372,"city_fetched":"Raleigh,US","state":"NC","country":"United States","canonicalUrl":"https://foursquare.com/v/world-of-beer/4d91fe89939e5481d50ed99e","categoryId":"4bf58dd8d48988d116941735","category":"Bar","checkinsCount":10214,"usersCount":3540,"tipCount":42,"visitsCount":10424,"url":"http://worldofbeer.com/Locations/NorthHills","tier":2,"message":"Moderate","currency":"$","rating":7.6},{"name":"Kickback Jack's","phone":"9198035068","twitter":"kickbackjacks","address":"1405 Garner Station Blvd","lat":35.72447036126896,"lng":-78.65232076263933,"city_fetched":"Raleigh,US","state":"NC","country":"United States","canonicalUrl":"https://foursquare.com/v/kickback-jacks/4b48f2e2f964a520e75e26e3","categoryId":"4bf58dd8d48988d116941735","category":"Bar","checkinsCount":6804,"usersCount":2987,"tipCount":73,"visitsCount":8333,"url":"http://kbjacks.com/raleigh-nc","tier":2,"message":"Moderate","currency":"$","rating":7.6},{"name":"Woody's at City Market","phone":"9198333000","twitter":"woodysraleigh","address":"205 Wolfe St","lat":35.7763835613269,"lng":-78.63641887463024,"neighborhood":"Central Raleigh","city_fetched":"Raleigh,US","state":"NC","country":"United States","canonicalUrl":"https://foursquare.com/v/woodys-at-city-market/4ade72a8f964a520f37521e3","categoryId":"4bf58dd8d48988d11d941735","category":"Sports Bar","checkinsCount":9492,"usersCount":3157,"tipCount":56,"visitsCount":9928,"url":"http://www.woodyscitymarket.com","tier":2,"message":"Moderate","currency":"$","rating":7.5},{"name":"Lenovo Champions Club @ PNC Arena","address":"1400 Edwards Mill Rd","lat":35.80333533983285,"lng":-78.72206211090088,"neighborhood":"Southwest Raleigh","city_fetched":"Raleigh,US","state":"NC","country":"United States","canonicalUrl":"https://foursquare.com/v/lenovo-champions-club--pnc-arena/4d6060f8196ba093b0721956","categoryId":"4bf58dd8d48988d121941735","category":"Lounge","checkinsCount":510,"usersCount":187,"tipCount":0,"visitsCount":511,"tier":"","message":"","currency":"","rating":7.5},{"name":"Shahrazad Hookah Lounge & Coffee","phone":"9198568559","twitter":"shahrazadhookah","address":"3823 Hillsborough St","lat":35.79436145819186,"lng":-78.69000423174006,"city_fetched":"Raleigh,US","state":"NC","country":"United States","canonicalUrl":"https://foursquare.com/v/shahrazad-hookah-lounge--coffee/50e4c8cde4b0b23f15b5b43a","categoryId":"4bf58dd8d48988d119941735","category":"Hookah Bar","checkinsCount":678,"usersCount":518,"tipCount":8,"visitsCount":1323,"url":"http://www.hookahbarraleigh.com","tier":"","message":"","currency":"","rating":7.5},{"name":"Sahara Hookah Bar","phone":"9198328000","address":"702 W Peace St","lat":35.78880820468169,"lng":-78.64905193961624,"city_fetched":"Raleigh,US","state":"NC","country":"United States","canonicalUrl":"https://foursquare.com/v/sahara-hookah-bar/4b80a2ecf964a520978230e3","categoryId":"4bf58dd8d48988d119941735","category":"Hookah Bar","checkinsCount":2533,"usersCount":955,"tipCount":16,"visitsCount":2683,"url":"http://saharahookahcafe.com","tier":"","message":"","currency":"","rating":7.5},{"name":"The Foxy Lady","phone":"9198335886","twitter":"foxyladyraleigh","address":"1819 Capital Blvd.","lat":35.803598700130365,"lng":-78.61923978468714,"neighborhood":"East Raleigh","city_fetched":"Raleigh,US","state":"NC","country":"United States","canonicalUrl":"https://foursquare.com/v/the-foxy-lady/4ae2aa7ef964a520478f21e3","categoryId":"4bf58dd8d48988d1d6941735","category":"Strip Club","checkinsCount":505,"usersCount":209,"tipCount":11,"visitsCount":524,"tier":"","message":"","currency":"","rating":7.4},{"name":"Brooklyn Heights","phone":"9192394926","address":"605 Glenwood Ave","lat":35.78765929925698,"lng":-78.64738404750824,"city_fetched":"Raleigh,US","state":"NC","country":"United States","canonicalUrl":"https://foursquare.com/v/brooklyn-heights/4aea61edf964a52051bb21e3","categoryId":"4bf58dd8d48988d116941735","category":"Bar","checkinsCount":10919,"usersCount":1614,"tipCount":38,"visitsCount":11162,"url":"http://www.brooklynheightsbar.com","tier":2,"message":"Moderate","currency":"$","rating":7.4},{"name":"Carolina Ale House","phone":"9199574200","twitter":"carolinalehouse","address":"7981 Skyland Ridge Pkwy","lat":35.91445925370766,"lng":-78.78274708986282,"city_fetched":"Raleigh,US","state":"NC","country":"United States","canonicalUrl":"https://foursquare.com/v/carolina-ale-house/4ae9e965f964a5208db721e3","categoryId":"4bf58dd8d48988d11d941735","category":"Sports Bar","checkinsCount":11832,"usersCount":5600,"tipCount":79,"visitsCount":13157,"url":"http://www.carolinaalehouse.com","tier":2,"message":"Moderate","currency":"$","rating":7.4},{"name":"Meat Locker at The Angus Barn","phone":"9197812444","address":"9401 Glenwood Ave","lat":35.8992723824144,"lng":-78.76322544508153,"city_fetched":"Raleigh,US","state":"NC","country":"United States","canonicalUrl":"https://foursquare.com/v/meat-locker-at-the-angus-barn/4d59df6dfe7c224bc9f77cb5","categoryId":"4bf58dd8d48988d116941735","category":"Bar","checkinsCount":313,"usersCount":187,"tipCount":0,"visitsCount":316,"tier":"","message":"","currency":"","rating":7.4},{"name":"The Goat Bar","phone":"9192334143","address":"5111 Western Blvd","lat":35.786278578334716,"lng":-78.71215455571209,"neighborhood":"Southwest Raleigh","city_fetched":"Raleigh,US","state":"NC","country":"United States","canonicalUrl":"https://foursquare.com/v/the-goat-bar/4ada084bf964a520871d21e3","categoryId":"4bf58dd8d48988d118941735","category":"Dive Bar","checkinsCount":9416,"usersCount":1210,"tipCount":27,"visitsCount":9853,"tier":1,"message":"Cheap","currency":"$","rating":7.4},{"name":"The Hideout","address":"8816 Gulf Ct","lat":35.90354609313142,"lng":-78.76275504438247,"city_fetched":"Raleigh,US","state":"NC","country":"United States","canonicalUrl":"https://foursquare.com/v/the-hideout/50de2c35e4b0a2f200127a44","categoryId":"4bf58dd8d48988d117941735","category":"Beer Garden","checkinsCount":318,"usersCount":105,"tipCount":3,"visitsCount":340,"tier":"","message":"","currency":"","rating":7.4},{"name":"The Men's Club of Raleigh","phone":"9192509826","twitter":"mensclubraleigh","address":"3210 Yonkers Rd","lat":35.79818890356772,"lng":-78.58947975792984,"neighborhood":"Northeast Raleigh","city_fetched":"Raleigh,US","state":"NC","country":"United States","canonicalUrl":"https://foursquare.com/v/the-mens-club-of-raleigh/4af504f6f964a52005f821e3","categoryId":"4bf58dd8d48988d1d6941735","category":"Strip Club","checkinsCount":1530,"usersCount":780,"tipCount":11,"visitsCount":1873,"url":"http://www.themensclubraleigh.com","tier":"","message":"","currency":"","rating":7.4},{"name":"London Bridge Pub","phone":"9198386633","twitter":"londonbridgepub","address":"110 E Hargett St","lat":35.77799862774607,"lng":-78.63793160189653,"neighborhood":"Central Raleigh","city_fetched":"Raleigh,US","state":"NC","country":"United States","canonicalUrl":"https://foursquare.com/v/london-bridge-pub/4eaca8e793ad7677a8b6eeb0","categoryId":"4bf58dd8d48988d116941735","category":"Bar","checkinsCount":6604,"usersCount":2144,"tipCount":34,"visitsCount":6678,"url":"http://thelondonbridgepub.com","tier":1,"message":"Cheap","currency":"$","rating":7.3},{"name":"Deep South Bar","phone":"9198331255","twitter":"deepsouthent","address":"430 S Dawson St","lat":35.774497593012946,"lng":-78.64377727466389,"neighborhood":"Central Raleigh","city_fetched":"Raleigh,US","state":"NC","country":"United States","canonicalUrl":"https://foursquare.com/v/deep-south-bar/4ae3b6dcf964a5206a9821e3","categoryId":"4bf58dd8d48988d116941735","category":"Bar","checkinsCount":4472,"usersCount":1445,"tipCount":29,"visitsCount":4514,"url":"http://www.deepsouththebar.com","tier":"","message":"","currency":"","rating":7.3},{"name":"Gizmo Brew Works","phone":"9197822099","twitter":"gizmobrewworks","address":"5907 Triangle Dr","lat":35.896439150381916,"lng":-78.74441874250704,"city_fetched":"Raleigh,US","state":"NC","country":"United States","canonicalUrl":"https://foursquare.com/v/gizmo-brew-works/5172e04be4b04c6357480296","categoryId":"50327c8591d4c4b30a586d5d","category":"Brewery","checkinsCount":1489,"usersCount":729,"tipCount":10,"visitsCount":2046,"url":"http://gizmobrewworks.com","tier":1,"message":"Cheap","currency":"$","rating":7.3},{"name":"Proof","lat":35.80328393459794,"lng":-78.64583841631458,"city_fetched":"Raleigh,US","state":"NC","country":"United States","canonicalUrl":"https://foursquare.com/v/proof/545abba7498e6ea3efe2a815","categoryId":"4bf58dd8d48988d116941735","category":"Bar","checkinsCount":139,"usersCount":86,"tipCount":1,"visitsCount":147,"tier":"","message":"","currency":"","rating":7.3},{"name":"Lucky B's Sports Pub","phone":"9198331310","twitter":"luckybs","address":"609 Tucker St","lat":35.78606963895794,"lng":-78.64798816401421,"city_fetched":"Raleigh,US","state":"NC","country":"United States","canonicalUrl":"https://foursquare.com/v/lucky-bs-sports-pub/4ae292d2f964a520138f21e3","categoryId":"4bf58dd8d48988d116941735","category":"Bar","checkinsCount":5031,"usersCount":1621,"tipCount":21,"visitsCount":5260,"url":"http://luckybsbar.com","tier":1,"message":"Cheap","currency":"$","rating":7.3},{"name":"Black Flower","phone":"9199008147","twitter":"theblackflower","address":"517 W Peace St","lat":35.78855680367551,"lng":-78.6467108130455,"neighborhood":"Glenwood","city_fetched":"Raleigh,US","state":"NC","country":"United States","canonicalUrl":"https://foursquare.com/v/black-flower/4aee77a1f964a520e2d321e3","categoryId":"4bf58dd8d48988d116941735","category":"Bar","checkinsCount":6749,"usersCount":1435,"tipCount":28,"visitsCount":6874,"url":"http://www.black-flower.com","tier":1,"message":"Cheap","currency":"$","rating":7.3},{"name":"Sub Noir Brewing Co.","phone":"9194802337","address":"2039 Progress Ct","lat":35.80897130338586,"lng":-78.62289751479082,"city_fetched":"Raleigh,US","state":"NC","country":"United States","canonicalUrl":"https://foursquare.com/v/sub-noir-brewing-co/4d6a98a2de28224b779d51be","categoryId":"50327c8591d4c4b30a586d5d","category":"Brewery","checkinsCount":323,"usersCount":259,"tipCount":5,"visitsCount":500,"url":"http://subnoir.net","tier":"","message":"","currency":"","rating":7.2},{"name":"Carolina Ale House","phone":"9194310001","twitter":"carolinalehouse","address":"4512 Falls of Neuse Rd","lat":35.842930229834636,"lng":-78.61261673741068,"city_fetched":"Raleigh,US","state":"NC","country":"United States","canonicalUrl":"https://foursquare.com/v/carolina-ale-house/4ad8fc62f964a520c61621e3","categoryId":"4bf58dd8d48988d11d941735","category":"Sports Bar","checkinsCount":7321,"usersCount":2269,"tipCount":35,"visitsCount":7952,"url":"http://www.carolinaalehouse.com","tier":2,"message":"Moderate","currency":"$","rating":7.2},{"name":"Flex Nightclub & Bar","phone":"9198328855","twitter":"flexnightclub","address":"2 S West St","lat":35.780436470849274,"lng":-78.64613761076984,"neighborhood":"Central Raleigh","city_fetched":"Raleigh,US","state":"NC","country":"United States","canonicalUrl":"https://foursquare.com/v/flex-nightclub--bar/4ad9fcd7f964a520d31c21e3","categoryId":"4bf58dd8d48988d1d8941735","category":"Gay Bar","checkinsCount":3730,"usersCount":1108,"tipCount":19,"visitsCount":4250,"url":"http://flex-club.com","tier":1,"message":"Cheap","currency":"$","rating":7.2},{"name":"Sharkys Place Sports Bar and Billiards","phone":"9197835448","twitter":"bigrandy52","address":"5800 Duraleigh Rd","lat":35.85715413943275,"lng":-78.71175035647674,"neighborhood":"Northwest Raleigh","city_fetched":"Raleigh,US","state":"NC","country":"United States","canonicalUrl":"https://foursquare.com/bigrandy52","categoryId":"4bf58dd8d48988d11d941735","category":"Sports Bar","checkinsCount":1559,"usersCount":685,"tipCount":12,"visitsCount":2111,"url":"http://www.sharkysnc.com","tier":"","message":"","currency":"","rating":7.2},{"name":"Nickelpoint Brewing","phone":"9199165961","twitter":"nickelpointbrew","address":"506 Pershing Rd","lat":35.804459881259476,"lng":-78.63358175680578,"city_fetched":"Raleigh,US","state":"NC","country":"United States","canonicalUrl":"https://foursquare.com/v/nickelpoint-brewing/5347ff7c498e5c15bb361d7c","categoryId":"50327c8591d4c4b30a586d5d","category":"Brewery","checkinsCount":638,"usersCount":587,"tipCount":6,"visitsCount":1082,"url":"http://www.nickelpoint.com","tier":"","message":"","currency":"","rating":7.2},{"name":"Nara Lounge","phone":"9196648244","address":"2500 Hillsborough St","lat":35.78793235924974,"lng":-78.66813898086548,"city_fetched":"Raleigh,US","state":"NC","country":"United States","canonicalUrl":"https://foursquare.com/v/nara-lounge/50c25387f1367d760f54299d","categoryId":"4bf58dd8d48988d119941735","category":"Hookah Bar","checkinsCount":414,"usersCount":193,"tipCount":8,"visitsCount":417,"url":"http://naraofraleigh.com","tier":"","message":"","currency":"","rating":7.2},{"name":"Fox & Hound","phone":"9197814495","twitter":"the_foxandhound","address":"4158 Main North Hills Street","lat":35.837047176506914,"lng":-78.64224403832156,"city_fetched":"Raleigh,US","state":"NC","country":"United States","canonicalUrl":"https://foursquare.com/v/fox--hound/4ad7df75f964a520c10f21e3","categoryId":"4bf58dd8d48988d116941735","category":"Bar","checkinsCount":12225,"usersCount":4882,"tipCount":82,"visitsCount":12432,"url":"http://t.co/6Wlr3nrgdg","tier":2,"message":"Moderate","currency":"$","rating":7.2},{"name":"East Village Grill & Bar","phone":"9198219985","twitter":"_east_village","address":"1 Dixie Trl","lat":35.78983302053673,"lng":-78.67622424527754,"city_fetched":"Raleigh,US","state":"NC","country":"United States","canonicalUrl":"https://foursquare.com/v/east-village-grill--bar/4ad8b852f964a520fa1321e3","categoryId":"4bf58dd8d48988d116941735","category":"Bar","checkinsCount":12154,"usersCount":2357,"tipCount":34,"visitsCount":12640,"url":"http://eastvillagegrill.com","tier":2,"message":"Moderate","currency":"$","rating":7.2},{"name":"Pure Gold","phone":"9194699305","twitter":"pgcary","address":"301 N Harrison Ave","lat":35.78863582596523,"lng":-78.78369400720028,"city_fetched":"Raleigh,US","state":"NC","country":"United States","canonicalUrl":"https://foursquare.com/v/pure-gold/4aea7db7f964a520babb21e3","categoryId":"4bf58dd8d48988d1d6941735","category":"Strip Club","checkinsCount":3201,"usersCount":541,"tipCount":10,"visitsCount":3273,"url":"http://puregoldclubs.com","tier":"","message":"","currency":"","rating":7.1},{"name":"Paradise Hookah Lounge","address":"3629 Capital Blvd","lat":35.830735,"lng":-78.585402,"neighborhood":"Northeast Raleigh","city_fetched":"Raleigh,US","state":"NC","country":"United States","canonicalUrl":"https://foursquare.com/v/paradise-hookah-lounge/51770c0c498ebb79e7594f4b","categoryId":"4bf58dd8d48988d119941735","category":"Hookah Bar","checkinsCount":144,"usersCount":83,"tipCount":4,"visitsCount":161,"tier":"","message":"","currency":"","rating":7.1},{"name":"Stir Lounge & Nightclub","phone":"9196979125","twitter":"stirraleigh","address":"412 W Davie St, Raleigh, NC 27601","lat":35.775980010552644,"lng":-78.64574976593393,"neighborhood":"Central Raleigh","city_fetched":"Raleigh,US","state":"NC","country":"United States","canonicalUrl":"https://foursquare.com/v/stir-lounge--nightclub/4f766a0ce4b0633646a01ac1","categoryId":"4bf58dd8d48988d121941735","category":"Lounge","checkinsCount":364,"usersCount":180,"tipCount":5,"visitsCount":367,"url":"http://www.stirraleigh.com","tier":"","message":"","currency":"","rating":7.1},{"name":"City Limits Saloon","phone":"9198293939","address":"901 Tryon Hill Dr","lat":35.780919,"lng":-78.65617201666667,"city_fetched":"Raleigh,US","state":"NC","country":"United States","canonicalUrl":"https://foursquare.com/v/city-limits-saloon/4af633caf964a520330222e3","categoryId":"4bf58dd8d48988d116941735","category":"Bar","checkinsCount":2665,"usersCount":1126,"tipCount":10,"visitsCount":2724,"url":"http://www.hellyeahwilmington.com","tier":2,"message":"Moderate","currency":"$","rating":7.1},{"name":"Brier Creek Beer Garden","phone":"9197483900","twitter":"bcbeergarden","address":"8521-101 Brier Creek Pkwy","lat":35.9055414500024,"lng":-78.7842804998192,"city_fetched":"Raleigh,US","state":"NC","country":"United States","canonicalUrl":"https://foursquare.com/v/brier-creek-beer-garden/571fce70498e5881ab79e05f","categoryId":"4bf58dd8d48988d117941735","category":"Beer Garden","checkinsCount":281,"usersCount":255,"tipCount":3,"visitsCount":346,"url":"http://www.briercreekbeergarden.com","tier":"","message":"","currency":"","rating":7.1},{"name":"The Luxury Box","phone":"9199007955","twitter":"thrluxuryboxnc","address":"8511 Cantilever Way","lat":35.884531312981835,"lng":-78.73770436039119,"neighborhood":"Northwest Raleigh","city_fetched":"Raleigh,US","state":"NC","country":"United States","canonicalUrl":"https://foursquare.com/v/the-luxury-box/4da728d95da37feee8985292","categoryId":"4bf58dd8d48988d11d941735","category":"Sports Bar","checkinsCount":3009,"usersCount":836,"tipCount":27,"visitsCount":3671,"url":"http://www.luxuryboxnc.com","tier":"","message":"","currency":"","rating":7.1},{"name":"Office Tavern","address":"710 W Johnson St","lat":35.78754388451948,"lng":-78.64953949965553,"city_fetched":"Raleigh,US","state":"NC","country":"United States","canonicalUrl":"https://foursquare.com/v/office-tavern/4b7867aaf964a520c4cb2ee3","categoryId":"4bf58dd8d48988d116941735","category":"Bar","checkinsCount":311,"usersCount":178,"tipCount":3,"visitsCount":350,"tier":"","message":"","currency":"","rating":7.1},{"name":"The Brickhouse","phone":"9198293666","twitter":"brickhouseralnc","address":"3801 Hillsborough St","lat":35.79392392413131,"lng":-78.68878028268388,"city_fetched":"Raleigh,US","state":"NC","country":"United States","canonicalUrl":"https://foursquare.com/v/the-brickhouse/4aff024af964a520e93222e3","categoryId":"4bf58dd8d48988d11b941735","category":"Pub","checkinsCount":6217,"usersCount":2093,"tipCount":33,"visitsCount":6831,"url":"http://brickhouse-nc.com","tier":2,"message":"Moderate","currency":"$","rating":7},{"name":"Tilted Kilt Raleigh","phone":"9197908898","twitter":"tiltedkiltpub","address":"4516 Falls of Neuse Rd","lat":35.84362813226223,"lng":-78.61322640854382,"city_fetched":"Raleigh,US","state":"NC","country":"United States","canonicalUrl":"https://foursquare.com/v/tilted-kilt-raleigh/4f981d1fe4b0d0a26a68f94e","categoryId":"4bf58dd8d48988d11b941735","category":"Pub","checkinsCount":3601,"usersCount":1602,"tipCount":28,"visitsCount":4448,"url":"http://www.tiltedkilt.com","tier":2,"message":"Moderate","currency":"$","rating":7},{"name":"The Medlin Neighborhood Bar","lat":35.80956751701488,"lng":-78.67689445747341,"city_fetched":"Raleigh,US","state":"NC","country":"United States","canonicalUrl":"https://foursquare.com/v/the-medlin-neighborhood-bar/54514024498e17c9f15fdf7b","categoryId":"4bf58dd8d48988d116941735","category":"Bar","checkinsCount":120,"usersCount":90,"tipCount":1,"visitsCount":165,"tier":"","message":"","currency":"","rating":7},{"name":"Natty Greene's Deck @ PNC Arena","phone":"9198612300","address":"1400 Edwards Mill Rd","lat":35.803227995106845,"lng":-78.72216488342443,"neighborhood":"Southwest Raleigh","city_fetched":"Raleigh,US","state":"NC","country":"United States","canonicalUrl":"https://foursquare.com/v/natty-greenes-deck--pnc-arena/4ed6bd7093adde11f83c4193","categoryId":"4bf58dd8d48988d11b941735","category":"Pub","checkinsCount":538,"usersCount":143,"tipCount":3,"visitsCount":539,"tier":"","message":"","currency":"","rating":6.9},{"name":"Brown's Billiards","phone":"9198789092","address":"5500 Atlantic Springs Rd","lat":35.857665122181885,"lng":-78.59691366074217,"neighborhood":"Northeast Raleigh","city_fetched":"Raleigh,US","state":"NC","country":"United States","canonicalUrl":"https://foursquare.com/v/browns-billiards/4bde1517e75c0f4767ddc603","categoryId":"4bf58dd8d48988d116941735","category":"Bar","checkinsCount":500,"usersCount":202,"tipCount":5,"visitsCount":568,"url":"http://brownsbilliardsofraleigh.com","tier":"","message":"","currency":"","rating":6.9},{"name":"View","address":"119 S Harrington St","lat":35.778861010031484,"lng":-78.64482447290099,"neighborhood":"Central Raleigh","city_fetched":"Raleigh,US","state":"NC","country":"United States","canonicalUrl":"https://foursquare.com/v/view/4ad9fbe4f964a520c01c21e3","categoryId":"4bf58dd8d48988d1d8941735","category":"Gay Bar","checkinsCount":1172,"usersCount":220,"tipCount":1,"visitsCount":1175,"url":"http://www.legends-club.com","tier":"","message":"","currency":"","rating":6.9},{"name":"Neuse River Brewing Company","phone":"4043867522","twitter":"nrbrewingco","address":"518 Pershing Rd, Raleigh","lat":35.804171337838284,"lng":-78.63268959964674,"neighborhood":"Five Points","city_fetched":"Raleigh,US","state":"NC","country":"United States","canonicalUrl":"https://foursquare.com/v/neuse-river-brewing-company/553972e1498e037083a19913","categoryId":"50327c8591d4c4b30a586d5d","category":"Brewery","checkinsCount":533,"usersCount":478,"tipCount":7,"visitsCount":877,"url":"http://www.neuseriverbrewing.com","tier":"","message":"","currency":"","rating":6.9},{"name":"Empress Room","phone":"9198993672","address":"407 Glenwood Ave","lat":35.78543,"lng":-78.647603,"city_fetched":"Raleigh,US","state":"NC","country":"United States","canonicalUrl":"https://foursquare.com/v/empress-room/4f4d5a66e4b087ae2301498d","categoryId":"4bf58dd8d48988d11e941735","category":"Cocktail Bar","checkinsCount":699,"usersCount":304,"tipCount":6,"visitsCount":716,"tier":"","message":"","currency":"","rating":6.9},{"name":"Icon Night Club","address":"331 E Durham Rd","lat":35.79019347719719,"lng":-78.77570961466016,"city_fetched":"Raleigh,US","state":"NC","country":"United States","canonicalUrl":"https://foursquare.com/v/icon-night-club/4bdbc845c79cc928667b84e9","categoryId":"4bf58dd8d48988d1d8941735","category":"Gay Bar","checkinsCount":183,"usersCount":75,"tipCount":4,"visitsCount":183,"tier":"","message":"","currency":"","rating":6.8},{"name":"North Ridge Pub","phone":"9197909125","address":"6010 suite B. Falls of Neuse Road","lat":35.86656456163797,"lng":-78.6193395427302,"neighborhood":"North Raleigh","city_fetched":"Raleigh,US","state":"NC","country":"United States","canonicalUrl":"https://foursquare.com/v/north-ridge-pub/4b281656f964a520d08e24e3","categoryId":"4bf58dd8d48988d11b941735","category":"Pub","checkinsCount":867,"usersCount":386,"tipCount":16,"visitsCount":918,"url":"http://www.northridgepub.com","tier":2,"message":"Moderate","currency":"$","rating":6.8},{"name":"Overtime Sports Pub","phone":"9192559556","twitter":"overtimebar","address":"1030 N Rogers Ln","lat":35.79120021648732,"lng":-78.54784310267844,"neighborhood":"Southeast Raleigh","city_fetched":"Raleigh,US","state":"NC","country":"United States","canonicalUrl":"https://foursquare.com/v/overtime-sports-pub/4b186202f964a520ddd123e3","categoryId":"4bf58dd8d48988d11d941735","category":"Sports Bar","checkinsCount":1678,"usersCount":538,"tipCount":6,"visitsCount":2052,"url":"http://overtimesportspub.net","tier":"","message":"","currency":"","rating":6.8},{"name":"The Bar Durham","phone":"9199562929","twitter":"thebardurham","address":"711 Rigsbee Ave","lat":36.002389752645705,"lng":-78.90024867689786,"neighborhood":"Old North Durham","city_fetched":"Raleigh,US","state":"NC","country":"United States","canonicalUrl":"https://foursquare.com/v/the-bar-durham/4e3383031838df3b5f6f9b6c","categoryId":"4bf58dd8d48988d1d8941735","category":"Gay Bar","checkinsCount":1654,"usersCount":607,"tipCount":4,"visitsCount":1680,"url":"http://thebardurham.com","tier":2,"message":"Moderate","currency":"$","rating":6.8},{"name":"Flash House","phone":"9196154757","address":"513 W Peace St","lat":35.78853023957014,"lng":-78.6465365353194,"neighborhood":"Glenwood","city_fetched":"Raleigh,US","state":"NC","country":"United States","canonicalUrl":"https://foursquare.com/v/flash-house/51fc9105498e99a60f50af9c","categoryId":"4bf58dd8d48988d118941735","category":"Dive Bar","checkinsCount":724,"usersCount":246,"tipCount":5,"visitsCount":759,"tier":1,"message":"Cheap","currency":"$","rating":6.8},{"name":"Moroccan Oasis Hookah Bar","address":"3018 Hillsborough St","lat":35.79022280343651,"lng":-78.67674490638183,"city_fetched":"Raleigh,US","state":"NC","country":"United States","canonicalUrl":"https://foursquare.com/v/moroccan-oasis-hookah-bar/4d046b44dc45a0937e4beac6","categoryId":"4bf58dd8d48988d119941735","category":"Hookah Bar","checkinsCount":532,"usersCount":254,"tipCount":4,"visitsCount":539,"url":"http://moroccanoasiscafe.com","tier":"","message":"","currency":"","rating":6.7},{"name":"The Ugly Monkey Party Bar","phone":"9198288077","twitter":"igetugly","address":"400 W Morgan St","lat":35.77997298276346,"lng":-78.64538311958313,"neighborhood":"Central Raleigh","city_fetched":"Raleigh,US","state":"NC","country":"United States","canonicalUrl":"https://foursquare.com/v/the-ugly-monkey-party-bar/4ad81331f964a520ad1021e3","categoryId":"4bf58dd8d48988d118941735","category":"Dive Bar","checkinsCount":6994,"usersCount":1629,"tipCount":40,"visitsCount":7209,"url":"http://www.igetugly.com","tier":1,"message":"Cheap","currency":"$","rating":6.7},{"name":"Smokin' Grooves Bar and Grill","lat":35.83614318994778,"lng":-78.60002897357825,"neighborhood":"Northeast Raleigh","city_fetched":"Raleigh,US","state":"NC","country":"United States","canonicalUrl":"https://foursquare.com/v/smokin-grooves-bar-and-grill/501087a0e4b088a23365d486","categoryId":"4bf58dd8d48988d121941735","category":"Lounge","checkinsCount":149,"usersCount":86,"tipCount":3,"visitsCount":155,"tier":"","message":"","currency":"","rating":6.7},{"name":"Wine Cellar at The Angus Barn","address":"9401 Glenwood Ave","lat":35.8992087816229,"lng":-78.76370691171432,"city_fetched":"Raleigh,US","state":"NC","country":"United States","canonicalUrl":"https://foursquare.com/v/wine-cellar-at-the-angus-barn/4db76c8d8154d78113c155f6","categoryId":"4bf58dd8d48988d123941735","category":"Wine Bar","checkinsCount":166,"usersCount":140,"tipCount":2,"visitsCount":166,"tier":"","message":"","currency":"","rating":6.6},{"name":"River Pub Raleigh","phone":"9199008302","address":"10940 Raven Ridge Rd Ste 104","lat":35.90756113522203,"lng":-78.5903057742277,"neighborhood":"North Raleigh","city_fetched":"Raleigh,US","state":"NC","country":"United States","canonicalUrl":"https://foursquare.com/v/river-pub-raleigh/4c1e5522eac020a11c8549c2","categoryId":"4bf58dd8d48988d11b941735","category":"Pub","checkinsCount":1201,"usersCount":406,"tipCount":15,"visitsCount":1266,"url":"http://www.riverpubraleigh.com","tier":2,"message":"Moderate","currency":"$","rating":6.6},{"name":"The Maywood","lat":35.761685,"lng":-78.657814,"neighborhood":"Southwest Raleigh","city_fetched":"Raleigh,US","state":"NC","country":"United States","canonicalUrl":"https://foursquare.com/v/the-maywood/516f3997e4b0d738eea76b02","categoryId":"4bf58dd8d48988d118941735","category":"Dive Bar","checkinsCount":184,"usersCount":147,"tipCount":3,"visitsCount":246,"tier":"","message":"","currency":"","rating":6.6},{"name":"Tailgaters Sports Bar","address":"2645 E Millbrook Rd","lat":35.848719532448975,"lng":-78.59091558057165,"neighborhood":"Northeast Raleigh","city_fetched":"Raleigh,US","state":"NC","country":"United States","canonicalUrl":"https://foursquare.com/v/tailgaters-sports-bar/4b89dd49f964a520605232e3","categoryId":"4bf58dd8d48988d11d941735","category":"Sports Bar","checkinsCount":399,"usersCount":127,"tipCount":3,"visitsCount":402,"tier":"","message":"","currency":"","rating":6.5},{"name":"Carolina Vintages","twitter":"hmshost","address":"Raleigh Durham Airport, 1025 Airside Drive","lat":35.87650947882184,"lng":-78.79459334715293,"city_fetched":"Raleigh,US","state":"NC","country":"United States","canonicalUrl":"https://foursquare.com/v/carolina-vintages/4da35523c6e96ea80636e75d","categoryId":"4bf58dd8d48988d123941735","category":"Wine Bar","checkinsCount":674,"usersCount":417,"tipCount":9,"visitsCount":674,"tier":"","message":"","currency":"","rating":6.5},{"name":"Harar Hookah Cafe","phone":"9196648151","address":"2109 Avent Ferry Rd","lat":35.77935843235298,"lng":-78.67548756056368,"neighborhood":"Southwest Raleigh","city_fetched":"Raleigh,US","state":"NC","country":"United States","canonicalUrl":"https://foursquare.com/v/harar-hookah-cafe/4d4cda11d6f3224b1ea795a6","categoryId":"4bf58dd8d48988d119941735","category":"Hookah Bar","checkinsCount":360,"usersCount":175,"tipCount":3,"visitsCount":363,"url":"http://www.hararhookah.com","tier":"","message":"","currency":"","rating":6.5},{"name":"The Ritz","phone":"9193332398","address":"2820 Industrial Dr","lat":35.816218135336534,"lng":-78.62052554742672,"city_fetched":"Raleigh,US","state":"NC","country":"United States","canonicalUrl":"https://foursquare.com/v/the-ritz/4ad4c009f964a520d7ec20e3","categoryId":"4bf58dd8d48988d11f941735","category":"Nightclub","checkinsCount":1937,"usersCount":1813,"tipCount":25,"visitsCount":2708,"url":"http://www.discorodeoraleigh.com","tier":"","message":"","currency":"","rating":6.5},{"name":"Prince Hookah Lounge","address":"2 Dixie Trl","lat":35.78985825647471,"lng":-78.6758309781746,"city_fetched":"Raleigh,US","state":"NC","country":"United States","canonicalUrl":"https://foursquare.com/v/prince-hookah-lounge/4bf8beef5ec320a15b5a89d3","categoryId":"4bf58dd8d48988d119941735","category":"Hookah Bar","checkinsCount":1143,"usersCount":324,"tipCount":11,"visitsCount":1154,"tier":"","message":"","currency":"","rating":6.4},{"name":"Horniblow's Tavern","phone":"9198340045","address":"1249 Wicker Dr","lat":35.80976407,"lng":-78.61713075,"neighborhood":"East Raleigh","city_fetched":"Raleigh,US","state":"NC","country":"United States","canonicalUrl":"https://foursquare.com/v/horniblows-tavern/4b919107f964a5202ac633e3","categoryId":"4bf58dd8d48988d116941735","category":"Bar","checkinsCount":815,"usersCount":209,"tipCount":6,"visitsCount":818,"tier":"","message":"","currency":"","rating":6.4},{"name":"Noir Bar & Lounge","phone":"9198586459","address":"425 Glenwood Ave","lat":35.78583706213874,"lng":-78.64752620458603,"city_fetched":"Raleigh,US","state":"NC","country":"United States","canonicalUrl":"https://foursquare.com/v/noir-bar--lounge/4ad94b1cf964a520a31921e3","categoryId":"4bf58dd8d48988d11f941735","category":"Nightclub","checkinsCount":5920,"usersCount":1894,"tipCount":27,"visitsCount":6011,"tier":1,"message":"Cheap","currency":"$","rating":6.4},{"name":"Churchill's","phone":"9198311525","address":"1622 Glenwood Ave","lat":35.80332432161284,"lng":-78.64558908691892,"city_fetched":"Raleigh,US","state":"NC","country":"United States","canonicalUrl":"https://foursquare.com/v/churchills/4ae7a8fff964a52022ad21e3","categoryId":"4bf58dd8d48988d116941735","category":"Bar","checkinsCount":3093,"usersCount":718,"tipCount":8,"visitsCount":3182,"tier":"","message":"","currency":"","rating":6.4},{"name":"Marriott Concierge Lounge","address":"500 Fayetteville St","lat":35.77371133057682,"lng":-78.63971581496317,"neighborhood":"Central Raleigh","city_fetched":"Raleigh,US","state":"NC","country":"United States","canonicalUrl":"https://foursquare.com/v/marriott-concierge-lounge/4cbc4f244c60a09342a050ca","categoryId":"4bf58dd8d48988d1d5941735","category":"Hotel Bar","checkinsCount":525,"usersCount":316,"tipCount":2,"visitsCount":537,"tier":"","message":"","currency":"","rating":6.2},{"name":"Teasers Mens Club","phone":"9196832737","address":"212 W. Ramsuer St.","lat":35.99633968434479,"lng":-78.9032384081309,"neighborhood":"City Center","city_fetched":"Raleigh,US","state":"NC","country":"United States","canonicalUrl":"https://foursquare.com/v/teasers-mens-club/4bf4ba34cad2c92887539c99","categoryId":"4bf58dd8d48988d1d6941735","category":"Strip Club","checkinsCount":343,"usersCount":162,"tipCount":5,"visitsCount":343,"url":"http://teasersmensclub.com","tier":"","message":"","currency":"","rating":6.2},{"name":"Carolina Ale House","phone":"9198510858","twitter":"hmshost","address":"2400 Terminal Blvd.","lat":35.87884204296709,"lng":-78.79171648109202,"city_fetched":"Raleigh,US","state":"NC","country":"United States","canonicalUrl":"https://foursquare.com/v/carolina-ale-house/4bd35c20462cb713a643de07","categoryId":"4bf58dd8d48988d11d941735","category":"Sports Bar","checkinsCount":2358,"usersCount":1841,"tipCount":23,"visitsCount":2375,"url":"http://carolinaalehouse.com","tier":2,"message":"Moderate","currency":"$","rating":6.2},{"name":"Skybox Grill & Bar","phone":"9198784917","address":"3215 Wake Forest Rd","lat":35.8298420356358,"lng":-78.6199602572158,"city_fetched":"Raleigh,US","state":"NC","country":"United States","canonicalUrl":"https://foursquare.com/v/skybox-grill--bar/4b11f61df964a520908723e3","categoryId":"4bf58dd8d48988d116941735","category":"Bar","checkinsCount":957,"usersCount":571,"tipCount":11,"visitsCount":969,"url":"http://www.skyboxgrillandbar.com","tier":"","message":"","currency":"","rating":6.2},{"name":"Mirage Night Club","phone":"9198322915","twitter":"miragenc","address":"400 N West St","lat":35.78539971901386,"lng":-78.64557087421417,"neighborhood":"Central Raleigh","city_fetched":"Raleigh,US","state":"NC","country":"United States","canonicalUrl":"https://foursquare.com/v/mirage-night-club/4be1a47e3c08ef3b5ee97945","categoryId":"4bf58dd8d48988d11f941735","category":"Nightclub","checkinsCount":2703,"usersCount":1203,"tipCount":24,"visitsCount":2809,"url":"http://mirageraleigh.com","tier":"","message":"","currency":"","rating":6.2},{"name":"The Anchor Bar","address":"207 Fayetteville St Ste 100","lat":35.77806210325106,"lng":-78.6392559121497,"neighborhood":"Central Raleigh","city_fetched":"Raleigh,US","state":"NC","country":"United States","canonicalUrl":"https://foursquare.com/v/the-anchor-bar/54caccae498e8adc2eda4f20","categoryId":"4bf58dd8d48988d116941735","category":"Bar","checkinsCount":563,"usersCount":378,"tipCount":4,"visitsCount":701,"tier":"","message":"","currency":"","rating":6.1},{"name":"High Park Bar & Grill","phone":"9198334527","twitter":"superpages","address":"625 E Whitaker Mill Rd","lat":35.80715021046338,"lng":-78.63052289921393,"city_fetched":"Raleigh,US","state":"NC","country":"United States","canonicalUrl":"https://foursquare.com/v/high-park-bar--grill/4b48c4bef964a5201c5626e3","categoryId":"4bf58dd8d48988d116941735","category":"Bar","checkinsCount":4559,"usersCount":1367,"tipCount":29,"visitsCount":5194,"url":"http://highparkbarandgrill.com","tier":1,"message":"Cheap","currency":"$","rating":6.1},{"name":"BODI","address":"310 S West St","lat":35.77691348059091,"lng":-78.64627361297607,"neighborhood":"Central Raleigh","city_fetched":"Raleigh,US","state":"NC","country":"United States","canonicalUrl":"https://foursquare.com/v/bodi/4da8e7e50437dccbd7ddb7db","categoryId":"4bf58dd8d48988d11f941735","category":"Nightclub","checkinsCount":526,"usersCount":215,"tipCount":6,"visitsCount":531,"tier":"","message":"","currency":"","rating":6},{"name":"Capital City Tavern","address":"112 Fayetteville St","lat":35.779072218750045,"lng":-78.63929469921548,"neighborhood":"Central Raleigh","city_fetched":"Raleigh,US","state":"NC","country":"United States","canonicalUrl":"https://foursquare.com/v/capital-city-tavern/53b77f78498ecdc164850edf","categoryId":"4bf58dd8d48988d116941735","category":"Bar","checkinsCount":686,"usersCount":419,"tipCount":5,"visitsCount":773,"tier":"","message":"","currency":"","rating":6},{"name":"The Bull And Bear","phone":"9198473617","address":"5442 Six Forks Rd","lat":35.85543095876056,"lng":-78.64027082920074,"city_fetched":"Raleigh,US","state":"NC","country":"United States","canonicalUrl":"https://foursquare.com/v/the-bull-and-bear/4ba5875ff964a520990f39e3","categoryId":"4bf58dd8d48988d116941735","category":"Bar","checkinsCount":902,"usersCount":169,"tipCount":10,"visitsCount":929,"tier":"","message":"","currency":"","rating":6},{"name":"The Keg","address":"2504 Hillsborough St","lat":35.787904,"lng":-78.668422,"city_fetched":"Raleigh,US","state":"NC","country":"United States","canonicalUrl":"https://foursquare.com/v/the-keg/4f5fb3b6e4b04ddc39c30a1b","categoryId":"4bf58dd8d48988d11b941735","category":"Pub","checkinsCount":1053,"usersCount":456,"tipCount":8,"visitsCount":1056,"tier":"","message":"","currency":"","rating":5.9},{"name":"Star Karaoke","phone":"9192931900","address":"2105 E NC Highway 54","lat":35.90367535759958,"lng":-78.89395944181202,"neighborhood":"durham nc","city_fetched":"Raleigh,US","state":"NC","country":"United States","canonicalUrl":"https://foursquare.com/v/star-karaoke/4b21ec23f964a5206e4224e3","categoryId":"4bf58dd8d48988d120941735","category":"Karaoke Bar","checkinsCount":421,"usersCount":300,"tipCount":8,"visitsCount":423,"url":"http://starkaraokenc.com","tier":"","message":"","currency":"","rating":5.7},{"name":"Gordon Biersch Bar & Restaurant","twitter":"hmshost","address":"Raleigh Durham Airport, 1025 Airside Drive","lat":35.87836266328499,"lng":-78.79237484823643,"city_fetched":"Raleigh,US","state":"NC","country":"United States","canonicalUrl":"https://foursquare.com/v/gordon-biersch-bar--restaurant/4f9ab1dcd4f2465542bc67f5","categoryId":"4bf58dd8d48988d11b941735","category":"Pub","checkinsCount":2185,"usersCount":1771,"tipCount":29,"visitsCount":2188,"tier":"","message":"","currency":"","rating":5.6},{"name":"Havoc","address":"3 Glenwood Ave","lat":35.781128,"lng":-78.647901,"city_fetched":"Raleigh,US","state":"NC","country":"United States","canonicalUrl":"https://foursquare.com/v/havoc/51520130e4b092b7a5083d48","categoryId":"4bf58dd8d48988d118941735","category":"Dive Bar","checkinsCount":455,"usersCount":166,"tipCount":3,"visitsCount":458,"tier":"","message":"","currency":"","rating":5.3},{"name":"Goodnight's Old Restaurant & Bar","phone":"9198285233","address":"861 W Morgan St","lat":35.7807432798353,"lng":-78.6560583114624,"city_fetched":"Raleigh,US","state":"NC","country":"United States","canonicalUrl":"https://foursquare.com/v/goodnights-old-restaurant--bar/4b3be33ef964a520967d25e3","categoryId":"4bf58dd8d48988d116941735","category":"Bar","checkinsCount":699,"usersCount":271,"tipCount":10,"visitsCount":699,"tier":"","message":"","currency":"","rating":5.3},{"name":"Still Life","phone":"8775905478","twitter":"stilllife_rdu","address":"401 N West St Ste 131","lat":35.785841057157384,"lng":-78.64601017620375,"neighborhood":"Central Raleigh","city_fetched":"Raleigh,US","state":"NC","country":"United States","canonicalUrl":"https://foursquare.com/v/still-life/4f64de67e4b014afeb8c400a","categoryId":"4bf58dd8d48988d11f941735","category":"Nightclub","checkinsCount":1102,"usersCount":618,"tipCount":7,"visitsCount":1155,"url":"http://www.clubstilllife.com","tier":"","message":"","currency":"","rating":4.9}]