[{"name":"Independent Ale House","phone":"6057189492","address":"625 Saint Joseph St","lat":44.080133515229306,"lng":-103.22871066785508,"city_fetched":"Rapid City","state":"SD","country":"United States","canonicalUrl":"https://foursquare.com/v/independent-ale-house/4e55a3c2483b7ae46dade224","category":"Bar","checkinsCount":3447,"usersCount":1056,"tipCount":51,"visitsCount":4041,"url":"http://independentalehouse.com","tier":3,"message":"Expensive","currency":"$","rating":8.8},{"name":"Murphy's Pub & Grill","phone":"6057912244","twitter":"murphyspubgrill","address":"510 9th St","lat":44.081639336776284,"lng":-103.23225975036621,"city_fetched":"Rapid City","state":"SD","country":"United States","canonicalUrl":"https://foursquare.com/v/murphys-pub--grill/4ddf1ed781dcc5e5c55fc368","category":"Pub","checkinsCount":4887,"usersCount":1721,"tipCount":42,"visitsCount":5287,"url":"http://murphyspubandgrill.com","tier":2,"message":"Moderate","currency":"$","rating":8.2},{"name":"Firehouse Wine Cellars","phone":"6057169463","address":"620 Main St","lat":44.081332,"lng":-103.227967,"city_fetched":"Rapid City","state":"SD","country":"United States","canonicalUrl":"https://foursquare.com/v/firehouse-wine-cellars/5345b9b8498e1bb5b5f33ba6","category":"Wine Bar","checkinsCount":60,"usersCount":53,"tipCount":4,"visitsCount":60,"url":"http://www.firehousewinecellars.com","tier":"","message":"","currency":"","rating":8.1},{"name":"445 Martini Lounge","phone":"6053488300","twitter":"445lounge","address":"445 Mount Rushmore Rd","lat":44.08200542059181,"lng":-103.23104739189148,"city_fetched":"Rapid City","state":"SD","country":"United States","canonicalUrl":"https://foursquare.com/445lounge","category":"Cocktail Bar","checkinsCount":1717,"usersCount":502,"tipCount":13,"visitsCount":1780,"url":"http://adobahotelrapidcity.com","tier":"","message":"","currency":"","rating":7.8},{"name":"Sahara Nights Hookah Lounge","phone":"6057167900","twitter":"saharanights_rc","address":"729 Main St","lat":44.08151947151482,"lng":-103.23056450746118,"city_fetched":"Rapid City","state":"SD","country":"United States","canonicalUrl":"https://foursquare.com/v/sahara-nights-hookah-lounge/4ff9248ae4b0f1abbc771d23","category":"Hookah Bar","checkinsCount":3192,"usersCount":142,"tipCount":18,"visitsCount":3231,"url":"http://saharanightshookahlounge.com","tier":2,"message":"Moderate","currency":"$","rating":7.8},{"name":"Firehouse Brewing Company","phone":"6053481915","twitter":"firehousebrew","address":"610 Main St","lat":44.0814235389396,"lng":-103.22745323181152,"city_fetched":"Rapid City","state":"SD","country":"United States","canonicalUrl":"https://foursquare.com/firehousebrew","category":"Brewery","checkinsCount":4438,"usersCount":3370,"tipCount":92,"visitsCount":4884,"url":"http://firehousebrewing.com","tier":"","message":"","currency":"","rating":7.8},{"name":"Blue Lantern Lounge","phone":"6053439787","address":"1200 E Saint Patrick St","lat":44.06783087819936,"lng":-103.19656304130781,"city_fetched":"Rapid City","state":"SD","country":"United States","canonicalUrl":"https://foursquare.com/v/blue-lantern-lounge/4d70494b7760a1cd30a4ada9","category":"Bar","checkinsCount":730,"usersCount":115,"tipCount":7,"visitsCount":795,"tier":"","message":"","currency":"","rating":7.7},{"name":"Kelly's Sports Lounge","phone":"6053481213","address":"825 Jackson Blvd","lat":44.07809013308908,"lng":-103.25099229812622,"city_fetched":"Rapid City","state":"SD","country":"United States","canonicalUrl":"https://foursquare.com/v/kellys-sports-lounge/4cd88a2153a7f04db5c16316","category":"Bar","checkinsCount":2587,"usersCount":355,"tipCount":15,"visitsCount":2636,"tier":"","message":"","currency":"","rating":7.6},{"name":"Buffalo Wings & Rings","phone":"6057919464","address":"5622 Sheridan Lake Rd","lat":44.02869741116947,"lng":-103.27131082577854,"city_fetched":"Rapid City","state":"SD","country":"United States","canonicalUrl":"https://foursquare.com/v/buffalo-wings--rings/4bb54e7b2ea195215e58aa2f","category":"Wings Joint","checkinsCount":835,"usersCount":357,"tipCount":13,"visitsCount":1060,"tier":2,"message":"Moderate","currency":"$","rating":7.6},{"name":"Hay Camp Brewing Company","phone":"9702159859","twitter":"haycampbrewing","address":"201 Main St Ste 109","lat":44.07969722004158,"lng":-103.22008419524049,"city_fetched":"Rapid City","state":"SD","country":"United States","canonicalUrl":"https://foursquare.com/haycampbrewing","category":"Brewery","checkinsCount":71,"usersCount":55,"tipCount":4,"visitsCount":78,"url":"http://www.haycampbrewing.com","tier":"","message":"","currency":"","rating":7.6},{"name":"Rapid City Summer Nights","twitter":"rcsummernights","address":"W. Main St.","lat":44.08086477302624,"lng":-103.22878360748291,"city_fetched":"Rapid City","state":"SD","country":"United States","canonicalUrl":"https://foursquare.com/v/rapid-city-summer-nights/4c23f445a852c928b763e26c","category":"General Entertainment","checkinsCount":881,"usersCount":373,"tipCount":10,"visitsCount":906,"url":"http://www.rapidcitysummernights.com","tier":"","message":"","currency":"","rating":7.5},{"name":"Paddy O'Neill's","phone":"6053421210","address":"523 6th St","lat":44.080286733769455,"lng":-103.22741031646729,"city_fetched":"Rapid City","state":"SD","country":"United States","canonicalUrl":"https://foursquare.com/v/paddy-oneills/4bc54136ccbcef3bf061e6d2","category":"Irish Pub","checkinsCount":2741,"usersCount":631,"tipCount":15,"visitsCount":2777,"url":"http://alexjohnson.com/hotel-services-amenities/rapid-city-dining-lounges/","tier":"","message":"","currency":"","rating":7.5},{"name":"Colonial House Restaurant & Bar","phone":"6053424640","twitter":"chrnb","address":"2501 Mount Rushmore Rd","lat":44.06276578305849,"lng":-103.23289170670549,"city_fetched":"Rapid City","state":"SD","country":"United States","canonicalUrl":"https://foursquare.com/v/colonial-house-restaurant--bar/4ba2377ff964a5207ee437e3","category":"American Restaurant","checkinsCount":2190,"usersCount":959,"tipCount":42,"visitsCount":2460,"url":"http://www.colonialhousernb.com","tier":"","message":"","currency":"","rating":7.4},{"name":"Uncork'd Wine & Tapas Bar","phone":"6053480005","address":"5734 Sheridan Lake Rd","lat":44.02793840600818,"lng":-103.27172793807752,"city_fetched":"Rapid City","state":"SD","country":"United States","canonicalUrl":"https://foursquare.com/v/uncorkd-wine--tapas-bar/4bfc592ab5cd2d7f127431fb","category":"Wine Bar","checkinsCount":95,"usersCount":56,"tipCount":6,"visitsCount":95,"tier":"","message":"","currency":"","rating":7.3},{"name":"Shooters Wood Fire Grill","phone":"6053483348","address":"2424 W Main St","lat":44.08239506465491,"lng":-103.25999859161047,"city_fetched":"Rapid City","state":"SD","country":"United States","canonicalUrl":"https://foursquare.com/v/shooters-wood-fire-grill/4c2a88dd57a9c9b6d7a9f467","category":"American Restaurant","checkinsCount":750,"usersCount":370,"tipCount":10,"visitsCount":812,"tier":2,"message":"Moderate","currency":"$","rating":7.2},{"name":"Clock Tower Lounge","phone":"6053428876","address":"2525 W Main St Ste 101","lat":44.081797331121884,"lng":-103.2608413696289,"city_fetched":"Rapid City","state":"SD","country":"United States","canonicalUrl":"https://foursquare.com/v/clock-tower-lounge/4bcbe47f0687ef3b7c8fdecc","category":"Bar","checkinsCount":2424,"usersCount":408,"tipCount":10,"visitsCount":2541,"tier":"","message":"","currency":"","rating":7.1},{"name":"TGI Fridays","phone":"6053438443","twitter":"tgifridays","address":"2205 N Lacrosse St","lat":44.10755247,"lng":-103.2035226,"city_fetched":"Rapid City","state":"SD","country":"United States","canonicalUrl":"https://foursquare.com/v/tgi-fridays/4ba57b98f964a5208c0b39e3","category":"American Restaurant","checkinsCount":2473,"usersCount":997,"tipCount":23,"visitsCount":2788,"url":"http://tgifridays.com","tier":2,"message":"Moderate","currency":"$","rating":7},{"name":"Ifrit's Hookah Lounge","phone":"6057166986","twitter":"ifrits","address":"725 Saint Joseph St","lat":44.080386,"lng":-103.230241,"city_fetched":"Rapid City","state":"SD","country":"United States","canonicalUrl":"https://foursquare.com/v/ifrits-hookah-lounge/51887082498e522e37eacbd6","category":"Hookah Bar","checkinsCount":1038,"usersCount":168,"tipCount":10,"visitsCount":1116,"url":"http://www.ifritshookahlounge.com","tier":2,"message":"Moderate","currency":"$","rating":6.8},{"name":"Oasis Lounge","phone":"6053487111","address":"705 Main St","lat":44.08125051930923,"lng":-103.2296347668384,"city_fetched":"Rapid City","state":"SD","country":"United States","canonicalUrl":"https://foursquare.com/v/oasis-lounge/4c5a4e2ab05c1b8d2c17d8b1","category":"Bar","checkinsCount":1723,"usersCount":462,"tipCount":6,"visitsCount":1935,"tier":"","message":"","currency":"","rating":6.8},{"name":"Sally O'Mally's Pub & Casino","phone":"6057218636","address":"3064 Covington St","lat":44.054724,"lng":-103.14286,"city_fetched":"Rapid City","state":"SD","country":"United States","canonicalUrl":"https://foursquare.com/v/sally-omallys-pub--casino/4c942926f244b1f7fdd61f1d","category":"Pub","checkinsCount":860,"usersCount":281,"tipCount":3,"visitsCount":964,"tier":"","message":"","currency":"","rating":6.7},{"name":"Robbinsdale Lounge","phone":"6053427271","address":"803 E Saint Patrick St","lat":44.06739352804235,"lng":-103.20297951010821,"city_fetched":"Rapid City","state":"SD","country":"United States","canonicalUrl":"https://foursquare.com/v/robbinsdale-lounge/4c9428a872dd224be5bc9791","category":"Bar","checkinsCount":805,"usersCount":190,"tipCount":4,"visitsCount":821,"tier":"","message":"","currency":"","rating":6.7},{"name":"Cheers Lounge","phone":"6053421300","address":"1721 N Lacrosse St","lat":44.102083508626244,"lng":-103.2041850994963,"city_fetched":"Rapid City","state":"SD","country":"United States","canonicalUrl":"https://foursquare.com/v/cheers-lounge/4c282de79fb5d13a66459957","category":"Bar","checkinsCount":500,"usersCount":226,"tipCount":2,"visitsCount":562,"tier":"","message":"","currency":"","rating":6.6},{"name":"Thirsty's","phone":"6053433104","address":"819 Main St","lat":44.08170484667811,"lng":-103.23173940181732,"city_fetched":"Rapid City","state":"SD","country":"United States","canonicalUrl":"https://foursquare.com/v/thirstys/4bc009aa920eb713c881182c","category":"Sports Bar","checkinsCount":1642,"usersCount":485,"tipCount":12,"visitsCount":1664,"url":"http://www.thirstysrapidcity.com","tier":1,"message":"Cheap","currency":"$","rating":6.5},{"name":"Wobbly Bobby British Pub","phone":"6057217468","twitter":"wobblybobbypub","address":"510 Main St","lat":44.08132999964008,"lng":-103.2255834323157,"city_fetched":"Rapid City","state":"SD","country":"United States","canonicalUrl":"https://foursquare.com/v/wobbly-bobby-british-pub/4f221ddbe4b01dc9493e6cc1","category":"Pub","checkinsCount":1146,"usersCount":476,"tipCount":9,"visitsCount":1182,"url":"http://wobblybobby.com","tier":"","message":"","currency":"","rating":6.5},{"name":"German Tent","address":"San Francisco St","lat":44.076687348935536,"lng":-103.20024490356445,"city_fetched":"Rapid City","state":"SD","country":"United States","canonicalUrl":"https://foursquare.com/v/german-tent/4c709036b3ce224b0b7b74c6","category":"Beer Garden","checkinsCount":208,"usersCount":107,"tipCount":3,"visitsCount":208,"tier":"","message":"","currency":"","rating":6.4},{"name":"Hotel Alex Johnson","address":"523 6th St","lat":44.08047739226258,"lng":-103.22730199351778,"city_fetched":"Rapid City","state":"SD","country":"United States","canonicalUrl":"https://foursquare.com/v/hotel-alex-johnson/4bc43d98dce4eee17309729d","category":"Hotel","checkinsCount":2551,"usersCount":1031,"tipCount":20,"visitsCount":2609,"tier":"","message":"","currency":"","rating":6.4},{"name":"The J Bar & Grill","phone":"6053425450","address":"4200 N I-90","lat":44.103565208106865,"lng":-103.14967484693454,"city_fetched":"Rapid City","state":"SD","country":"United States","canonicalUrl":"https://foursquare.com/v/the-j-bar--grill/506a4766e4b08576603bebb0","category":"Bar","checkinsCount":332,"usersCount":74,"tipCount":4,"visitsCount":361,"tier":"","message":"","currency":"","rating":6.3},{"name":"Joe's Place Bar & Grill","phone":"6053947716","address":"4302 Pendleton Dr","lat":44.042218833883396,"lng":-103.19139179953501,"city_fetched":"Rapid City","state":"SD","country":"United States","canonicalUrl":"https://foursquare.com/v/joes-place-bar--grill/4bed8cf99868a593258f5d46","category":"Restaurant","checkinsCount":414,"usersCount":190,"tipCount":7,"visitsCount":495,"tier":"","message":"","currency":"","rating":6.3},{"name":"American Legion Post 22","phone":"6053424930","address":"818 E Saint Patrick St","lat":44.067953884285885,"lng":-103.20251405239105,"city_fetched":"Rapid City","state":"SD","country":"United States","canonicalUrl":"https://foursquare.com/v/american-legion-post-22/4df15ae388772e1f814aa14b","category":"Lounge","checkinsCount":1130,"usersCount":120,"tipCount":2,"visitsCount":1143,"tier":"","message":"","currency":"","rating":6.3},{"name":"Ifrit's Hookah Lounge","phone":"6057166986","twitter":"ifrits","address":"725 Saint Joseph St","lat":44.0803175626724,"lng":-103.23051631450653,"city_fetched":"Rapid City","state":"SD","country":"United States","canonicalUrl":"https://foursquare.com/ifrits","category":"Hookah Bar","checkinsCount":2596,"usersCount":324,"tipCount":22,"visitsCount":2596,"url":"http://www.ifritshookahlounge.com","tier":"","message":"","currency":"","rating":6.2},{"name":"Brass Rail Lounge","phone":"6053411768","address":"624 Saint Joseph St","lat":44.08029855267864,"lng":-103.22861487749736,"city_fetched":"Rapid City","state":"SD","country":"United States","canonicalUrl":"https://foursquare.com/v/brass-rail-lounge/4b8df7e8f964a520d41433e3","category":"Dive Bar","checkinsCount":2845,"usersCount":403,"tipCount":18,"visitsCount":2893,"tier":1,"message":"Cheap","currency":"$","rating":6.2},{"name":"Sliders Bar & Grill","phone":"6058541708","address":"1314 N Elk Vale Rd","lat":44.09885053216159,"lng":-103.14815104007721,"city_fetched":"Rapid City","state":"SD","country":"United States","canonicalUrl":"https://foursquare.com/v/sliders-bar--grill/4d4ca25699daa0938de0154a","category":"Sports Bar","checkinsCount":560,"usersCount":335,"tipCount":10,"visitsCount":568,"tier":"","message":"","currency":"","rating":6.1},{"name":"Moonshiners Sports Bar & Night Club","address":"826 Main St","lat":44.082076004997326,"lng":-103.23180417237332,"city_fetched":"Rapid City","state":"SD","country":"United States","canonicalUrl":"https://foursquare.com/v/moonshiners-sports-bar--night-club/4f050b8e61af9d3db8728b0e","category":"Sports Bar","checkinsCount":881,"usersCount":221,"tipCount":6,"visitsCount":911,"tier":"","message":"","currency":"","rating":6.1},{"name":"Vertex Sky Bar","phone":"6058541215","address":"at Hotel Alex Johnson","lat":44.080294440996674,"lng":-103.2275390625,"city_fetched":"Rapid City","state":"SD","country":"United States","canonicalUrl":"https://foursquare.com/v/vertex-sky-bar/4df2c225ae609e69dd977909","category":"Cocktail Bar","checkinsCount":890,"usersCount":464,"tipCount":12,"visitsCount":899,"url":"http://www.vertexskybar.com","tier":"","message":"","currency":"","rating":6},{"name":"Wine Cellar Restaurant","phone":"6057182675","address":"513 6th St","lat":44.08047170694607,"lng":-103.22723865509033,"city_fetched":"Rapid City","state":"SD","country":"United States","canonicalUrl":"https://foursquare.com/v/wine-cellar-restaurant/4d8a9c2d7139b1f7c134cfd4","category":"Wine Bar","checkinsCount":727,"usersCount":126,"tipCount":8,"visitsCount":731,"url":"http://www.winecellarrestaurant.com","tier":"","message":"","currency":"","rating":5.9},{"name":"Valley Sports Bar & Grill","phone":"6053432528","address":"1865 S Valley Dr","lat":44.067304053137335,"lng":-103.17205506287534,"city_fetched":"Rapid City","state":"SD","country":"United States","canonicalUrl":"https://foursquare.com/v/valley-sports-bar--grill/4c5cebbf6ebe2d7fa2abd12e","category":"Sports Bar","checkinsCount":343,"usersCount":159,"tipCount":0,"visitsCount":393,"tier":"","message":"","currency":"","rating":5.8},{"name":"Budd Ugly's Night Club","phone":"6053883232","address":"321 7th St - Top Floor","lat":44.08273275178464,"lng":-103.22875011096488,"city_fetched":"Rapid City","state":"SD","country":"United States","canonicalUrl":"https://foursquare.com/v/budd-uglys-night-club/4cf21a5ccc61a35dcf2a199e","category":"Nightclub","checkinsCount":664,"usersCount":188,"tipCount":4,"visitsCount":670,"tier":"","message":"","currency":"","rating":5.6}]