[{"name":"Sofrito Gastro Pub","phone":"6103733115","address":"220 Douglass St","lat":40.347408,"lng":-75.932385,"neighborhood":"Centre Park","city_fetched":"Reading","state":"PA","country":"United States","canonicalUrl":"https://foursquare.com/v/sofrito-gastro-pub/4e7cb907b993c23b76a517c8","category":"Gastropub","checkinsCount":649,"usersCount":348,"tipCount":22,"visitsCount":1052,"url":"http://sofritogastropub.com","tier":2,"message":"Moderate","currency":"$","rating":8.5},{"name":"Canal Street Pub","phone":"6103764009","twitter":"canalstpub","address":"535 Canal St","lat":40.32539533392635,"lng":-75.92652440071106,"city_fetched":"Reading","state":"PA","country":"United States","canonicalUrl":"https://foursquare.com/v/canal-street-pub/4b8843d7f964a5204beb31e3","category":"Bar","checkinsCount":1902,"usersCount":790,"tipCount":23,"visitsCount":2278,"url":"http://canalstreetpub.com","tier":"","message":"","currency":"","rating":8.4},{"name":"The Barley Mow","phone":"4849262094","twitter":"barleymowbeer","address":"719 Penn Ave.","lat":40.33601144705509,"lng":-75.952627658844,"city_fetched":"Reading","state":"PA","country":"United States","canonicalUrl":"https://foursquare.com/v/the-barley-mow/5304d30211d27fb84a9a039d","category":"Beer Store","checkinsCount":635,"usersCount":419,"tipCount":12,"visitsCount":1235,"url":"http://barleymowbeer.com","tier":"","message":"","currency":"","rating":8.3},{"name":"Chatty Monks Brewing Company","phone":"4848180176","twitter":"chattymonks","address":"610 Penn Ave.","lat":40.3357894759708,"lng":-75.95026178578759,"city_fetched":"Reading","state":"PA","country":"United States","canonicalUrl":"https://foursquare.com/v/chatty-monks-brewing-company/539079cd498e7de3eb9719a4","category":"Brewery","checkinsCount":562,"usersCount":355,"tipCount":14,"visitsCount":654,"url":"http://chattymonks.com","tier":"","message":"","currency":"","rating":8.3},{"name":"Brewer's Bar & Grill","phone":"6103758760","address":"101 S 3rd Ave","lat":40.33386055133351,"lng":-75.9438943862915,"city_fetched":"Reading","state":"PA","country":"United States","canonicalUrl":"https://foursquare.com/v/brewers-bar--grill/4b4273b6f964a52038d425e3","category":"Sports Bar","checkinsCount":3184,"usersCount":763,"tipCount":20,"visitsCount":3529,"url":"http://www.brewersbarandgrill.com","tier":2,"message":"Moderate","currency":"$","rating":8.1},{"name":"The Pike Cafe","phone":"6103736616","address":"930 Pike St","lat":40.356034,"lng":-75.918431,"city_fetched":"Reading","state":"PA","country":"United States","canonicalUrl":"https://foursquare.com/v/the-pike-cafe/4b5a3bfdf964a5205bb628e3","category":"Pub","checkinsCount":2430,"usersCount":974,"tipCount":17,"visitsCount":2959,"url":"http://www.pikecafe.com","tier":"","message":"","currency":"","rating":7.9},{"name":"Mike's Tavern","phone":"6103743857","address":"135 Exeter St","lat":40.361061096576876,"lng":-75.93365940481057,"neighborhood":"Northwest Reading","city_fetched":"Reading","state":"PA","country":"United States","canonicalUrl":"https://foursquare.com/v/mikes-tavern/4c18326bd4d9c928092eef29","category":"Bar","checkinsCount":253,"usersCount":151,"tipCount":2,"visitsCount":351,"url":"http://mikestavernreading.com","tier":"","message":"","currency":"","rating":7.8},{"name":"3rd & Spruce Cafe","phone":"6103765254","address":"238 S 3rd Ave","lat":40.3320428683246,"lng":-75.94477415084839,"city_fetched":"Reading","state":"PA","country":"United States","canonicalUrl":"https://foursquare.com/v/3rd--spruce-cafe/4b2eea7af964a5203fe824e3","category":"Bar","checkinsCount":2729,"usersCount":1084,"tipCount":10,"visitsCount":3270,"url":"http://www.thirdandspruce.com","tier":2,"message":"Moderate","currency":"$","rating":7.7},{"name":"Ugly Oyster Drafthaus","phone":"6103736791","twitter":"uglyo","address":"21 S 5th St","lat":40.33444464191147,"lng":-75.9278639845804,"city_fetched":"Reading","state":"PA","country":"United States","canonicalUrl":"https://foursquare.com/v/ugly-oyster-drafthaus/4ace0e4bf964a5201bce20e3","category":"Bar","checkinsCount":3012,"usersCount":1022,"tipCount":33,"visitsCount":3333,"url":"http://theuglyoyster.com","tier":2,"message":"Moderate","currency":"$","rating":7.6},{"name":"The Brick House Pub","phone":"6107751443","address":"1348 Brooke Blvd","lat":40.310189723968506,"lng":-75.948053,"city_fetched":"Reading","state":"PA","country":"United States","canonicalUrl":"https://foursquare.com/v/the-brick-house-pub/4c12ca0fa5eb76b06bdabeb7","category":"Pub","checkinsCount":480,"usersCount":154,"tipCount":4,"visitsCount":572,"tier":"","message":"","currency":"","rating":7.5},{"name":"Winedown Cafe & Winebar","phone":"6103734907","twitter":"winedowncafe","address":"622 Penn Ave","lat":40.335752420000006,"lng":-75.950512,"city_fetched":"Reading","state":"PA","country":"United States","canonicalUrl":"https://foursquare.com/winedowncafe","category":"Wine Bar","checkinsCount":846,"usersCount":274,"tipCount":10,"visitsCount":867,"url":"http://www.winedowncafe.net","tier":"","message":"","currency":"","rating":7.3},{"name":"Trooper Thorn's Irish Beef House","phone":"6106854944","address":"451 Morgantown Rd","lat":40.317184925079346,"lng":-75.925199,"city_fetched":"Reading","state":"PA","country":"United States","canonicalUrl":"https://foursquare.com/v/trooper-thorns-irish-beef-house/4b33fd4ef964a520802325e3","category":"Pub","checkinsCount":2753,"usersCount":898,"tipCount":15,"visitsCount":3184,"url":"http://www.trooperthornsirishpub.com","tier":2,"message":"Moderate","currency":"$","rating":7.2},{"name":"The Pillar Lounge","phone":"6107800452","address":"125 Morgantown Rd","lat":40.32220769794704,"lng":-75.92861819666595,"city_fetched":"Reading","state":"PA","country":"United States","canonicalUrl":"https://foursquare.com/v/the-pillar-lounge/4f1a1b52e4b044fd34298c8c","category":"Hookah Bar","checkinsCount":621,"usersCount":296,"tipCount":10,"visitsCount":649,"url":"http://pillarlounge.com","tier":"","message":"","currency":"","rating":7.1},{"name":"The Knight's Pub","phone":"6103756100","address":"141 Stokesay Castle Ln","lat":40.33607687246644,"lng":-75.8920955657959,"city_fetched":"Reading","state":"PA","country":"United States","canonicalUrl":"https://foursquare.com/v/the-knights-pub/4f5a8f15e4b008b15587093d","category":"Pub","checkinsCount":927,"usersCount":435,"tipCount":4,"visitsCount":1056,"url":"http://www.stokesay.net","tier":"","message":"","currency":"","rating":6.9},{"name":"Speckled Hen","phone":"6106858511","address":"30 S 4th St","lat":40.3345,"lng":-75.930062,"city_fetched":"Reading","state":"PA","country":"United States","canonicalUrl":"https://foursquare.com/v/speckled-hen/4c006bb39cf52d7fe7c813e7","category":"Pub","checkinsCount":375,"usersCount":269,"tipCount":5,"visitsCount":449,"url":"http://speckledhenpub.com","tier":"","message":"","currency":"","rating":6.7},{"name":"Decarlo's Bar & Grill","phone":"6103788121","address":"240 Penn St","lat":40.335321,"lng":-75.93236,"city_fetched":"Reading","state":"PA","country":"United States","canonicalUrl":"https://foursquare.com/v/decarlos-bar--grill/4c49d150fbafc928c8f66fdb","category":"Bar","checkinsCount":215,"usersCount":89,"tipCount":4,"visitsCount":225,"tier":"","message":"","currency":"","rating":6.6},{"name":"Jimmie Kramer's Peanut Bar","phone":"6103768500","address":"332 Penn St","lat":40.33512410864906,"lng":-75.93088030815123,"city_fetched":"Reading","state":"PA","country":"United States","canonicalUrl":"https://foursquare.com/v/jimmie-kramers-peanut-bar/4b64e110f964a520f2d62ae3","category":"American Restaurant","checkinsCount":1311,"usersCount":807,"tipCount":22,"visitsCount":1435,"url":"http://www.peanutbar.com","tier":2,"message":"Moderate","currency":"$","rating":6.6},{"name":"Reverb","phone":"6107433069","address":"1402 N 9th St","lat":40.35628616809845,"lng":-75.9196785,"city_fetched":"Reading","state":"PA","country":"United States","canonicalUrl":"https://foursquare.com/v/reverb/4da8ffb793a04642f05c8d5f","category":"Nightclub","checkinsCount":843,"usersCount":646,"tipCount":9,"visitsCount":955,"url":"http://www.reverbconcerts.com","tier":"","message":"","currency":"","rating":6.4},{"name":"New California Bar and Grill","phone":"6107777224","address":"699 Mountain View Rd","lat":40.29822823848703,"lng":-75.94307219868767,"city_fetched":"Reading","state":"PA","country":"United States","canonicalUrl":"https://foursquare.com/v/new-california-bar-and-grill/4b5a398af964a52084b528e3","category":"Sports Bar","checkinsCount":1649,"usersCount":670,"tipCount":15,"visitsCount":1955,"tier":1,"message":"Cheap","currency":"$","rating":6.3},{"name":"Legends","phone":"6109294741","address":"2545 N 5th St Hwy","lat":40.37004497108769,"lng":-75.92633853570644,"city_fetched":"Reading","state":"PA","country":"United States","canonicalUrl":"https://foursquare.com/v/legends/4ba131b2f964a520d2a037e3","category":"Nightclub","checkinsCount":2782,"usersCount":681,"tipCount":9,"visitsCount":3152,"tier":"","message":"","currency":"","rating":5.7}]