[{"name":"Red Wing Brewery","phone":"6513272200","address":"1411 Old West Main St","lat":44.562733,"lng":-92.547249,"city_fetched":"Red Wing","state":"MN","country":"United States","canonicalUrl":"https://foursquare.com/v/red-wing-brewery/50cd1eece4b07c1541489369","category":"Brewery","checkinsCount":604,"usersCount":562,"tipCount":18,"visitsCount":960,"url":"http://www.redwingbrewing.com","tier":2,"message":"Moderate","currency":"$","rating":8.9},{"name":"St. James Hotel","phone":"6513882846","address":"406 Main St","lat":44.56613781583166,"lng":-92.53597269973073,"city_fetched":"Red Wing","state":"MN","country":"United States","canonicalUrl":"https://foursquare.com/v/st-james-hotel/4a8738e0f964a520570320e3","category":"Hotel","checkinsCount":1416,"usersCount":1025,"tipCount":16,"visitsCount":1635,"tier":"","message":"","currency":"","rating":8.7},{"name":"Harbor Restaurant, Bar & Marina","phone":"7157922417","twitter":"bsmithhb","address":"N673 825th St","lat":44.56912010386061,"lng":-92.53910847008228,"city_fetched":"Red Wing","state":"WI","country":"United States","canonicalUrl":"https://foursquare.com/v/harbor-restaurant-bar--marina/4bf58809004ed13a26c140a0","category":"Caribbean Restaurant","checkinsCount":1313,"usersCount":550,"tipCount":12,"visitsCount":1652,"url":"http://www.harborbar.net","tier":1,"message":"Cheap","currency":"$","rating":8.6},{"name":"Nauti Hawg","address":"9852 290th Ave.","lat":44.64907321,"lng":-92.62927293777466,"city_fetched":"Red Wing","state":"WI","country":"United States","canonicalUrl":"https://foursquare.com/v/nauti-hawg/4dd0319c1f6eb12270a65b86","category":"Dive Bar","checkinsCount":479,"usersCount":411,"tipCount":7,"visitsCount":697,"tier":"","message":"","currency":"","rating":8.3},{"name":"Kelly's Bar","phone":"6513889913","address":"1530 Old West Main St","lat":44.563313,"lng":-92.54930764,"city_fetched":"Red Wing","state":"MN","country":"United States","canonicalUrl":"https://foursquare.com/v/kellys-bar/4c0b2e9c009a0f4783d2eabf","category":"Bar","checkinsCount":612,"usersCount":541,"tipCount":12,"visitsCount":1098,"tier":"","message":"","currency":"","rating":8.1},{"name":"Andy's Sports Bar & Grill","phone":"6513884471","address":"529 Plum St","lat":44.56408739089966,"lng":-92.5298352,"city_fetched":"Red Wing","state":"MN","country":"United States","canonicalUrl":"https://foursquare.com/v/andys-sports-bar--grill/4b8365ddf964a520270531e3","category":"Bar","checkinsCount":442,"usersCount":210,"tipCount":5,"visitsCount":757,"tier":"","message":"","currency":"","rating":7.5},{"name":"Marie's Underground Grill And Tap House","lat":44.566322,"lng":-92.533469,"city_fetched":"Red Wing","state":"MN","country":"United States","canonicalUrl":"https://foursquare.com/v/maries-underground-grill-and-tap-house/4dd6cd6cae60680f14f71f19","category":"Bar","checkinsCount":367,"usersCount":328,"tipCount":11,"visitsCount":422,"tier":"","message":"","currency":"","rating":7.1},{"name":"Bluffs Bar & Grill","phone":"7157922688","address":"N1833 785th St","lat":44.60468221666667,"lng":-92.52505738,"city_fetched":"Red Wing","state":"WI","country":"United States","canonicalUrl":"https://foursquare.com/v/bluffs-bar--grill/4c53676d4623be9acfb504f1","category":"Bar","checkinsCount":206,"usersCount":132,"tipCount":3,"visitsCount":285,"tier":"","message":"","currency":"","rating":7},{"name":"The Parlay Lounge","lat":44.631380230925814,"lng":-92.65042282495395,"city_fetched":"Red Wing","state":"MN","country":"United States","canonicalUrl":"https://foursquare.com/v/the-parlay-lounge/4fc19b78e4b0c592348eed02","category":"Lounge","checkinsCount":292,"usersCount":128,"tipCount":1,"visitsCount":292,"tier":"","message":"","currency":"","rating":6.8},{"name":"Tipsy Turtle","address":"6690 Sturgeon Lake Rd","lat":44.63050102656938,"lng":-92.67106946825479,"city_fetched":"Red Wing","state":"MN","country":"United States","canonicalUrl":"https://foursquare.com/v/tipsy-turtle/4c30120eed37a593e9736803","category":"Dive Bar","checkinsCount":599,"usersCount":262,"tipCount":1,"visitsCount":685,"tier":"","message":"","currency":"","rating":6.4},{"name":"Island Xtreme Bowl","phone":"6512673000","address":"5734 Sturgeon Lake Rd","lat":44.63316244551462,"lng":-92.65038403318115,"city_fetched":"Red Wing","state":"MN","country":"United States","canonicalUrl":"https://foursquare.com/v/island-xtreme-bowl/4cb8e10376ad9c749a7de5cb","category":"Bowling Alley","checkinsCount":726,"usersCount":438,"tipCount":4,"visitsCount":788,"url":"http://www.islandxtremebowl.com","tier":"","message":"","currency":"","rating":6.4},{"name":"The Woodshed Pizza, Liquor Store, & Night Club","phone":"7157922217","address":"N1090 825th St","lat":44.580129935949074,"lng":-92.54618483525078,"city_fetched":"Red Wing","state":"WI","country":"United States","canonicalUrl":"https://foursquare.com/v/the-woodshed-pizza-liquor-store--night-club/4ba5a06af964a520bf1739e3","category":"Nightclub","checkinsCount":389,"usersCount":162,"tipCount":1,"visitsCount":479,"tier":"","message":"","currency":"","rating":6.1},{"name":"Bierstube R W's","phone":"6513858852","address":"233 Withers Harbor Dr","lat":44.564044203711234,"lng":-92.56167907150977,"city_fetched":"Red Wing","state":"MN","country":"United States","canonicalUrl":"https://foursquare.com/v/bierstube-r-ws/4a987006f964a520022c20e3","category":"Bar","checkinsCount":326,"usersCount":170,"tipCount":4,"visitsCount":341,"tier":"","message":"","currency":"","rating":5.9}]