[{"name":"Woody's Brewing Company","phone":"5307681034","address":"1257 Oregon St","lat":40.585931257247196,"lng":-122.3951944714665,"neighborhood":"Downtown Redding","city_fetched":"Redding","state":"CA","country":"United States","canonicalUrl":"https://foursquare.com/v/woodys-brewing-company/54a1dd7e498e1981323b33f0","category":"Brewery","checkinsCount":98,"usersCount":146,"tipCount":5,"visitsCount":219,"tier":"","message":"","currency":"","rating":8.9},{"name":"Vintage Wine Bar & Restaurant","phone":"5302299449","address":"1790 Market St","lat":40.5815005,"lng":-122.3896549,"neighborhood":"Downtown Redding","city_fetched":"Redding","state":"CA","country":"United States","canonicalUrl":"https://foursquare.com/v/vintage-wine-bar--restaurant/4c53bcb030f92d7f40a447b9","category":"Wine Bar","checkinsCount":257,"usersCount":105,"tipCount":6,"visitsCount":259,"url":"http://vintagedowntown.com","tier":"","message":"","currency":"","rating":8.2},{"name":"Market Street Steakhouse","phone":"5302411777","address":"1777 Market St","lat":40.581602454185486,"lng":-122.38946557044983,"neighborhood":"Downtown Redding","city_fetched":"Redding","state":"CA","country":"United States","canonicalUrl":"https://foursquare.com/v/market-street-steakhouse/4b5138a2f964a520cc4727e3","category":"Steakhouse","checkinsCount":283,"usersCount":129,"tipCount":6,"visitsCount":283,"url":"http://www.marketstreetsteakhouse.com","tier":3,"message":"Expensive","currency":"$","rating":7.8},{"name":"Rusty Nail","phone":"5302236685","twitter":"nail_xspirits","address":"900 Dana Dr","lat":40.58759725666882,"lng":-122.35509567929144,"neighborhood":"Mt Shasta Mall","city_fetched":"Redding","state":"CA","country":"United States","canonicalUrl":"https://foursquare.com/v/rusty-nail/4b6cff44f964a52039622ce3","category":"Bar","checkinsCount":373,"usersCount":158,"tipCount":5,"visitsCount":381,"tier":"","message":"","currency":"","rating":7.7},{"name":"Club 501","address":"1244 California St","lat":40.58654292,"lng":-122.39373028278351,"neighborhood":"Downtown Redding","city_fetched":"Redding","state":"CA","country":"United States","canonicalUrl":"https://foursquare.com/v/club-501/4c4bf3589c8d2d7f72f4b76b","category":"Gay Bar","checkinsCount":220,"usersCount":97,"tipCount":4,"visitsCount":223,"tier":"","message":"","currency":"","rating":7.7},{"name":"Capone's","phone":"5302444360","address":"1724 Market St","lat":40.58192183333333,"lng":-122.390078,"neighborhood":"Downtown Redding","city_fetched":"Redding","state":"CA","country":"United States","canonicalUrl":"https://foursquare.com/v/capones/4b515075f964a520a54a27e3","category":"Bar","checkinsCount":309,"usersCount":144,"tipCount":5,"visitsCount":310,"tier":"","message":"","currency":"","rating":7.5},{"name":"Redding Alehouse","phone":"5302217990","address":"2181 Hilltop Dr","lat":40.57564,"lng":-122.357688,"neighborhood":"Hilltop","city_fetched":"Redding","state":"CA","country":"United States","canonicalUrl":"https://foursquare.com/v/redding-alehouse/4e70483788773f007b315a6f","category":"Bar","checkinsCount":284,"usersCount":107,"tipCount":4,"visitsCount":286,"url":"http://reddingalehouse.com","tier":"","message":"","currency":"","rating":7.5},{"name":"Cicada Cantina","phone":"5306384979","twitter":"cicadacantina","address":"1691 Hilltop Dr","lat":40.5822398,"lng":-122.3576429,"neighborhood":"Hilltop","city_fetched":"Redding","state":"CA","country":"United States","canonicalUrl":"https://foursquare.com/v/cicada-cantina/511ae8b5e4b014fb2081cefb","category":"Mexican Restaurant","checkinsCount":244,"usersCount":162,"tipCount":6,"visitsCount":281,"url":"http://www.cicadacantina.com","tier":2,"message":"Moderate","currency":"$","rating":6.8},{"name":"Bleachers Sports Bar","phone":"5302226555","address":"2167 Hilltop Dr","lat":40.575939879053756,"lng":-122.35764384269714,"neighborhood":"Hilltop","city_fetched":"Redding","state":"CA","country":"United States","canonicalUrl":"https://foursquare.com/v/bleachers-sports-bar/4bc67f03424195215158041d","category":"Sports Bar","checkinsCount":696,"usersCount":332,"tipCount":9,"visitsCount":742,"tier":"","message":"","currency":"","rating":6.7},{"name":"Wildcard Brewing","phone":"5307229239","address":"9565 Crossroads Dr","lat":40.565818019980064,"lng":-122.2974818944931,"city_fetched":"Redding","state":"CA","country":"United States","canonicalUrl":"https://foursquare.com/v/wildcard-brewing/50b01eb9e4b063e342332f8f","category":"Brewery","checkinsCount":218,"usersCount":101,"tipCount":7,"visitsCount":246,"url":"http://wildcardbrewingco.com","tier":"","message":"","currency":"","rating":6.4},{"name":"Jack's Bar & Grill","phone":"5302419705","address":"1743 California St","lat":40.58150004,"lng":-122.39094991666667,"neighborhood":"Downtown Redding","city_fetched":"Redding","state":"CA","country":"United States","canonicalUrl":"https://foursquare.com/v/jacks-bar--grill/4b70bed9f964a520b32c2de3","category":"Steakhouse","checkinsCount":223,"usersCount":180,"tipCount":10,"visitsCount":236,"url":"http://www.jacksgrillredding.com","tier":"","message":"","currency":"","rating":6.3},{"name":"Hen House","phone":"5302211907","address":"2621 Hartnell Ave","lat":40.56350827217102,"lng":-122.322423,"city_fetched":"Redding","state":"CA","country":"United States","canonicalUrl":"https://foursquare.com/v/hen-house/4bee4040e8c3c9287e879892","category":"Bar","checkinsCount":96,"usersCount":86,"tipCount":5,"visitsCount":115,"tier":"","message":"","currency":"","rating":6.2},{"name":"Fall River Brewing Company","address":"1030 East River Ave","lat":40.57144641577662,"lng":-122.35126189683085,"neighborhood":"Mistletoe","city_fetched":"Redding","state":"CA","country":"United States","canonicalUrl":"https://foursquare.com/v/fall-river-brewing-company/5251be0c11d29fcfbdbd0e06","category":"Brewery","checkinsCount":113,"usersCount":87,"tipCount":3,"visitsCount":116,"url":"http://fallriverbrewing.com","tier":2,"message":"Moderate","currency":"$","rating":6.1}]