[{"name":"Midtown Eats","phone":"7753243287","twitter":"eatatmidtown","address":"719 S Virginia St","lat":39.51777280331649,"lng":-119.8093119263649,"city_fetched":"Reno","state":"NV","country":"United States","canonicalUrl":"https://foursquare.com/v/midtown-eats/4e457dbed164155c0dd84c07","category":"American Restaurant","checkinsCount":1386,"usersCount":793,"tipCount":38,"visitsCount":1573,"url":"http://midtowneatsreno.com","tier":2,"message":"Moderate","currency":"$","rating":9.1},{"name":"Total Wine & More","phone":"7758533669","twitter":"totalwine","address":"6671 S Virginia Street","lat":39.465368,"lng":-119.785628,"city_fetched":"Reno","state":"NV","country":"United States","canonicalUrl":"https://foursquare.com/v/total-wine--more/4d9ca26648b6224bf53f129f","category":"Wine Shop","checkinsCount":2114,"usersCount":1085,"tipCount":13,"visitsCount":2971,"url":"http://www.totalwine.com","tier":"","message":"","currency":"","rating":9},{"name":"Death & Taxes Provisions and Spirits","phone":"7753243287","address":"26 Cheney St","lat":39.51780451700138,"lng":-119.80828379624182,"city_fetched":"Reno","state":"NV","country":"United States","canonicalUrl":"https://foursquare.com/v/death--taxes-provisions-and-spirits/5164dbc1e4b0c547cbfeb3a1","category":"Cocktail Bar","checkinsCount":311,"usersCount":230,"tipCount":11,"visitsCount":335,"url":"http://deathandtaxesreno.com","tier":"","message":"","currency":"","rating":8.8},{"name":"Great Basin Brewing Co.","phone":"7753557711","address":"846 Victorian Ave","lat":39.53504818576854,"lng":-119.7541771380984,"city_fetched":"Reno","state":"NV","country":"United States","canonicalUrl":"https://foursquare.com/v/great-basin-brewing-co/4b6cbc60f964a52057502ce3","category":"Brewery","checkinsCount":2793,"usersCount":1361,"tipCount":40,"visitsCount":3193,"url":"http://greatbasinbrewingco.com","tier":2,"message":"Moderate","currency":"$","rating":8.8},{"name":"Brasserie Saint James","phone":"7753488888","twitter":"brassstjames","address":"901 S Center St","lat":39.51643869195705,"lng":-119.80748676629767,"city_fetched":"Reno","state":"NV","country":"United States","canonicalUrl":"https://foursquare.com/v/brasserie-saint-james/4f6aab2fe4b026c4ac3d0b4f","category":"Brewery","checkinsCount":1557,"usersCount":1040,"tipCount":11,"visitsCount":2140,"url":"http://brasseriesaintjames.com","tier":3,"message":"Expensive","currency":"$","rating":8.8},{"name":"Archie's Giant Hamburgers & Breakfast","phone":"7753229595","twitter":"archies_reno","address":"2195 N Virginia St","lat":39.54899536056291,"lng":-119.82169130120377,"city_fetched":"Reno","state":"NV","country":"United States","canonicalUrl":"https://foursquare.com/v/archies-giant-hamburgers--breakfast/4b6b4446f964a52008fd2be3","category":"Burger Joint","checkinsCount":1153,"usersCount":749,"tipCount":15,"visitsCount":1544,"url":"http://www.archiesfamousgrill.com","tier":2,"message":"Moderate","currency":"$","rating":8.7},{"name":"The Depot Craft Brewery and Distillery","phone":"7757374330","address":"325 E 4th St","lat":39.531054187815435,"lng":-119.80967434816002,"city_fetched":"Reno","state":"NV","country":"United States","canonicalUrl":"https://foursquare.com/v/the-depot-craft-brewery-and-distillery/54ac80cb498ea38c2e8a82de","category":"Brewery","checkinsCount":538,"usersCount":495,"tipCount":20,"visitsCount":792,"url":"http://thedepotreno.com","tier":"","message":"","currency":"","rating":8.7},{"name":"Brickies Tavern","phone":"7753228298","address":"706 W 2nd St","lat":39.524912,"lng":-119.82279002666473,"city_fetched":"Reno","state":"NV","country":"United States","canonicalUrl":"https://foursquare.com/v/brickies-tavern/4b708368f964a520191f2de3","category":"Pub","checkinsCount":372,"usersCount":122,"tipCount":5,"visitsCount":476,"tier":"","message":"","currency":"","rating":8.6},{"name":"BJ's Restaurant and Brewhouse","phone":"7758537575","twitter":"bjsrestaurants","address":"13999 S Virginia St","lat":39.40565302,"lng":-119.7487766,"city_fetched":"Reno","state":"NV","country":"United States","canonicalUrl":"https://foursquare.com/v/bjs-restaurant-and-brewhouse/4b63562ef964a52010732ae3","category":"American Restaurant","checkinsCount":2990,"usersCount":1830,"tipCount":36,"visitsCount":4127,"url":"http://t.co/bl46gcjDLN","tier":2,"message":"Moderate","currency":"$","rating":8.6},{"name":"Great Basin Brewing Co.","phone":"7752847711","twitter":"gbbco","address":"5525 S Virginia St","lat":39.476268166222745,"lng":-119.78998661041258,"city_fetched":"Reno","state":"NV","country":"United States","canonicalUrl":"https://foursquare.com/v/great-basin-brewing-co/4c4b80c39e6dbe9aa3ca230c","category":"Brewery","checkinsCount":3421,"usersCount":1788,"tipCount":50,"visitsCount":3986,"url":"http://greatbasinbrewingco.com","tier":2,"message":"Moderate","currency":"$","rating":8.6},{"name":"Chapel Tavern","phone":"7753242244","address":"1099 S Virginia St","lat":39.512729925245964,"lng":-119.80683670302427,"city_fetched":"Reno","state":"NV","country":"United States","canonicalUrl":"https://foursquare.com/v/chapel-tavern/4b64b513f964a52001ca2ae3","category":"Cocktail Bar","checkinsCount":1566,"usersCount":706,"tipCount":21,"visitsCount":1799,"url":"http://chapeltavern.com","tier":"","message":"","currency":"","rating":8.6},{"name":"Napa Sonoma Grocery Company","phone":"7754401214","address":"7671 S Virginia St","lat":39.45752852832065,"lng":-119.78031718088077,"city_fetched":"Reno","state":"NV","country":"United States","canonicalUrl":"https://foursquare.com/v/napa-sonoma-grocery-company/54cff5cb498ec388e2c8610d","category":"American Restaurant","checkinsCount":187,"usersCount":181,"tipCount":1,"visitsCount":447,"url":"http://napa-sonoma.com","tier":"","message":"","currency":"","rating":8.5},{"name":"Noble Pie Parlor","phone":"7756229222","twitter":"noblepieparlor","address":"239 W 2nd St","lat":39.526170231101396,"lng":-119.81691516757321,"city_fetched":"Reno","state":"NV","country":"United States","canonicalUrl":"https://foursquare.com/v/noble-pie-parlor/4c6e0aadf338236a279a091b","category":"Pizza Place","checkinsCount":2049,"usersCount":889,"tipCount":28,"visitsCount":2244,"url":"http://www.noblepieparlor.com","tier":2,"message":"Moderate","currency":"$","rating":8.5},{"name":"West Street Wine Bar","phone":"7753363560","twitter":"weststwinebar","address":"148 West St # A-1","lat":39.526119,"lng":-119.81575,"city_fetched":"Reno","state":"NV","country":"United States","canonicalUrl":"https://foursquare.com/v/west-street-wine-bar/4b524763f964a520797427e3","category":"Wine Bar","checkinsCount":735,"usersCount":249,"tipCount":4,"visitsCount":741,"url":"http://www.weststwinebar.com","tier":"","message":"","currency":"","rating":8.5},{"name":"Picasso & Wine","phone":"7754531168","address":"148 Vassar St","lat":39.518066363214224,"lng":-119.80968000078164,"city_fetched":"Reno","state":"NV","country":"United States","canonicalUrl":"https://foursquare.com/v/picasso--wine/50a69392e4b0bc81357d8d12","category":"Art Gallery","checkinsCount":58,"usersCount":48,"tipCount":4,"visitsCount":58,"url":"http://www.picasso-wine.com","tier":"","message":"","currency":"","rating":8.5},{"name":"Bangkok Cusine South","phone":"7752843802","address":"5851 S Virginia St","lat":39.47286730560631,"lng":-119.78726554731217,"city_fetched":"Reno","state":"NV","country":"United States","canonicalUrl":"https://foursquare.com/v/bangkok-cusine-south/4bbff4d974a9a593c07dcff6","category":"Thai Restaurant","checkinsCount":817,"usersCount":457,"tipCount":15,"visitsCount":1007,"url":"http://thaifoodreno.com","tier":2,"message":"Moderate","currency":"$","rating":8.4},{"name":"Reno Public House","phone":"7755555663","address":"33 Saint Lawrence Ave","lat":39.51816591554801,"lng":-119.81005872590599,"city_fetched":"Reno","state":"NV","country":"United States","canonicalUrl":"https://foursquare.com/v/reno-public-house/4e3195081f6ea4a3c5274dd5","category":"Bar","checkinsCount":1976,"usersCount":554,"tipCount":16,"visitsCount":2212,"url":"http://renopublichouse.com","tier":"","message":"","currency":"","rating":8.4},{"name":"Flowing Tide","phone":"7757477707","address":"West 7th Street","lat":39.53537217879288,"lng":-119.86271403986389,"city_fetched":"Reno","state":"NV","country":"United States","canonicalUrl":"https://foursquare.com/v/flowing-tide/4b654524f964a52048eb2ae3","category":"Bar","checkinsCount":977,"usersCount":469,"tipCount":8,"visitsCount":1153,"url":"http://flowingtidepub.com","tier":2,"message":"Moderate","currency":"$","rating":8.4},{"name":"Sierra Tap House","phone":"7753227678","twitter":"sierrataphouse","address":"253 W 1st St","lat":39.524873691369706,"lng":-119.81607913970947,"city_fetched":"Reno","state":"NV","country":"United States","canonicalUrl":"https://foursquare.com/v/sierra-tap-house/4b4d3930f964a520a4ce26e3","category":"Bar","checkinsCount":2058,"usersCount":809,"tipCount":20,"visitsCount":2218,"url":"http://sierrataphouse.com","tier":"","message":"","currency":"","rating":8.3},{"name":"Beer NV","phone":"7754486199","twitter":"beernv","address":"15 Foothill Rd Ste 1","lat":39.43947012557449,"lng":-119.77055132389069,"city_fetched":"Reno","state":"NV","country":"United States","canonicalUrl":"https://foursquare.com/v/beer-nv/554a9c2c498ebd196043df9e","category":"Beer Garden","checkinsCount":250,"usersCount":134,"tipCount":4,"visitsCount":306,"url":"http://www.beernv.com","tier":"","message":"","currency":"","rating":8.2},{"name":"BJ's Restaurant and Brewhouse","phone":"7753983550","twitter":"bjsrestaurants","address":"425 Sparks Blvd","lat":39.53418642,"lng":-119.7161882,"neighborhood":"The Legends at Sparks Marina","city_fetched":"Reno","state":"NV","country":"United States","canonicalUrl":"https://foursquare.com/v/bjs-restaurant-and-brewhouse/4c97e8c9b6ee236a94c8a3a7","category":"American Restaurant","checkinsCount":2930,"usersCount":1865,"tipCount":17,"visitsCount":3844,"url":"http://t.co/bl46gcjDLN","tier":2,"message":"Moderate","currency":"$","rating":8.1},{"name":"Little Waldorf Saloon","phone":"7753379255","twitter":"lilwal","address":"1661 N Virginia St","lat":39.547573033333336,"lng":-119.82166698333333,"city_fetched":"Reno","state":"NV","country":"United States","canonicalUrl":"https://foursquare.com/v/little-waldorf-saloon/4b1c4ab8f964a520980524e3","category":"Bar","checkinsCount":2438,"usersCount":1007,"tipCount":17,"visitsCount":2857,"url":"http://lilwal.com","tier":"","message":"","currency":"","rating":8.1},{"name":"Ole Bridge Pub","phone":"7753228877","twitter":"olebridgepub","address":"50 N Sierra St","lat":39.524884,"lng":-119.81359801666666,"city_fetched":"Reno","state":"NV","country":"United States","canonicalUrl":"https://foursquare.com/v/ole-bridge-pub/4b52c464f964a520b48727e3","category":"Pub","checkinsCount":1831,"usersCount":794,"tipCount":16,"visitsCount":1871,"url":"http://olebridgepub.com","tier":"","message":"","currency":"","rating":8.1},{"name":"Flowing Tide","phone":"7752847610","twitter":"flowingtidepub","address":"4690 Longley Ln Ste 30","lat":39.487611,"lng":-119.759305,"neighborhood":"Reno-Tahoe Intl. Airport","city_fetched":"Reno","state":"NV","country":"United States","canonicalUrl":"https://foursquare.com/v/flowing-tide/4b6faa71f964a52072f92ce3","category":"Bar","checkinsCount":507,"usersCount":217,"tipCount":3,"visitsCount":607,"url":"http://flowingtidepub.com","tier":"","message":"","currency":"","rating":8.1},{"name":"The Brewer's Cabinet","phone":"7753487481","twitter":"thebrewcab","address":"475 S Arlington Ave","lat":39.520482,"lng":-119.817289,"city_fetched":"Reno","state":"NV","country":"United States","canonicalUrl":"https://foursquare.com/v/the-brewers-cabinet/4f6500bae4b0bf1012712648","category":"Pub","checkinsCount":1061,"usersCount":672,"tipCount":9,"visitsCount":1563,"url":"http://thebrewerscabinet.com","tier":2,"message":"Moderate","currency":"$","rating":8.1},{"name":"1864 Tavern","phone":"7753291864","address":"290 California Ave","lat":39.519928,"lng":-119.813778,"city_fetched":"Reno","state":"NV","country":"United States","canonicalUrl":"https://foursquare.com/v/1864-tavern/51970c56498ebd9dac2dbcc6","category":"Bar","checkinsCount":315,"usersCount":178,"tipCount":8,"visitsCount":354,"url":"http://1864tavern.com","tier":"","message":"","currency":"","rating":8},{"name":"Rum Bullions Island Bar","address":"407 N Virginia St","lat":39.530409919972534,"lng":-119.81512336847184,"city_fetched":"Reno","state":"NV","country":"United States","canonicalUrl":"https://foursquare.com/v/rum-bullions-island-bar/4bac612bf964a5209ef23ae3","category":"Bar","checkinsCount":1805,"usersCount":1094,"tipCount":18,"visitsCount":1812,"url":"http://www.silverlegacyreno.com/reno-bars/rum-bullions-island-bar/","tier":2,"message":"Moderate","currency":"$","rating":8},{"name":"Need 2 Speed Indoor Kart Racing","phone":"7758517223","twitter":"need2speed","address":"6895B Sierra Center Pkwy","lat":39.46429803205283,"lng":-119.77869452622838,"neighborhood":"Sierra Center","city_fetched":"Reno","state":"NV","country":"United States","canonicalUrl":"https://foursquare.com/v/need-2-speed-indoor-kart-racing/52b6213d498e931a94f058da","category":"Racetrack","checkinsCount":162,"usersCount":205,"tipCount":3,"visitsCount":284,"url":"http://www.n2sreno.com","tier":"","message":"","currency":"","rating":8},{"name":"Silver Peak Restaurant & Brewery","phone":"7753241864","address":"124 Wonder St","lat":39.51391042166868,"lng":-119.80599444260199,"neighborhood":"Wells Avenue Neighborhood","city_fetched":"Reno","state":"NV","country":"United States","canonicalUrl":"https://foursquare.com/v/silver-peak-restaurant--brewery/4b5b6f51f964a520d7fd28e3","category":"New American Restaurant","checkinsCount":1755,"usersCount":1091,"tipCount":31,"visitsCount":1990,"url":"http://silverpeakbrewery.com","tier":1,"message":"Cheap","currency":"$","rating":8},{"name":"Whispering Vine Wine Co,","phone":"7756228080","address":"85 Foothill Rd","lat":39.438951,"lng":-119.770882,"city_fetched":"Reno","state":"NV","country":"United States","canonicalUrl":"https://foursquare.com/v/whispering-vine-wine-co/4ce83b7fd99f721e1b40af73","category":"Wine Bar","checkinsCount":456,"usersCount":167,"tipCount":8,"visitsCount":509,"tier":2,"message":"Moderate","currency":"$","rating":7.9},{"name":"The Sasquatch Tavern & Grill","lat":39.51847221783725,"lng":-119.98931050408837,"city_fetched":"Reno","state":"NV","country":"United States","canonicalUrl":"https://foursquare.com/v/the-sasquatch-tavern--grill/4b8f37acf964a5202c4e33e3","category":"Bar","checkinsCount":133,"usersCount":135,"tipCount":5,"visitsCount":218,"tier":"","message":"","currency":"","rating":7.9},{"name":"Lucky Beaver Bar & Burger","phone":"7758298500","twitter":"luckybeaverreno","address":"3655 S Virginia St","lat":39.49024830172124,"lng":-119.79587601653293,"city_fetched":"Reno","state":"NV","country":"United States","canonicalUrl":"https://foursquare.com/v/lucky-beaver-bar--burger/53767e89498e1d9a994634bf","category":"Bar","checkinsCount":268,"usersCount":185,"tipCount":6,"visitsCount":461,"url":"http://www.luckybeaver.com","tier":"","message":"","currency":"","rating":7.9},{"name":"40 Mile Saloon","address":"1495 S Virginia St","lat":39.509868,"lng":-119.805374,"city_fetched":"Reno","state":"NV","country":"United States","canonicalUrl":"https://foursquare.com/v/40-mile-saloon/509e0083e4b005ecfff4edb1","category":"Bar","checkinsCount":258,"usersCount":95,"tipCount":2,"visitsCount":272,"tier":"","message":"","currency":"","rating":7.8},{"name":"The Brew Brothers at the Eldorado","phone":"7757865700","twitter":"eldoradoreno","address":"345 N Virginia St","lat":39.529967470574796,"lng":-119.81475596200909,"city_fetched":"Reno","state":"NV","country":"United States","canonicalUrl":"https://foursquare.com/v/the-brew-brothers-at-the-eldorado/4c1196f5416620a1ee74d9e4","category":"Brewery","checkinsCount":4941,"usersCount":2828,"tipCount":35,"visitsCount":5095,"url":"http://www.eldoradoreno.com/dining/brewbrothers.aspx","tier":2,"message":"Moderate","currency":"$","rating":7.8},{"name":"Imperial Bar & Lounge","phone":"7753246399","twitter":"imperialreno","address":"150 N Arlington Ave","lat":39.525629,"lng":-119.816836,"city_fetched":"Reno","state":"NV","country":"United States","canonicalUrl":"https://foursquare.com/v/imperial-bar--lounge/4b4fadc0f964a520791027e3","category":"Gastropub","checkinsCount":2842,"usersCount":1076,"tipCount":22,"visitsCount":3184,"url":"http://imperialbarandlounge.com","tier":2,"message":"Moderate","currency":"$","rating":7.8},{"name":"John's Oyster Bar","phone":"8006481177","twitter":"janugget","address":"1100 Nugget Ave","lat":39.534614149570004,"lng":-119.75833906482077,"city_fetched":"Reno","state":"NV","country":"United States","canonicalUrl":"https://foursquare.com/v/johns-oyster-bar/4c4f462391639c74ebbb8a24","category":"Seafood Restaurant","checkinsCount":448,"usersCount":250,"tipCount":7,"visitsCount":491,"url":"http://www.janugget.com","tier":2,"message":"Moderate","currency":"$","rating":7.7},{"name":"Bully's Sports Bar and Grill","phone":"7753528400","twitter":"bullyssportsbar","address":"2995 N McCarran Blvd","lat":39.555375,"lng":-119.755241,"city_fetched":"Reno","state":"NV","country":"United States","canonicalUrl":"https://foursquare.com/v/bullys-sports-bar-and-grill/4c4360d574ffc9286d1c74cc","category":"Sports Bar","checkinsCount":742,"usersCount":352,"tipCount":6,"visitsCount":775,"url":"http://bullyssportsbar.com","tier":"","message":"","currency":"","rating":7.7},{"name":"Flowing Tide","phone":"7752847707","address":"465 S Meadows Pkwy #5","lat":39.439189869616,"lng":-119.76315679242094,"neighborhood":"South Meadows","city_fetched":"Reno","state":"NV","country":"United States","canonicalUrl":"https://foursquare.com/v/flowing-tide/4b6fb14bf964a52033fa2ce3","category":"Bar","checkinsCount":1302,"usersCount":663,"tipCount":8,"visitsCount":1751,"url":"http://www.flowingtidepub.com","tier":2,"message":"Moderate","currency":"$","rating":7.7},{"name":"Roxy's Bar & Lounge","phone":"7757865700","address":"345 N Virginia St","lat":39.52964745401172,"lng":-119.81525337360235,"city_fetched":"Reno","state":"NV","country":"United States","canonicalUrl":"https://foursquare.com/v/roxys-bar--lounge/4b5f4e83f964a5201ab329e3","category":"Lounge","checkinsCount":1058,"usersCount":695,"tipCount":18,"visitsCount":1061,"url":"http://www.eldoradoreno.com/dining/roxy.aspx","tier":"","message":"","currency":"","rating":7.7},{"name":"5 Star Saloon","phone":"7753292878","address":"132 West St","lat":39.52592389645207,"lng":-119.8153720738324,"city_fetched":"Reno","state":"NV","country":"United States","canonicalUrl":"https://foursquare.com/v/5-star-saloon/4b77c6bef964a52014aa2ee3","category":"Gay Bar","checkinsCount":1727,"usersCount":736,"tipCount":8,"visitsCount":1760,"url":"http://5starsaloon.net","tier":"","message":"","currency":"","rating":7.7},{"name":"Tap Room At Whole Foods Market","lat":39.46903236214136,"lng":-119.78667757856311,"city_fetched":"Reno","state":"NV","country":"United States","canonicalUrl":"https://foursquare.com/v/tap-room-at-whole-foods-market/4fe7bfd5e4b032d653f834fc","category":"Beer Garden","checkinsCount":449,"usersCount":99,"tipCount":10,"visitsCount":471,"tier":"","message":"","currency":"","rating":7.6},{"name":"Our Bar","address":"211 W 1st St","lat":39.52514224699754,"lng":-119.8161916678851,"city_fetched":"Reno","state":"NV","country":"United States","canonicalUrl":"https://foursquare.com/v/our-bar/55457a8a498e19bc70217f2b","category":"Bar","checkinsCount":336,"usersCount":128,"tipCount":0,"visitsCount":410,"tier":"","message":"","currency":"","rating":7.6},{"name":"St. James Infirmary","phone":"7756578484","twitter":"sjireno","address":"445 California Ave","lat":39.52023589209431,"lng":-119.8159712258232,"city_fetched":"Reno","state":"NV","country":"United States","canonicalUrl":"https://foursquare.com/v/st-james-infirmary/4b4d3a38f964a520cdce26e3","category":"Bar","checkinsCount":2752,"usersCount":847,"tipCount":24,"visitsCount":2994,"tier":"","message":"","currency":"","rating":7.6},{"name":"Terrace Lounge","address":"2707 S Virginia St","lat":39.497286,"lng":-119.802027,"city_fetched":"Reno","state":"NV","country":"United States","canonicalUrl":"https://foursquare.com/v/terrace-lounge/4b59e66cf964a520709f28e3","category":"Lounge","checkinsCount":536,"usersCount":370,"tipCount":10,"visitsCount":542,"tier":"","message":"","currency":"","rating":7.5},{"name":"High Sierra Brewing Company","phone":"7753984200","twitter":"highsierrabrew","address":"865 S Rock Blvd","lat":39.52715903506479,"lng":-119.76718274703724,"city_fetched":"Reno","state":"NV","country":"United States","canonicalUrl":"https://foursquare.com/highsierrabrew","category":"Brewery","checkinsCount":612,"usersCount":349,"tipCount":12,"visitsCount":679,"url":"http://www.highsierrabrewco.com","tier":"","message":"","currency":"","rating":7.5},{"name":"Kona Gold Coffee Co. (aka Kona Bar Reno)","phone":"7758261616","twitter":"konagoldreno","address":"3304 S McCarran Blvd","lat":39.485260156006404,"lng":-119.7472667086995,"city_fetched":"Reno","state":"NV","country":"United States","canonicalUrl":"https://foursquare.com/v/kona-gold-coffee-co-aka-kona-bar-reno/4b883737f964a52012e831e3","category":"Coffee Shop","checkinsCount":458,"usersCount":119,"tipCount":8,"visitsCount":485,"url":"http://konabarreno.com","tier":"","message":"","currency":"","rating":7.5},{"name":"Under the Rose Brewing Company","phone":"7756576619","address":"559 E 4th St","lat":39.53156998137867,"lng":-119.80637317778681,"city_fetched":"Reno","state":"NV","country":"United States","canonicalUrl":"https://foursquare.com/v/under-the-rose-brewing-company/5210071611d2ca5a5092b06b","category":"Brewery","checkinsCount":178,"usersCount":130,"tipCount":3,"visitsCount":212,"url":"http://www.undertherosebrewing.com","tier":1,"message":"Cheap","currency":"$","rating":7.5},{"name":"CAMPO","phone":"7757379555","twitter":"camporeno","address":"50 N Sierra St","lat":39.52491506970848,"lng":-119.81380462646484,"city_fetched":"Reno","state":"NV","country":"United States","canonicalUrl":"https://foursquare.com/v/campo/4e8c8b8cf9f442f9e1827b62","category":"Gastropub","checkinsCount":2068,"usersCount":1128,"tipCount":38,"visitsCount":2152,"url":"http://www.camporeno.com","tier":3,"message":"Expensive","currency":"$","rating":7.5},{"name":"Shenanigan's Old English Pub","phone":"7753241177","address":"77 W Plumb Ln","lat":39.506203,"lng":-119.805077,"city_fetched":"Reno","state":"NV","country":"United States","canonicalUrl":"https://foursquare.com/v/shenanigans-old-english-pub/4b678f53f964a52042552be3","category":"Bar","checkinsCount":760,"usersCount":327,"tipCount":8,"visitsCount":976,"tier":"","message":"","currency":"","rating":7.5},{"name":"Silver Peak Grill & Taproom","phone":"7752843300","address":"135 N Sierra St","lat":39.52558992436219,"lng":-119.8143320302652,"city_fetched":"Reno","state":"NV","country":"United States","canonicalUrl":"https://foursquare.com/v/silver-peak-grill--taproom/4ad4dab5f964a52041fc20e3","category":"Brewery","checkinsCount":3125,"usersCount":1533,"tipCount":37,"visitsCount":3276,"url":"http://silverpeakgrill.com","tier":2,"message":"Moderate","currency":"$","rating":7.4},{"name":"RedRock Bar","phone":"7753242468","twitter":"redrockbarreno","address":"241 S Sierra St","lat":39.522658545107845,"lng":-119.8130093548928,"city_fetched":"Reno","state":"NV","country":"United States","canonicalUrl":"https://foursquare.com/redrockbarreno","category":"Bar","checkinsCount":465,"usersCount":158,"tipCount":12,"visitsCount":474,"tier":"","message":"","currency":"","rating":7.4},{"name":"Hacienda Restaurant and Bar","phone":"7757462228","twitter":"hacienda_reno","address":"10580 N McCarran Blvd","lat":39.535987027061324,"lng":-119.86401557922363,"city_fetched":"Reno","state":"NV","country":"United States","canonicalUrl":"https://foursquare.com/hacienda_reno","category":"Mexican Restaurant","checkinsCount":574,"usersCount":309,"tipCount":8,"visitsCount":578,"url":"http://haciendareno-hub.com","tier":2,"message":"Moderate","currency":"$","rating":7.4},{"name":"IMBIB Custom Brews","address":"785 E 2nd St","lat":39.52769287496205,"lng":-119.80095773166836,"city_fetched":"Reno","state":"NV","country":"United States","canonicalUrl":"https://foursquare.com/v/imbib-custom-brews/556a715d498ee3c9c54343d6","category":"Brewery","checkinsCount":156,"usersCount":113,"tipCount":3,"visitsCount":300,"tier":"","message":"","currency":"","rating":7.3},{"name":"Jox Sportsbar","address":"3702 S Virginia St","lat":39.4905373968119,"lng":-119.79384610485238,"city_fetched":"Reno","state":"NV","country":"United States","canonicalUrl":"https://foursquare.com/v/jox-sportsbar/4bc5645a6a3e9c7409ddf548","category":"Bar","checkinsCount":505,"usersCount":111,"tipCount":8,"visitsCount":550,"tier":"","message":"","currency":"","rating":7.3},{"name":"Boulevard Pizza","phone":"7753592124","twitter":"blvdpizza","address":"1076 Rock Blvd","lat":39.542885,"lng":-119.764286,"city_fetched":"Reno","state":"NV","country":"United States","canonicalUrl":"https://foursquare.com/v/boulevard-pizza/4bbfea65920eb7133e4a182c","category":"Bar","checkinsCount":360,"usersCount":104,"tipCount":0,"visitsCount":377,"url":"http://boulevard-pizza.com","tier":"","message":"","currency":"","rating":7.3},{"name":"Ceol Irish Pub","phone":"7753295558","address":"538 S Virginia St","lat":39.520148,"lng":-119.810017,"city_fetched":"Reno","state":"NV","country":"United States","canonicalUrl":"https://foursquare.com/v/ceol-irish-pub/4b5aac88f964a5204cd028e3","category":"Pub","checkinsCount":1388,"usersCount":454,"tipCount":17,"visitsCount":1419,"url":"http://www.ceolirishpub.com","tier":"","message":"","currency":"","rating":7.3},{"name":"Coach's Bar and Grill","address":"1573 S Virginia St","lat":39.50877564741465,"lng":-119.80539321899414,"city_fetched":"Reno","state":"NV","country":"United States","canonicalUrl":"https://foursquare.com/v/coachs-bar-and-grill/4ba17f05f964a520e1bb37e3","category":"Sports Bar","checkinsCount":873,"usersCount":156,"tipCount":6,"visitsCount":895,"tier":"","message":"","currency":"","rating":7.3},{"name":"The Waterfall","phone":"7753227373","address":"134 W 2nd St #A","lat":39.5261481328893,"lng":-119.81539785861969,"city_fetched":"Reno","state":"NV","country":"United States","canonicalUrl":"https://foursquare.com/v/the-waterfall/4b5243e7f964a520ac7327e3","category":"Bar","checkinsCount":1684,"usersCount":567,"tipCount":9,"visitsCount":1760,"url":"http://thewaterfallreno.com","tier":"","message":"","currency":"","rating":7.3},{"name":"Old Granite Street Eatery","phone":"7756223222","twitter":"granitesteat","address":"243 S Sierra St","lat":39.522534033333336,"lng":-119.81291,"city_fetched":"Reno","state":"NV","country":"United States","canonicalUrl":"https://foursquare.com/v/old-granite-street-eatery/4c33f28b213c2d7f7bd9375d","category":"Bar","checkinsCount":1500,"usersCount":775,"tipCount":22,"visitsCount":1594,"url":"http://oldgranitestreeteatery.com","tier":2,"message":"Moderate","currency":"$","rating":7.3},{"name":"Hookava","phone":"7753244220","address":"395 W 1st St","lat":39.525042381593984,"lng":-119.81791562576329,"city_fetched":"Reno","state":"NV","country":"United States","canonicalUrl":"https://foursquare.com/v/hookava/4b80bd44f964a5206c8930e3","category":"Hookah Bar","checkinsCount":319,"usersCount":144,"tipCount":3,"visitsCount":361,"tier":"","message":"","currency":"","rating":7.1},{"name":"Lincoln Lounge","phone":"7753235426","address":"306 E 4th St","lat":39.53055317425679,"lng":-119.81008,"city_fetched":"Reno","state":"NV","country":"United States","canonicalUrl":"https://foursquare.com/v/lincoln-lounge/4b551aedf964a5204ddb27e3","category":"Bar","checkinsCount":2307,"usersCount":615,"tipCount":12,"visitsCount":2513,"tier":"","message":"","currency":"","rating":7.1},{"name":"Shooters Saloon","phone":"7753299646","address":"434 N Virginia St","lat":39.53064159395487,"lng":-119.81410503387451,"city_fetched":"Reno","state":"NV","country":"United States","canonicalUrl":"https://foursquare.com/v/shooters-saloon/4bb890ae1261d13a46b3e898","category":"Dive Bar","checkinsCount":330,"usersCount":223,"tipCount":6,"visitsCount":332,"tier":"","message":"","currency":"","rating":7.1},{"name":"O'Ski's Pub & Grille","phone":"7753597547","address":"840 Victorian Ave","lat":39.53505,"lng":-119.753958,"city_fetched":"Reno","state":"NV","country":"United States","canonicalUrl":"https://foursquare.com/v/oskis-pub--grille/4b9ed198f964a520360437e3","category":"Bar","checkinsCount":690,"usersCount":224,"tipCount":11,"visitsCount":690,"url":"http://oskispub.com","tier":1,"message":"Cheap","currency":"$","rating":7},{"name":"Mellow Fellow of Reno","phone":"7756578946","address":"300 E 2nd St","lat":39.527771561240016,"lng":-119.80871339913529,"city_fetched":"Reno","state":"NV","country":"United States","canonicalUrl":"https://foursquare.com/v/mellow-fellow-of-reno/551b6a3f498eaebf056b6d9e","category":"Pub","checkinsCount":114,"usersCount":64,"tipCount":2,"visitsCount":120,"tier":"","message":"","currency":"","rating":7},{"name":"Polo Lounge","phone":"7753228864","lat":39.50854387455544,"lng":-119.8055648803711,"city_fetched":"Reno","state":"NV","country":"United States","canonicalUrl":"https://foursquare.com/v/polo-lounge/4bfa18df5317a5937e47027f","category":"Bar","checkinsCount":295,"usersCount":137,"tipCount":7,"visitsCount":333,"tier":"","message":"","currency":"","rating":7},{"name":"Woody's Grille & Spirits","lat":39.52483849518555,"lng":-119.73932664466196,"city_fetched":"Reno","state":"NV","country":"United States","canonicalUrl":"https://foursquare.com/v/woodys-grille--spirits/4e160fe462844b405cb6877d","category":"Sports Bar","checkinsCount":433,"usersCount":307,"tipCount":8,"visitsCount":685,"tier":"","message":"","currency":"","rating":7},{"name":"Hobey's Casino","address":"5195 Sun Valley Blvd","lat":39.5814909756328,"lng":-119.78076948542724,"city_fetched":"Reno","state":"NV","country":"United States","canonicalUrl":"https://foursquare.com/v/hobeys-casino/4bfb5ed2d0382d7ff5a2c90a","category":"Casino","checkinsCount":466,"usersCount":117,"tipCount":6,"visitsCount":502,"tier":"","message":"","currency":"","rating":6.9},{"name":"Fireside Lounge","phone":"8668219996","twitter":"renopeppermill","address":"2707 S Virginia St","lat":39.49840116357885,"lng":-119.79998541626112,"city_fetched":"Reno","state":"NV","country":"United States","canonicalUrl":"https://foursquare.com/v/fireside-lounge/4b59fa2af964a52038a528e3","category":"Lounge","checkinsCount":709,"usersCount":418,"tipCount":10,"visitsCount":716,"url":"http://peppermillreno.com","tier":"","message":"","currency":"","rating":6.9},{"name":"Lex Nightclub","phone":"7757895399","twitter":"lexnightclub","address":"2500 2nd St","lat":39.52429647153176,"lng":-119.78076383162947,"city_fetched":"Reno","state":"NV","country":"United States","canonicalUrl":"https://foursquare.com/v/lex-nightclub/538fcdbf498eb0ad50757c2d","category":"Nightclub","checkinsCount":343,"usersCount":194,"tipCount":5,"visitsCount":376,"url":"http://www.lexnightclub.com","tier":"","message":"","currency":"","rating":6.9},{"name":"Jungle Vino","phone":"7753294484","address":"246 W 1st St","lat":39.52518323,"lng":-119.81591745,"city_fetched":"Reno","state":"NV","country":"United States","canonicalUrl":"https://foursquare.com/v/jungle-vino/4b5d4b60f964a520045929e3","category":"Wine Bar","checkinsCount":731,"usersCount":391,"tipCount":12,"visitsCount":733,"url":"http://www.javajunglevino.com","tier":"","message":"","currency":"","rating":6.9},{"name":"West Second Street Bar","address":"W 2nd St","lat":39.52658885930481,"lng":-119.81493118675124,"city_fetched":"Reno","state":"NV","country":"United States","canonicalUrl":"https://foursquare.com/v/west-second-street-bar/4b82275af964a520e3cb30e3","category":"Bar","checkinsCount":717,"usersCount":309,"tipCount":6,"visitsCount":792,"tier":"","message":"","currency":"","rating":6.9},{"name":"The Corkscroo","lat":39.53611971,"lng":-119.815969,"city_fetched":"Reno","state":"Nevada","country":"United States","canonicalUrl":"https://foursquare.com/v/the-corkscroo/4d6f3cc18781b60cc9e13a35","category":"Bar","checkinsCount":482,"usersCount":167,"tipCount":5,"visitsCount":518,"tier":"","message":"","currency":"","rating":6.8}]