[{"name":"Hardywood Park Craft Brewery","phone":"8044202420","twitter":"hardywood","address":"2408 Ownby Ln","lat":37.56473523300276,"lng":-77.45719721967593,"neighborhood":"Carytown - Museum District","city_fetched":"Richmond,US","state":"VA","country":"United States","canonicalUrl":"https://foursquare.com/v/hardywood-park-craft-brewery/4e17620b922ed1579e8ffa06","categoryId":"50327c8591d4c4b30a586d5d","category":"Brewery","checkinsCount":9930,"usersCount":4476,"tipCount":58,"visitsCount":12656,"url":"http://www.hardywood.com","tier":2,"message":"Moderate","currency":"$","rating":9.2},{"name":"Strangeways Brewing","phone":"8043034336","twitter":"strangewaysrva","address":"2277 Dabney Rd Ste A","lat":37.5860830568141,"lng":-77.48326847495646,"city_fetched":"Richmond,US","state":"VA","country":"United States","canonicalUrl":"https://foursquare.com/v/strangeways-brewing/509e8fd7e4b0df8f7ef8e7c4","categoryId":"50327c8591d4c4b30a586d5d","category":"Brewery","checkinsCount":2295,"usersCount":1679,"tipCount":28,"visitsCount":3494,"url":"http://www.strangewaysbrewing.com","tier":2,"message":"Moderate","currency":"$","rating":9.1},{"name":"The Answer Brewpub","phone":"8042421248","twitter":"theanswerbrew","address":"6008 W Broad St","lat":37.59338991471409,"lng":-77.50679696881554,"city_fetched":"Richmond,US","state":"VA","country":"United States","canonicalUrl":"https://foursquare.com/v/the-answer-brewpub/5377bc69498e4456c19909f7","categoryId":"50327c8591d4c4b30a586d5d","category":"Brewery","checkinsCount":1545,"usersCount":941,"tipCount":20,"visitsCount":2301,"url":"http://theanswerbrewpub.com","tier":"","message":"","currency":"","rating":9.1},{"name":"Café Caturra","phone":"8042850690","twitter":"caturraongrove","address":"5811 Grove Ave","lat":37.5726313,"lng":-77.5196385383606,"neighborhood":"Three Chopt","city_fetched":"Richmond,US","state":"VA","country":"United States","canonicalUrl":"https://foursquare.com/v/caf%C3%A9-caturra/4ad68888f964a520b20721e3","categoryId":"4bf58dd8d48988d123941735","category":"Wine Bar","checkinsCount":2422,"usersCount":1192,"tipCount":26,"visitsCount":2823,"url":"http://cafe-caturra.com","tier":"","message":"","currency":"","rating":8.9},{"name":"Ardent Craft Ales Brewery","address":"3200 W Leigh St","lat":37.56860119512254,"lng":-77.47218303429568,"neighborhood":"Carytown - Museum District","city_fetched":"Richmond,US","state":"VA","country":"United States","canonicalUrl":"https://foursquare.com/v/ardent-craft-ales-brewery/530b5a1f498e5a2193b3b25f","categoryId":"50327c8591d4c4b30a586d5d","category":"Brewery","checkinsCount":1841,"usersCount":1490,"tipCount":24,"visitsCount":3258,"url":"http://ardentcraftales.com","tier":"","message":"","currency":"","rating":8.9},{"name":"Saison","phone":"8042693689","twitter":"saisonrva","address":"23 W Marshall St","lat":37.54696267366527,"lng":-77.44204135009299,"neighborhood":"Jackson Ward","city_fetched":"Richmond,US","state":"VA","country":"United States","canonicalUrl":"https://foursquare.com/v/saison/50ca5b78e4b0ce629bece415","categoryId":"4bf58dd8d48988d11e941735","category":"Cocktail Bar","checkinsCount":1607,"usersCount":793,"tipCount":31,"visitsCount":1824,"url":"http://saisonrva.com","tier":3,"message":"Expensive","currency":"$","rating":8.8},{"name":"Balliceaux","phone":"8043553008","twitter":"balliceauxrva","address":"203 N Lombardy St","lat":37.55010824826499,"lng":-77.4592365259813,"neighborhood":"The Fan","city_fetched":"Richmond,US","state":"VA","country":"United States","canonicalUrl":"https://foursquare.com/v/balliceaux/4ac93cb9f964a52053bf20e3","categoryId":"4bf58dd8d48988d11e941735","category":"Cocktail Bar","checkinsCount":5587,"usersCount":2502,"tipCount":70,"visitsCount":6281,"url":"http://www.balliceauxrva.com","tier":2,"message":"Moderate","currency":"$","rating":8.7},{"name":"Triple Crossing Brewing Company","phone":"8043080475","twitter":"triplecrossing","address":"113 S Foushee St","lat":37.541480827265765,"lng":-77.44560152292252,"neighborhood":"Monroe Ward","city_fetched":"Richmond,US","state":"VA","country":"United States","canonicalUrl":"https://foursquare.com/v/triple-crossing-brewing-company/526edf4c11d2ca8ccce83f83","categoryId":"50327c8591d4c4b30a586d5d","category":"Brewery","checkinsCount":1048,"usersCount":991,"tipCount":13,"visitsCount":1795,"url":"http://www.triplecrossingbeer.com","tier":"","message":"","currency":"","rating":8.6},{"name":"Rosie Connolly's","phone":"8043431063","address":"1548 E Main St #A","lat":37.53389726437113,"lng":-77.42841336918741,"neighborhood":"Shockoe Bottom","city_fetched":"Richmond,US","state":"VA","country":"United States","canonicalUrl":"https://foursquare.com/v/rosie-connollys/4ac521c3f964a52087b020e3","categoryId":"4bf58dd8d48988d11b941735","category":"Pub","checkinsCount":4720,"usersCount":965,"tipCount":23,"visitsCount":4837,"url":"http://rosieconnollys.com","tier":2,"message":"Moderate","currency":"$","rating":8.6},{"name":"Legend Brewing Company","phone":"8042323446","twitter":"legendbrewingco","address":"321 W 7th St","lat":37.526821778691165,"lng":-77.44299978017807,"neighborhood":"Old Town Manchester","city_fetched":"Richmond,US","state":"VA","country":"United States","canonicalUrl":"https://foursquare.com/v/legend-brewing-company/4ad4f29af964a520b7ff20e3","categoryId":"50327c8591d4c4b30a586d5d","category":"Brewery","checkinsCount":7274,"usersCount":4090,"tipCount":87,"visitsCount":8334,"url":"http://www.legendbrewing.com","tier":2,"message":"Moderate","currency":"$","rating":8.5},{"name":"The Cask Cafe","phone":"8043552402","address":"206 S Robinson St","lat":37.5494302203264,"lng":-77.47475981712341,"neighborhood":"The Fan","city_fetched":"Richmond,US","state":"VA","country":"United States","canonicalUrl":"https://foursquare.com/v/the-cask-cafe/51d616d650193fd1309713fc","categoryId":"4bf58dd8d48988d117941735","category":"Beer Garden","checkinsCount":1023,"usersCount":539,"tipCount":13,"visitsCount":1609,"url":"http://thecaskrva.com","tier":2,"message":"Moderate","currency":"$","rating":8.5},{"name":"Stone Brewing Co. Richmond","phone":"7602947899","address":"4304 Williamsburg Ave","lat":37.52152633859609,"lng":-77.41376373314911,"city_fetched":"Richmond,US","state":"VA","country":"United States","canonicalUrl":"https://foursquare.com/v/stone-brewing-co-richmond/54fe023b498eee5c95ffabab","categoryId":"50327c8591d4c4b30a586d5d","category":"Brewery","checkinsCount":483,"usersCount":471,"tipCount":2,"visitsCount":663,"url":"http://richmond.stonebrewing.com","tier":"","message":"","currency":"","rating":8.5},{"name":"Blue Bee Cider","phone":"8042310280","twitter":"bluebeecider","address":"212 W 6th St","lat":37.52604536279904,"lng":-77.44198531729202,"neighborhood":"Old Town Manchester","city_fetched":"Richmond,US","state":"VA","country":"United States","canonicalUrl":"https://foursquare.com/v/blue-bee-cider/51407c90e4b0038a98e1acdf","categoryId":"50327c8591d4c4b30a586d5d","category":"Brewery","checkinsCount":870,"usersCount":678,"tipCount":19,"visitsCount":1074,"url":"https://bluebeecider.com","tier":2,"message":"Moderate","currency":"$","rating":8.4},{"name":"Patrick Henry's Pub & Grille","phone":"8046444242","twitter":"patrickhenrypub","address":"2300 E Broad St","lat":37.5328729,"lng":-77.420382,"neighborhood":"Church Hill","city_fetched":"Richmond,US","state":"VA","country":"United States","canonicalUrl":"https://foursquare.com/v/patrick-henrys-pub--grille/4af99414f964a5205d1222e3","categoryId":"4bf58dd8d48988d11b941735","category":"Pub","checkinsCount":3389,"usersCount":1029,"tipCount":37,"visitsCount":3920,"url":"http://thephpub.com","tier":1,"message":"Cheap","currency":"$","rating":8.4},{"name":"Penny Lane Pub","phone":"8047801682","twitter":"pennylanepub","address":"421 E Franklin St","lat":37.54120202312633,"lng":-77.43916683218235,"neighborhood":"City Center","city_fetched":"Richmond,US","state":"VA","country":"United States","canonicalUrl":"https://foursquare.com/v/penny-lane-pub/4ad77650f964a520dc0a21e3","categoryId":"4bf58dd8d48988d11b941735","category":"Pub","checkinsCount":7342,"usersCount":3184,"tipCount":68,"visitsCount":8329,"url":"http://pennylanepub-hub.com","tier":2,"message":"Moderate","currency":"$","rating":8.4},{"name":"Garden Grove Brewing Company","address":"3445 W Cary St","lat":37.55489229767892,"lng":-77.48584502796166,"neighborhood":"Carytown","city_fetched":"Richmond,US","state":"VA","country":"United States","canonicalUrl":"https://foursquare.com/v/garden-grove-brewing-company/542dab26498e74ab27411a80","categoryId":"50327c8591d4c4b30a586d5d","category":"Brewery","checkinsCount":475,"usersCount":317,"tipCount":9,"visitsCount":555,"url":"http://gardengrovebrewing.com","tier":"","message":"","currency":"","rating":8.3},{"name":"Final Gravity Brewing Co.","phone":"8042644808","twitter":"finalgravitymi","address":"6118 Lakeside Ave","lat":37.615280783353406,"lng":-77.47041845132479,"city_fetched":"Richmond,US","state":"VA","country":"United States","canonicalUrl":"https://foursquare.com/v/final-gravity-brewing-co/55e0e02d498eb5b177d2a62d","categoryId":"50327c8591d4c4b30a586d5d","category":"Brewery","checkinsCount":137,"usersCount":112,"tipCount":3,"visitsCount":197,"url":"http://www.finalgravitybrew.com","tier":"","message":"","currency":"","rating":8.3},{"name":"Barcode","phone":"8046482040","address":"6 E Grace St","lat":37.54464537421564,"lng":-77.44211196899414,"neighborhood":"Monroe Ward","city_fetched":"Richmond,US","state":"VA","country":"United States","canonicalUrl":"https://foursquare.com/v/barcode/4ad7d358f964a5201b0f21e3","categoryId":"4bf58dd8d48988d1d8941735","category":"Gay Bar","checkinsCount":7546,"usersCount":1155,"tipCount":37,"visitsCount":8257,"url":"http://www.barcoderva.com","tier":1,"message":"Cheap","currency":"$","rating":8.3},{"name":"Babe's of Carytown","phone":"8043559330","address":"3166 W Cary St","lat":37.553959,"lng":-77.48238078333333,"neighborhood":"Carytown","city_fetched":"Richmond,US","state":"VA","country":"United States","canonicalUrl":"https://foursquare.com/v/babes-of-carytown/4af848e1f964a520db0b22e3","categoryId":"4bf58dd8d48988d1d8941735","category":"Gay Bar","checkinsCount":3451,"usersCount":1131,"tipCount":24,"visitsCount":4020,"url":"http://www.myspace.com/babesofcarytown","tier":1,"message":"Cheap","currency":"$","rating":8.3},{"name":"Siné Irish Pub & Restaurant Richmond,Va","phone":"8046497767","twitter":"sineirishpubric","address":"1327 E Cary St","lat":37.53457028927178,"lng":-77.43293005807185,"neighborhood":"Shockoe Slip","city_fetched":"Richmond,US","state":"VA","country":"United States","canonicalUrl":"https://foursquare.com/v/sin%C3%A9-irish-pub--restaurant-richmondva/4ae34dacf964a520189321e3","categoryId":"4bf58dd8d48988d11b941735","category":"Pub","checkinsCount":9247,"usersCount":4367,"tipCount":57,"visitsCount":9698,"url":"http://www.sineirishpub.com","tier":2,"message":"Moderate","currency":"$","rating":8.2},{"name":"Sportspage Bar and Grille","phone":"8043791844","address":"14245 Midlothian Tpke","lat":37.504891727493984,"lng":-77.66587409870202,"neighborhood":"Midlothian","city_fetched":"Richmond,US","state":"VA","country":"United States","canonicalUrl":"https://foursquare.com/v/sportspage-bar-and-grille/4c13d39fb7b9c928bd43aa37","categoryId":"4bf58dd8d48988d11d941735","category":"Sports Bar","checkinsCount":1144,"usersCount":372,"tipCount":22,"visitsCount":1265,"url":"http://sportspagebarandgrille.com","tier":"","message":"","currency":"","rating":8.2},{"name":"Secco Wine Bar","phone":"8043530670","twitter":"seccowinebar","address":"2933 W Cary St","lat":37.552483,"lng":-77.478779,"neighborhood":"Carytown","city_fetched":"Richmond,US","state":"VA","country":"United States","canonicalUrl":"https://foursquare.com/v/secco-wine-bar/4b6af6a3f964a52043e92be3","categoryId":"4bf58dd8d48988d123941735","category":"Wine Bar","checkinsCount":2688,"usersCount":1222,"tipCount":44,"visitsCount":2714,"url":"http://seccowinebar.com","tier":"","message":"","currency":"","rating":8.2},{"name":"On the ROX","phone":"8043039444","address":"119 N 18th St","lat":37.53419797245226,"lng":-77.42621660287874,"neighborhood":"Shockoe Bottom","city_fetched":"Richmond,US","state":"VA","country":"United States","canonicalUrl":"https://foursquare.com/v/on-the-rox/4ec435c9e5fa74ea52d1da43","categoryId":"4bf58dd8d48988d116941735","category":"Bar","checkinsCount":3596,"usersCount":1175,"tipCount":26,"visitsCount":4265,"url":"http://ontheroxva.com","tier":2,"message":"Moderate","currency":"$","rating":8.1},{"name":"Greenleaf's Pool Room","phone":"8043037102","address":"100 N 6th St","lat":37.5408697999754,"lng":-77.4380461429697,"neighborhood":"City Center","city_fetched":"Richmond,US","state":"VA","country":"United States","canonicalUrl":"https://foursquare.com/v/greenleafs-pool-room/5400e3d3498e44f7535ce970","categoryId":"4bf58dd8d48988d11d941735","category":"Sports Bar","checkinsCount":197,"usersCount":224,"tipCount":4,"visitsCount":335,"url":"http://greenleafspoolroom.com","tier":"","message":"","currency":"","rating":8},{"name":"GWARbar","address":"217 W Clay St","lat":37.54883113689477,"lng":-77.44295468089892,"neighborhood":"Jackson Ward","city_fetched":"Richmond,US","state":"VA","country":"United States","canonicalUrl":"https://foursquare.com/v/gwarbar/53cd978c498e97070652552b","categoryId":"4bf58dd8d48988d116941735","category":"Bar","checkinsCount":540,"usersCount":471,"tipCount":8,"visitsCount":969,"url":"http://gwarbar.com","tier":"","message":"","currency":"","rating":8},{"name":"Isley Brewing Company","phone":"8044990721","twitter":"isleybrewing","address":"1715 Summit Ave","lat":37.56892117139076,"lng":-77.46867064712241,"neighborhood":"Carytown - Museum District","city_fetched":"Richmond,US","state":"VA","country":"United States","canonicalUrl":"https://foursquare.com/v/isley-brewing-company/52654e3e498e16a852bb2f3f","categoryId":"50327c8591d4c4b30a586d5d","category":"Brewery","checkinsCount":1372,"usersCount":1114,"tipCount":26,"visitsCount":2027,"url":"http://www.isleybrewingcompany.com","tier":2,"message":"Moderate","currency":"$","rating":7.9},{"name":"Honey Whyte's","phone":"8046436022","address":"2116 E Main St","lat":37.5309462567471,"lng":-77.42427796125412,"neighborhood":"Shockoe Bottom","city_fetched":"Richmond,US","state":"VA","country":"United States","canonicalUrl":"https://foursquare.com/v/honey-whytes/4afe0168f964a520fc2c22e3","categoryId":"4bf58dd8d48988d116941735","category":"Bar","checkinsCount":756,"usersCount":273,"tipCount":16,"visitsCount":778,"tier":"","message":"","currency":"","rating":7.9},{"name":"The Veil Brewing Co.","twitter":"theveilbrewing","address":"1301 Roseneath Rd","lat":37.56857046733149,"lng":-77.47529199531103,"neighborhood":"Carytown - Museum District","city_fetched":"Richmond,US","state":"VA","country":"United States","canonicalUrl":"https://foursquare.com/v/the-veil-brewing-co/56fc03accd1094675e27c9b6","categoryId":"50327c8591d4c4b30a586d5d","category":"Brewery","checkinsCount":803,"usersCount":600,"tipCount":9,"visitsCount":1276,"url":"http://www.theveilbrewing.com","tier":"","message":"","currency":"","rating":7.9},{"name":"Grandstaff & Stein","phone":"8049182627","twitter":"booksellersrva","address":"2113 E Main St","lat":37.530825,"lng":-77.424624,"neighborhood":"Shockoe Bottom","city_fetched":"Richmond,US","state":"VA","country":"United States","canonicalUrl":"https://foursquare.com/v/grandstaff--stein/554d6760498e5cd46666f6db","categoryId":"4bf58dd8d48988d1d4941735","category":"Speakeasy","checkinsCount":320,"usersCount":191,"tipCount":8,"visitsCount":375,"url":"http://booksellersrva.com","tier":"","message":"","currency":"","rating":7.9},{"name":"Godfrey's Restaurant and Nightclub","phone":"8046483957","address":"308 E Grace St","lat":37.54302483671163,"lng":-77.43948340415955,"neighborhood":"City Center","city_fetched":"Richmond,US","state":"VA","country":"United States","canonicalUrl":"https://foursquare.com/v/godfreys-restaurant-and-nightclub/4af84601f964a520c30b22e3","categoryId":"4bf58dd8d48988d1d8941735","category":"Gay Bar","checkinsCount":4808,"usersCount":1471,"tipCount":31,"visitsCount":5065,"url":"http://www.godfreysva.com","tier":2,"message":"Moderate","currency":"$","rating":7.8},{"name":"Rare Olde Times","phone":"8047501346","twitter":"rareoldepub","address":"10602 Patterson Ave","lat":37.59763041,"lng":-77.60742,"city_fetched":"Richmond,US","state":"VA","country":"United States","canonicalUrl":"https://foursquare.com/v/rare-olde-times/4b9316aef964a520323434e3","categoryId":"4bf58dd8d48988d11b941735","category":"Pub","checkinsCount":1816,"usersCount":504,"tipCount":20,"visitsCount":1987,"url":"http://www.rareoldetimes.com","tier":2,"message":"Moderate","currency":"$","rating":7.8},{"name":"The Rogue Gentlemen","phone":"8044773456","twitter":"roguegentlemen","address":"618 N 1st St","lat":37.54880927097456,"lng":-77.43764340877533,"neighborhood":"Jackson Ward","city_fetched":"Richmond,US","state":"VA","country":"United States","canonicalUrl":"https://foursquare.com/v/the-rogue-gentlemen/51a2a3d5498ec1faa8318f58","categoryId":"4bf58dd8d48988d11e941735","category":"Cocktail Bar","checkinsCount":515,"usersCount":459,"tipCount":12,"visitsCount":752,"url":"http://www.theroguegentlemen.com","tier":2,"message":"Moderate","currency":"$","rating":7.8},{"name":"Fallout","phone":"8043433688","address":"117 N 18th St","lat":37.53414740922311,"lng":-77.4261474609375,"neighborhood":"Shockoe Bottom","city_fetched":"Richmond,US","state":"VA","country":"United States","canonicalUrl":"https://foursquare.com/v/fallout/4ae8eca0f964a52064b321e3","categoryId":"4bf58dd8d48988d11f941735","category":"Nightclub","checkinsCount":2084,"usersCount":364,"tipCount":17,"visitsCount":2159,"url":"http://falloutrva.com","tier":2,"message":"Moderate","currency":"$","rating":7.7},{"name":"Curbside Cafe","phone":"8043557008","address":"2525 Hanover Ave","lat":37.555127852735716,"lng":-77.47138197301325,"neighborhood":"The Fan","city_fetched":"Richmond,US","state":"VA","country":"United States","canonicalUrl":"https://foursquare.com/v/curbside-cafe/4ae10de9f964a520ee8421e3","categoryId":"4bf58dd8d48988d116941735","category":"Bar","checkinsCount":4137,"usersCount":1463,"tipCount":19,"visitsCount":4470,"url":"http://www.curbsiderichmond.com","tier":1,"message":"Cheap","currency":"$","rating":7.7},{"name":"Pour House Bar and Grill","phone":"8043649063","address":"3430 Pump Rd","lat":37.648154,"lng":-77.61580646038055,"city_fetched":"Richmond,US","state":"VA","country":"United States","canonicalUrl":"https://foursquare.com/v/pour-house-bar-and-grill/4b7c25bcf964a520f97f2fe3","categoryId":"4bf58dd8d48988d116941735","category":"Bar","checkinsCount":2051,"usersCount":697,"tipCount":19,"visitsCount":2318,"url":"http://www.thepourhouse.us","tier":"","message":"","currency":"","rating":7.7},{"name":"3 Monkeys Bar & Grill","phone":"8042042525","address":"2525 W Main St","lat":37.551718222691754,"lng":-77.47311293057841,"neighborhood":"The Fan","city_fetched":"Richmond,US","state":"VA","country":"United States","canonicalUrl":"https://foursquare.com/v/3-monkeys-bar--grill/4ad90805f964a520581721e3","categoryId":"4bf58dd8d48988d116941735","category":"Bar","checkinsCount":6841,"usersCount":2975,"tipCount":54,"visitsCount":7052,"url":"http://3monkeysfan.com","tier":2,"message":"Moderate","currency":"$","rating":7.6},{"name":"Infuzion Richmond","phone":"8049089688","twitter":"infuzionrva","address":"1401 Roseneath Rd","lat":37.569037119840544,"lng":-77.47430609969261,"neighborhood":"Carytown - Museum District","city_fetched":"Richmond,US","state":"VA","country":"United States","canonicalUrl":"https://foursquare.com/infuzionrva","categoryId":"4bf58dd8d48988d11f941735","category":"Nightclub","checkinsCount":28,"usersCount":20,"tipCount":2,"visitsCount":28,"url":"http://clubinfuzion.com","tier":"","message":"","currency":"","rating":7.6},{"name":"Gus' Bar & Grill","phone":"8046129275","twitter":"gusbargrill","address":"2701 W Broad St","lat":37.561114,"lng":-77.46830642223358,"neighborhood":"The Fan","city_fetched":"Richmond,US","state":"VA","country":"United States","canonicalUrl":"https://foursquare.com/v/gus-bar--grill/4add08b2f964a5209f6321e3","categoryId":"4bf58dd8d48988d11d941735","category":"Sports Bar","checkinsCount":5083,"usersCount":1406,"tipCount":36,"visitsCount":5567,"url":"http://www.gusbarandgrill.com","tier":2,"message":"Moderate","currency":"$","rating":7.6},{"name":"Aqua Lounge","address":"1708 E Main St","lat":37.5333514178986,"lng":-77.42828447844349,"neighborhood":"Shockoe Bottom","city_fetched":"Richmond,US","state":"VA","country":"United States","canonicalUrl":"https://foursquare.com/v/aqua-lounge/4f06581002d5d2e6111d21d9","categoryId":"4bf58dd8d48988d121941735","category":"Lounge","checkinsCount":395,"usersCount":121,"tipCount":4,"visitsCount":422,"tier":2,"message":"Moderate","currency":"$","rating":7.6},{"name":"Capital Ale House","phone":"8047802537","address":"623 E Main St","lat":37.539443366417196,"lng":-77.43858218193054,"neighborhood":"City Center","city_fetched":"Richmond,US","state":"VA","country":"United States","canonicalUrl":"https://foursquare.com/v/capital-ale-house/4ad4f29af964a520cfff20e3","categoryId":"4bf58dd8d48988d117941735","category":"Beer Garden","checkinsCount":10110,"usersCount":5792,"tipCount":112,"visitsCount":11234,"url":"http://capitalalehouse.com","tier":2,"message":"Moderate","currency":"$","rating":7.5},{"name":"25 Watt","phone":"8048239332","address":"115 N 18th St","lat":37.534093,"lng":-77.426371,"neighborhood":"Shockoe Bottom","city_fetched":"Richmond,US","state":"VA","country":"United States","canonicalUrl":"https://foursquare.com/v/25-watt/534a0e74498ec546ebd55709","categoryId":"4bf58dd8d48988d118941735","category":"Dive Bar","checkinsCount":131,"usersCount":64,"tipCount":2,"visitsCount":133,"url":"http://25wattrva.com","tier":"","message":"","currency":"","rating":7.5},{"name":"Kindred Spirit Brewing","phone":"8047080309","address":"12830 West Creek Pkwy Ste J","lat":37.60863904774737,"lng":-77.66857624053955,"city_fetched":"Richmond,US","state":"VA","country":"United States","canonicalUrl":"https://foursquare.com/v/kindred-spirit-brewing/576996f9498eda246c557a3f","categoryId":"4bf58dd8d48988d117941735","category":"Beer Garden","checkinsCount":12,"usersCount":11,"tipCount":1,"visitsCount":13,"tier":"","message":"","currency":"","rating":7.5},{"name":"F.W. Sullivan's Fan Bar & Grille","phone":"8043088576","twitter":"fwsullivans","address":"2401 W Main St","lat":37.55070187442934,"lng":-77.47067213058472,"neighborhood":"The Fan","city_fetched":"Richmond,US","state":"VA","country":"United States","canonicalUrl":"https://foursquare.com/v/fw-sullivans-fan-bar--grille/4b0429faf964a520ba5122e3","categoryId":"4bf58dd8d48988d116941735","category":"Bar","checkinsCount":11315,"usersCount":2243,"tipCount":44,"visitsCount":11585,"url":"http://sullysrva.com","tier":2,"message":"Moderate","currency":"$","rating":7.5},{"name":"Food Truck Court At Hardywood","lat":37.56455746019566,"lng":-77.45720282221542,"neighborhood":"Carytown - Museum District","city_fetched":"Richmond,US","state":"VA","country":"United States","canonicalUrl":"https://foursquare.com/v/food-truck-court-at-hardywood/5049343de4b031f2762ef3f6","categoryId":"50327c8591d4c4b30a586d5d","category":"Brewery","checkinsCount":204,"usersCount":154,"tipCount":2,"visitsCount":204,"tier":"","message":"","currency":"","rating":7.5},{"name":"Unwind Richmond","address":"406 W Broad St","lat":37.54799076919248,"lng":-77.44568342358421,"neighborhood":"Jackson Ward","city_fetched":"Richmond,US","state":"VA","country":"United States","canonicalUrl":"https://foursquare.com/v/unwind-richmond/5000c627e4b0645fec97fe3b","categoryId":"4bf58dd8d48988d119941735","category":"Hookah Bar","checkinsCount":240,"usersCount":90,"tipCount":4,"visitsCount":241,"url":"http://www.unwindhookah.com","tier":"","message":"","currency":"","rating":7.5},{"name":"Bailey's Sports Grille","phone":"8045604600","twitter":"baileysgrille","address":"11581 Robious Rd","lat":37.52057426,"lng":-77.61039163,"neighborhood":"Midlothian","city_fetched":"Richmond,US","state":"VA","country":"United States","canonicalUrl":"https://foursquare.com/v/baileys-sports-grille/4aeb0fdff964a520b8bd21e3","categoryId":"4bf58dd8d48988d11d941735","category":"Sports Bar","checkinsCount":3786,"usersCount":1400,"tipCount":25,"visitsCount":4421,"url":"http://t.co/IGrH8HORCs","tier":2,"message":"Moderate","currency":"$","rating":7.5},{"name":"Kickback Jack's","phone":"8049656902","address":"9318 W Broad St","lat":37.63834784007116,"lng":-77.55290455647251,"city_fetched":"Richmond,US","state":"VA","country":"United States","canonicalUrl":"https://foursquare.com/v/kickback-jacks/53b2aa03498e8128514de5b6","categoryId":"4bf58dd8d48988d116941735","category":"Bar","checkinsCount":564,"usersCount":800,"tipCount":15,"visitsCount":1557,"url":"http://kbjacks.com/richmond-va","tier":"","message":"","currency":"","rating":7.5},{"name":"Poe's Pub","phone":"8046482120","twitter":"poespubrva","address":"2706 E Main St","lat":37.527837770392345,"lng":-77.41916649346273,"neighborhood":"Shockoe Bottom","city_fetched":"Richmond,US","state":"VA","country":"United States","canonicalUrl":"https://foursquare.com/v/poes-pub/4ae3a85cf964a520d19721e3","categoryId":"4bf58dd8d48988d11b941735","category":"Pub","checkinsCount":1816,"usersCount":1005,"tipCount":17,"visitsCount":2227,"url":"http://poespub.com","tier":"","message":"","currency":"","rating":7.4},{"name":"Breakers","address":"9135 W Broad St","lat":37.63613761135236,"lng":-77.55148829331489,"city_fetched":"Richmond,US","state":"VA","country":"United States","canonicalUrl":"https://foursquare.com/v/breakers/4bae43baf964a520809a3be3","categoryId":"4bf58dd8d48988d116941735","category":"Bar","checkinsCount":954,"usersCount":288,"tipCount":5,"visitsCount":1098,"tier":"","message":"","currency":"","rating":7.4},{"name":"7 Hills Brewing Company","address":"100 S 15th St","lat":37.53297756942981,"lng":-77.43177568545866,"neighborhood":"Shockoe Slip","city_fetched":"Richmond,US","state":"VA","country":"United States","canonicalUrl":"https://foursquare.com/v/7-hills-brewing-company/53e1602f498ee11dc61f9bdc","categoryId":"50327c8591d4c4b30a586d5d","category":"Brewery","checkinsCount":303,"usersCount":401,"tipCount":2,"visitsCount":564,"tier":"","message":"","currency":"","rating":7.4},{"name":"Northside Grille","phone":"8042664403","address":"1217 Bellevue Ave","lat":37.589223979563094,"lng":-77.45548009872437,"neighborhood":"Bellevue","city_fetched":"Richmond,US","state":"VA","country":"United States","canonicalUrl":"https://foursquare.com/v/northside-grille/4ad8ee9bf964a520221621e3","categoryId":"4bf58dd8d48988d116941735","category":"Bar","checkinsCount":1945,"usersCount":671,"tipCount":16,"visitsCount":2080,"url":"http://www.northsidegrille.com","tier":"","message":"","currency":"","rating":7.4},{"name":"Black Heath Meadery","phone":"7035820856","twitter":"blackheathmead","address":"1313 Altamont Ave","lat":37.56556973961925,"lng":-77.47133715823064,"neighborhood":"Carytown - Museum District","city_fetched":"Richmond,US","state":"VA","country":"United States","canonicalUrl":"https://foursquare.com/v/black-heath-meadery/54ef7905498e31ed2e227f2e","categoryId":"50327c8591d4c4b30a586d5d","category":"Brewery","checkinsCount":83,"usersCount":65,"tipCount":1,"visitsCount":99,"url":"http://www.blackheathmeadery.com","tier":"","message":"","currency":"","rating":7.3},{"name":"McCormack's Irish Pub","phone":"8046481003","address":"12 N 18th St","lat":37.53351575629692,"lng":-77.4270964352302,"neighborhood":"Shockoe Bottom","city_fetched":"Richmond,US","state":"VA","country":"United States","canonicalUrl":"https://foursquare.com/v/mccormacks-irish-pub/4ad7c509f964a5208d0e21e3","categoryId":"4bf58dd8d48988d11b941735","category":"Pub","checkinsCount":1763,"usersCount":516,"tipCount":8,"visitsCount":1782,"url":"http://mccormacksirishpub.com","tier":"","message":"","currency":"","rating":7.3},{"name":"Cary 100","address":"100 E Cary St","lat":37.541657078571156,"lng":-77.44416497312164,"neighborhood":"Monroe Ward","city_fetched":"Richmond,US","state":"VA","country":"United States","canonicalUrl":"https://foursquare.com/v/cary-100/50377c5be4b04a184bf60995","categoryId":"4bf58dd8d48988d11e941735","category":"Cocktail Bar","checkinsCount":147,"usersCount":57,"tipCount":4,"visitsCount":154,"tier":"","message":"","currency":"","rating":7.2},{"name":"Buddy's Place","phone":"8043553701","twitter":"buddysplace","address":"600 N Sheppard St","lat":37.5604937347738,"lng":-77.47450232505798,"neighborhood":"The Museum District","city_fetched":"Richmond,US","state":"VA","country":"United States","canonicalUrl":"https://foursquare.com/v/buddys-place/4ac93bc3f964a5204abf20e3","categoryId":"4bf58dd8d48988d11b941735","category":"Pub","checkinsCount":4741,"usersCount":1269,"tipCount":15,"visitsCount":4951,"url":"http://www.buddysplace.net","tier":1,"message":"Cheap","currency":"$","rating":7.2},{"name":"The Forest Restaurant","phone":"8042331940","address":"5057 Forest Hill Ave","lat":37.52235415,"lng":-77.49031,"neighborhood":"Westover Hills","city_fetched":"Richmond,US","state":"VA","country":"United States","canonicalUrl":"https://foursquare.com/v/the-forest-restaurant/4afb1c8cf964a5203c1b22e3","categoryId":"4bf58dd8d48988d116941735","category":"Bar","checkinsCount":427,"usersCount":131,"tipCount":4,"visitsCount":442,"url":"http://doitintheforest.com","tier":"","message":"","currency":"","rating":7.1},{"name":"Cafe Diem","lat":37.566287631103,"lng":-77.4748886754019,"neighborhood":"Carytown - Museum District","city_fetched":"Richmond,US","state":"Virginia","country":"United States","canonicalUrl":"https://foursquare.com/v/cafe-diem/4e1d0201a809ef911eb857d3","categoryId":"4bf58dd8d48988d116941735","category":"Bar","checkinsCount":102,"usersCount":103,"tipCount":0,"visitsCount":103,"tier":"","message":"","currency":"","rating":7.1},{"name":"Paper Moon","phone":"8046740790","twitter":"papermoonrva","address":"6710 Midlothian Tpke","lat":37.502925524549745,"lng":-77.51933008432388,"neighborhood":"South Richmond","city_fetched":"Richmond,US","state":"VA","country":"United States","canonicalUrl":"https://foursquare.com/v/paper-moon/4cdc89f62db58eec26a613a9","categoryId":"4bf58dd8d48988d1d6941735","category":"Strip Club","checkinsCount":787,"usersCount":246,"tipCount":8,"visitsCount":807,"url":"http://www.papermoonclub.com","tier":"","message":"","currency":"","rating":7.1},{"name":"The Locker Room","phone":"8042325999","twitter":"lockerroomrva","address":"5035 Forest Hill Ave","lat":37.52204544276032,"lng":-77.48964813818567,"neighborhood":"Westover Hills","city_fetched":"Richmond,US","state":"VA","country":"United States","canonicalUrl":"https://foursquare.com/v/the-locker-room/4b8552bef964a520aa5631e3","categoryId":"4bf58dd8d48988d116941735","category":"Bar","checkinsCount":460,"usersCount":95,"tipCount":4,"visitsCount":514,"tier":"","message":"","currency":"","rating":7},{"name":"Buskey Cider","phone":"8043550100","twitter":"buskeycider","address":"2910 W Leigh St","lat":37.565996411953535,"lng":-77.46941010599924,"neighborhood":"Carytown - Museum District","city_fetched":"Richmond,US","state":"VA","country":"United States","canonicalUrl":"https://foursquare.com/v/buskey-cider/56b25024498e8b9219ca077e","categoryId":"50327c8591d4c4b30a586d5d","category":"Brewery","checkinsCount":164,"usersCount":210,"tipCount":2,"visitsCount":296,"url":"http://www.buskeycider.com","tier":"","message":"","currency":"","rating":7},{"name":"Lakeside Tavern","phone":"8042643799","address":"5402 Lakeside Ave","lat":37.60282974016141,"lng":-77.46757825596211,"city_fetched":"Richmond,US","state":"VA","country":"United States","canonicalUrl":"https://foursquare.com/v/lakeside-tavern/4e03e20c149509caec702bfa","categoryId":"4bf58dd8d48988d118941735","category":"Dive Bar","checkinsCount":373,"usersCount":149,"tipCount":7,"visitsCount":409,"tier":"","message":"","currency":"","rating":7},{"name":"Wonderland","phone":"8046439233","address":"1727 E Main St","lat":37.532985724389825,"lng":-77.42789780534639,"neighborhood":"Shockoe Bottom","city_fetched":"Richmond,US","state":"VA","country":"United States","canonicalUrl":"https://foursquare.com/v/wonderland/4adcf5ecf964a520ec6221e3","categoryId":"4bf58dd8d48988d120941735","category":"Karaoke Bar","checkinsCount":1828,"usersCount":479,"tipCount":18,"visitsCount":1862,"tier":"","message":"","currency":"","rating":7},{"name":"Vintage","phone":"8043532424","address":"2229 W Main St","lat":37.5503703840548,"lng":-77.46948853317608,"neighborhood":"The Fan","city_fetched":"Richmond,US","state":"VA","country":"United States","canonicalUrl":"https://foursquare.com/v/vintage/51f3394c498e8c17d858eb29","categoryId":"4bf58dd8d48988d11e941735","category":"Cocktail Bar","checkinsCount":241,"usersCount":136,"tipCount":0,"visitsCount":245,"url":"http://vintagevirginia.com","tier":2,"message":"Moderate","currency":"$","rating":6.9},{"name":"Home Team Grill","phone":"8042547360","twitter":"htgthefan","address":"1630 W Main St","lat":37.548036,"lng":-77.462012,"neighborhood":"The Fan","city_fetched":"Richmond,US","state":"VA","country":"United States","canonicalUrl":"https://foursquare.com/v/home-team-grill/4c8d01a4509e3704893b3855","categoryId":"4bf58dd8d48988d11d941735","category":"Sports Bar","checkinsCount":6452,"usersCount":2320,"tipCount":28,"visitsCount":7008,"url":"http://hometeamgrill.com","tier":2,"message":"Moderate","currency":"$","rating":6.8},{"name":"The Mansion Room at Fielden's","address":"2033 W Broad St","lat":37.557336724824154,"lng":-77.46178000558521,"neighborhood":"The Fan","city_fetched":"Richmond,US","state":"VA","country":"United States","canonicalUrl":"https://foursquare.com/v/the-mansion-room-at-fieldens/4be351662ff376b00d504fed","categoryId":"4bf58dd8d48988d11f941735","category":"Nightclub","checkinsCount":1865,"usersCount":348,"tipCount":10,"visitsCount":1954,"tier":"","message":"","currency":"","rating":6.8},{"name":"Southern Railway Taphouse","address":"111 Virginia St","lat":37.53389971622019,"lng":-77.43272832388669,"neighborhood":"Shockoe Slip","city_fetched":"Richmond,US","state":"VA","country":"United States","canonicalUrl":"https://foursquare.com/v/southern-railway-taphouse/518ecb1c498e6b6a8501300b","categoryId":"4bf58dd8d48988d117941735","category":"Beer Garden","checkinsCount":3148,"usersCount":1829,"tipCount":28,"visitsCount":4440,"tier":2,"message":"Moderate","currency":"$","rating":6.7},{"name":"The Commonwealth Club","phone":"8046486543","address":"401 W Franklin St","lat":37.54595719459072,"lng":-77.44751562308349,"neighborhood":"Monroe Ward","city_fetched":"Richmond,US","state":"VA","country":"United States","canonicalUrl":"https://foursquare.com/v/the-commonwealth-club/4b474c64f964a520632e26e3","categoryId":"4bf58dd8d48988d121941735","category":"Lounge","checkinsCount":572,"usersCount":382,"tipCount":7,"visitsCount":627,"tier":"","message":"","currency":"","rating":6.7},{"name":"Philip's Continental Lounge","phone":"8042888687","address":"5810 Grove Ave","lat":37.573131522419665,"lng":-77.51889816875537,"neighborhood":"Three Chopt","city_fetched":"Richmond,US","state":"VA","country":"United States","canonicalUrl":"https://foursquare.com/v/philips-continental-lounge/4ad4f29af964a520bdff20e3","categoryId":"4bf58dd8d48988d116941735","category":"Bar","checkinsCount":1734,"usersCount":586,"tipCount":23,"visitsCount":1741,"url":"http://billofare.com","tier":"","message":"","currency":"","rating":6.6},{"name":"Sam Miller's","phone":"8046445465","address":"1210 E Cary St","lat":37.535695824370315,"lng":-77.43409752845764,"neighborhood":"Shockoe Slip","city_fetched":"Richmond,US","state":"VA","country":"United States","canonicalUrl":"https://foursquare.com/v/sam-millers/4b145e9df964a52000a223e3","categoryId":"4bf58dd8d48988d123941735","category":"Wine Bar","checkinsCount":2435,"usersCount":929,"tipCount":16,"visitsCount":2480,"url":"http://www.sammillers.com","tier":"","message":"","currency":"","rating":6.6},{"name":"Caddy's","phone":"8047943007","twitter":"caddysotb","address":"13312 Midlothian Tpke","lat":37.502723,"lng":-77.64533923333333,"neighborhood":"Midlothian","city_fetched":"Richmond,US","state":"VA","country":"United States","canonicalUrl":"https://foursquare.com/v/caddys/4b566250f964a520210e28e3","categoryId":"4bf58dd8d48988d116941735","category":"Bar","checkinsCount":454,"usersCount":229,"tipCount":7,"visitsCount":486,"url":"http://www.caddysotb.com","tier":"","message":"","currency":"","rating":6.6},{"name":"Kabana Rooftop","phone":"8046475644","address":"700 East Main Street","lat":37.53930647518395,"lng":-77.43774355501061,"neighborhood":"Downtown Richmond","city_fetched":"Richmond,US","state":"VA","country":"United States","canonicalUrl":"https://foursquare.com/v/kabana-rooftop/574a4312498eeaadc5ff2bbd","categoryId":"4bf58dd8d48988d121941735","category":"Lounge","checkinsCount":270,"usersCount":197,"tipCount":5,"visitsCount":307,"url":"http://www.kabanarooftop.com","tier":"","message":"","currency":"","rating":6.6},{"name":"Metro Bar & Grill","phone":"8043534453","address":"301 N Robinson St","lat":37.555581736683116,"lng":-77.47111308405468,"neighborhood":"The Fan","city_fetched":"Richmond,US","state":"VA","country":"United States","canonicalUrl":"https://foursquare.com/v/metro-bar--grill/4b042457f964a520905122e3","categoryId":"4bf58dd8d48988d116941735","category":"Bar","checkinsCount":3750,"usersCount":1202,"tipCount":31,"visitsCount":3889,"url":"http://metrogrillrichmond.com","tier":2,"message":"Moderate","currency":"$","rating":6.5},{"name":"Roxy Cafe","phone":"8043427699","address":"1104 W Main St","lat":37.54596799,"lng":-77.45573,"neighborhood":"The Fan","city_fetched":"Richmond,US","state":"VA","country":"United States","canonicalUrl":"https://foursquare.com/v/roxy-cafe/4b395e98f964a520845b25e3","categoryId":"4bf58dd8d48988d116941735","category":"Bar","checkinsCount":2825,"usersCount":554,"tipCount":16,"visitsCount":2855,"url":"http://roxycaferichmond.com","tier":"","message":"","currency":"","rating":6.5},{"name":"Paper Moon","phone":"8043534386","twitter":"papermoon","address":"3300 Norfolk St","lat":37.57062966924986,"lng":-77.47125313046601,"neighborhood":"Carytown - Museum District","city_fetched":"Richmond,US","state":"VA","country":"United States","canonicalUrl":"https://foursquare.com/v/paper-moon/4b6213bbf964a52016342ae3","categoryId":"4bf58dd8d48988d1d6941735","category":"Strip Club","checkinsCount":1014,"usersCount":371,"tipCount":10,"visitsCount":1200,"url":"http://www.papermoonclub.com","tier":"","message":"","currency":"","rating":6.5},{"name":"The Local","address":"1106 W Main St","lat":37.546014459482265,"lng":-77.45580778144091,"neighborhood":"The Fan","city_fetched":"Richmond,US","state":"VA","country":"United States","canonicalUrl":"https://foursquare.com/v/the-local/4eb5eb8acc2143e82837e068","categoryId":"4bf58dd8d48988d116941735","category":"Bar","checkinsCount":1878,"usersCount":613,"tipCount":20,"visitsCount":2003,"tier":1,"message":"Cheap","currency":"$","rating":6.4},{"name":"Sportsman Restaurant & Lounge","phone":"8042361911","address":"3306 Williamsburg Rd","lat":37.51997548507738,"lng":-77.36738151979473,"city_fetched":"Richmond,US","state":"VA","country":"United States","canonicalUrl":"https://foursquare.com/v/sportsman-restaurant--lounge/4cd88751da85224b58fa4cca","categoryId":"4bf58dd8d48988d11d941735","category":"Sports Bar","checkinsCount":379,"usersCount":139,"tipCount":3,"visitsCount":426,"tier":"","message":"","currency":"","rating":6},{"name":"Vanquish Ultra Lounge","twitter":"vanquishofrva","address":"1005 E Main St","lat":37.537373,"lng":-77.43506,"neighborhood":"Downtown Richmond","city_fetched":"Richmond,US","state":"VA","country":"United States","canonicalUrl":"https://foursquare.com/v/vanquish-ultra-lounge/53093215498ec2100a0dfd8d","categoryId":"4bf58dd8d48988d121941735","category":"Lounge","checkinsCount":225,"usersCount":94,"tipCount":0,"visitsCount":255,"tier":"","message":"","currency":"","rating":6},{"name":"Shamrock Pub","phone":"8043300617","address":"1000-1060 Suburban Village Loop","lat":37.50699249959268,"lng":-77.57963670289507,"neighborhood":"Midlothian","city_fetched":"Richmond,US","state":"VA","country":"United States","canonicalUrl":"https://foursquare.com/v/shamrock-pub/4c661651e75ac92886f0f6da","categoryId":"4bf58dd8d48988d11b941735","category":"Pub","checkinsCount":388,"usersCount":123,"tipCount":8,"visitsCount":406,"url":"http://shamrockpg.com","tier":"","message":"","currency":"","rating":5.9},{"name":"Game On Sports Bar And Grill","phone":"8047949500","address":"15532 Wc Commons Way","lat":37.51401589406816,"lng":-77.69309378564438,"neighborhood":"Midlothian","city_fetched":"Richmond,US","state":"VA","country":"United States","canonicalUrl":"https://foursquare.com/v/game-on-sports-bar-and-grill/5225fb8811d2bbe5e1ac4425","categoryId":"4bf58dd8d48988d11d941735","category":"Sports Bar","checkinsCount":266,"usersCount":145,"tipCount":14,"visitsCount":275,"tier":2,"message":"Moderate","currency":"$","rating":5.7},{"name":"Club Rouge","phone":"8046432687","twitter":"rougeclubrva","address":"3 S 15th St","lat":37.534328201110974,"lng":-77.43045508861542,"neighborhood":"Shockoe Slip","city_fetched":"Richmond,US","state":"VA","country":"United States","canonicalUrl":"https://foursquare.com/v/club-rouge/4cd64a96122ba143442932a1","categoryId":"4bf58dd8d48988d1d6941735","category":"Strip Club","checkinsCount":487,"usersCount":287,"tipCount":8,"visitsCount":499,"tier":"","message":"","currency":"","rating":5.6},{"name":"Kai","phone":"8046445465","twitter":"kairva","address":"1212 E Cary St","lat":37.53551753302484,"lng":-77.43412924843135,"neighborhood":"Shockoe Slip","city_fetched":"Richmond,US","state":"VA","country":"United States","canonicalUrl":"https://foursquare.com/v/kai/4f073cd9e4b08f524774a809","categoryId":"4bf58dd8d48988d11f941735","category":"Nightclub","checkinsCount":917,"usersCount":532,"tipCount":9,"visitsCount":943,"url":"http://www.kairva.com","tier":"","message":"","currency":"","rating":5.2},{"name":"T-Miller's Sports Bar and Grill","phone":"8046482255","twitter":"whitelodging","address":"500 E Broad St","lat":37.54260985019195,"lng":-77.43686940754766,"neighborhood":"City Center","city_fetched":"Richmond,US","state":"VA","country":"United States","canonicalUrl":"https://foursquare.com/v/tmillers-sports-bar-and-grill/4b467c34f964a520632226e3","categoryId":"4bf58dd8d48988d1d5941735","category":"Hotel Bar","checkinsCount":2305,"usersCount":1365,"tipCount":36,"visitsCount":2313,"url":"http://www.whitelodging.com","tier":"","message":"","currency":"","rating":5.2}]