[{"name":"Whistler's Inn","phone":"8567868776","address":"901 Route 130 S","lat":39.99636305365553,"lng":-74.99484857906172,"city_fetched":"Riverton,US","state":"NJ","country":"United States","canonicalUrl":"https://foursquare.com/v/whistlers-inn/4adc965df964a520982d21e3","categoryId":"4bf58dd8d48988d116941735","category":"Bar","checkinsCount":3902,"usersCount":1240,"tipCount":36,"visitsCount":4945,"url":"http://whistlersinnnj.com","tier":2,"message":"Moderate","currency":"$","rating":8.6},{"name":"Curran's Irish Inn","phone":"2153318628","address":"6900 State Rd","lat":40.02213994576905,"lng":-75.03985236107238,"neighborhood":"Tacony - Wissinoming","city_fetched":"Riverton,US","state":"PA","country":"United States","canonicalUrl":"https://foursquare.com/v/currans-irish-inn/4babe1cbf964a520e1d13ae3","categoryId":"4bf58dd8d48988d116941735","category":"Bar","checkinsCount":2501,"usersCount":1224,"tipCount":22,"visitsCount":2923,"url":"http://curransirishinntacony.com","tier":2,"message":"Moderate","currency":"$","rating":8.4},{"name":"Sweetwater Bar & Grill","phone":"8568297458","twitter":"sweetwaternj","address":"10 Route 130 N","lat":39.98834435508698,"lng":-75.00809199820674,"city_fetched":"Riverton,US","state":"NJ","country":"United States","canonicalUrl":"https://foursquare.com/v/sweetwater-bar--grill/507244a9e4b05fb6c46a5ca9","categoryId":"4bf58dd8d48988d116941735","category":"Bar","checkinsCount":795,"usersCount":297,"tipCount":8,"visitsCount":884,"url":"http://sweetwaternj.com","tier":2,"message":"Moderate","currency":"$","rating":7.9},{"name":"Park Tavern","phone":"8568299815","address":"701 Park Ave","lat":39.99892008713304,"lng":-75.02645015716553,"city_fetched":"Riverton,US","state":"NJ","country":"United States","canonicalUrl":"https://foursquare.com/v/park-tavern/4b844947f964a5207e2c31e3","categoryId":"4bf58dd8d48988d116941735","category":"Bar","checkinsCount":1362,"usersCount":247,"tipCount":10,"visitsCount":1642,"tier":"","message":"","currency":"","rating":7.6},{"name":"Double Nickel Brewing","address":"1585 Rt.73","lat":39.984883709940604,"lng":-75.02037014541362,"city_fetched":"Riverton,US","state":"NJ","country":"United States","canonicalUrl":"https://foursquare.com/v/double-nickel-brewing/56292f63498ef19d1b5206f5","categoryId":"50327c8591d4c4b30a586d5d","category":"Brewery","checkinsCount":261,"usersCount":339,"tipCount":3,"visitsCount":553,"tier":"","message":"","currency":"","rating":7.6},{"name":"Club Risque Northeast","phone":"2152896969","twitter":"clubrisque","address":"5921 Tacony St","lat":40.01353468956784,"lng":-75.05630913688847,"neighborhood":"Tacony - Wissinoming","city_fetched":"Riverton,US","state":"PA","country":"United States","canonicalUrl":"https://foursquare.com/v/club-risque-northeast/4a70f657f964a520e0d81fe3","categoryId":"4bf58dd8d48988d1d6941735","category":"Strip Club","checkinsCount":412,"usersCount":330,"tipCount":6,"visitsCount":582,"tier":"","message":"","currency":"","rating":7.2},{"name":"Flukes","phone":"2153384800","address":"7401 State Rd","lat":40.02718046,"lng":-75.02847979,"neighborhood":"Holmesburg","city_fetched":"Riverton,US","state":"PA","country":"United States","canonicalUrl":"https://foursquare.com/v/flukes/4af4c5caf964a52009f621e3","categoryId":"4bf58dd8d48988d116941735","category":"Bar","checkinsCount":837,"usersCount":609,"tipCount":7,"visitsCount":1188,"tier":"","message":"","currency":"","rating":7.1},{"name":"Erotic Cafe","phone":"8566652244","twitter":"theeroticcafe","address":"2120 Route 73","lat":39.981276181020476,"lng":-75.01514976519081,"city_fetched":"Riverton,US","state":"NJ","country":"United States","canonicalUrl":"https://foursquare.com/v/erotic-cafe/4ba9a053f964a520d6313ae3","categoryId":"4bf58dd8d48988d1d6941735","category":"Strip Club","checkinsCount":369,"usersCount":177,"tipCount":2,"visitsCount":433,"url":"http://www.eroticafe.com","tier":"","message":"","currency":"","rating":6.5},{"name":"Leneghan's Crusader Inn","address":"7412 Frankford Ave","lat":40.038083,"lng":-75.037531,"neighborhood":"Holmesburg","city_fetched":"Riverton,US","state":"PA","country":"United States","canonicalUrl":"https://foursquare.com/v/leneghans-crusader-inn/40b28c80f964a5204dfa1ee3","categoryId":"4bf58dd8d48988d11b941735","category":"Pub","checkinsCount":366,"usersCount":129,"tipCount":1,"visitsCount":480,"tier":"","message":"","currency":"","rating":6.5},{"name":"The Sheffield Tavern","phone":"2677316026","address":"4501 Sheffield St","lat":40.03506504991091,"lng":-75.03058220205673,"neighborhood":"Holmesburg","city_fetched":"Riverton,US","state":"PA","country":"United States","canonicalUrl":"https://foursquare.com/v/the-sheffield-tavern/5097189ee4b052b2ca07d771","categoryId":"4bf58dd8d48988d116941735","category":"Bar","checkinsCount":550,"usersCount":248,"tipCount":2,"visitsCount":822,"tier":"","message":"","currency":"","rating":6.3},{"name":"Yik Yak","address":"7215 Torresdale Ave","lat":40.02943059823887,"lng":-75.03612154306559,"neighborhood":"Tacony - Wissinoming","city_fetched":"Riverton,US","state":"PA","country":"United States","canonicalUrl":"https://foursquare.com/v/yik-yak/4bca9a9b68f976b044d55f83","categoryId":"4bf58dd8d48988d1d4941735","category":"Speakeasy","checkinsCount":461,"usersCount":167,"tipCount":6,"visitsCount":461,"tier":"","message":"","currency":"","rating":5.8},{"name":"DayDreams","phone":"2153383838","address":"5200 Unruh Ave","lat":40.018099035628666,"lng":-75.04186034948282,"neighborhood":"Tacony - Wissinoming","city_fetched":"Riverton,US","state":"PA","country":"United States","canonicalUrl":"https://foursquare.com/v/daydreams/4ae660ccf964a520c7a621e3","categoryId":"4bf58dd8d48988d1d6941735","category":"Strip Club","checkinsCount":668,"usersCount":514,"tipCount":9,"visitsCount":828,"tier":"","message":"","currency":"","rating":5.8},{"name":"Curran's Irish Inn","phone":"8563148241","address":"5 W Broad St","lat":40.00397237287596,"lng":-75.02216728626024,"city_fetched":"Riverton,US","state":"NJ","country":"United States","canonicalUrl":"https://foursquare.com/v/currans-irish-inn/4b9346e3f964a520403e34e3","categoryId":"4bf58dd8d48988d116941735","category":"Bar","checkinsCount":1118,"usersCount":478,"tipCount":15,"visitsCount":1143,"tier":"","message":"","currency":"","rating":5.5}]