[{"name":"The Genesee Brew House","phone":"5852639200","twitter":"geneseebrewery","address":"25 Cataract St","lat":43.16361343409636,"lng":-77.61463752695524,"neighborhood":"Upper Falls","city_fetched":"Rochester,US","state":"NY","country":"United States","canonicalUrl":"https://foursquare.com/v/the-genesee-brew-house/5037cf4ae4b0b4924bebc9dc","categoryId":"4bf58dd8d48988d11b941735","category":"Pub","checkinsCount":4867,"usersCount":2939,"tipCount":54,"visitsCount":6090,"url":"http://www.geneseebeer.com/brew-house","tier":1,"message":"Cheap","currency":"$","rating":9.1},{"name":"Tap & Mallet","phone":"5854730503","twitter":"tapandmallet","address":"381 Gregory St","lat":43.14260073716959,"lng":-77.60172218084335,"city_fetched":"Rochester,US","state":"NY","country":"United States","canonicalUrl":"https://foursquare.com/v/tap--mallet/4b36ed38f964a520493e25e3","categoryId":"4bf58dd8d48988d11b941735","category":"Pub","checkinsCount":11140,"usersCount":3077,"tipCount":89,"visitsCount":12512,"url":"http://tapandmallet.com","tier":2,"message":"Moderate","currency":"$","rating":9.1},{"name":"The Old Toad","phone":"5852322626","twitter":"theoldtoad","address":"277 Alexander St","lat":43.15355826703443,"lng":-77.59534504977566,"neighborhood":"East Avenue","city_fetched":"Rochester,US","state":"NY","country":"United States","canonicalUrl":"https://foursquare.com/v/the-old-toad/4b242ccaf964a520f06224e3","categoryId":"4bf58dd8d48988d11b941735","category":"Pub","checkinsCount":7566,"usersCount":2635,"tipCount":63,"visitsCount":7958,"url":"http://theoldtoad.com","tier":2,"message":"Moderate","currency":"$","rating":8.9},{"name":"Roc Brewing Co., LLC","phone":"5857949798","twitter":"rocbrewingco","address":"56 S Union St","lat":43.15330212076117,"lng":-77.59780715049831,"neighborhood":"East Avenue","city_fetched":"Rochester,US","state":"NY","country":"United States","canonicalUrl":"https://foursquare.com/v/roc-brewing-co-llc/4d61da252910594158830447","categoryId":"50327c8591d4c4b30a586d5d","category":"Brewery","checkinsCount":3674,"usersCount":1112,"tipCount":28,"visitsCount":4137,"url":"http://rocbrewingco.com","tier":2,"message":"Moderate","currency":"$","rating":8.8},{"name":"Chocolate and Vines","phone":"5853406362","twitter":"chocolatevines","address":"757 University Ave","lat":43.155025,"lng":-77.582602,"neighborhood":"NOTA","city_fetched":"Rochester,US","state":"NY","country":"United States","canonicalUrl":"https://foursquare.com/v/chocolate-and-vines/4b61fc2df964a520022f2ae3","categoryId":"4bf58dd8d48988d123941735","category":"Wine Bar","checkinsCount":1070,"usersCount":613,"tipCount":27,"visitsCount":1125,"url":"http://chocolateandvines.com","tier":2,"message":"Moderate","currency":"$","rating":8.8},{"name":"Apogee","address":"151 Park Ave","lat":43.15098911131372,"lng":-77.59178610019455,"neighborhood":"East Avenue","city_fetched":"Rochester,US","state":"NY","country":"United States","canonicalUrl":"https://foursquare.com/v/apogee/53e6c93b498e2ba00e06ce1f","categoryId":"4bf58dd8d48988d123941735","category":"Wine Bar","checkinsCount":72,"usersCount":115,"tipCount":3,"visitsCount":154,"tier":"","message":"","currency":"","rating":8.7},{"name":"J.B. Quimby's","phone":"5852729780","address":"3259 Winton Rd S","lat":43.08842030483711,"lng":-77.58265972137451,"city_fetched":"Rochester,US","state":"NY","country":"United States","canonicalUrl":"https://foursquare.com/v/jb-quimbys/4b467689f964a520d92126e3","categoryId":"4bf58dd8d48988d11b941735","category":"Pub","checkinsCount":3195,"usersCount":891,"tipCount":28,"visitsCount":3528,"url":"http://www.jbquimbys.com","tier":2,"message":"Moderate","currency":"$","rating":8.7},{"name":"The Daily Refresher","phone":"5853604627","twitter":"dailyrefresher","address":"293 Alexander St","lat":43.153989,"lng":-77.595177,"neighborhood":"East Avenue","city_fetched":"Rochester,US","state":"NY","country":"United States","canonicalUrl":"https://foursquare.com/dailyrefresher","categoryId":"4bf58dd8d48988d11e941735","category":"Cocktail Bar","checkinsCount":2342,"usersCount":999,"tipCount":27,"visitsCount":2758,"url":"http://www.thedailyrefresher.com","tier":2,"message":"Moderate","currency":"$","rating":8.6},{"name":"Genesee Brewery","phone":"5855461030","twitter":"geneseebrewery","address":"445 Saint Paul St","lat":43.16354137959889,"lng":-77.61370319361623,"neighborhood":"Upper Falls","city_fetched":"Rochester,US","state":"NY","country":"United States","canonicalUrl":"https://foursquare.com/v/genesee-brewery/4b97bff9f964a520411335e3","categoryId":"50327c8591d4c4b30a586d5d","category":"Brewery","checkinsCount":3201,"usersCount":846,"tipCount":16,"visitsCount":3374,"url":"http://www.geneseebrewery.com","tier":"","message":"","currency":"","rating":8.6},{"name":"Swiftwater Brewing","phone":"5857478478","address":"378 Mount Hope Ave","lat":43.14246978471957,"lng":-77.61180652905416,"neighborhood":"South Wedge","city_fetched":"Rochester,US","state":"NY","country":"United States","canonicalUrl":"https://foursquare.com/v/swiftwater-brewing/53eaaad2498e15b08011d749","categoryId":"50327c8591d4c4b30a586d5d","category":"Brewery","checkinsCount":869,"usersCount":577,"tipCount":14,"visitsCount":1420,"url":"http://swiftwaterbrewing.com","tier":"","message":"","currency":"","rating":8.6},{"name":"Murph's Irondequoit Pub","phone":"5853426780","address":"705 Titus Ave","lat":43.21030573236668,"lng":-77.59725093841553,"city_fetched":"Rochester,US","state":"NY","country":"United States","canonicalUrl":"https://foursquare.com/v/murphs-irondequoit-pub/4b7f4261f964a520122330e3","categoryId":"4bf58dd8d48988d116941735","category":"Bar","checkinsCount":1357,"usersCount":377,"tipCount":19,"visitsCount":1387,"url":"http://murphsirondequoitpub.com","tier":"","message":"","currency":"","rating":8.5},{"name":"Rohrbach Brewing Company","phone":"5855468020","twitter":"rohrbachs","address":"97 Railroad St","lat":43.163407509580786,"lng":-77.58701267885435,"city_fetched":"Rochester,US","state":"NY","country":"United States","canonicalUrl":"https://foursquare.com/v/rohrbach-brewing-company/4b9bc500f964a520212336e3","categoryId":"50327c8591d4c4b30a586d5d","category":"Brewery","checkinsCount":1029,"usersCount":631,"tipCount":11,"visitsCount":1164,"url":"http://t.co/sB61k1iiwo","tier":1,"message":"Cheap","currency":"$","rating":8.5},{"name":"Marshall Street Bar & Grill","phone":"5853252191","twitter":"marshallstbar","address":"81 Marshall St","lat":43.15025526621098,"lng":-77.60057694960999,"neighborhood":"Pearl-Meigs-Monroe","city_fetched":"Rochester,US","state":"NY","country":"United States","canonicalUrl":"https://foursquare.com/v/marshall-street-bar--grill/4c87ce77cedc224b44b07fb6","categoryId":"4bf58dd8d48988d116941735","category":"Bar","checkinsCount":6391,"usersCount":1380,"tipCount":41,"visitsCount":7121,"url":"http://www.marshallstreetbarandgrill.com","tier":2,"message":"Moderate","currency":"$","rating":8.4},{"name":"Jeremiah's Tavern","phone":"5854611313","twitter":"jeremiahstav","address":"1104 Monroe Ave","lat":43.13911595514764,"lng":-77.58019075725679,"neighborhood":"Upper Monroe","city_fetched":"Rochester,US","state":"NY","country":"United States","canonicalUrl":"https://foursquare.com/v/jeremiahs-tavern/4b5c817df964a5203b3329e3","categoryId":"4bf58dd8d48988d116941735","category":"Bar","checkinsCount":7454,"usersCount":2571,"tipCount":44,"visitsCount":8390,"url":"http://www.jeremiahstavern.com","tier":2,"message":"Moderate","currency":"$","rating":8.4},{"name":"Veritas Wine Bar at Alexander Park","phone":"5852622336","twitter":"veritasonalex","address":"217 Alexander St","lat":43.149628308209344,"lng":-77.59727556511547,"city_fetched":"Rochester,US","state":"NY","country":"United States","canonicalUrl":"https://foursquare.com/v/veritas-wine-bar-at-alexander-park/501c7777e4b00a26d476de66","categoryId":"4bf58dd8d48988d123941735","category":"Wine Bar","checkinsCount":535,"usersCount":162,"tipCount":3,"visitsCount":587,"url":"http://www.veritaswinebar.com","tier":"","message":"","currency":"","rating":8.4},{"name":"Salinger's","phone":"5855466880","twitter":"salingersroc","address":"107 East Ave","lat":43.156857339780714,"lng":-77.60124281037008,"neighborhood":"Central Business District","city_fetched":"Rochester,US","state":"NY","country":"United States","canonicalUrl":"https://foursquare.com/v/salingers/4b970b58f964a52002f534e3","categoryId":"4bf58dd8d48988d116941735","category":"Bar","checkinsCount":5055,"usersCount":1205,"tipCount":18,"visitsCount":5227,"url":"http://salingersrochester.com","tier":1,"message":"Cheap","currency":"$","rating":8.3},{"name":"Pelican's Nest Restaurant","phone":"5856635910","twitter":"pelicansnest","address":"566 River St","lat":43.25335128441674,"lng":-77.60903700575523,"neighborhood":"Charlotte","city_fetched":"Rochester,US","state":"NY","country":"United States","canonicalUrl":"https://foursquare.com/pelicansnest","categoryId":"4bf58dd8d48988d116941735","category":"Bar","checkinsCount":2904,"usersCount":1840,"tipCount":19,"visitsCount":3665,"url":"http://www.pelicansnestrestaurant.com","tier":2,"message":"Moderate","currency":"$","rating":8.3},{"name":"The Angry Goat Pub","phone":"5854131125","twitter":"theangrygoatpub","address":"938 Clinton Ave","lat":43.140000891780524,"lng":-77.5960922241211,"neighborhood":"Swillburg","city_fetched":"Rochester,US","state":"NY","country":"United States","canonicalUrl":"https://foursquare.com/v/the-angry-goat-pub/52ed2f43498e6fd233f77382","categoryId":"4bf58dd8d48988d11b941735","category":"Pub","checkinsCount":654,"usersCount":390,"tipCount":10,"visitsCount":1104,"url":"http://theangrygoatpub.com","tier":"","message":"","currency":"","rating":8.3},{"name":"Marge's Lakeside Inn","phone":"5853231020","address":"4909 Culver Rd","lat":43.235073927502306,"lng":-77.53767740203128,"city_fetched":"Rochester,US","state":"NY","country":"United States","canonicalUrl":"https://foursquare.com/v/marges-lakeside-inn/4b736ea8f964a52037ae2de3","categoryId":"4bf58dd8d48988d118941735","category":"Dive Bar","checkinsCount":2362,"usersCount":1318,"tipCount":15,"visitsCount":2696,"url":"http://margeslakesideinn.com","tier":1,"message":"Cheap","currency":"$","rating":8.3},{"name":"140 Alex Bar & Grill","phone":"5852561000","address":"140 Alexander St","lat":43.14663887817155,"lng":-77.60009014135744,"neighborhood":"Pearl-Meigs-Monroe","city_fetched":"Rochester,US","state":"NY","country":"United States","canonicalUrl":"https://foursquare.com/v/140-alex-bar--grill/4b991072f964a520fc5e35e3","categoryId":"4bf58dd8d48988d1d8941735","category":"Gay Bar","checkinsCount":7134,"usersCount":1040,"tipCount":26,"visitsCount":7882,"url":"http://www.140alex.com","tier":1,"message":"Cheap","currency":"$","rating":8.3},{"name":"Jack Ryan's","phone":"5852889709","address":"825 Atlantic Ave","lat":43.15659295,"lng":-77.56107889,"neighborhood":"Culver-Winton-Main","city_fetched":"Rochester,US","state":"NY","country":"United States","canonicalUrl":"https://foursquare.com/v/jack-ryans/4bfb5878bc869521f0177b6b","categoryId":"4bf58dd8d48988d116941735","category":"Bar","checkinsCount":2694,"usersCount":202,"tipCount":4,"visitsCount":2865,"tier":1,"message":"Cheap","currency":"$","rating":8.2},{"name":"Flight Wine Bar","phone":"5853604180","twitter":"flightwb","address":"262 Exchange Blvd","lat":43.149714325993905,"lng":-77.61092752218246,"neighborhood":"Corn Hill","city_fetched":"Rochester,US","state":"NY","country":"United States","canonicalUrl":"https://foursquare.com/v/flight-wine-bar/4bc7917292b376b08ff94f3a","categoryId":"4bf58dd8d48988d123941735","category":"Wine Bar","checkinsCount":1288,"usersCount":638,"tipCount":19,"visitsCount":1303,"url":"http://www.winebarflight.com","tier":"","message":"","currency":"","rating":8.2},{"name":"Victoire: A Belgian Beer Bar & Bistro","phone":"5853253663","twitter":"victoirebelgian","address":"120 East Ave","lat":43.15686211812867,"lng":-77.60104696937802,"neighborhood":"Central Business District","city_fetched":"Rochester,US","state":"NY","country":"United States","canonicalUrl":"https://foursquare.com/victoirebelgian","categoryId":"4bf58dd8d48988d116941735","category":"Bar","checkinsCount":2831,"usersCount":1447,"tipCount":36,"visitsCount":3022,"url":"http://victoirebar.com","tier":2,"message":"Moderate","currency":"$","rating":8.2},{"name":"The Beer Market","address":"1401 Mount Hope Ave","lat":43.122447201774904,"lng":-77.61893983613597,"city_fetched":"Rochester,US","state":"NY","country":"United States","canonicalUrl":"https://foursquare.com/v/the-beer-market/54de048b498e0dd1569b9cd8","categoryId":"4bf58dd8d48988d11b941735","category":"Pub","checkinsCount":934,"usersCount":664,"tipCount":11,"visitsCount":1525,"url":"http://beerheadbar.com","tier":"","message":"","currency":"","rating":8.2},{"name":"Lux Lounge","phone":"5852329030","twitter":"luxlounge666","address":"666 South Ave","lat":43.142491022022185,"lng":-77.6044041964824,"neighborhood":"South Wedge","city_fetched":"Rochester,US","state":"NY","country":"United States","canonicalUrl":"https://foursquare.com/v/lux-lounge/4b32e772f964a520d21525e3","categoryId":"4bf58dd8d48988d116941735","category":"Bar","checkinsCount":11085,"usersCount":2346,"tipCount":53,"visitsCount":11636,"url":"http://lux666.com","tier":2,"message":"Moderate","currency":"$","rating":8.1},{"name":"Solera Wine Lounge & Cheshire Bar","phone":"5852323070","address":"647 South Ave","lat":43.14289621710937,"lng":-77.6047622948087,"neighborhood":"South Wedge","city_fetched":"Rochester,US","state":"NY","country":"United States","canonicalUrl":"https://foursquare.com/v/solera-wine-lounge--cheshire-bar/4b6a305cf964a52046cc2be3","categoryId":"4bf58dd8d48988d123941735","category":"Wine Bar","checkinsCount":1470,"usersCount":767,"tipCount":26,"visitsCount":1546,"url":"http://www.solerawinebar.com","tier":2,"message":"Moderate","currency":"$","rating":8.1},{"name":"Acme Bar & Pizza","phone":"5852712263","address":"495 Monroe Ave","lat":43.14656345163808,"lng":-77.59387895520153,"city_fetched":"Rochester,US","state":"NY","country":"United States","canonicalUrl":"https://foursquare.com/v/acme-bar--pizza/4b428187f964a5203dd525e3","categoryId":"4bf58dd8d48988d116941735","category":"Bar","checkinsCount":9377,"usersCount":2218,"tipCount":40,"visitsCount":9761,"tier":2,"message":"Moderate","currency":"$","rating":8.1},{"name":"Scotland Yard Pub","phone":"5857305030","twitter":"scotlandyardroc","address":"187 Saint Paul St","lat":43.1604101088044,"lng":-77.61035183843398,"neighborhood":"Central Business District","city_fetched":"Rochester,US","state":"NY","country":"United States","canonicalUrl":"https://foursquare.com/v/scotland-yard-pub/4b5ba175f964a5204b0c29e3","categoryId":"4bf58dd8d48988d11b941735","category":"Pub","checkinsCount":4443,"usersCount":1122,"tipCount":40,"visitsCount":4766,"url":"http://www.scotlandyardpub.com","tier":2,"message":"Moderate","currency":"$","rating":8},{"name":"Salvatore's @ the Garage Door","phone":"5853427580","twitter":"salgaragedoor","address":"149 E Ridge Rd.","lat":43.193377643519824,"lng":-77.61411721054303,"city_fetched":"Rochester,US","state":"NY","country":"United States","canonicalUrl":"https://foursquare.com/salgaragedoor","categoryId":"4bf58dd8d48988d11d941735","category":"Sports Bar","checkinsCount":1065,"usersCount":317,"tipCount":4,"visitsCount":1299,"url":"http://www.salvatores.com","tier":"","message":"","currency":"","rating":8},{"name":"Skylark Lounge","phone":"5852708106","address":"40 S Union St","lat":43.15404510498047,"lng":-77.5975112915039,"neighborhood":"East Avenue","city_fetched":"Rochester,US","state":"NY","country":"United States","canonicalUrl":"https://foursquare.com/v/skylark-lounge/4ec6820f77c8be49216f4db3","categoryId":"4bf58dd8d48988d116941735","category":"Bar","checkinsCount":2388,"usersCount":891,"tipCount":27,"visitsCount":2657,"url":"http://www.theskylarklounge.com","tier":1,"message":"Cheap","currency":"$","rating":8},{"name":"WindJammers","phone":"5856639691","address":"4695 Lake Ave","lat":43.25633092802755,"lng":-77.61029588841971,"neighborhood":"Charlotte","city_fetched":"Rochester,US","state":"NY","country":"United States","canonicalUrl":"https://foursquare.com/v/windjammers/4ba56d16f964a520e90539e3","categoryId":"4bf58dd8d48988d118941735","category":"Dive Bar","checkinsCount":3134,"usersCount":765,"tipCount":23,"visitsCount":3367,"url":"http://www.windjammersbarandgrill.com","tier":1,"message":"Cheap","currency":"$","rating":8},{"name":"The Restaurant At The Armory (TRATA)","phone":"5852705460","twitter":"trata_roc","address":"145 Culver Rd","lat":43.14232975613941,"lng":-77.57639627000698,"neighborhood":"Upper Monroe","city_fetched":"Rochester,US","state":"NY","country":"United States","canonicalUrl":"https://foursquare.com/v/the-restaurant-at-the-armory-trata/501d4fb2e4b0cf97af8c62ef","categoryId":"4bf58dd8d48988d116941735","category":"Bar","checkinsCount":4254,"usersCount":2320,"tipCount":53,"visitsCount":5229,"url":"http://tratarochester.com","tier":2,"message":"Moderate","currency":"$","rating":7.9},{"name":"The Distillery","phone":"5852714105","address":"1142 Mount Hope Ave","lat":43.127713,"lng":-77.615627,"city_fetched":"Rochester,US","state":"NY","country":"United States","canonicalUrl":"https://foursquare.com/v/the-distillery/4b52092ef964a520f96227e3","categoryId":"4bf58dd8d48988d116941735","category":"Bar","checkinsCount":8602,"usersCount":3655,"tipCount":51,"visitsCount":9584,"url":"http://www.thedistillery.com","tier":2,"message":"Moderate","currency":"$","rating":7.9},{"name":"Richmond's Tavern","phone":"5854544612","twitter":"richmondstavern","address":"21 Richmond St","lat":43.158912067745696,"lng":-77.59789108480358,"neighborhood":"Central Business District","city_fetched":"Rochester,US","state":"NY","country":"United States","canonicalUrl":"https://foursquare.com/v/richmonds-tavern/4b688281f964a520ed7c2be3","categoryId":"4bf58dd8d48988d116941735","category":"Bar","checkinsCount":781,"usersCount":445,"tipCount":11,"visitsCount":1018,"url":"http://richmondstavern.com","tier":2,"message":"Moderate","currency":"$","rating":7.9},{"name":"Hot Shots","phone":"5854611220","address":"1046 University Ave","lat":43.153310732784306,"lng":-77.57331245581067,"neighborhood":"NOTA","city_fetched":"Rochester,US","state":"NY","country":"United States","canonicalUrl":"https://foursquare.com/v/hot-shots/4b55dcb3f964a52070f327e3","categoryId":"4bf58dd8d48988d11d941735","category":"Sports Bar","checkinsCount":4696,"usersCount":841,"tipCount":12,"visitsCount":5702,"tier":1,"message":"Cheap","currency":"$","rating":7.9},{"name":"Abilene Bar & Lounge","phone":"5852323230","address":"153 Liberty Pole Way","lat":43.160186,"lng":-77.60431338,"neighborhood":"Central Business District","city_fetched":"Rochester,US","state":"NY","country":"United States","canonicalUrl":"https://foursquare.com/v/abilene-bar--lounge/4b6229d7f964a52078392ae3","categoryId":"4bf58dd8d48988d116941735","category":"Bar","checkinsCount":1398,"usersCount":714,"tipCount":10,"visitsCount":1490,"url":"http://www.abilenebarandlounge.com","tier":2,"message":"Moderate","currency":"$","rating":7.8},{"name":"MacGregor's Grill & Tap Room","phone":"5854278410","twitter":"macgregorsgtr","address":"300 Jefferson Rd","lat":43.092443622559266,"lng":-77.65076845354476,"city_fetched":"Rochester,US","state":"NY","country":"United States","canonicalUrl":"https://foursquare.com/v/macgregors-grill--tap-room/4b47f2f4f964a520d94426e3","categoryId":"4bf58dd8d48988d116941735","category":"Bar","checkinsCount":9401,"usersCount":3167,"tipCount":59,"visitsCount":10824,"url":"http://www.macgregorsgtr.com","tier":2,"message":"Moderate","currency":"$","rating":7.8},{"name":"Klassy Cat Tavern","phone":"5853598639","address":"3800 W Henrietta Rd","lat":43.078247395903084,"lng":-77.64091317421139,"city_fetched":"Rochester,US","state":"NY","country":"United States","canonicalUrl":"https://foursquare.com/v/klassy-cat-tavern/4bd04ea6462cb713ef0fd807","categoryId":"4bf58dd8d48988d1d6941735","category":"Strip Club","checkinsCount":1724,"usersCount":478,"tipCount":4,"visitsCount":1914,"url":"http://www.klassy-cat.com","tier":"","message":"","currency":"","rating":7.8},{"name":"MacGregor's Grill & Tap Room","phone":"5852477860","twitter":"macgregorsgtr","address":"607 Coldwater Rd","lat":43.12912276690428,"lng":-77.7362322807312,"city_fetched":"Rochester,US","state":"NY","country":"United States","canonicalUrl":"https://foursquare.com/v/macgregors-grill--tap-room/4b5dd30ef964a520de6d29e3","categoryId":"4bf58dd8d48988d116941735","category":"Bar","checkinsCount":1528,"usersCount":719,"tipCount":14,"visitsCount":2051,"url":"http://www.macgregorsgtr.com","tier":2,"message":"Moderate","currency":"$","rating":7.8},{"name":"Three Heads Brewing","phone":"5853604342","twitter":"3headsbrewing","address":"186 Atlantic Ave","lat":43.15628101839478,"lng":-77.57975982632112,"neighborhood":"NOTA","city_fetched":"Rochester,US","state":"NY","country":"United States","canonicalUrl":"https://foursquare.com/v/three-heads-brewing/4f502893e4b0749a943b1e74","categoryId":"50327c8591d4c4b30a586d5d","category":"Brewery","checkinsCount":232,"usersCount":286,"tipCount":1,"visitsCount":442,"url":"http://threeheadsbrewing.com","tier":"","message":"","currency":"","rating":7.7},{"name":"Half Pint Pub","phone":"5852716384","address":"363 Park Ave","lat":43.14977467060089,"lng":-77.58619,"city_fetched":"Rochester,US","state":"NY","country":"United States","canonicalUrl":"https://foursquare.com/v/half-pint-pub/4c5d9c297f661b8d31cb4b1c","categoryId":"4bf58dd8d48988d116941735","category":"Bar","checkinsCount":3261,"usersCount":1168,"tipCount":21,"visitsCount":3559,"url":"http://thehalfpintpub.com","tier":2,"message":"Moderate","currency":"$","rating":7.7},{"name":"The Firehouse Saloon","phone":"5853193832","address":"814 Clinton Ave S","lat":43.141903114208816,"lng":-77.59802537956215,"neighborhood":"Swillburg","city_fetched":"Rochester,US","state":"NY","country":"United States","canonicalUrl":"https://foursquare.com/v/the-firehouse-saloon/4beddd764daaa593ae5c8f61","categoryId":"4bf58dd8d48988d116941735","category":"Bar","checkinsCount":4921,"usersCount":851,"tipCount":21,"visitsCount":5483,"url":"http://thefirehousesaloon.com","tier":"","message":"","currency":"","rating":7.7},{"name":"Mr. Dominic's at the Lake","phone":"5857305444","twitter":"mr_dominics","address":"4699 Lake Ave","lat":43.256428633501336,"lng":-77.61021196334623,"neighborhood":"Charlotte","city_fetched":"Rochester,US","state":"NY","country":"United States","canonicalUrl":"https://foursquare.com/v/mr-dominics-at-the-lake/4b8468eaf964a520cc3331e3","categoryId":"4bf58dd8d48988d116941735","category":"Bar","checkinsCount":736,"usersCount":484,"tipCount":22,"visitsCount":797,"url":"http://www.mrdominics.com","tier":3,"message":"Expensive","currency":"$","rating":7.7},{"name":"O'Callaghan's Pub","phone":"5852717190","twitter":"ocallaghanpub","address":"470 Monroe Ave","lat":43.146899796762035,"lng":-77.5941307666924,"city_fetched":"Rochester,US","state":"NY","country":"United States","canonicalUrl":"https://foursquare.com/ocallaghanpub","categoryId":"4bf58dd8d48988d11b941735","category":"Pub","checkinsCount":7039,"usersCount":1722,"tipCount":23,"visitsCount":7230,"url":"http://www.ocallspub.com","tier":2,"message":"Moderate","currency":"$","rating":7.7},{"name":"Schooner's Riverside","phone":"5853428363","address":"40 Marina Dr","lat":43.251308933333334,"lng":-77.60870961,"city_fetched":"Rochester,US","state":"NY","country":"United States","canonicalUrl":"https://foursquare.com/v/schooners-riverside/4bf6bba1109020a1d835f721","categoryId":"4bf58dd8d48988d116941735","category":"Bar","checkinsCount":1381,"usersCount":764,"tipCount":10,"visitsCount":1588,"tier":1,"message":"Cheap","currency":"$","rating":7.6},{"name":"Rookies Sports Bar","phone":"5854294665","twitter":"rookiessportsb1","address":"2351 Buffalo Rd","lat":43.146251383333336,"lng":-77.7128916978836,"city_fetched":"Rochester,US","state":"NY","country":"United States","canonicalUrl":"https://foursquare.com/rookiessportsb1","categoryId":"4bf58dd8d48988d11d941735","category":"Sports Bar","checkinsCount":2297,"usersCount":911,"tipCount":16,"visitsCount":2732,"url":"http://www.rookiesofrochester.com","tier":2,"message":"Moderate","currency":"$","rating":7.6},{"name":"ButaPub","phone":"5855636241","twitter":"butapub","address":"315 Gregory St","lat":43.141947395646554,"lng":-77.60339703884341,"city_fetched":"Rochester,US","state":"NY","country":"United States","canonicalUrl":"https://foursquare.com/v/butapub/546ba9ee498e6dfd951c34be","categoryId":"4bf58dd8d48988d11b941735","category":"Pub","checkinsCount":648,"usersCount":348,"tipCount":15,"visitsCount":797,"url":"https://butapub.com","tier":"","message":"","currency":"","rating":7.6},{"name":"Brunello Wine Bar","phone":"5854419571","twitter":"brunellowinebar","address":"663 N Winton Rd","lat":43.15831923991899,"lng":-77.54859413538288,"neighborhood":"Culver-Winton-Main","city_fetched":"Rochester,US","state":"NY","country":"United States","canonicalUrl":"https://foursquare.com/v/brunello-wine-bar/52b37fd4498eaee256cbe64f","categoryId":"4bf58dd8d48988d123941735","category":"Wine Bar","checkinsCount":97,"usersCount":71,"tipCount":2,"visitsCount":104,"url":"http://www.brunellowinebar.com","tier":2,"message":"Moderate","currency":"$","rating":7.5},{"name":"Charlotte Tavern","phone":"5856639649","address":"2 River St","lat":43.24350321666667,"lng":-77.61840538333334,"neighborhood":"Charlotte","city_fetched":"Rochester,US","state":"NY","country":"United States","canonicalUrl":"https://foursquare.com/v/charlotte-tavern/4b6bb101f964a520bd152ce3","categoryId":"4bf58dd8d48988d11b941735","category":"Pub","checkinsCount":385,"usersCount":205,"tipCount":2,"visitsCount":466,"url":"http://www.thecharlottetavern.com","tier":"","message":"","currency":"","rating":7.5},{"name":"Shamrock Jack's Irish Pub","phone":"5853239310","twitter":"shamrockjacks","address":"4554 Culver Rd","lat":43.23137000443203,"lng":-77.54458025845992,"city_fetched":"Rochester,US","state":"NY","country":"United States","canonicalUrl":"https://foursquare.com/v/shamrock-jacks-irish-pub/4b807b08f964a520567630e3","categoryId":"4bf58dd8d48988d11b941735","category":"Pub","checkinsCount":2554,"usersCount":964,"tipCount":15,"visitsCount":3052,"url":"http://www.shamrockjack.com","tier":2,"message":"Moderate","currency":"$","rating":7.5},{"name":"The Lost Borough Brewing Co.","phone":"5854718122","twitter":"lostboroughbrew","address":"543 Atlantic Ave","lat":43.156371336048885,"lng":-77.56899721361121,"city_fetched":"Rochester,US","state":"NY","country":"United States","canonicalUrl":"https://foursquare.com/v/the-lost-borough-brewing-co/53e2737e498e59451b81afa2","categoryId":"50327c8591d4c4b30a586d5d","category":"Brewery","checkinsCount":452,"usersCount":293,"tipCount":9,"visitsCount":679,"url":"http://www.lostboroughbrewing.com","tier":1,"message":"Cheap","currency":"$","rating":7.5},{"name":"The Distillery","phone":"5853393010","address":"3010 Winton Rd S","lat":43.095389336828134,"lng":-77.58161225805212,"city_fetched":"Rochester,US","state":"NY","country":"United States","canonicalUrl":"https://foursquare.com/v/the-distillery/4b5cd12bf964a5207a4529e3","categoryId":"4bf58dd8d48988d116941735","category":"Bar","checkinsCount":7875,"usersCount":3130,"tipCount":45,"visitsCount":8874,"url":"http://www.thedistillery.com","tier":2,"message":"Moderate","currency":"$","rating":7.4},{"name":"Dragonfly Tavern & Pizza Factory","phone":"5855636333","address":"725 Park Ave","lat":43.147498603585355,"lng":-77.57642425341712,"neighborhood":"East Avenue","city_fetched":"Rochester,US","state":"NY","country":"United States","canonicalUrl":"https://foursquare.com/v/dragonfly-tavern--pizza-factory/4b46b22ff964a520ee2626e3","categoryId":"4bf58dd8d48988d116941735","category":"Bar","checkinsCount":6365,"usersCount":1836,"tipCount":29,"visitsCount":6597,"url":"http://dragonflytavern.com","tier":"","message":"","currency":"","rating":7.4},{"name":"Ellisons Bar & Grill","phone":"5856549122","address":"2300 E Main St","lat":43.15923434443939,"lng":-77.54915953760646,"neighborhood":"Culver-Winton-Main","city_fetched":"Rochester,US","state":"NY","country":"United States","canonicalUrl":"https://foursquare.com/v/ellisons-bar--grill/4e6aa928227162c38e89c47c","categoryId":"4bf58dd8d48988d116941735","category":"Bar","checkinsCount":555,"usersCount":142,"tipCount":10,"visitsCount":622,"url":"http://ellisonsgrill.com","tier":"","message":"","currency":"","rating":7.4},{"name":"Johnny's Irish Pub","phone":"5852240990","address":"1382 Culver Rd","lat":43.17071343842989,"lng":-77.56019271413491,"neighborhood":"Culver-Winton-Main","city_fetched":"Rochester,US","state":"NY","country":"United States","canonicalUrl":"https://foursquare.com/v/johnnys-irish-pub/4b5a5eedf964a520afc028e3","categoryId":"4bf58dd8d48988d11b941735","category":"Pub","checkinsCount":2421,"usersCount":849,"tipCount":19,"visitsCount":2844,"url":"http://johnnysirishpub.com","tier":1,"message":"Cheap","currency":"$","rating":7.4},{"name":"MicGinny's Restaurant & Sports Pub","phone":"5852477770","twitter":"micginnyspub","address":"2246 E River Rd","lat":43.09825814187542,"lng":-77.67626398895398,"city_fetched":"Rochester,US","state":"NY","country":"United States","canonicalUrl":"https://foursquare.com/v/micginnys-restaurant--sports-pub/4b737497f964a52065af2de3","categoryId":"4bf58dd8d48988d116941735","category":"Bar","checkinsCount":2016,"usersCount":757,"tipCount":14,"visitsCount":2366,"url":"http://www.micginnys.com","tier":"","message":"","currency":"","rating":7.4},{"name":"585 Rockin Burger Bar","phone":"5852470079","address":"250 Pixley Rd","lat":43.14338219308563,"lng":-77.70856265903028,"city_fetched":"Rochester,US","state":"NY","country":"United States","canonicalUrl":"https://foursquare.com/v/585-rockin-burger-bar/50ad5913e4b0b5a4b107c71f","categoryId":"4bf58dd8d48988d116941735","category":"Bar","checkinsCount":542,"usersCount":367,"tipCount":14,"visitsCount":753,"url":"http://blurochester.com","tier":"","message":"","currency":"","rating":7.4},{"name":"Matthews East End Grill","phone":"5854544280","address":"200 East Ave","lat":43.156245,"lng":-77.5987321,"neighborhood":"Central Business District","city_fetched":"Rochester,US","state":"NY","country":"United States","canonicalUrl":"https://foursquare.com/v/matthews-east-end-grill/4b48fc43f964a520bf6026e3","categoryId":"4bf58dd8d48988d116941735","category":"Bar","checkinsCount":4570,"usersCount":1198,"tipCount":16,"visitsCount":4743,"url":"http://matthewseastendgrill.com","tier":"","message":"","currency":"","rating":7.3},{"name":"Mayfield's Pub","phone":"5852887199","address":"669 N Winton Rd","lat":43.158502,"lng":-77.548478,"neighborhood":"Browncroft","city_fetched":"Rochester,US","state":"NY","country":"United States","canonicalUrl":"https://foursquare.com/v/mayfields-pub/4c6beb4499b9236a2322e1c9","categoryId":"4bf58dd8d48988d11b941735","category":"Pub","checkinsCount":842,"usersCount":302,"tipCount":5,"visitsCount":876,"tier":"","message":"","currency":"","rating":7.3},{"name":"Scene On Main","twitter":"hyattconcierge","address":"125 E Main St","lat":43.15662289990076,"lng":-77.60870130133655,"neighborhood":"Central Business District","city_fetched":"Rochester,US","state":"NY","country":"United States","canonicalUrl":"https://foursquare.com/v/scene-on-main/4dd58609fa76ad96d0f64026","categoryId":"4bf58dd8d48988d116941735","category":"Bar","checkinsCount":665,"usersCount":191,"tipCount":5,"visitsCount":670,"url":"http://rochester.hyatt.com/hyatt/hotels/entertainment/restaurants/index.jsp#1920","tier":"","message":"","currency":"","rating":7.3},{"name":"Merchants Bar & Grill","phone":"5854822010","address":"881 Merchants Rd","lat":43.17015764,"lng":-77.559694647789,"neighborhood":"Culver-Winton-Main","city_fetched":"Rochester,US","state":"NY","country":"United States","canonicalUrl":"https://foursquare.com/v/merchants-bar--grill/4b6370d3f964a520127a2ae3","categoryId":"4bf58dd8d48988d116941735","category":"Bar","checkinsCount":1995,"usersCount":631,"tipCount":11,"visitsCount":2213,"tier":1,"message":"Cheap","currency":"$","rating":7.3},{"name":"The Bug Jar","phone":"5854542966","twitter":"bugjarrochester","address":"219 Monroe Ave","lat":43.1500594,"lng":-77.6000129,"city_fetched":"Rochester,US","state":"NY","country":"United States","canonicalUrl":"https://foursquare.com/v/the-bug-jar/4b427e33f964a520fcd425e3","categoryId":"4bf58dd8d48988d116941735","category":"Bar","checkinsCount":4162,"usersCount":1532,"tipCount":16,"visitsCount":4453,"url":"http://www.bugjar.com","tier":1,"message":"Cheap","currency":"$","rating":7.3},{"name":"The Bachelor Forum","phone":"5852716930","twitter":"bachelor4m","address":"670 University Ave","lat":43.15604695,"lng":-77.5847321,"neighborhood":"NOTA","city_fetched":"Rochester,US","state":"NY","country":"United States","canonicalUrl":"https://foursquare.com/v/the-bachelor-forum/4b80bc70f964a520398930e3","categoryId":"4bf58dd8d48988d1d8941735","category":"Gay Bar","checkinsCount":4582,"usersCount":655,"tipCount":9,"visitsCount":5221,"url":"http://www.bachelor4m.com","tier":1,"message":"Cheap","currency":"$","rating":7.2},{"name":"Hattie's","address":"550 East Ave","lat":43.15458334639901,"lng":-77.58972118652486,"neighborhood":"East Avenue","city_fetched":"Rochester,US","state":"NY","country":"United States","canonicalUrl":"https://foursquare.com/v/hatties/5595a6da498e224533703fb0","categoryId":"4bf58dd8d48988d116941735","category":"Bar","checkinsCount":107,"usersCount":85,"tipCount":2,"visitsCount":109,"tier":"","message":"","currency":"","rating":7.2},{"name":"Penfield Pour House","phone":"5852641665","address":"1665 Penfield Rd","lat":43.131862808423286,"lng":-77.49061149801695,"city_fetched":"Rochester,US","state":"NY","country":"United States","canonicalUrl":"https://foursquare.com/v/penfield-pour-house/5130111be4b0316000afc2b6","categoryId":"4bf58dd8d48988d116941735","category":"Bar","checkinsCount":805,"usersCount":419,"tipCount":10,"visitsCount":1095,"tier":2,"message":"Moderate","currency":"$","rating":7.2},{"name":"Zoo Brew","address":"2222 Saint Paul St","lat":43.20612125211283,"lng":-77.62353848157144,"city_fetched":"Rochester,US","state":"NY","country":"United States","canonicalUrl":"https://foursquare.com/v/zoo-brew/4de01f90ae605835c44b4108","categoryId":"4bf58dd8d48988d116941735","category":"Bar","checkinsCount":439,"usersCount":339,"tipCount":1,"visitsCount":481,"tier":"","message":"","currency":"","rating":7.2},{"name":"The Avenue Pub","phone":"5852444960","address":"522 Monroe Ave","lat":43.14612209971376,"lng":-77.59283253254631,"city_fetched":"Rochester,US","state":"NY","country":"United States","canonicalUrl":"https://foursquare.com/v/the-avenue-pub/4bb55d8d6edc76b0c0b12f1c","categoryId":"4bf58dd8d48988d1d8941735","category":"Gay Bar","checkinsCount":1514,"usersCount":373,"tipCount":11,"visitsCount":1651,"tier":"","message":"","currency":"","rating":7.2},{"name":"The Distillery","phone":"5856211620","address":"300 Paddy Creek Cir","lat":43.20587810796691,"lng":-77.67395458653048,"city_fetched":"Rochester,US","state":"NY","country":"United States","canonicalUrl":"https://foursquare.com/v/the-distillery/4b59ec04f964a52013a128e3","categoryId":"4bf58dd8d48988d116941735","category":"Bar","checkinsCount":7166,"usersCount":3100,"tipCount":44,"visitsCount":7954,"url":"http://www.thedistillery.com","tier":2,"message":"Moderate","currency":"$","rating":7.2},{"name":"Overtime Bar And Grill","phone":"5858652490","twitter":"foodio54","address":"4670 Dewey Ave","lat":43.26343206816066,"lng":-77.64627160030687,"city_fetched":"Rochester,US","state":"NY","country":"United States","canonicalUrl":"https://foursquare.com/v/overtime-bar-and-grill/4b9c3ff4f964a520ee5836e3","categoryId":"4bf58dd8d48988d116941735","category":"Bar","checkinsCount":403,"usersCount":179,"tipCount":7,"visitsCount":427,"url":"http://www.theovertimegrill.com","tier":"","message":"","currency":"","rating":7.1},{"name":"Dicky's","phone":"5857308310","address":"791 Meigs St","lat":43.13916380797746,"lng":-77.59991668043808,"city_fetched":"Rochester,US","state":"NY","country":"United States","canonicalUrl":"https://foursquare.com/v/dickys/4b514887f964a520b84927e3","categoryId":"4bf58dd8d48988d118941735","category":"Dive Bar","checkinsCount":1737,"usersCount":623,"tipCount":23,"visitsCount":2016,"tier":1,"message":"Cheap","currency":"$","rating":7.1},{"name":"Main Place Tavern","phone":"5852889845","address":"1899 E Main St","lat":43.15963822217124,"lng":-77.56027107887633,"neighborhood":"Culver-Winton-Main","city_fetched":"Rochester,US","state":"NY","country":"United States","canonicalUrl":"https://foursquare.com/v/main-place-tavern/4be8ae149a54a593b9520a11","categoryId":"4bf58dd8d48988d116941735","category":"Bar","checkinsCount":1811,"usersCount":113,"tipCount":3,"visitsCount":1937,"tier":"","message":"","currency":"","rating":7.1},{"name":"Elmwood Inn","phone":"5852715195","address":"1256 Mount Hope Ave","lat":43.125496,"lng":-77.61674973333334,"city_fetched":"Rochester,US","state":"NY","country":"United States","canonicalUrl":"https://foursquare.com/v/elmwood-inn/4b6f20cff964a520edde2ce3","categoryId":"4bf58dd8d48988d116941735","category":"Bar","checkinsCount":1817,"usersCount":917,"tipCount":13,"visitsCount":2218,"url":"http://www.elmwoodinn.net","tier":2,"message":"Moderate","currency":"$","rating":7.1},{"name":"Timothy Patrick's Irish Restaurant","phone":"5853854160","address":"916 Panorama Trl S","lat":43.12604946069724,"lng":-77.49084113491811,"city_fetched":"Rochester,US","state":"NY","country":"United States","canonicalUrl":"https://foursquare.com/v/timothy-patricks-irish-restaurant/4b8c4fc3f964a520efc932e3","categoryId":"4bf58dd8d48988d11b941735","category":"Pub","checkinsCount":1089,"usersCount":657,"tipCount":11,"visitsCount":1352,"url":"http://tpsirishpub.com","tier":"","message":"","currency":"","rating":7.1},{"name":"Romig's Tavern","phone":"5856631518","address":"18 Bennington Dr","lat":43.21471195371389,"lng":-77.63950645923615,"city_fetched":"Rochester,US","state":"NY","country":"United States","canonicalUrl":"https://foursquare.com/v/romigs-tavern/4c0bdf3b6071a59390e0e132","categoryId":"4bf58dd8d48988d116941735","category":"Bar","checkinsCount":2231,"usersCount":414,"tipCount":11,"visitsCount":2420,"url":"http://rocwiki.org/Romigs_Tavern","tier":"","message":"","currency":"","rating":7.1},{"name":"Nox Cocktail Lounge","phone":"5854718803","address":"302 Goodman St N","lat":43.15895160269684,"lng":-77.58455593909859,"neighborhood":"NOTA","city_fetched":"Rochester,US","state":"NY","country":"United States","canonicalUrl":"https://foursquare.com/v/nox-cocktail-lounge/54a4ca76498e347458eb091c","categoryId":"4bf58dd8d48988d11e941735","category":"Cocktail Bar","checkinsCount":297,"usersCount":179,"tipCount":5,"visitsCount":314,"url":"http://www.noxcocktail.com","tier":"","message":"","currency":"","rating":7.1},{"name":"Flour City Station (former Milestones Site)","twitter":"thestationroc","address":"170 East Ave","lat":43.15656499222411,"lng":-77.59964249973135,"neighborhood":"Central Business District","city_fetched":"Rochester,US","state":"NY","country":"United States","canonicalUrl":"https://foursquare.com/v/flour-city-station-former-milestones-site/53706912498ec1d711c0eeb4","categoryId":"4bf58dd8d48988d116941735","category":"Bar","checkinsCount":284,"usersCount":116,"tipCount":3,"visitsCount":312,"url":"http://www.flourcitystation.com","tier":"","message":"","currency":"","rating":7.1},{"name":"Panorama Night Club & Sports Bar","phone":"5852472190","address":"730 Elmgrove Rd","lat":43.1634010074081,"lng":-77.73196220397949,"city_fetched":"Rochester,US","state":"NY","country":"United States","canonicalUrl":"https://foursquare.com/v/panorama-night-club--sports-bar/4bee12e6e24d20a1c4857214","categoryId":"4bf58dd8d48988d116941735","category":"Bar","checkinsCount":829,"usersCount":328,"tipCount":5,"visitsCount":891,"url":"http://panorama-lounge.com.ua","tier":"","message":"","currency":"","rating":7},{"name":"Magpie Irish Pub","phone":"5852714150","address":"653 Park Ave","lat":43.148202,"lng":-77.578191,"neighborhood":"East Avenue","city_fetched":"Rochester,US","state":"NY","country":"United States","canonicalUrl":"https://foursquare.com/v/magpie-irish-pub/4b4fe770f964a520271927e3","categoryId":"4bf58dd8d48988d11b941735","category":"Pub","checkinsCount":3830,"usersCount":1325,"tipCount":15,"visitsCount":3873,"tier":2,"message":"Moderate","currency":"$","rating":7},{"name":"Otter Lodge Bar","phone":"5854428790","twitter":"otter_lodge","address":"1776 Monroe Ave","lat":43.129149404296996,"lng":-77.5670886039762,"city_fetched":"Rochester,US","state":"NY","country":"United States","canonicalUrl":"https://foursquare.com/v/otter-lodge-bar/4b7f1bc2f964a520131730e3","categoryId":"4bf58dd8d48988d116941735","category":"Bar","checkinsCount":3403,"usersCount":892,"tipCount":19,"visitsCount":3753,"url":"http://www.otter-lodge.com","tier":2,"message":"Moderate","currency":"$","rating":6.9},{"name":"Carroll's","phone":"5852889631","twitter":"carrollsflorist","address":"1768 E Main St","lat":43.16003783113787,"lng":-77.56388157606125,"neighborhood":"Culver-Winton-Main","city_fetched":"Rochester,US","state":"NY","country":"United States","canonicalUrl":"https://foursquare.com/v/carrolls/4be8a834ee96c928a768febf","categoryId":"4bf58dd8d48988d11b941735","category":"Pub","checkinsCount":633,"usersCount":190,"tipCount":4,"visitsCount":663,"tier":"","message":"","currency":"","rating":6.8},{"name":"Monty's Krown","phone":"5852717050","address":"875 Monroe Ave","lat":43.141733050973684,"lng":-77.58531143423092,"neighborhood":"Upper Monroe","city_fetched":"Rochester,US","state":"NY","country":"United States","canonicalUrl":"https://foursquare.com/v/montys-krown/4b73f5aef964a520b2c12de3","categoryId":"4bf58dd8d48988d116941735","category":"Bar","checkinsCount":1744,"usersCount":510,"tipCount":8,"visitsCount":1843,"tier":"","message":"","currency":"","rating":6.8},{"name":"Tilt Nightclub","phone":"5852328440","address":"444 Central Ave","lat":43.16294519337227,"lng":-77.60519313035043,"neighborhood":"Upper Falls","city_fetched":"Rochester,US","state":"NY","country":"United States","canonicalUrl":"https://foursquare.com/v/tilt-nightclub/4b7d740ef964a52056bf2fe3","categoryId":"4bf58dd8d48988d1d8941735","category":"Gay Bar","checkinsCount":5424,"usersCount":1372,"tipCount":21,"visitsCount":5858,"url":"http://www.tiltroc.com","tier":"","message":"","currency":"","rating":6.8},{"name":"MacGregor's Grill & Tap Room","phone":"5852888630","twitter":"macgregorsgtr","address":"1129 Empire Blvd","lat":43.17557869287539,"lng":-77.52437996462187,"city_fetched":"Rochester,US","state":"NY","country":"United States","canonicalUrl":"https://foursquare.com/v/macgregors-grill--tap-room/4b64c096f964a52050cd2ae3","categoryId":"4bf58dd8d48988d116941735","category":"Bar","checkinsCount":2818,"usersCount":1396,"tipCount":19,"visitsCount":3386,"url":"http://www.macgregorsgtr.com","tier":"","message":"","currency":"","rating":6.8},{"name":"Murphy's Law","phone":"5856979001","address":"370 East Ave","lat":43.155081,"lng":-77.59456578333334,"neighborhood":"East Avenue","city_fetched":"Rochester,US","state":"NY","country":"United States","canonicalUrl":"https://foursquare.com/v/murphys-law/4b1c0a5cf964a5201f0124e3","categoryId":"4bf58dd8d48988d116941735","category":"Bar","checkinsCount":10657,"usersCount":3582,"tipCount":36,"visitsCount":11166,"url":"http://www.murphyslawrochester.com","tier":2,"message":"Moderate","currency":"$","rating":6.7},{"name":"Dr's Inn Grill & Tap Room","phone":"5852710820","address":"1743 East Ave","lat":43.145802508763786,"lng":-77.55803206493016,"neighborhood":"East Avenue","city_fetched":"Rochester,US","state":"NY","country":"United States","canonicalUrl":"https://foursquare.com/v/drs-inn-grill--tap-room/4b75d6c2f964a52079282ee3","categoryId":"4bf58dd8d48988d116941735","category":"Bar","checkinsCount":3941,"usersCount":610,"tipCount":17,"visitsCount":4118,"url":"http://drsinnbarandgrill.com","tier":"","message":"","currency":"","rating":6.7},{"name":"Joey's","phone":"5853259223","address":"561 E Main St","lat":43.159246893773975,"lng":-77.59726996946655,"neighborhood":"Central Business District","city_fetched":"Rochester,US","state":"NY","country":"United States","canonicalUrl":"https://foursquare.com/v/joeys/4bf1f2fb78cec928a70abb86","categoryId":"4bf58dd8d48988d116941735","category":"Bar","checkinsCount":573,"usersCount":160,"tipCount":3,"visitsCount":629,"tier":"","message":"","currency":"","rating":6.7},{"name":"McGinnity's Restaurant & Party House","phone":"5856635810","address":"534 W Ridge Rd","lat":43.20163701916273,"lng":-77.64110505580902,"city_fetched":"Rochester,US","state":"NY","country":"United States","canonicalUrl":"https://foursquare.com/v/mcginnitys-restaurant--party-house/4b8b4a5df964a5200c9b32e3","categoryId":"4bf58dd8d48988d11b941735","category":"Pub","checkinsCount":1413,"usersCount":303,"tipCount":3,"visitsCount":1542,"tier":"","message":"","currency":"","rating":6.7},{"name":"Norton's Pub","phone":"5852663570","address":"1730 Goodman St N","lat":43.18706598539119,"lng":-77.57601569494203,"city_fetched":"Rochester,US","state":"NY","country":"United States","canonicalUrl":"https://foursquare.com/v/nortons-pub/4c4a46be46240f4752c392f1","categoryId":"4bf58dd8d48988d11b941735","category":"Pub","checkinsCount":590,"usersCount":214,"tipCount":6,"visitsCount":640,"tier":"","message":"","currency":"","rating":6.7},{"name":"Pineapple Jack's","phone":"5852475225","address":"507 Spencerport Rd","lat":43.169079231717944,"lng":-77.70462716083414,"city_fetched":"Rochester,US","state":"NY","country":"United States","canonicalUrl":"https://foursquare.com/v/pineapple-jacks/4bbf9ac2f8219c746f45b010","categoryId":"4bf58dd8d48988d116941735","category":"Bar","checkinsCount":1464,"usersCount":703,"tipCount":11,"visitsCount":1608,"tier":"","message":"","currency":"","rating":6.6},{"name":"Jeremiah's Tavern","phone":"5852470022","twitter":"jeremiahstav","address":"2200 Buffalo Rd","lat":43.14762988154887,"lng":-77.71030675581322,"city_fetched":"Rochester,US","state":"NY","country":"United States","canonicalUrl":"https://foursquare.com/v/jeremiahs-tavern/4fd517e0e4b0b3abb40742bb","categoryId":"4bf58dd8d48988d116941735","category":"Bar","checkinsCount":2169,"usersCount":1000,"tipCount":18,"visitsCount":2548,"url":"http://jeremiahstavern.com","tier":2,"message":"Moderate","currency":"$","rating":6.5},{"name":"J.D. Oxford's","phone":"5852560580","twitter":"jd_oxfords","address":"636 Monroe Ave","lat":43.14478885936018,"lng":-77.5906277386379,"city_fetched":"Rochester,US","state":"NY","country":"United States","canonicalUrl":"https://foursquare.com/v/jd-oxfords/4b4c1459f964a52008ae26e3","categoryId":"4bf58dd8d48988d116941735","category":"Bar","checkinsCount":7116,"usersCount":1662,"tipCount":20,"visitsCount":7437,"url":"http://www.jdoxfords.com","tier":1,"message":"Cheap","currency":"$","rating":6.5},{"name":"Titus Tavern","address":"690 Titus Ave","lat":43.21097072073528,"lng":-77.59809812248965,"city_fetched":"Rochester,US","state":"NY","country":"United States","canonicalUrl":"https://foursquare.com/v/titus-tavern/50eddb7ee4b0f8e95b490d39","categoryId":"4bf58dd8d48988d11b941735","category":"Pub","checkinsCount":1545,"usersCount":400,"tipCount":11,"visitsCount":1863,"url":"http://titustavern.com","tier":"","message":"","currency":"","rating":6.5},{"name":"Enright's Thirst Parlor","phone":"5852710170","address":"582 Monroe Ave","lat":43.145644,"lng":-77.591878,"city_fetched":"Rochester,US","state":"NY","country":"United States","canonicalUrl":"https://foursquare.com/v/enrights-thirst-parlor/4b5a8254f964a520e0c828e3","categoryId":"4bf58dd8d48988d118941735","category":"Dive Bar","checkinsCount":2245,"usersCount":626,"tipCount":5,"visitsCount":2366,"tier":1,"message":"Cheap","currency":"$","rating":6.5},{"name":"Temple Bar & Grille","phone":"5852326000","twitter":"templebarroc","address":"109 East Ave","lat":43.156879,"lng":-77.601288,"neighborhood":"Central Business District","city_fetched":"Rochester,US","state":"NY","country":"United States","canonicalUrl":"https://foursquare.com/v/temple-bar--grille/4b4ca5ccf964a520c6b826e3","categoryId":"4bf58dd8d48988d116941735","category":"Bar","checkinsCount":4041,"usersCount":1085,"tipCount":27,"visitsCount":4084,"url":"http://www.templebarandgrille.com","tier":1,"message":"Cheap","currency":"$","rating":6.5},{"name":"The Park Bench","phone":"5852443267","address":"439 Monroe Ave","lat":43.14739685690089,"lng":-77.59523873058038,"city_fetched":"Rochester,US","state":"NY","country":"United States","canonicalUrl":"https://foursquare.com/v/the-park-bench/4b5a7badf964a520b8c728e3","categoryId":"4bf58dd8d48988d11b941735","category":"Pub","checkinsCount":2024,"usersCount":638,"tipCount":11,"visitsCount":2091,"tier":"","message":"","currency":"","rating":6.4},{"name":"Brickwood Grill","phone":"5855466900","twitter":"brickwoodgrill","address":"250 Monroe Ave","lat":43.14988524595119,"lng":-77.59914449633548,"city_fetched":"Rochester,US","state":"NY","country":"United States","canonicalUrl":"https://foursquare.com/v/brickwood-grill/4bb7ee51cf2fc9b61e0a9f02","categoryId":"4bf58dd8d48988d116941735","category":"Bar","checkinsCount":6565,"usersCount":1643,"tipCount":22,"visitsCount":7380,"url":"http://www.brickwoodgrill.com","tier":1,"message":"Cheap","currency":"$","rating":6.4},{"name":"The Scotch House Pub","phone":"5852562811","address":"373 S Goodman St","lat":43.14607779077192,"lng":-77.5923736703558,"city_fetched":"Rochester,US","state":"NY","country":"United States","canonicalUrl":"https://foursquare.com/v/the-scotch-house-pub/52a3ef7311d282bbea9fe8fd","categoryId":"4bf58dd8d48988d116941735","category":"Bar","checkinsCount":828,"usersCount":304,"tipCount":4,"visitsCount":1050,"tier":"","message":"","currency":"","rating":6.4},{"name":"The Landing Strip","phone":"5852359856","address":"1280 Scottsville Rd","lat":43.11646034357908,"lng":-77.66048864690585,"city_fetched":"Rochester,US","state":"NY","country":"United States","canonicalUrl":"https://foursquare.com/v/the-landing-strip/4b7e17baf964a52079e22fe3","categoryId":"4bf58dd8d48988d118941735","category":"Dive Bar","checkinsCount":746,"usersCount":230,"tipCount":6,"visitsCount":790,"tier":1,"message":"Cheap","currency":"$","rating":6.4},{"name":"Vertex","phone":"5852325498","address":"169 N Chestnut St","lat":43.16067018043678,"lng":-77.60338584815246,"neighborhood":"Central Business District","city_fetched":"Rochester,US","state":"NY","country":"United States","canonicalUrl":"https://foursquare.com/v/vertex/4bb0b6a6f964a520ec563ce3","categoryId":"4bf58dd8d48988d11a941735","category":"Other Nightlife","checkinsCount":1291,"usersCount":345,"tipCount":4,"visitsCount":1437,"tier":"","message":"","currency":"","rating":6.3},{"name":"45 Euclid","phone":"5852225683","twitter":"45euclid","address":"45 Euclid St","lat":43.15662635082589,"lng":-77.6035928757554,"neighborhood":"Central Business District","city_fetched":"Rochester,US","state":"NY","country":"United States","canonicalUrl":"https://foursquare.com/v/45-euclid/5257621711d266495c2747e3","categoryId":"4bf58dd8d48988d11f941735","category":"Nightclub","checkinsCount":196,"usersCount":109,"tipCount":4,"visitsCount":235,"url":"http://www.45euclid.com","tier":2,"message":"Moderate","currency":"$","rating":6.3},{"name":"Knuckles Knockout Grill","phone":"5858894920","address":"25 Old Scottsville Chili Rd","lat":43.1018289062287,"lng":-77.75432109832764,"city_fetched":"Rochester,US","state":"NY","country":"United States","canonicalUrl":"https://foursquare.com/v/knuckles-knockout-grill/4b8336e4f964a520bcfd30e3","categoryId":"4bf58dd8d48988d11d941735","category":"Sports Bar","checkinsCount":3313,"usersCount":554,"tipCount":10,"visitsCount":3705,"tier":2,"message":"Moderate","currency":"$","rating":6.3},{"name":"Publick House","phone":"5852717925","address":"729 Park Ave","lat":43.14735708287192,"lng":-77.57631791642177,"neighborhood":"East Avenue","city_fetched":"Rochester,US","state":"NY","country":"United States","canonicalUrl":"https://foursquare.com/v/publick-house/501c95b1e4b0db1da5b52642","categoryId":"4bf58dd8d48988d116941735","category":"Bar","checkinsCount":860,"usersCount":288,"tipCount":0,"visitsCount":895,"tier":"","message":"","currency":"","rating":6.3},{"name":"Pearl Night Club","phone":"5853255660","address":"349 East Ave","lat":43.15507392210012,"lng":-77.59513735771178,"neighborhood":"East Avenue","city_fetched":"Rochester,US","state":"NY","country":"United States","canonicalUrl":"https://foursquare.com/v/pearl-night-club/4b51fa8ef964a520da5e27e3","categoryId":"4bf58dd8d48988d11f941735","category":"Nightclub","checkinsCount":3265,"usersCount":957,"tipCount":13,"visitsCount":3279,"tier":"","message":"","currency":"","rating":6.2},{"name":"Thirsty Frog Pub & Grill","phone":"5857305285","address":"511 E Ridge Rd","lat":43.19520901214512,"lng":-77.60489098611696,"city_fetched":"Rochester,US","state":"NY","country":"United States","canonicalUrl":"https://foursquare.com/v/thirsty-frog-pub--grill/50ad5847e4b0651a4730806d","categoryId":"4bf58dd8d48988d116941735","category":"Bar","checkinsCount":342,"usersCount":108,"tipCount":9,"visitsCount":362,"url":"http://1thirstyfrog.com","tier":"","message":"","currency":"","rating":6.2},{"name":"Taylor's Niteclub","phone":"5853813000","address":"3300 Monroe Ave","lat":43.10435614879937,"lng":-77.53741986642784,"city_fetched":"Rochester,US","state":"NY","country":"United States","canonicalUrl":"https://foursquare.com/v/taylors-niteclub/4b5a8274f964a520e5c828e3","categoryId":"4bf58dd8d48988d11f941735","category":"Nightclub","checkinsCount":573,"usersCount":457,"tipCount":3,"visitsCount":612,"url":"http://www.taylorsniteclub.com","tier":"","message":"","currency":"","rating":6.2},{"name":"Tilted Kilt Pub & Eatery","phone":"5854245458","twitter":"tiltedkiltpub","address":"1175 Jefferson Rd","lat":43.08659982769433,"lng":-77.60201498011166,"city_fetched":"Rochester,US","state":"NY","country":"United States","canonicalUrl":"https://foursquare.com/v/tilted-kilt-pub--eatery/54dc0d30498e70bf7d941c66","categoryId":"4bf58dd8d48988d11d941735","category":"Sports Bar","checkinsCount":229,"usersCount":214,"tipCount":2,"visitsCount":335,"url":"http://www.tiltedkilt.com","tier":"","message":"","currency":"","rating":6.2},{"name":"Bathtub Billy's","phone":"5858656510","twitter":"bathtubbillys","address":"630 W Ridge Rd","lat":43.20317664867899,"lng":-77.64341902535375,"city_fetched":"Rochester,US","state":"NY","country":"United States","canonicalUrl":"https://foursquare.com/v/bathtub-billys/4bef061696edc9b65e304af2","categoryId":"4bf58dd8d48988d11d941735","category":"Sports Bar","checkinsCount":650,"usersCount":375,"tipCount":7,"visitsCount":757,"tier":"","message":"","currency":"","rating":6.1},{"name":"Remington's Restaurant","phone":"5854824434","address":"425 Merchants Rd","lat":43.16218576995599,"lng":-77.55289336078565,"neighborhood":"Culver-Winton-Main","city_fetched":"Rochester,US","state":"NY","country":"United States","canonicalUrl":"https://foursquare.com/v/remingtons-restaurant/4bbfceae74a9a593a12ecff6","categoryId":"4bf58dd8d48988d116941735","category":"Bar","checkinsCount":399,"usersCount":208,"tipCount":7,"visitsCount":453,"url":"http://remingtonsrestaurant.biz","tier":"","message":"","currency":"","rating":6.1},{"name":"Rehab Lounge","phone":"5854429165","address":"510 Monroe Ave","lat":43.146296737945136,"lng":-77.59325781778975,"city_fetched":"Rochester,US","state":"NY","country":"United States","canonicalUrl":"https://foursquare.com/v/rehab-lounge/4c7414693adda1432b9d03af","categoryId":"4bf58dd8d48988d122941735","category":"Whisky Bar","checkinsCount":2210,"usersCount":537,"tipCount":7,"visitsCount":2268,"tier":"","message":"","currency":"","rating":6.1},{"name":"Barrel of Dolls","phone":"5852705387","address":"173 Anderson Ave","lat":43.157294971291684,"lng":-77.58086793112399,"neighborhood":"NOTA","city_fetched":"Rochester,US","state":"NY","country":"United States","canonicalUrl":"https://foursquare.com/v/barrel-of-dolls/4bff46a64e5d0f4725f87d1f","categoryId":"4bf58dd8d48988d1d6941735","category":"Strip Club","checkinsCount":3046,"usersCount":431,"tipCount":14,"visitsCount":3274,"url":"http://toplessrochester.com","tier":"","message":"","currency":"","rating":6},{"name":"Boulevard Grill","phone":"5852888123","address":"412 Empire Blvd","lat":43.176915110282216,"lng":-77.54562712706549,"city_fetched":"Rochester,US","state":"NY","country":"United States","canonicalUrl":"https://foursquare.com/v/boulevard-grill/4b7869a9f964a52054cc2ee3","categoryId":"4bf58dd8d48988d116941735","category":"Bar","checkinsCount":820,"usersCount":346,"tipCount":10,"visitsCount":870,"tier":"","message":"","currency":"","rating":6},{"name":"McKenzie's Irish Pub","phone":"5853348970","address":"3685 W Henrietta Rd","lat":43.08076508055325,"lng":-77.64078452409422,"city_fetched":"Rochester,US","state":"NY","country":"United States","canonicalUrl":"https://foursquare.com/v/mckenzies-irish-pub/4b7e187ff964a52094e22fe3","categoryId":"4bf58dd8d48988d11b941735","category":"Pub","checkinsCount":2078,"usersCount":619,"tipCount":12,"visitsCount":2261,"url":"http://www.mckenziesirishpub.com","tier":2,"message":"Moderate","currency":"$","rating":5.9},{"name":"The Captain's Attic","phone":"5855468885","twitter":"captains_attic","address":"37 Charlotte St","lat":43.157827,"lng":-77.598326,"neighborhood":"Central Business District","city_fetched":"Rochester,US","state":"NY","country":"United States","canonicalUrl":"https://foursquare.com/v/the-captains-attic/515ef468e4b0e3171877ad5a","categoryId":"4bf58dd8d48988d116941735","category":"Bar","checkinsCount":231,"usersCount":120,"tipCount":7,"visitsCount":235,"url":"http://www.captainsattic.com","tier":"","message":"","currency":"","rating":5.9},{"name":"California Brew Haus","phone":"5856211480","address":"402 W Ridge Rd","lat":43.20023365320095,"lng":-77.63750109948354,"city_fetched":"Rochester,US","state":"NY","country":"United States","canonicalUrl":"https://foursquare.com/v/california-brew-haus/4b6cf100f964a520355f2ce3","categoryId":"4bf58dd8d48988d116941735","category":"Bar","checkinsCount":730,"usersCount":350,"tipCount":2,"visitsCount":775,"tier":"","message":"","currency":"","rating":5.9},{"name":"MacGregor's Grill & Tap Room","phone":"5854133744","twitter":"macgregorsgtr","address":"355-359 East Ave","lat":43.15507379846329,"lng":-77.59483583587914,"neighborhood":"East Avenue","city_fetched":"Rochester,US","state":"NY","country":"United States","canonicalUrl":"https://foursquare.com/v/macgregors-grill--tap-room/4fdf9fd0e4b0ffd816e51c05","categoryId":"4bf58dd8d48988d116941735","category":"Bar","checkinsCount":2798,"usersCount":1237,"tipCount":13,"visitsCount":2874,"url":"http://www.macgregorsgtr.com","tier":2,"message":"Moderate","currency":"$","rating":5.8},{"name":"Noonans Bar & Grill","phone":"5858657460","address":"3170 Lake Ave","lat":43.22748409120811,"lng":-77.62622818350792,"neighborhood":"Charlotte","city_fetched":"Rochester,US","state":"NY","country":"United States","canonicalUrl":"https://foursquare.com/v/noonans-bar--grill/4b74e649f964a52059f72de3","categoryId":"4bf58dd8d48988d116941735","category":"Bar","checkinsCount":4976,"usersCount":291,"tipCount":11,"visitsCount":5201,"tier":1,"message":"Cheap","currency":"$","rating":5.8},{"name":"The Blue Zone","address":"Concourse A","lat":43.126684325,"lng":-77.666527,"city_fetched":"Rochester,US","state":"NY","country":"United States","canonicalUrl":"https://foursquare.com/v/the-blue-zone/4debae12c65be8091dc5ce25","categoryId":"4bf58dd8d48988d11d941735","category":"Sports Bar","checkinsCount":354,"usersCount":292,"tipCount":3,"visitsCount":358,"tier":"","message":"","currency":"","rating":5.6},{"name":"TC Hooligans","phone":"5852257180","address":"134 Greece Ridge Center Dr","lat":43.20645833646614,"lng":-77.68737316131592,"city_fetched":"Rochester,US","state":"NY","country":"United States","canonicalUrl":"https://foursquare.com/v/tc-hooligans/4b846176f964a520003231e3","categoryId":"4bf58dd8d48988d116941735","category":"Bar","checkinsCount":3172,"usersCount":1092,"tipCount":29,"visitsCount":3247,"url":"http://www.tchooligans.com","tier":1,"message":"Cheap","currency":"$","rating":5.5},{"name":"One Restaurant and Lounge","phone":"5855461010","twitter":"1restaurant","address":"1 Ryan Aly","lat":43.15460993017921,"lng":-77.59533385828612,"neighborhood":"East Avenue","city_fetched":"Rochester,US","state":"NY","country":"United States","canonicalUrl":"https://foursquare.com/v/one-restaurant-and-lounge/4b5b3720f964a520d0eb28e3","categoryId":"4bf58dd8d48988d121941735","category":"Lounge","checkinsCount":4136,"usersCount":1461,"tipCount":27,"visitsCount":4156,"url":"http://www.oneryan.com","tier":"","message":"","currency":"","rating":5.4},{"name":"Vinyl","phone":"5852623820","twitter":"vinyl_nightclub","address":"291 Alexander St","lat":43.153987640233915,"lng":-77.59526111357717,"neighborhood":"East Avenue","city_fetched":"Rochester,US","state":"NY","country":"United States","canonicalUrl":"https://foursquare.com/v/vinyl/4bb7bfa53db7b713077f209a","categoryId":"4bf58dd8d48988d11f941735","category":"Nightclub","checkinsCount":2508,"usersCount":1179,"tipCount":11,"visitsCount":2529,"tier":"","message":"","currency":"","rating":5.4},{"name":"Filgers East End","address":"355 East Ave","lat":43.15510950184348,"lng":-77.59471832465378,"neighborhood":"East Avenue","city_fetched":"Rochester,US","state":"NY","country":"United States","canonicalUrl":"https://foursquare.com/v/filgers-east-end/5528492c498e0ad634ffdfd7","categoryId":"4bf58dd8d48988d116941735","category":"Bar","checkinsCount":95,"usersCount":66,"tipCount":2,"visitsCount":95,"tier":"","message":"","currency":"","rating":5.2},{"name":"Wall Street Bar and Grill","phone":"5853195696","twitter":"wallst585","address":"330 East Ave","lat":43.15539727653354,"lng":-77.59546256034868,"neighborhood":"East Avenue","city_fetched":"Rochester,US","state":"NY","country":"United States","canonicalUrl":"https://foursquare.com/v/wall-street-bar-and-grill/4f64a35ae4b0c7552cf336d5","categoryId":"4bf58dd8d48988d116941735","category":"Bar","checkinsCount":1622,"usersCount":748,"tipCount":11,"visitsCount":1720,"url":"http://wallstreetrochester.com","tier":"","message":"","currency":"","rating":5.2},{"name":"Prepps","phone":"5852034085","address":"655 Monroe Ave","lat":43.14456281097914,"lng":-77.59027519145843,"city_fetched":"Rochester,US","state":"NY","country":"United States","canonicalUrl":"https://foursquare.com/v/prepps/4b68accef964a52076862be3","categoryId":"4bf58dd8d48988d116941735","category":"Bar","checkinsCount":2304,"usersCount":875,"tipCount":19,"visitsCount":2325,"tier":1,"message":"Cheap","currency":"$","rating":5},{"name":"Legends Bar & Grille","phone":"5852329174","address":"120 E Main St","lat":43.15655038592001,"lng":-77.61004970802695,"neighborhood":"Central Business District","city_fetched":"Rochester,US","state":"NY","country":"United States","canonicalUrl":"https://foursquare.com/v/legends-bar--grille/4b9bde96f964a520722f36e3","categoryId":"4bf58dd8d48988d1d5941735","category":"Hotel Bar","checkinsCount":1355,"usersCount":774,"tipCount":21,"visitsCount":1372,"url":"http://www.legendsrochester.com","tier":2,"message":"Moderate","currency":"$","rating":4.9},{"name":"TC Riley's","phone":"5854247180","twitter":"tcrileys","address":"200 Park Point Dr","lat":43.09131461976924,"lng":-77.65618792884658,"city_fetched":"Rochester,US","state":"NY","country":"United States","canonicalUrl":"https://foursquare.com/tcrileys","categoryId":"4bf58dd8d48988d116941735","category":"Bar","checkinsCount":4208,"usersCount":1401,"tipCount":30,"visitsCount":4262,"url":"http://www.tcrileysparkpoint.com","tier":2,"message":"Moderate","currency":"$","rating":4.9},{"name":"Nathaniel's Pub","phone":"5852328470","address":"251 Exchange Blvd","lat":43.15009350038575,"lng":-77.61154356714032,"neighborhood":"Corn Hill","city_fetched":"Rochester,US","state":"NY","country":"United States","canonicalUrl":"https://foursquare.com/v/nathaniels-pub/4baecec9f964a520c3d93be3","categoryId":"4bf58dd8d48988d116941735","category":"Bar","checkinsCount":1813,"usersCount":1023,"tipCount":24,"visitsCount":1837,"url":"http://www.nathanielspub.com","tier":2,"message":"Moderate","currency":"$","rating":4.8},{"name":"Genesee Pub & Alehouse","address":"Concourse B","lat":43.126713,"lng":-77.663944,"city_fetched":"Rochester,US","state":"NY","country":"United States","canonicalUrl":"https://foursquare.com/v/genesee-pub--alehouse/4de107ed8877aab7fe589d6a","categoryId":"4bf58dd8d48988d116941735","category":"Bar","checkinsCount":600,"usersCount":478,"tipCount":15,"visitsCount":601,"tier":"","message":"","currency":"","rating":4.7}]