[{"name":"Westridge Grill","phone":"2529377299","twitter":"westridgegrill","address":"3639 Sunset Ave","lat":35.96281849983543,"lng":-77.85061094617281,"city_fetched":"Rocky Mount,US","state":"NC","country":"United States","canonicalUrl":"https://foursquare.com/westridgegrill","categoryId":"4bf58dd8d48988d11b941735","category":"Pub","checkinsCount":1742,"usersCount":381,"tipCount":15,"visitsCount":1887,"tier":1,"message":"Cheap","currency":"$","rating":8.4},{"name":"Koi Pond Brewery","lat":35.95795471611423,"lng":-77.80158201859814,"city_fetched":"Rocky Mount,US","state":"NC","country":"United States","canonicalUrl":"https://foursquare.com/v/koi-pond-brewery/56460f66498e7e9f4b824f6f","categoryId":"50327c8591d4c4b30a586d5d","category":"Brewery","checkinsCount":72,"usersCount":78,"tipCount":1,"visitsCount":166,"tier":"","message":"","currency":"","rating":8.3},{"name":"Gators Rocky Mount","phone":"2522125100","twitter":"gatorsrm","address":"1171 Jeffreys Rd","lat":35.977485245287944,"lng":-77.80410289764404,"city_fetched":"Rocky Mount,US","state":"NC","country":"United States","canonicalUrl":"https://foursquare.com/v/gators-rocky-mount/4be6203d910020a1ca07d414","categoryId":"4bf58dd8d48988d11d941735","category":"Sports Bar","checkinsCount":1074,"usersCount":157,"tipCount":7,"visitsCount":1174,"tier":"","message":"","currency":"","rating":7.7},{"name":"Sharks n Shooters","address":"Sunset","lat":35.97021848163096,"lng":-77.88646970232772,"city_fetched":"Rocky Mount,US","state":"NC","country":"United States","canonicalUrl":"https://foursquare.com/v/sharks-n-shooters/4b7362fcf964a520eeab2de3","categoryId":"4bf58dd8d48988d116941735","category":"Bar","checkinsCount":1134,"usersCount":181,"tipCount":4,"visitsCount":1216,"tier":"","message":"","currency":"","rating":6.8},{"name":"Professor O'Cools","phone":"2522914242","address":"2801-3 Ward Blvd","lat":35.755542512410145,"lng":-77.92804082851994,"neighborhood":"Brentwood Center","city_fetched":"Rocky Mount,US","state":"NC","country":"United States","canonicalUrl":"https://foursquare.com/v/professor-ocools/4cbc5721a33bb1f7c02899fd","categoryId":"4bf58dd8d48988d116941735","category":"Bar","checkinsCount":963,"usersCount":302,"tipCount":11,"visitsCount":1203,"tier":"","message":"","currency":"","rating":6.3}]