[{"name":"Prairie Street Brewhouse","phone":"8152779427","twitter":"psbrewhouse","address":"200 Prairie St","lat":42.273145901613674,"lng":-89.08747207256721,"neighborhood":"River District","city_fetched":"Rockford","state":"IL","country":"United States","canonicalUrl":"https://foursquare.com/v/prairie-street-brewhouse/4c9be8fa9c48236a706c49ee","category":"Brewery","checkinsCount":2183,"usersCount":597,"tipCount":9,"visitsCount":2303,"url":"http://www.psbrewhouse.com","tier":"","message":"","currency":"","rating":9.3},{"name":"Social Urban Bar & Restaurant","phone":"8157080877","twitter":"social509","address":"509 E State St","lat":42.267608,"lng":-89.087181,"neighborhood":"Downtown Rockford","city_fetched":"Rockford","state":"IL","country":"United States","canonicalUrl":"https://foursquare.com/social509","category":"New American Restaurant","checkinsCount":948,"usersCount":447,"tipCount":22,"visitsCount":979,"url":"http://www.social509.com","tier":3,"message":"Expensive","currency":"$","rating":8.9},{"name":"Octane InterLounge","phone":"8159654012","address":"124 N Main St","lat":42.271993204952594,"lng":-89.09409776996426,"neighborhood":"Downtown Rockford","city_fetched":"Rockford","state":"IL","country":"United States","canonicalUrl":"https://foursquare.com/v/octane-interlounge/4ad50fa8f964a5209a0121e3","category":"Gastropub","checkinsCount":3067,"usersCount":741,"tipCount":40,"visitsCount":3223,"url":"http://www.octane.net","tier":2,"message":"Moderate","currency":"$","rating":8.8},{"name":"Old Chicago","phone":"8152274040","address":"6280 E State St","lat":42.26883810316992,"lng":-88.99407774209976,"neighborhood":"Northeast","city_fetched":"Rockford","state":"IL","country":"United States","canonicalUrl":"https://foursquare.com/v/old-chicago/4b0dc0aaf964a5206e4f23e3","category":"Pizza Place","checkinsCount":8205,"usersCount":2098,"tipCount":54,"visitsCount":9637,"url":"http://oldchicago.com","tier":2,"message":"Moderate","currency":"$","rating":8.7},{"name":"Rural on Tap","lat":42.27464573044348,"lng":-89.06702443021925,"neighborhood":"Northeast","city_fetched":"Rockford","state":"IL","country":"United States","canonicalUrl":"https://foursquare.com/v/rural-on-tap/545c3fba498e12f62f430d38","category":"Bar","checkinsCount":445,"usersCount":174,"tipCount":7,"visitsCount":691,"tier":"","message":"","currency":"","rating":8.6},{"name":"aeRo Ale House","phone":"8159775602","twitter":"aero_ale","address":"6164 E Riverside Blvd","lat":42.319188994142806,"lng":-88.99686012500892,"city_fetched":"Rockford","state":"IL","country":"United States","canonicalUrl":"https://foursquare.com/aero_ale","category":"Gastropub","checkinsCount":377,"usersCount":213,"tipCount":5,"visitsCount":712,"tier":2,"message":"Moderate","currency":"$","rating":8.5},{"name":"Carlyle Brewing Co.","phone":"8159632739","address":"215 E State St","lat":42.269053,"lng":-89.090416,"neighborhood":"Downtown Rockford","city_fetched":"Rockford","state":"IL","country":"United States","canonicalUrl":"https://foursquare.com/v/carlyle-brewing-co/4b172804f964a5202bc323e3","category":"Brewery","checkinsCount":3933,"usersCount":1264,"tipCount":50,"visitsCount":4350,"url":"http://www.carlylebrewing.com","tier":2,"message":"Moderate","currency":"$","rating":8.3},{"name":"TGI Fridays","phone":"8153325355","twitter":"tgifridays","address":"2408 S Perryville Rd","lat":42.24095703,"lng":-88.97886157,"city_fetched":"Rockford","state":"IL","country":"United States","canonicalUrl":"https://foursquare.com/v/tgi-fridays/4bb76c862ea195215ce6ac2f","category":"American Restaurant","checkinsCount":1236,"usersCount":958,"tipCount":10,"visitsCount":1629,"url":"http://tgifridays.com","tier":2,"message":"Moderate","currency":"$","rating":8.2},{"name":"Kryptonite","phone":"8159650931","twitter":"chris2nite","address":"308 W State St","lat":42.27112246666667,"lng":-89.094413,"neighborhood":"Downtown Rockford","city_fetched":"Rockford","state":"IL","country":"United States","canonicalUrl":"https://foursquare.com/v/kryptonite/4bb3fa13737d76b0d4fe3a7c","category":"Music Venue","checkinsCount":4458,"usersCount":850,"tipCount":20,"visitsCount":4595,"url":"http://www.kryptonitebar.com","tier":"","message":"","currency":"","rating":8.1},{"name":"Lucha Cantina","phone":"8159774319","twitter":"lucha_rkfd","address":"1641 N Alpine Rd","lat":42.28631037647713,"lng":-89.02636920427332,"neighborhood":"Northeast","city_fetched":"Rockford","state":"IL","country":"United States","canonicalUrl":"https://foursquare.com/v/lucha-cantina/51ec96388bbd5b5ae1eb3f67","category":"Mexican Restaurant","checkinsCount":1090,"usersCount":591,"tipCount":16,"visitsCount":1717,"url":"http://www.luchacantina.com/rockford/","tier":2,"message":"Moderate","currency":"$","rating":8.1},{"name":"Stumpy's","phone":"8153161225","twitter":"stumpys5","address":"5801 Columbia Pkwy","lat":42.2390579545471,"lng":-89.00370591221092,"city_fetched":"Rockford","state":"IL","country":"United States","canonicalUrl":"https://foursquare.com/v/stumpys/4ed9a03fe300851bf89d02c5","category":"Bar","checkinsCount":1184,"usersCount":293,"tipCount":10,"visitsCount":1634,"url":"http://stumpyspub.com","tier":"","message":"","currency":"","rating":8.1},{"name":"Tavern on Clark","phone":"8157087088","address":"755 Clark Rd","lat":42.27506194593288,"lng":-88.96754487438533,"city_fetched":"Rockford","state":"IL","country":"United States","canonicalUrl":"https://foursquare.com/v/tavern-on-clark/53cfc8c8498eb4787a4d6264","category":"American Restaurant","checkinsCount":188,"usersCount":270,"tipCount":3,"visitsCount":406,"url":"http://tavernonclarkrockford.com","tier":"","message":"","currency":"","rating":8.1},{"name":"Vintage @ 501","phone":"8155160544","address":"501 E State St","lat":42.2675757407594,"lng":-89.08751249313354,"neighborhood":"Downtown Rockford","city_fetched":"Rockford","state":"IL","country":"United States","canonicalUrl":"https://foursquare.com/v/vintage--501/5038fa12e4b0bb3209999753","category":"American Restaurant","checkinsCount":932,"usersCount":403,"tipCount":23,"visitsCount":1063,"url":"http://www.vintage501.com","tier":1,"message":"Cheap","currency":"$","rating":8},{"name":"The Hoffman House","phone":"8153975800","address":"7550 E State St","lat":42.272255547039286,"lng":-88.9696244907779,"city_fetched":"Rockford","state":"IL","country":"United States","canonicalUrl":"https://foursquare.com/v/the-hoffman-house/4bd22fc677b29c74f2398e82","category":"Hotel Bar","checkinsCount":658,"usersCount":478,"tipCount":11,"visitsCount":713,"url":"http://hoffmanhouserockford.com","tier":"","message":"","currency":"","rating":8},{"name":"Granite City Food & Brewery","phone":"8153327070","address":"7140 Harrison Ave","lat":42.24453574,"lng":-88.977707,"city_fetched":"Rockford","state":"IL","country":"United States","canonicalUrl":"https://foursquare.com/v/granite-city-food--brewery/4c644f0ad6a320a12bc0cf2a","category":"Brewery","checkinsCount":3920,"usersCount":1875,"tipCount":42,"visitsCount":4477,"url":"http://www.gcfb.net","tier":2,"message":"Moderate","currency":"$","rating":7.9},{"name":"Alchemy - Artisan Pizza","phone":"8153986411","twitter":"alchemyatgios","address":"610 N Bell School Rd","lat":42.272304,"lng":-88.971356,"city_fetched":"Rockford","state":"IL","country":"United States","canonicalUrl":"https://foursquare.com/v/alchemy--artisan-pizza/4fcfeae0e4b071e6fa9f0ec6","category":"Pizza Place","checkinsCount":565,"usersCount":309,"tipCount":8,"visitsCount":604,"url":"http://www.alchemypizza.com","tier":3,"message":"Expensive","currency":"$","rating":7.9},{"name":"Scanlan's","phone":"8156390000","address":"2921 City View Dr","lat":42.31709617,"lng":-89.09545106666667,"city_fetched":"Rockford","state":"IL","country":"United States","canonicalUrl":"https://foursquare.com/v/scanlans/4bbe98d0006dc9b62781fb3f","category":"Sports Bar","checkinsCount":1368,"usersCount":141,"tipCount":6,"visitsCount":1403,"tier":"","message":"","currency":"","rating":7.8},{"name":"Gene's Place","phone":"8159774365","address":"4412 Manchester Dr","lat":42.23706387893727,"lng":-89.03065305355244,"city_fetched":"Rockford","state":"IL","country":"United States","canonicalUrl":"https://foursquare.com/v/genes-place/4d8977d299c2a1cda66a7cd7","category":"Bar","checkinsCount":1010,"usersCount":251,"tipCount":7,"visitsCount":1308,"url":"http://genesplace.biz","tier":"","message":"","currency":"","rating":7.8},{"name":"Garrets Restaurant Bar","lat":42.287579066031,"lng":-88.96926932775432,"city_fetched":"Rockford","state":"IL","country":"United States","canonicalUrl":"https://foursquare.com/v/garrets-restaurant-bar/4ddfd3f6d4c0935ddd65bf6a","category":"Bar","checkinsCount":219,"usersCount":163,"tipCount":5,"visitsCount":225,"tier":"","message":"","currency":"","rating":7.8},{"name":"Boomer's Sports Bar & Grill","phone":"8156393333","address":"908 W Riverside Blvd","lat":42.3149006502281,"lng":-89.07443187876981,"neighborhood":"Northwest","city_fetched":"Rockford","state":"IL","country":"United States","canonicalUrl":"https://foursquare.com/v/boomers-sports-bar--grill/5004a86ce4b0382ba11f8d8d","category":"Sports Bar","checkinsCount":258,"usersCount":132,"tipCount":4,"visitsCount":271,"tier":"","message":"","currency":"","rating":7.7},{"name":"American Lombardi Society","phone":"8159641281","address":"209 Olive St","lat":42.27454912533339,"lng":-89.086227887375,"neighborhood":"River District","city_fetched":"Rockford","state":"IL","country":"United States","canonicalUrl":"https://foursquare.com/v/american-lombardi-society/4c310921a0ced13a2410136e","category":"Bar","checkinsCount":555,"usersCount":247,"tipCount":2,"visitsCount":694,"tier":"","message":"","currency":"","rating":7.6},{"name":"Mary's Place","phone":"8159627944","address":"602 N Madison St","lat":42.27368474006653,"lng":-89.08609,"neighborhood":"River District","city_fetched":"Rockford","state":"IL","country":"United States","canonicalUrl":"https://foursquare.com/v/marys-place/4bd270a2462cb7130c80dc07","category":"Dive Bar","checkinsCount":625,"usersCount":295,"tipCount":7,"visitsCount":709,"url":"http://www.marysplacebar.com","tier":"","message":"","currency":"","rating":7.5},{"name":"Oasis Micro-Pub","phone":"8159647777","address":"901 E State St","lat":42.26678715,"lng":-89.08369,"neighborhood":"Downtown Rockford","city_fetched":"Rockford","state":"IL","country":"United States","canonicalUrl":"https://foursquare.com/v/oasis-micropub/4baef608f964a5201fe43be3","category":"Bar","checkinsCount":2142,"usersCount":503,"tipCount":26,"visitsCount":2319,"tier":1,"message":"Cheap","currency":"$","rating":7.5},{"name":"Sports Page","phone":"8153993185","address":"3907 Broadway","lat":42.25250122665978,"lng":-89.03258017346477,"city_fetched":"Rockford","state":"IL","country":"United States","canonicalUrl":"https://foursquare.com/v/sports-page/4b5377e5f964a5206e9e27e3","category":"American Restaurant","checkinsCount":690,"usersCount":260,"tipCount":5,"visitsCount":760,"url":"http://rockfordsportspage.com","tier":"","message":"","currency":"","rating":7.2},{"name":"Hooters","phone":"8152290539","twitter":"hootersrockford","address":"6904 Argus Dr","lat":42.272206783274584,"lng":-88.98179632351464,"neighborhood":"Northeast","city_fetched":"Rockford","state":"IL","country":"United States","canonicalUrl":"https://foursquare.com/hootersrockford","category":"Wings Joint","checkinsCount":1796,"usersCount":826,"tipCount":10,"visitsCount":1996,"url":"https://hooters.com","tier":2,"message":"Moderate","currency":"$","rating":7.1},{"name":"Filling Station","phone":"8158745766","address":"6259 11th St","lat":42.19069871559356,"lng":-89.07314121723175,"city_fetched":"Rockford","state":"IL","country":"United States","canonicalUrl":"https://foursquare.com/v/filling-station/4bbfdb782a89ef3b7ac3ef88","category":"Sports Bar","checkinsCount":1040,"usersCount":313,"tipCount":5,"visitsCount":1197,"tier":"","message":"","currency":"","rating":7.1},{"name":"Caseys Pub","phone":"8156376088","twitter":"caseyspub","address":"7307 N Alpine Rd","lat":42.32868236964341,"lng":-89.02799786624055,"city_fetched":"Rockford","state":"IL","country":"United States","canonicalUrl":"https://foursquare.com/caseyspub","category":"Bar","checkinsCount":1107,"usersCount":574,"tipCount":12,"visitsCount":1341,"url":"http://www.caseyspub.net","tier":"","message":"","currency":"","rating":7.1},{"name":"The Office Nightclub & Show Lounge","phone":"8159650344","address":"513 E State St","lat":42.26733746945151,"lng":-89.0871319058411,"neighborhood":"Downtown Rockford","city_fetched":"Rockford","state":"IL","country":"United States","canonicalUrl":"https://foursquare.com/v/the-office-nightclub--show-lounge/4be38e3df07b0f474182f843","category":"Gay Bar","checkinsCount":1243,"usersCount":359,"tipCount":5,"visitsCount":1282,"url":"http://officeniteclub.com","tier":"","message":"","currency":"","rating":7.1},{"name":"Shooters North","phone":"8152430337","address":"7526-7726 Forest Hills Rd","lat":42.331966222793724,"lng":-89.02162751729995,"city_fetched":"Rockford","state":"IL","country":"United States","canonicalUrl":"https://foursquare.com/v/shooters-north/4b9c594ef964a520a56136e3","category":"Bar","checkinsCount":522,"usersCount":200,"tipCount":3,"visitsCount":577,"tier":"","message":"","currency":"","rating":7},{"name":"Whiskey's Roadhouse","phone":"8158778007","twitter":"whiskeysrh","address":"3207 N Main St","lat":42.3080564308785,"lng":-89.0767484709957,"neighborhood":"Northwest","city_fetched":"Rockford","state":"IL","country":"United States","canonicalUrl":"https://foursquare.com/v/whiskeys-roadhouse/4b42565ef964a520e2d125e3","category":"Bar","checkinsCount":1844,"usersCount":460,"tipCount":20,"visitsCount":2089,"url":"http://www.whiskeysroadhouse.com","tier":"","message":"","currency":"","rating":6.8}]