[{"name":"Public House Brewery","phone":"5734262337","address":"600 N Rolla St Ste B","lat":37.94883642868309,"lng":-91.77220335046732,"city_fetched":"Rolla,US","state":"MO","country":"United States","canonicalUrl":"https://foursquare.com/v/public-house-brewery/4cc1bc7b56bda093fae9ed35","categoryId":"50327c8591d4c4b30a586d5d","category":"Brewery","checkinsCount":2567,"usersCount":457,"tipCount":27,"visitsCount":2671,"url":"http://publichousebrewery.com","tier":2,"message":"Moderate","currency":"$","rating":8.8},{"name":"The Grotto","phone":"5733643311","address":"1105 N Pine St","lat":37.95292650970963,"lng":-91.77169926523374,"city_fetched":"Rolla,US","state":"MO","country":"United States","canonicalUrl":"https://foursquare.com/v/the-grotto/4b5a052cf964a5202fa828e3","categoryId":"4bf58dd8d48988d116941735","category":"Bar","checkinsCount":3714,"usersCount":358,"tipCount":14,"visitsCount":3865,"tier":1,"message":"Cheap","currency":"$","rating":8.2},{"name":"Tommy's Tater Patch","phone":"5733683111","address":"103 Bridgeschool Rd","lat":37.94265662582815,"lng":-91.78880812548749,"city_fetched":"Rolla,US","state":"MO","country":"United States","canonicalUrl":"https://foursquare.com/v/tommys-tater-patch/4b7af80df964a5201d492fe3","categoryId":"4bf58dd8d48988d116941735","category":"Bar","checkinsCount":945,"usersCount":411,"tipCount":14,"visitsCount":1015,"tier":1,"message":"Cheap","currency":"$","rating":7.8},{"name":"The Locker Room Sports Bar & Grill","address":"609 N Rolla St","lat":37.94887203016864,"lng":-91.77276926440781,"city_fetched":"Rolla,US","state":"MO","country":"United States","canonicalUrl":"https://foursquare.com/v/the-locker-room-sports-bar--grill/4fe2159ae4b0c941586a8e66","categoryId":"4bf58dd8d48988d11d941735","category":"Sports Bar","checkinsCount":1243,"usersCount":339,"tipCount":12,"visitsCount":1463,"tier":"","message":"","currency":"","rating":7.4},{"name":"SpeakEasy","address":"Pine St.","lat":37.94855752732895,"lng":-91.7714377138677,"city_fetched":"Rolla,US","state":"MO","country":"United States","canonicalUrl":"https://foursquare.com/v/speakeasy/4f053fbe8231c7e150ccb141","categoryId":"4bf58dd8d48988d116941735","category":"Bar","checkinsCount":817,"usersCount":264,"tipCount":12,"visitsCount":885,"tier":"","message":"","currency":"","rating":5.4}]