[{"name":"Harvest Moon Cafe","phone":"7062920099","twitter":"harvestmooncafe","address":"234 Broad St","lat":34.25319387751966,"lng":-85.17331349165958,"city_fetched":"Rome","state":"GA","country":"United States","canonicalUrl":"https://foursquare.com/v/harvest-moon-cafe/4b22f53cf964a520175124e3","category":"Bar","checkinsCount":1999,"usersCount":1013,"tipCount":31,"visitsCount":2097,"url":"http://www.myharvestmooncafe.com","tier":2,"message":"Moderate","currency":"$","rating":9},{"name":"Schroeder's New Deli","phone":"7062344613","twitter":"schroedersrome","address":"406 Broad St","lat":34.25478310604699,"lng":-85.17136474271308,"city_fetched":"Rome","state":"GA","country":"United States","canonicalUrl":"https://foursquare.com/v/schroeders-new-deli/4c4db08f0d90b71339b18d78","category":"Bar","checkinsCount":686,"usersCount":441,"tipCount":11,"visitsCount":785,"url":"http://schroeders-hub.com","tier":1,"message":"Cheap","currency":"$","rating":8.7},{"name":"Brewhouse Music & Grill","address":"325 Broad St","lat":34.25427225006535,"lng":-85.17214931223799,"city_fetched":"Rome","state":"GA","country":"United States","canonicalUrl":"https://foursquare.com/v/brewhouse-music--grill/50520b45e4b0313e6d560051","category":"Sports Bar","checkinsCount":562,"usersCount":370,"tipCount":10,"visitsCount":712,"tier":2,"message":"Moderate","currency":"$","rating":8.2},{"name":"The Moon Roof Bar","phone":"7063149530","address":"234-2 Broad Street","lat":34.2529,"lng":-85.173001,"city_fetched":"Rome","state":"GA","country":"United States","canonicalUrl":"https://foursquare.com/v/the-moon-roof-bar/4e6145dcc65b2dc89f1ec1c7","category":"Bar","checkinsCount":223,"usersCount":115,"tipCount":2,"visitsCount":225,"url":"http://myharvestmooncafe.com/about/moon-roof/","tier":"","message":"","currency":"","rating":6.8}]