[{"name":"Draper Draft House","address":"640 SE Jackson St","lat":43.20845693103494,"lng":-123.34446113638083,"city_fetched":"Roseburg","state":"OR","country":"United States","canonicalUrl":"https://foursquare.com/v/draper-draft-house/50137086e4b0cfd78a93b415","category":"Brewery","checkinsCount":705,"usersCount":97,"tipCount":1,"visitsCount":777,"url":"http://draperbrewing.com","tier":"","message":"","currency":"","rating":8.3},{"name":"The Kodiak","address":"929 SE Stephens St","lat":43.20644251752297,"lng":-123.34804393358444,"city_fetched":"Roseburg","state":"OR","country":"United States","canonicalUrl":"https://foursquare.com/v/the-kodiak/4dd73457e4cd37c893a6dcd4","category":"Bar","checkinsCount":6175,"usersCount":115,"tipCount":8,"visitsCount":6719,"tier":1,"message":"Cheap","currency":"$","rating":8.2},{"name":"McMenamins Roseburg Station Pub & Brewery","phone":"5416721934","address":"700 SE Sheridan St","lat":43.2091816,"lng":-123.3483314,"city_fetched":"Roseburg","state":"OR","country":"United States","canonicalUrl":"https://foursquare.com/v/mcmenamins-roseburg-station-pub--brewery/4bc4f5866cccd13a3685ff8b","category":"Pub","checkinsCount":3580,"usersCount":950,"tipCount":16,"visitsCount":3997,"url":"http://www.mcmenamins.com/286-roseburg-station-pub-brewery-home","tier":2,"message":"Moderate","currency":"$","rating":7.9},{"name":"Kowloon Restaurant","phone":"5416730095","address":"2686 NE Diamond Lake Blvd","lat":43.21347218092289,"lng":-123.31987078437812,"city_fetched":"Roseburg","state":"OR","country":"United States","canonicalUrl":"https://foursquare.com/v/kowloon-restaurant/4be4c005cf200f472777123c","category":"Bar","checkinsCount":329,"usersCount":146,"tipCount":6,"visitsCount":401,"url":"http://www.kowloonrestaurantroseburg.com","tier":2,"message":"Moderate","currency":"$","rating":7.7},{"name":"Scoreboard Tavern","phone":"5416722599","address":"920 SE Stephens St","lat":43.20668050326824,"lng":-123.34832377448858,"city_fetched":"Roseburg","state":"OR","country":"United States","canonicalUrl":"https://foursquare.com/v/scoreboard-tavern/4f5d3170e4b085f52ee38702","category":"Dive Bar","checkinsCount":1024,"usersCount":64,"tipCount":4,"visitsCount":1048,"tier":2,"message":"Moderate","currency":"$","rating":7.6},{"name":"My Coffee & The Wine Experience","phone":"5412291231","address":"1700 NW Garden Valley Blvd","lat":43.23533627854242,"lng":-123.37962007337995,"city_fetched":"Roseburg","state":"OR","country":"United States","canonicalUrl":"https://foursquare.com/v/my-coffee--the-wine-experience/4d93dfb09ef2721e0cdfc9d2","category":"Coffee Shop","checkinsCount":177,"usersCount":51,"tipCount":6,"visitsCount":184,"tier":"","message":"","currency":"","rating":7.3},{"name":"Loggers Tap House","address":"2060 NW Stewart Pkwy","lat":43.23289595316499,"lng":-123.37274483525935,"city_fetched":"Roseburg","state":"OR","country":"United States","canonicalUrl":"https://foursquare.com/v/loggers-tap-house/51feae42498e0c5e767e11c0","category":"Pizza Place","checkinsCount":287,"usersCount":110,"tipCount":2,"visitsCount":371,"tier":"","message":"","currency":"","rating":7.3},{"name":"The Jersey Lilly","phone":"5416729131","address":"1430 NE Dee St","lat":43.22720843333333,"lng":-123.35101731666667,"city_fetched":"Roseburg","state":"OR","country":"United States","canonicalUrl":"https://foursquare.com/v/the-jersey-lilly/4c0acf43340720a193248793","category":"Bar","checkinsCount":358,"usersCount":131,"tipCount":8,"visitsCount":395,"tier":"","message":"","currency":"","rating":7.2},{"name":"O'Toole's Pub","phone":"5416735152","address":"328 SE Jackson St","lat":43.21140440846525,"lng":-123.34256369151944,"city_fetched":"Roseburg","state":"OR","country":"United States","canonicalUrl":"https://foursquare.com/v/otooles-pub/5114681f7043b4fdf512cb56","category":"Pub","checkinsCount":320,"usersCount":106,"tipCount":3,"visitsCount":388,"tier":2,"message":"Moderate","currency":"$","rating":7.2},{"name":"Brix Chill","phone":"5414404901","address":"519 SE Jackson St","lat":43.20952335415519,"lng":-123.34367501417368,"city_fetched":"Roseburg","state":"OR","country":"United States","canonicalUrl":"https://foursquare.com/v/brix-chill/4ff90aa0e4b04f7678ab8989","category":"Lounge","checkinsCount":202,"usersCount":94,"tipCount":4,"visitsCount":212,"tier":2,"message":"Moderate","currency":"$","rating":7.1},{"name":"Splitz","phone":"5416723601","address":"2400 NE Diamond Lake Blvd","lat":43.213726826863024,"lng":-123.32679975123222,"city_fetched":"Roseburg","state":"OR","country":"United States","canonicalUrl":"https://foursquare.com/v/splitz/4bc94c81b6c49c74a0568e91","category":"Sports Bar","checkinsCount":451,"usersCount":107,"tipCount":4,"visitsCount":475,"url":"http://www.splitzfamilygrill.com","tier":"","message":"","currency":"","rating":6.8},{"name":"Salud Restaurant & Brewery","phone":"5416731574","twitter":"saludroseburg","address":"537 SE Jackson St","lat":43.20939507661628,"lng":-123.34357387339035,"city_fetched":"Roseburg","state":"OR","country":"United States","canonicalUrl":"https://foursquare.com/v/salud-restaurant--brewery/5380f87f498e7fd31bcfe894","category":"Latin American Restaurant","checkinsCount":301,"usersCount":96,"tipCount":5,"visitsCount":374,"url":"http://saludroseburg.com","tier":"","message":"","currency":"","rating":6.5},{"name":"Sawmill Tavern","address":"624 SE Cass Ave","lat":43.209002,"lng":-123.3470085,"city_fetched":"Roseburg","state":"OR","country":"United States","canonicalUrl":"https://foursquare.com/v/sawmill-tavern/4c807d2651ada1cded8b0a10","category":"Dive Bar","checkinsCount":593,"usersCount":82,"tipCount":4,"visitsCount":629,"tier":"","message":"","currency":"","rating":6.1},{"name":"Blac-N-Bleu Bistro","phone":"5413914949","address":"1700 NW Garden Valley Blvd","lat":43.23548020042137,"lng":-123.37950804613916,"city_fetched":"Roseburg","state":"OR","country":"United States","canonicalUrl":"https://foursquare.com/v/blacnbleu-bistro/522bd54e11d22c9b4efeb66e","category":"American Restaurant","checkinsCount":113,"usersCount":45,"tipCount":5,"visitsCount":121,"tier":2,"message":"Moderate","currency":"$","rating":5.7},{"name":"Idle Hour Tavern","phone":"5416737696","address":"216 NE Jackson St","lat":43.21278397,"lng":-123.341515,"city_fetched":"Roseburg","state":"OR","country":"United States","canonicalUrl":"https://foursquare.com/v/idle-hour-tavern/4c87009fe602b1f713ccc47a","category":"Dive Bar","checkinsCount":445,"usersCount":121,"tipCount":3,"visitsCount":508,"tier":2,"message":"Moderate","currency":"$","rating":5.6},{"name":"Wild Rose Saloon","address":"805 SE Lane","lat":43.207465,"lng":-123.346988,"city_fetched":"Roseburg","state":"OR","country":"United States","canonicalUrl":"https://foursquare.com/v/wild-rose-saloon/4bef5cba96edc9b674b24af2","category":"Bar","checkinsCount":1111,"usersCount":82,"tipCount":5,"visitsCount":1191,"tier":1,"message":"Cheap","currency":"$","rating":5.3}]