[{"name":"Crust Pasta & Pizzeria","phone":"7707776789","address":"131 S Main St","lat":34.071886515325374,"lng":-84.29660902952983,"city_fetched":"Roswell","state":"GA","country":"United States","canonicalUrl":"https://foursquare.com/v/crust-pasta--pizzeria/5359deca498e0aaeaebb1355","category":"Italian Restaurant","checkinsCount":787,"usersCount":583,"tipCount":20,"visitsCount":1413,"url":"http://crust-pizzeria.com","tier":2,"message":"Moderate","currency":"$","rating":9.2},{"name":"Topgolf","phone":"7702170513","twitter":"topgolfatlanta","address":"10900 Westside Pkwy","lat":34.0448117,"lng":-84.3081772,"city_fetched":"Roswell","state":"GA","country":"United States","canonicalUrl":"https://foursquare.com/v/topgolf/5242e42a11d27c6fc7ab2043","category":"Golf Course","checkinsCount":5666,"usersCount":5486,"tipCount":49,"visitsCount":9407,"url":"http://topgolf.com/us/alpharetta/","tier":"","message":"","currency":"","rating":9.1},{"name":"Total Wine & More","phone":"7707720694","twitter":"totalwine","address":"380 North Point Circle","lat":34.04645,"lng":-84.292784,"city_fetched":"Roswell","state":"GA","country":"United States","canonicalUrl":"https://foursquare.com/v/total-wine--more/4b423f43f964a520f0cf25e3","category":"Wine Shop","checkinsCount":5012,"usersCount":2401,"tipCount":22,"visitsCount":6830,"url":"http://www.totalwine.com","tier":"","message":"","currency":"","rating":9},{"name":"The Salt Factory Pub","phone":"7709984850","address":"952 Canton St","lat":34.02442216873169,"lng":-84.36154268682003,"city_fetched":"Roswell","state":"GA","country":"United States","canonicalUrl":"https://foursquare.com/v/the-salt-factory-pub/4a593e06f964a52017b91fe3","category":"American Restaurant","checkinsCount":4295,"usersCount":2594,"tipCount":65,"visitsCount":4373,"url":"http://saltfactoryroswell.fhfoodtradinggroup.com","tier":2,"message":"Moderate","currency":"$","rating":8.9},{"name":"Hop Alley Brew Pub","twitter":"hopalleybrew","address":"25 Main St","lat":34.07503919602699,"lng":-84.29470539093018,"city_fetched":"Roswell","state":"GA","country":"United States","canonicalUrl":"https://foursquare.com/v/hop-alley-brew-pub/51b21c645019431813d9e202","category":"Brewery","checkinsCount":2315,"usersCount":1090,"tipCount":49,"visitsCount":2672,"url":"http://www.hopalleybrew.com","tier":2,"message":"Moderate","currency":"$","rating":8.8},{"name":"Roux On Canton","phone":"7709930007","address":"946 Canton St","lat":34.02432257731406,"lng":-84.36158562274262,"city_fetched":"Roswell","state":"GA","country":"United States","canonicalUrl":"https://foursquare.com/v/roux-on-canton/4bec874675b2c9b62ca4438d","category":"Cajun / Creole Restaurant","checkinsCount":3649,"usersCount":1965,"tipCount":65,"visitsCount":3755,"url":"http://rouxoncanton.com","tier":2,"message":"Moderate","currency":"$","rating":8.8},{"name":"Village Tavern","phone":"7707776490","twitter":"villagtavern","address":"11555 Rainwater Dr","lat":34.062098634735605,"lng":-84.28747505248539,"city_fetched":"Roswell","state":"GA","country":"United States","canonicalUrl":"https://foursquare.com/v/village-tavern/456ad46af964a520f73d1fe3","category":"American Restaurant","checkinsCount":4922,"usersCount":3110,"tipCount":45,"visitsCount":6294,"url":"http://www.villagetavern.com/index.cfm","tier":2,"message":"Moderate","currency":"$","rating":8.5},{"name":"Starbucks","phone":"7705521390","twitter":"starbucks","address":"10800 Alpharetta Hwy","lat":34.043243,"lng":-84.341666,"city_fetched":"Roswell","state":"GA","country":"United States","canonicalUrl":"https://foursquare.com/v/starbucks/4ac53fcaf964a52032b120e3","category":"Coffee Shop","checkinsCount":12040,"usersCount":3497,"tipCount":39,"visitsCount":14480,"url":"http://www.starbucks.com","tier":1,"message":"Cheap","currency":"$","rating":8.5},{"name":"Aqua Blue","phone":"7706438886","twitter":"aquablueatl","address":"1564 Holcomb Bridge Rd","lat":34.01897279221315,"lng":-84.3136909819438,"city_fetched":"Roswell","state":"GA","country":"United States","canonicalUrl":"https://foursquare.com/v/aqua-blue/4a95d1e5f964a520d72420e3","category":"Sushi Restaurant","checkinsCount":1377,"usersCount":957,"tipCount":15,"visitsCount":1600,"url":"http://www.aquablueatl.com","tier":"","message":"","currency":"","rating":8.4},{"name":"Cafe Efendi Mediterranean Cuisine","phone":"7703608014","twitter":"cafe_efendi","address":"488 N Main St, Suite 112","lat":34.08785540492856,"lng":-84.29566102146111,"city_fetched":"Roswell","state":"GA","country":"United States","canonicalUrl":"https://foursquare.com/v/cafe-efendi-mediterranean-cuisine/4ecd6b1e2c5bc350538bf22a","category":"Bar","checkinsCount":1089,"usersCount":745,"tipCount":25,"visitsCount":1604,"url":"http://www.turkishrestaurantalpharetta.com","tier":2,"message":"Moderate","currency":"$","rating":8.4},{"name":"Mac McGee Irish Pub","phone":"7705182866","address":"936 Canton St","lat":34.02404695007148,"lng":-84.36164723158858,"city_fetched":"Roswell","state":"GA","country":"United States","canonicalUrl":"https://foursquare.com/v/mac-mcgee-irish-pub/513fb59ee4b00daada43d09d","category":"Pub","checkinsCount":2455,"usersCount":1382,"tipCount":28,"visitsCount":2881,"url":"http://macmcgeeirishpub.com","tier":2,"message":"Moderate","currency":"$","rating":8.4},{"name":"Peach & the Porkchop","phone":"7706965409","twitter":"peachyporkchop","address":"12040 Etris Rd Ste D100","lat":34.073571609964524,"lng":-84.36296737427443,"city_fetched":"Roswell","state":"GA","country":"United States","canonicalUrl":"https://foursquare.com/v/peach--the-porkchop/519eb0b4498e5a42e7132d5f","category":"American Restaurant","checkinsCount":387,"usersCount":249,"tipCount":9,"visitsCount":536,"url":"http://www.restaurant-roswellga.com","tier":"","message":"","currency":"","rating":8.4},{"name":"La Parrilla Mexican Restaurant","phone":"6783393888","twitter":"laparrilla","address":"865 North Main Street","lat":34.09244,"lng":-84.28155,"city_fetched":"Roswell","state":"GA","country":"United States","canonicalUrl":"https://foursquare.com/v/la-parrilla-mexican-restaurant/4b0ac90ff964a520c82723e3","category":"Mexican Restaurant","checkinsCount":4456,"usersCount":1874,"tipCount":31,"visitsCount":4808,"url":"http://www.laparrilla.com","tier":1,"message":"Cheap","currency":"$","rating":8.1},{"name":"The Salt Factory Pub","phone":"7707521888","address":"102 S Main St","lat":34.07250899320481,"lng":-84.29521615034587,"city_fetched":"Roswell","state":"GA","country":"United States","canonicalUrl":"https://foursquare.com/v/the-salt-factory-pub/5279a89e11d2785939ffa6d7","category":"Gastropub","checkinsCount":856,"usersCount":795,"tipCount":22,"visitsCount":1233,"url":"http://saltfactoryalpharetta.fhfoodtradinggroup.com","tier":2,"message":"Moderate","currency":"$","rating":8},{"name":"HOLA! Taqueria & Bar","phone":"4702425661","address":"688 Holcomb Bridge Rd","lat":34.0330439,"lng":-84.340545,"city_fetched":"Roswell","state":"GA","country":"United States","canonicalUrl":"https://foursquare.com/v/hola-taqueria--bar/53fa3581498e1ef0fe21c84a","category":"Bar","checkinsCount":478,"usersCount":505,"tipCount":4,"visitsCount":897,"url":"http://www.mexicanrestaurant-roswellga.com","tier":"","message":"","currency":"","rating":8},{"name":"Crabapple Tavern","phone":"7706677456","address":"12350 Arnold Mill Rd","lat":34.08234094646322,"lng":-84.35877208356625,"city_fetched":"Roswell","state":"GA","country":"United States","canonicalUrl":"https://foursquare.com/v/crabapple-tavern/4b25bf02f964a520da7524e3","category":"Sports Bar","checkinsCount":2130,"usersCount":640,"tipCount":20,"visitsCount":2384,"url":"http://www.crabappletavern.com","tier":2,"message":"Moderate","currency":"$","rating":7.8},{"name":"Taco Mac","phone":"4048013606","twitter":"tmacrestaurants","address":"2630 Holcomb Bridge Rd","lat":33.998999015303795,"lng":-84.28314238786697,"city_fetched":"Roswell","state":"GA","country":"United States","canonicalUrl":"https://foursquare.com/v/taco-mac/4eef9aed8231688f20d10f15","category":"Sports Bar","checkinsCount":7360,"usersCount":2614,"tipCount":59,"visitsCount":8706,"url":"http://www.tacomac.com","tier":2,"message":"Moderate","currency":"$","rating":7.8},{"name":"Buzy Burrito Mexican Restaurant","phone":"6788784620","address":"10684 Alpharetta Hwy, 400","lat":34.04014342969645,"lng":-84.34297584540366,"city_fetched":"Roswell","state":"GA","country":"United States","canonicalUrl":"https://foursquare.com/v/buzy-burrito-mexican-restaurant/53ef8103498eddd220f28962","category":"Bar","checkinsCount":50,"usersCount":41,"tipCount":5,"visitsCount":58,"url":"http://www.mexicanrestaurantroswell.com","tier":"","message":"","currency":"","rating":7.8},{"name":"Café Istanbul","address":"2880 Holcomb Bridge Rd","lat":33.990652079428465,"lng":-84.27387685600814,"neighborhood":"Rivermont","city_fetched":"Roswell","state":"GA","country":"United States","canonicalUrl":"https://foursquare.com/v/caf%C3%A9-istanbul/53e5acfc498e5191d065c1ba","category":"Hookah Bar","checkinsCount":116,"usersCount":90,"tipCount":0,"visitsCount":133,"tier":"","message":"","currency":"","rating":7.8},{"name":"The Roswell Tap","phone":"7709929206","twitter":"theroswelltap","address":"1090 Alpharetta St","lat":34.02819311545256,"lng":-84.35824155807495,"city_fetched":"Roswell","state":"GA","country":"United States","canonicalUrl":"https://foursquare.com/v/the-roswell-tap/4ddbcdf0b0fb2604df71884d","category":"Beer Garden","checkinsCount":2158,"usersCount":1303,"tipCount":26,"visitsCount":2585,"url":"http://theroswelltap.com","tier":1,"message":"Cheap","currency":"$","rating":7.7},{"name":"Vin25","phone":"7706280411","address":"25 Plum Street","lat":34.026821515657794,"lng":-84.36051259169184,"city_fetched":"Roswell","state":"GA","country":"United States","canonicalUrl":"https://foursquare.com/v/vin25/504162a0e4b0b5223d9ea9e8","category":"Wine Bar","checkinsCount":516,"usersCount":442,"tipCount":17,"visitsCount":719,"tier":"","message":"","currency":"","rating":7.7},{"name":"North River Tavern","phone":"7705528784","twitter":"northrivertavrn","address":"8879 Roswell Rd","lat":34.0012805756897,"lng":-84.35017660951019,"city_fetched":"Roswell","state":"GA","country":"United States","canonicalUrl":"https://foursquare.com/v/north-river-tavern/45865c7bf964a520b13f1fe3","category":"Sports Bar","checkinsCount":10058,"usersCount":2923,"tipCount":68,"visitsCount":11681,"url":"http://northrivertavern.com","tier":2,"message":"Moderate","currency":"$","rating":7.7},{"name":"Rusty Nail Pub","phone":"7709924009","address":"8549 Roswell Rd","lat":33.987782,"lng":-84.35066012,"city_fetched":"Roswell","state":"GA","country":"United States","canonicalUrl":"https://foursquare.com/v/rusty-nail-pub/4b5bc992f964a520401629e3","category":"Dive Bar","checkinsCount":1359,"usersCount":375,"tipCount":16,"visitsCount":1557,"url":"http://rustynailpub.com","tier":"","message":"","currency":"","rating":7.6},{"name":"Chaplins","phone":"7706426981","address":"555 S Atlanta St","lat":34.013137860246985,"lng":-84.36256622257063,"city_fetched":"Roswell","state":"GA","country":"United States","canonicalUrl":"https://foursquare.com/v/chaplins/40e0b100f964a520ec051fe3","category":"Dive Bar","checkinsCount":2093,"usersCount":836,"tipCount":19,"visitsCount":2294,"url":"http://www.chaplinsroswell.com","tier":2,"message":"Moderate","currency":"$","rating":7.6},{"name":"Taco Mac","phone":"7703469119","twitter":"tmacrestaurants","address":"875 N Main Street, Ste 306","lat":34.093229516355635,"lng":-84.27947044372559,"city_fetched":"Roswell","state":"GA","country":"United States","canonicalUrl":"https://foursquare.com/v/taco-mac/4a4ea055f964a520d2ae1fe3","category":"Sports Bar","checkinsCount":8104,"usersCount":3509,"tipCount":45,"visitsCount":9687,"url":"http://www.tacomac.com","tier":2,"message":"Moderate","currency":"$","rating":7.5},{"name":"Miller’s Alpharetta Alehouse","phone":"6782772581","address":"10750 Davis Dr","lat":34.04191444659836,"lng":-84.3139273402484,"city_fetched":"Roswell","state":"GA","country":"United States","canonicalUrl":"https://foursquare.com/v/millers-alpharetta-alehouse/4a6f8aa7f964a52074d61fe3","category":"American Restaurant","checkinsCount":8774,"usersCount":3445,"tipCount":72,"visitsCount":9883,"url":"http://www.millersalehouse.com","tier":2,"message":"Moderate","currency":"$","rating":7.5},{"name":"Hooligans Sports Food Drinks","phone":"6783672841","twitter":"hooliganstavern","address":"8440 Holcomb Bridge Rd","lat":33.9848766060045,"lng":-84.2704626800624,"city_fetched":"Roswell","state":"GA","country":"United States","canonicalUrl":"https://foursquare.com/v/hooligans-sports-food-drinks/4ffee34be88934a080784eb0","category":"Sports Bar","checkinsCount":728,"usersCount":343,"tipCount":12,"visitsCount":845,"url":"http://hooliganssportsbar.com","tier":"","message":"","currency":"","rating":7.3},{"name":"Brunswick Zone Roswell Lanes","phone":"7709989437","twitter":"bowlbrunswick","address":"785 Old Roswell Rd","lat":34.034207,"lng":-84.338716,"city_fetched":"Roswell","state":"GA","country":"United States","canonicalUrl":"https://foursquare.com/v/brunswick-zone-roswell-lanes/4abffb51f964a520599320e3","category":"Bowling Alley","checkinsCount":6063,"usersCount":2214,"tipCount":17,"visitsCount":6745,"url":"https://t.co/DuAKyeYxjB","tier":"","message":"","currency":"","rating":7.1},{"name":"TJ's Sports Bar & Grill","phone":"7705527700","address":"2880 Holcomb Bridge Rd","lat":33.99086426529468,"lng":-84.27570212563577,"neighborhood":"Rivermont","city_fetched":"Roswell","state":"GA","country":"United States","canonicalUrl":"https://foursquare.com/v/tjs-sports-bar--grill/4ae47ec2f964a520fa9a21e3","category":"Sports Bar","checkinsCount":3547,"usersCount":1493,"tipCount":44,"visitsCount":4089,"url":"http://tjssportsbar.com","tier":2,"message":"Moderate","currency":"$","rating":7.1},{"name":"Moon Lounge","phone":"7702313276","address":"890 Atlanta Street Suite C","lat":34.022791,"lng":-84.362296,"city_fetched":"Roswell","state":"GA","country":"United States","canonicalUrl":"https://foursquare.com/v/moon-lounge/518a8140498ebfe64beaa5af","category":"Hookah Bar","checkinsCount":107,"usersCount":67,"tipCount":3,"visitsCount":134,"tier":"","message":"","currency":"","rating":7}]