[{"name":"Pangaea Bier Cafe","phone":"9164544942","twitter":"pangaeacafe","address":"2743 Franklin Blvd","lat":38.55369478526022,"lng":-121.47565305233002,"neighborhood":"Curtis Park","city_fetched":"Sacramento","state":"CA","country":"United States","canonicalUrl":"https://foursquare.com/v/pangaea-bier-cafe/4b05da40f964a52069e422e3","category":"Bar","checkinsCount":3824,"usersCount":1216,"tipCount":56,"visitsCount":4069,"url":"http://pangaeatwobrews.com","tier":2,"message":"Moderate","currency":"$","rating":9.1},{"name":"Morton's The Steakhouse","phone":"9164425091","twitter":"mortons","address":"621 Capitol Mall","lat":38.57836351141519,"lng":-121.49910137630907,"neighborhood":"Downtown Sacramento","city_fetched":"Sacramento","state":"CA","country":"United States","canonicalUrl":"https://foursquare.com/v/mortons-the-steakhouse/4b0586b4f964a520826a22e3","category":"Steakhouse","checkinsCount":1818,"usersCount":697,"tipCount":29,"visitsCount":1887,"url":"http://www.mortons.com","tier":3,"message":"Expensive","currency":"$","rating":9.1},{"name":"Zocalo","phone":"9164410303","twitter":"zocalo_sactown","address":"1801 Capitol Ave","lat":38.57420511347242,"lng":-121.48383566468361,"neighborhood":"Midtown","city_fetched":"Sacramento","state":"CA","country":"United States","canonicalUrl":"https://foursquare.com/v/zocalo/4b1d832ff964a5208a1124e3","category":"Mexican Restaurant","checkinsCount":5844,"usersCount":3252,"tipCount":54,"visitsCount":6358,"url":"http://www.zocalosacramento.com","tier":3,"message":"Expensive","currency":"$","rating":9},{"name":"Track 7 Brewing Co.","phone":"9165204677","twitter":"track7brewing","address":"3747 W Pacific Ave #F","lat":38.538892274787116,"lng":-121.48197262949374,"neighborhood":"Southeastern Sacramento","city_fetched":"Sacramento","state":"CA","country":"United States","canonicalUrl":"https://foursquare.com/v/track-7-brewing-co/4effa1d47ee5f14f39af2589","category":"Brewery","checkinsCount":2380,"usersCount":1094,"tipCount":21,"visitsCount":3037,"url":"http://www.track7brewing.com","tier":2,"message":"Moderate","currency":"$","rating":9},{"name":"Total Wine & More","phone":"9169215328","twitter":"totalwine","address":"2121 Arden Way","lat":38.597169,"lng":-121.416588,"neighborhood":"Arden - Arcade","city_fetched":"Sacramento","state":"CA","country":"United States","canonicalUrl":"https://foursquare.com/v/total-wine--more/4e6a3f2ca809290267eb72fa","category":"Wine Shop","checkinsCount":2863,"usersCount":1439,"tipCount":21,"visitsCount":3628,"url":"http://www.totalwine.com","tier":"","message":"","currency":"","rating":9},{"name":"Track 7 Brewing Co.","phone":"9165204677","address":"826 Professor Ln #100","lat":38.65432122996026,"lng":-121.49093611804362,"neighborhood":"North Sacramento","city_fetched":"Sacramento","state":"CA","country":"United States","canonicalUrl":"https://foursquare.com/v/track-7-brewing-co/54b0892a498efa9d6f00530a","category":"Brewery","checkinsCount":385,"usersCount":329,"tipCount":3,"visitsCount":868,"url":"http://www.track7brewing.com","tier":"","message":"","currency":"","rating":9},{"name":"Uncle Vito's Slice of NY","phone":"9164443699","address":"1501 16th St #100","lat":38.572306,"lng":-121.487822,"neighborhood":"Downtown Sacramento","city_fetched":"Sacramento","state":"CA","country":"United States","canonicalUrl":"https://foursquare.com/v/uncle-vitos-slice-of-ny/4a99bd40f964a520303020e3","category":"Pizza Place","checkinsCount":4527,"usersCount":1322,"tipCount":31,"visitsCount":4619,"url":"http://unclevito.com","tier":1,"message":"Cheap","currency":"$","rating":8.9},{"name":"Burgers and Brew","phone":"9164420900","twitter":"bandb_sac","address":"1409 R St #105","lat":38.56990531309198,"lng":-121.49122615081166,"neighborhood":"Downtown Sacramento","city_fetched":"Sacramento","state":"CA","country":"United States","canonicalUrl":"https://foursquare.com/v/burgers-and-brew/4b196fb7f964a52052dd23e3","category":"Burger Joint","checkinsCount":10827,"usersCount":4781,"tipCount":137,"visitsCount":11489,"url":"http://burgersbrew.com","tier":2,"message":"Moderate","currency":"$","rating":8.9},{"name":"Shady Lady Saloon","phone":"9162319121","address":"1409 R St","lat":38.57003072732695,"lng":-121.49143809737186,"neighborhood":"Downtown Sacramento","city_fetched":"Sacramento","state":"CA","country":"United States","canonicalUrl":"https://foursquare.com/v/shady-lady-saloon/4ae65a64f964a52098a621e3","category":"Cocktail Bar","checkinsCount":10295,"usersCount":3813,"tipCount":103,"visitsCount":10634,"url":"http://shadyladybar.com","tier":2,"message":"Moderate","currency":"$","rating":8.8},{"name":"Bottle & Barlow","phone":"9163797719","twitter":"bottleandbarlow","address":"1120 R St","lat":38.570816559538876,"lng":-121.49487938553524,"neighborhood":"Downtown Sacramento","city_fetched":"Sacramento","state":"CA","country":"United States","canonicalUrl":"https://foursquare.com/v/bottle--barlow/555e4fc2498e2877db2bd0e1","category":"Bar","checkinsCount":470,"usersCount":353,"tipCount":5,"visitsCount":782,"url":"http://bottleandbarlow.com","tier":"","message":"","currency":"","rating":8.8},{"name":"Federalist Public House & Beer Garden","phone":"9166616134","address":"2009 Matsui Alley","lat":38.572717577079864,"lng":-121.48115266133559,"neighborhood":"Midtown","city_fetched":"Sacramento","state":"CA","country":"United States","canonicalUrl":"https://foursquare.com/v/federalist-public-house--beer-garden/53add8e3498e8128513526b9","category":"Beer Garden","checkinsCount":586,"usersCount":542,"tipCount":6,"visitsCount":861,"url":"http://www.federalistpublichouse.com","tier":"","message":"","currency":"","rating":8.8},{"name":"Paesanos","phone":"9164478646","twitter":"paesanos_inc","address":"1806 Capitol Ave","lat":38.574041,"lng":-121.48370781666667,"neighborhood":"Midtown","city_fetched":"Sacramento","state":"CA","country":"United States","canonicalUrl":"https://foursquare.com/v/paesanos/4b0586b9f964a5205d6b22e3","category":"Pizza Place","checkinsCount":5164,"usersCount":2442,"tipCount":63,"visitsCount":5391,"url":"http://paesanos.biz","tier":2,"message":"Moderate","currency":"$","rating":8.8},{"name":"Twin Peaks Arden Arcade","phone":"9169744370","twitter":"twinpeakslodge","address":"535 Howe Ave","lat":38.575645446777344,"lng":-121.4158706665039,"neighborhood":"Arden - Arcade","city_fetched":"Sacramento","state":"CA","country":"United States","canonicalUrl":"https://foursquare.com/v/twin-peaks-arden-arcade/570335b1498e50df443ab23a","category":"Sports Bar","checkinsCount":51,"usersCount":77,"tipCount":1,"visitsCount":105,"url":"http://www.twinpeaksrestaurant.com","tier":"","message":"","currency":"","rating":8.7},{"name":"Coin-Op Game Room","phone":"8184480129","address":"908 K St","lat":38.57938101444003,"lng":-121.49514152157842,"neighborhood":"Downtown Sacramento","city_fetched":"Sacramento","state":"CA","country":"United States","canonicalUrl":"https://foursquare.com/v/coinop-game-room/554be0a2498e1edf55515978","category":"Bar","checkinsCount":895,"usersCount":840,"tipCount":23,"visitsCount":1425,"url":"http://www.coinopsac.com","tier":"","message":"","currency":"","rating":8.7},{"name":"The Waterboy","phone":"9164989891","twitter":"sac_waterboy","address":"2000 Capitol Ave","lat":38.57321675857158,"lng":-121.48121401969925,"neighborhood":"Midtown","city_fetched":"Sacramento","state":"CA","country":"United States","canonicalUrl":"https://foursquare.com/v/the-waterboy/4b0586b9f964a5203f6b22e3","category":"French Restaurant","checkinsCount":1139,"usersCount":624,"tipCount":22,"visitsCount":1148,"url":"http://www.waterboyrestaurant.com","tier":3,"message":"Expensive","currency":"$","rating":8.7},{"name":"Old Soul at The Weatherstone","phone":"9164436340","twitter":"oldsoulco","address":"812 21st St","lat":38.578121066093445,"lng":-121.477977,"neighborhood":"Boulevard Park","city_fetched":"Sacramento","state":"CA","country":"United States","canonicalUrl":"https://foursquare.com/v/old-soul-at-the-weatherstone/4a99be81f964a5203c3020e3","category":"Coffee Shop","checkinsCount":5496,"usersCount":1666,"tipCount":69,"visitsCount":6619,"url":"http://www.oldsoulco.com","tier":2,"message":"Moderate","currency":"$","rating":8.7},{"name":"Iron Horse Tavern","phone":"9164484488","twitter":"irontavern","address":"1800 15th St","lat":38.569533828309645,"lng":-121.49069628270219,"neighborhood":"Central Sacramento","city_fetched":"Sacramento","state":"CA","country":"United States","canonicalUrl":"https://foursquare.com/v/iron-horse-tavern/5510a06e498ed74b3e379e3f","category":"American Restaurant","checkinsCount":837,"usersCount":857,"tipCount":14,"visitsCount":1383,"url":"http://ironhorsetavern.net","tier":"","message":"","currency":"","rating":8.7},{"name":"Cafeteria 15L","phone":"9164921960","twitter":"cafeteria15l","address":"1116 15th St","lat":38.57658802692282,"lng":-121.48763179779051,"neighborhood":"Downtown Sacramento","city_fetched":"Sacramento","state":"CA","country":"United States","canonicalUrl":"https://foursquare.com/v/cafeteria-15l/4bb4d8b0a7059521f7c91bce","category":"American Restaurant","checkinsCount":5235,"usersCount":3101,"tipCount":69,"visitsCount":5723,"url":"http://www.cafeteria15l.com","tier":2,"message":"Moderate","currency":"$","rating":8.6},{"name":"Hoppy Brewing Company","phone":"9164514677","twitter":"hoppybrewing","address":"6300 Folsom Blvd","lat":38.55502950194707,"lng":-121.42965032538079,"neighborhood":"East Sacramento","city_fetched":"Sacramento","state":"CA","country":"United States","canonicalUrl":"https://foursquare.com/v/hoppy-brewing-company/4b0586b9f964a520466b22e3","category":"Restaurant","checkinsCount":4171,"usersCount":1534,"tipCount":46,"visitsCount":4770,"url":"http://www.hoppy.com","tier":1,"message":"Cheap","currency":"$","rating":8.5},{"name":"The Rind","phone":"9164417463","twitter":"the_rind","address":"1801 L St #40","lat":38.57505087497942,"lng":-121.48302686568559,"neighborhood":"Midtown","city_fetched":"Sacramento","state":"CA","country":"United States","canonicalUrl":"https://foursquare.com/v/the-rind/51982204498e2a792231fbe6","category":"American Restaurant","checkinsCount":679,"usersCount":410,"tipCount":15,"visitsCount":695,"url":"http://therindsacramento.com","tier":"","message":"","currency":"","rating":8.5},{"name":"Azul Mexican Food & Tequila Bar","phone":"9164474040","twitter":"azulmidtown","address":"1050 20th St","lat":38.57614812008623,"lng":-121.4802490161922,"neighborhood":"Midtown","city_fetched":"Sacramento","state":"CA","country":"United States","canonicalUrl":"https://foursquare.com/v/azul-mexican-food--tequila-bar/4ae8a9adf964a5204db121e3","category":"Mexican Restaurant","checkinsCount":2689,"usersCount":1061,"tipCount":29,"visitsCount":2715,"url":"http://www.azuldowntown.com","tier":1,"message":"Cheap","currency":"$","rating":8.4},{"name":"Firestone Public House","phone":"9164460888","twitter":"firestonepublic","address":"1132 16th St","lat":38.57614348595925,"lng":-121.48626923561096,"neighborhood":"Downtown Sacramento","city_fetched":"Sacramento","state":"CA","country":"United States","canonicalUrl":"https://foursquare.com/v/firestone-public-house/4f03844577168ad29ff7a602","category":"American Restaurant","checkinsCount":6317,"usersCount":3255,"tipCount":55,"visitsCount":7137,"url":"http://www.firestonepublichouse.com","tier":2,"message":"Moderate","currency":"$","rating":8.4},{"name":"33rd Street Bistro","phone":"9164552233","twitter":"33rstreetbistro","address":"3301 Folsom Blvd","lat":38.56752984948979,"lng":-121.46399892784663,"neighborhood":"East Sacramento","city_fetched":"Sacramento","state":"CA","country":"United States","canonicalUrl":"https://foursquare.com/v/33rd-street-bistro/4b0586b4f964a520806a22e3","category":"American Restaurant","checkinsCount":2564,"usersCount":1151,"tipCount":36,"visitsCount":2840,"url":"http://www.33rdstreetbistro.com","tier":2,"message":"Moderate","currency":"$","rating":8.4},{"name":"Bike Dog Brewing Co.","phone":"9164323376","twitter":"bikedogbeer","address":"2534 Industrial Blvd Ste 110","lat":38.56612845688703,"lng":-121.54348701576593,"city_fetched":"Sacramento","state":"CA","country":"United States","canonicalUrl":"https://foursquare.com/v/bike-dog-brewing-co/51328ba8e4b0eacbc7df2f65","category":"Brewery","checkinsCount":851,"usersCount":530,"tipCount":7,"visitsCount":1312,"url":"http://bikedogbrewing.com","tier":1,"message":"Cheap","currency":"$","rating":8.4},{"name":"Fox & Goose Public House","phone":"9164438825","twitter":"foxandgoosepub","address":"1001 R St","lat":38.57148825331662,"lng":-121.49697645714207,"neighborhood":"Downtown Sacramento","city_fetched":"Sacramento","state":"CA","country":"United States","canonicalUrl":"https://foursquare.com/v/fox--goose-public-house/4b0586b4f964a5208b6a22e3","category":"Pub","checkinsCount":6422,"usersCount":3481,"tipCount":85,"visitsCount":7403,"url":"http://www.foxandgoose.com","tier":2,"message":"Moderate","currency":"$","rating":8.4},{"name":"de Vere's Irish Pub","phone":"9162319947","twitter":"deverespub","address":"1521 L St","lat":38.576217818427175,"lng":-121.48646840550192,"neighborhood":"Downtown Sacramento","city_fetched":"Sacramento","state":"CA","country":"United States","canonicalUrl":"https://foursquare.com/v/de-veres-irish-pub/4b0f692bf964a5201e6223e3","category":"Irish Pub","checkinsCount":8909,"usersCount":3389,"tipCount":67,"visitsCount":9012,"url":"http://www.deverespub.com","tier":2,"message":"Moderate","currency":"$","rating":8.4},{"name":"Centro Cocina Mexicana","phone":"9164422552","twitter":"paragarygroup","address":"2730 J St","lat":38.573709959681075,"lng":-121.46943819299585,"neighborhood":"Midtown","city_fetched":"Sacramento","state":"CA","country":"United States","canonicalUrl":"https://foursquare.com/v/centro-cocina-mexicana/4b0586b9f964a520406b22e3","category":"Mexican Restaurant","checkinsCount":2498,"usersCount":1328,"tipCount":29,"visitsCount":2558,"url":"http://www.paragarys.com","tier":2,"message":"Moderate","currency":"$","rating":8.3},{"name":"Broderick Midtown","phone":"9164699720","address":"1820 L St","lat":38.57488565344301,"lng":-121.48267545469453,"neighborhood":"Midtown","city_fetched":"Sacramento","state":"CA","country":"United States","canonicalUrl":"https://foursquare.com/v/broderick-midtown/55d54a64498eec3023496348","category":"American Restaurant","checkinsCount":298,"usersCount":186,"tipCount":5,"visitsCount":314,"url":"http://broderick1893.com","tier":2,"message":"Moderate","currency":"$","rating":8.3},{"name":"Haggin Oaks","phone":"9164814653","twitter":"hagginoaks","address":"3645 Fulton Ave","lat":38.633157523324336,"lng":-121.40314538404085,"neighborhood":"North Sacramento","city_fetched":"Sacramento","state":"CA","country":"United States","canonicalUrl":"https://foursquare.com/v/haggin-oaks/4b1464c2f964a52079a223e3","category":"Golf Course","checkinsCount":3078,"usersCount":1437,"tipCount":10,"visitsCount":3736,"url":"http://www.hagginoaks.com","tier":"","message":"","currency":"","rating":8.3},{"name":"The Shack","phone":"9164575997","address":"5201 Folsom Blvd","lat":38.560432340643295,"lng":-121.44274707405268,"neighborhood":"East Sacramento","city_fetched":"Sacramento","state":"CA","country":"United States","canonicalUrl":"https://foursquare.com/v/the-shack/4b79beb2f964a5203e0f2fe3","category":"Pub","checkinsCount":2122,"usersCount":831,"tipCount":33,"visitsCount":2207,"url":"http://eastsacshack.com","tier":2,"message":"Moderate","currency":"$","rating":8.2},{"name":"Hook & Ladder Manufacturing Co.","phone":"9164424885","twitter":"hook_n_ladder","address":"1630 S St","lat":38.56775959927257,"lng":-121.48850083351135,"neighborhood":"Central Sacramento","city_fetched":"Sacramento","state":"CA","country":"United States","canonicalUrl":"https://foursquare.com/v/hook--ladder-manufacturing-co/4f03866377168ad29ff7e302","category":"American Restaurant","checkinsCount":2020,"usersCount":1517,"tipCount":48,"visitsCount":2781,"url":"http://hookandladder916.com","tier":2,"message":"Moderate","currency":"$","rating":8.2},{"name":"Kupros Craft House","phone":"9164400401","twitter":"kuprossacto","address":"1217 21st St","lat":38.57350493578328,"lng":-121.47962984783227,"neighborhood":"Midtown","city_fetched":"Sacramento","state":"CA","country":"United States","canonicalUrl":"https://foursquare.com/v/kupros-craft-house/4c663a7eb80abe9aaa9bcce5","category":"Bar","checkinsCount":5255,"usersCount":1845,"tipCount":39,"visitsCount":6249,"url":"http://www.kuprosbistro.com","tier":2,"message":"Moderate","currency":"$","rating":8.2},{"name":"Cheater's Sports Bar","phone":"9167360563","address":"3221 Folsom Blvd","lat":38.56810594323155,"lng":-121.46468512620986,"neighborhood":"East Sacramento","city_fetched":"Sacramento","state":"CA","country":"United States","canonicalUrl":"https://foursquare.com/v/cheaters-sports-bar/4b0586b4f964a520916a22e3","category":"Dive Bar","checkinsCount":855,"usersCount":316,"tipCount":7,"visitsCount":936,"tier":"","message":"","currency":"","rating":8.2},{"name":"Solon Club","phone":"9163764700","address":"400 Ball Park Dr","lat":38.57999126570167,"lng":-121.51380183999565,"city_fetched":"Sacramento","state":"CA","country":"United States","canonicalUrl":"https://foursquare.com/v/solon-club/4e0d2b86b0fb59de67ca7d7b","category":"Sports Bar","checkinsCount":132,"usersCount":88,"tipCount":5,"visitsCount":132,"url":"http://www.raleyfield.com","tier":"","message":"","currency":"","rating":8.2},{"name":"Seasons 52","phone":"9169225252","twitter":"seasons52","address":"1689 Arden Way #1065","lat":38.600997761665894,"lng":-121.4277696734707,"neighborhood":"Arden Fair","city_fetched":"Sacramento","state":"CA","country":"United States","canonicalUrl":"https://foursquare.com/v/seasons-52/50f714c416488f6cc85b5421","category":"New American Restaurant","checkinsCount":1568,"usersCount":956,"tipCount":21,"visitsCount":1725,"url":"http://seasons52.com","tier":3,"message":"Expensive","currency":"$","rating":8.2},{"name":"Ten22","phone":"9164412211","twitter":"ten22oldsac","address":"1022 2nd St","lat":38.5825911387359,"lng":-121.50453340571548,"neighborhood":"Old Sacramento","city_fetched":"Sacramento","state":"CA","country":"United States","canonicalUrl":"https://foursquare.com/v/ten22/4afc4550f964a5200a2122e3","category":"New American Restaurant","checkinsCount":2872,"usersCount":1974,"tipCount":50,"visitsCount":2972,"url":"http://ten22oldsac.com","tier":2,"message":"Moderate","currency":"$","rating":8.2},{"name":"LowBrau","phone":"9167062636","twitter":"lowbrau916","address":"1050 20th St","lat":38.57580626721282,"lng":-121.48038846806605,"neighborhood":"Midtown","city_fetched":"Sacramento","state":"CA","country":"United States","canonicalUrl":"https://foursquare.com/lowbrau916","category":"German Restaurant","checkinsCount":5514,"usersCount":2923,"tipCount":67,"visitsCount":7038,"url":"http://lowbrausacramento.com","tier":2,"message":"Moderate","currency":"$","rating":8.2},{"name":"Tank House BBQ & Bar","phone":"9164317199","twitter":"tankhousebbq","address":"1925 J St","lat":38.57695236353429,"lng":-121.480176501151,"neighborhood":"Boulevard Park","city_fetched":"Sacramento","state":"CA","country":"United States","canonicalUrl":"https://foursquare.com/v/tank-house-bbq--bar/52194ba111d24dc9c80f347c","category":"BBQ Joint","checkinsCount":1631,"usersCount":1231,"tipCount":35,"visitsCount":2253,"url":"http://tankhousebbq.com","tier":2,"message":"Moderate","currency":"$","rating":8.2},{"name":"The Golden Bear","phone":"9164412242","twitter":"goldenbear916","address":"2326 K St","lat":38.574122200177776,"lng":-121.47545176889426,"neighborhood":"Midtown","city_fetched":"Sacramento","state":"CA","country":"United States","canonicalUrl":"https://foursquare.com/v/the-golden-bear/4841336af964a52038501fe3","category":"Bar","checkinsCount":6241,"usersCount":2213,"tipCount":60,"visitsCount":6432,"url":"http://www.goldenbear916.com","tier":2,"message":"Moderate","currency":"$","rating":8.1},{"name":"Jamie's Bar & Grille","phone":"9164424044","address":"427 Broadway","lat":38.56591616666667,"lng":-121.507671,"neighborhood":"Land Park","city_fetched":"Sacramento","state":"CA","country":"United States","canonicalUrl":"https://foursquare.com/v/jamies-bar--grille/4bb275e942959c746bdd202c","category":"New American Restaurant","checkinsCount":1375,"usersCount":886,"tipCount":32,"visitsCount":1603,"url":"http://marleesdiner.com","tier":2,"message":"Moderate","currency":"$","rating":8.1},{"name":"Broderick Roadhouse","phone":"9163722436","twitter":"broderick1893","address":"319 6th St","lat":38.588212179781756,"lng":-121.51408623859753,"neighborhood":"Broderick","city_fetched":"Sacramento","state":"CA","country":"United States","canonicalUrl":"https://foursquare.com/v/broderick-roadhouse/505b4e68e4b0597d27a82c6d","category":"Restaurant","checkinsCount":1783,"usersCount":1208,"tipCount":18,"visitsCount":2494,"url":"http://broderick1893.com","tier":2,"message":"Moderate","currency":"$","rating":8.1},{"name":"Harlow's","phone":"9164414693","twitter":"sacharlows","address":"2708 J St","lat":38.57396514985772,"lng":-121.47006857328341,"neighborhood":"Midtown","city_fetched":"Sacramento","state":"CA","country":"United States","canonicalUrl":"https://foursquare.com/v/harlows/4b0586b5f964a520ad6a22e3","category":"Music Venue","checkinsCount":3119,"usersCount":1762,"tipCount":20,"visitsCount":3204,"url":"http://www.harlows.com","tier":"","message":"","currency":"","rating":8.1},{"name":"Simon's","phone":"9164429437","address":"1415 16th St","lat":38.57315,"lng":-121.4872,"neighborhood":"Midtown","city_fetched":"Sacramento","state":"CA","country":"United States","canonicalUrl":"https://foursquare.com/v/simons/4ac18d11f964a520789720e3","category":"Chinese Restaurant","checkinsCount":1686,"usersCount":773,"tipCount":27,"visitsCount":1811,"tier":2,"message":"Moderate","currency":"$","rating":8.1},{"name":"Jackrabbit Brewing Company","phone":"2096120259","twitter":"jackrabbitbeer","address":"1315 Terminal St","lat":38.571970722657156,"lng":-121.54126256703445,"city_fetched":"Sacramento","state":"CA","country":"United States","canonicalUrl":"https://foursquare.com/v/jackrabbit-brewing-company/53543e6e498e04c29420dc6b","category":"Brewery","checkinsCount":110,"usersCount":158,"tipCount":1,"visitsCount":257,"url":"http://jackrabbitbrewingcompany.com","tier":"","message":"","currency":"","rating":8.1},{"name":"Capitol Beer and Tap Room","phone":"9169221745","twitter":"capitolbeer","address":"2222 Fair Oaks Blvd","lat":38.57375289912028,"lng":-121.41404054723985,"neighborhood":"Campus Commons","city_fetched":"Sacramento","state":"CA","country":"United States","canonicalUrl":"https://foursquare.com/v/capitol-beer-and-tap-room/50272f7de4b043587a0fc0ca","category":"Beer Bar","checkinsCount":2058,"usersCount":646,"tipCount":21,"visitsCount":2668,"url":"http://capitolbeer.com","tier":2,"message":"Moderate","currency":"$","rating":8.1},{"name":"Virgin Sturgeon","phone":"9169212697","address":"1577 Garden Hwy","lat":38.60473773517264,"lng":-121.52267362896022,"city_fetched":"Sacramento","state":"CA","country":"United States","canonicalUrl":"https://foursquare.com/v/virgin-sturgeon/4e06c6332271dfa46bab7fb6","category":"Bar","checkinsCount":1002,"usersCount":703,"tipCount":20,"visitsCount":1260,"tier":2,"message":"Moderate","currency":"$","rating":8.1},{"name":"BJ's Restaurant and Brewhouse","phone":"9165701327","twitter":"bjsrestaurants","address":"3531 N Freeway Blvd","lat":38.64013001,"lng":-121.5018241,"neighborhood":"Promenade at Natomas","city_fetched":"Sacramento","state":"CA","country":"United States","canonicalUrl":"https://foursquare.com/v/bjs-restaurant-and-brewhouse/4b1eb53bf964a520351e24e3","category":"American Restaurant","checkinsCount":6450,"usersCount":3714,"tipCount":65,"visitsCount":7779,"url":"http://t.co/bl46gcjDLN","tier":2,"message":"Moderate","currency":"$","rating":8},{"name":"Streets of London","phone":"9164981388","twitter":"streetsmidtown","address":"1804 J St","lat":38.577158,"lng":-121.482203,"neighborhood":"Boulevard Park","city_fetched":"Sacramento","state":"CA","country":"United States","canonicalUrl":"https://foursquare.com/v/streets-of-london/48413135f964a52035501fe3","category":"Pub","checkinsCount":4753,"usersCount":2488,"tipCount":34,"visitsCount":5210,"url":"http://www.streetsoflondon.net","tier":1,"message":"Cheap","currency":"$","rating":8},{"name":"MIX Downtown","phone":"9164428899","twitter":"mixdowntown","address":"1531 L St","lat":38.576268180490246,"lng":-121.48651860548311,"neighborhood":"Downtown Sacramento","city_fetched":"Sacramento","state":"CA","country":"United States","canonicalUrl":"https://foursquare.com/v/mix-downtown/4b0586b6f964a520c86a22e3","category":"Nightclub","checkinsCount":6355,"usersCount":2288,"tipCount":38,"visitsCount":6423,"url":"http://www.mixdowntown.net","tier":3,"message":"Expensive","currency":"$","rating":8},{"name":"Flame Club","address":"2130 16th St","lat":38.56495856840079,"lng":-121.49105882430399,"neighborhood":"Central Sacramento","city_fetched":"Sacramento","state":"CA","country":"United States","canonicalUrl":"https://foursquare.com/v/flame-club/4ac44e45f964a520979e20e3","category":"Dive Bar","checkinsCount":1084,"usersCount":225,"tipCount":11,"visitsCount":1177,"tier":"","message":"","currency":"","rating":8},{"name":"The Torch Club","phone":"9164432797","address":"904 15th St","lat":38.579396086099834,"lng":-121.48645724994756,"neighborhood":"Mansion Flats","city_fetched":"Sacramento","state":"CA","country":"United States","canonicalUrl":"https://foursquare.com/v/the-torch-club/4b0586b6f964a520cd6a22e3","category":"Nightclub","checkinsCount":963,"usersCount":624,"tipCount":16,"visitsCount":983,"url":"http://torchclub.net","tier":"","message":"","currency":"","rating":8},{"name":"Device Brewing Co.","twitter":"devicebrewing","address":"8166 14th Ave","lat":38.53935448335588,"lng":-121.40675783157349,"neighborhood":"Southeastern Sacramento","city_fetched":"Sacramento","state":"CA","country":"United States","canonicalUrl":"https://foursquare.com/v/device-brewing-co/518d6a6fabd874aaa2835796","category":"Brewery","checkinsCount":384,"usersCount":292,"tipCount":11,"visitsCount":610,"url":"http://devicebrewing.com","tier":"","message":"","currency":"","rating":8},{"name":"Block Butcher Bar","phone":"9167062636","twitter":"block916","address":"1050 20th St Ste 100","lat":38.57597746514245,"lng":-121.48046656104164,"neighborhood":"Midtown","city_fetched":"Sacramento","state":"CA","country":"United States","canonicalUrl":"https://foursquare.com/v/block-butcher-bar/53095b56498e80e81521da4d","category":"Bar","checkinsCount":452,"usersCount":279,"tipCount":10,"visitsCount":458,"url":"http://www.blockbutcherbar.com","tier":3,"message":"Expensive","currency":"$","rating":7.9},{"name":"Sheraton Grand Sacramento Hotel","phone":"9164471700","twitter":"spg","address":"1230 J St","lat":38.5792206706029,"lng":-121.48986522148688,"neighborhood":"Downtown Sacramento","city_fetched":"Sacramento","state":"CA","country":"United States","canonicalUrl":"https://foursquare.com/v/sheraton-grand-sacramento-hotel/4ad7d912f964a520600f21e3","category":"Hotel","checkinsCount":10609,"usersCount":4990,"tipCount":37,"visitsCount":12692,"url":"http://www.sheratonsacramento.com","tier":"","message":"","currency":"","rating":7.9},{"name":"Rio City Café","phone":"9164428226","address":"1110 Front St","lat":38.58164134165047,"lng":-121.50683104991913,"neighborhood":"Old Sacramento","city_fetched":"Sacramento","state":"CA","country":"United States","canonicalUrl":"https://foursquare.com/v/rio-city-caf%C3%A9/4b0586b4f964a520876a22e3","category":"American Restaurant","checkinsCount":2941,"usersCount":2227,"tipCount":39,"visitsCount":3238,"url":"http://www.riocitycafe.com","tier":2,"message":"Moderate","currency":"$","rating":7.9},{"name":"Café Morocco","phone":"9167314637","address":"1221 Alhambra Blvd","lat":38.56962494592203,"lng":-121.46547731761586,"neighborhood":"East Sacramento","city_fetched":"Sacramento","state":"CA","country":"United States","canonicalUrl":"https://foursquare.com/v/caf%C3%A9-morocco/4bb282bf42959c74bcf1202c","category":"Moroccan Restaurant","checkinsCount":442,"usersCount":270,"tipCount":17,"visitsCount":445,"url":"http://www.cafemoroccosac.com","tier":2,"message":"Moderate","currency":"$","rating":7.9},{"name":"Riverside Clubhouse","phone":"9164489988","twitter":"riversideclubhs","address":"2633 Riverside Blvd","lat":38.56082000949571,"lng":-121.49935792557108,"neighborhood":"Land Park","city_fetched":"Sacramento","state":"CA","country":"United States","canonicalUrl":"https://foursquare.com/v/riverside-clubhouse/4b205a94f964a5200d3124e3","category":"American Restaurant","checkinsCount":2155,"usersCount":1017,"tipCount":12,"visitsCount":2388,"url":"http://www.riversideclubhouse.com","tier":3,"message":"Expensive","currency":"$","rating":7.9},{"name":"Der Biergarten Midtown","phone":"9163464572","twitter":"sacbeergarden","address":"2332 K St","lat":38.57439045798718,"lng":-121.47600173950195,"neighborhood":"Midtown","city_fetched":"Sacramento","state":"CA","country":"United States","canonicalUrl":"https://foursquare.com/v/der-biergarten-midtown/525da2e111d2c85d205dab41","category":"Beer Garden","checkinsCount":1219,"usersCount":682,"tipCount":19,"visitsCount":1334,"url":"http://www.dbmidtown.com","tier":1,"message":"Cheap","currency":"$","rating":7.9},{"name":"The Momo Lounge","phone":"9164414693","address":"2708 J St","lat":38.5739277424152,"lng":-121.4701355161203,"neighborhood":"Midtown","city_fetched":"Sacramento","state":"CA","country":"United States","canonicalUrl":"https://foursquare.com/v/the-momo-lounge/4b9b36e3f964a5203dfa35e3","category":"Nightclub","checkinsCount":1243,"usersCount":476,"tipCount":2,"visitsCount":1299,"url":"http://www.harlows.com/the-momo-lounge","tier":"","message":"","currency":"","rating":7.9},{"name":"PourHouse","phone":"9167062465","address":"1910 Q St","lat":38.56904970819756,"lng":-121.48402531328117,"neighborhood":"Midtown","city_fetched":"Sacramento","state":"CA","country":"United States","canonicalUrl":"https://foursquare.com/v/pourhouse/51057e1ae4b0e616db89c1f7","category":"Bar","checkinsCount":306,"usersCount":324,"tipCount":3,"visitsCount":518,"url":"http://pourhousesacramento.com","tier":"","message":"","currency":"","rating":7.8},{"name":"Crawdad's River Cantina","phone":"9169292268","address":"1375 Garden Hwy","lat":38.60350303660155,"lng":-121.51738744136496,"city_fetched":"Sacramento","state":"CA","country":"United States","canonicalUrl":"https://foursquare.com/v/crawdads-river-cantina/4b0586b6f964a520cb6a22e3","category":"Bar","checkinsCount":1436,"usersCount":1034,"tipCount":20,"visitsCount":1652,"url":"http://www.crawdadsrivercantina.com","tier":2,"message":"Moderate","currency":"$","rating":7.8},{"name":"Oshima Sushi & Fugu Lounge","phone":"9165151958","twitter":"fugu_lounge","address":"2071 Natomas Crossing Dr","lat":38.640887394800124,"lng":-121.50909521960135,"neighborhood":"Natomas Crossing","city_fetched":"Sacramento","state":"CA","country":"United States","canonicalUrl":"https://foursquare.com/v/oshima-sushi--fugu-lounge/4b085efef964a520500a23e3","category":"Sushi Restaurant","checkinsCount":2473,"usersCount":979,"tipCount":24,"visitsCount":2720,"url":"http://www.thefugulounge.com","tier":2,"message":"Moderate","currency":"$","rating":7.8},{"name":"Oak Park Brewing Company","phone":"9166602723","address":"3514 Broadway","lat":38.55064907385316,"lng":-121.46818041801453,"neighborhood":"Oak Park, Sacramento, CA","city_fetched":"Sacramento","state":"CA","country":"United States","canonicalUrl":"https://foursquare.com/v/oak-park-brewing-company/527b049e11d26f356e48ea0b","category":"Brewery","checkinsCount":577,"usersCount":521,"tipCount":5,"visitsCount":898,"url":"http://www.opbrewco.com","tier":"","message":"","currency":"","rating":7.8},{"name":"Elixir Bar & Grill","phone":"9164420693","address":"1815 10th St","lat":38.570882,"lng":-121.49710536003113,"neighborhood":"Southside Park","city_fetched":"Sacramento","state":"CA","country":"United States","canonicalUrl":"https://foursquare.com/v/elixir-bar--grill/4b7b88abf964a52087662fe3","category":"Bar","checkinsCount":2875,"usersCount":630,"tipCount":17,"visitsCount":2923,"tier":"","message":"","currency":"","rating":7.8},{"name":"Sidetrax","phone":"9164416823","twitter":"sidetraxsac","address":"2007 K St","lat":38.57564268609884,"lng":-121.47986412814383,"neighborhood":"Midtown","city_fetched":"Sacramento","state":"CA","country":"United States","canonicalUrl":"https://foursquare.com/v/sidetrax/50cd2699e4b0cbbcd577a82f","category":"Gay Bar","checkinsCount":509,"usersCount":241,"tipCount":7,"visitsCount":522,"url":"http://www.sidetraxsac.com","tier":"","message":"","currency":"","rating":7.8},{"name":"Rubicon Brewing Co.","phone":"9164487032","twitter":"rubiconman","address":"2004 Capitol Ave","lat":38.57319116592407,"lng":-121.481106,"neighborhood":"Midtown","city_fetched":"Sacramento","state":"CA","country":"United States","canonicalUrl":"https://foursquare.com/v/rubicon-brewing-co/4a9869f9f964a520e12b20e3","category":"Brewery","checkinsCount":4915,"usersCount":2239,"tipCount":57,"visitsCount":5078,"url":"http://www.rubiconbrewing.com","tier":2,"message":"Moderate","currency":"$","rating":7.8},{"name":"Mercantile Saloon","phone":"9164470792","address":"1928 L St","lat":38.574205597823095,"lng":-121.48124190985376,"neighborhood":"Midtown","city_fetched":"Sacramento","state":"CA","country":"United States","canonicalUrl":"https://foursquare.com/v/mercantile-saloon/4b4ec1e3f964a5200bf526e3","category":"Gay Bar","checkinsCount":6643,"usersCount":2334,"tipCount":41,"visitsCount":7726,"tier":1,"message":"Cheap","currency":"$","rating":7.8},{"name":"Social Nightclub","phone":"9164439001","twitter":"socialniteclub","address":"1000 K St","lat":38.57896564019209,"lng":-121.49379737086113,"neighborhood":"Downtown Sacramento","city_fetched":"Sacramento","state":"CA","country":"United States","canonicalUrl":"https://foursquare.com/v/social-nightclub/4b770a98f964a52049772ee3","category":"Nightclub","checkinsCount":2209,"usersCount":943,"tipCount":10,"visitsCount":2266,"url":"http://www.socialnightclubsacramento.com","tier":"","message":"","currency":"","rating":7.8},{"name":"Arthur Henry's Supper Club & Ruby Room","phone":"9167375110","address":"3406 Broadway","lat":38.55251632425733,"lng":-121.46947166460224,"neighborhood":"North Oak Park","city_fetched":"Sacramento","state":"CA","country":"United States","canonicalUrl":"https://foursquare.com/v/arthur-henrys-supper-club--ruby-room/52abcd1311d2e83048122c53","category":"Steakhouse","checkinsCount":85,"usersCount":67,"tipCount":5,"visitsCount":94,"url":"http://arthurhenrys.net","tier":"","message":"","currency":"","rating":7.7},{"name":"Blackbird Kitchen + Beer Gallery","phone":"9164989224","twitter":"blackbirdflock","address":"1015 9th St","lat":38.58011112340898,"lng":-121.49489611764098,"neighborhood":"Downtown Sacramento","city_fetched":"Sacramento","state":"CA","country":"United States","canonicalUrl":"https://foursquare.com/v/blackbird-kitchen--beer-gallery/4dd1c58dd22d67839c4d9688","category":"New American Restaurant","checkinsCount":1120,"usersCount":681,"tipCount":16,"visitsCount":1157,"url":"http://www.blackbird-kitchen.com","tier":"","message":"","currency":"","rating":7.7},{"name":"58 Degrees & Holding","phone":"9164425858","twitter":"58degreessac","address":"1217 18th St","lat":38.574527,"lng":-121.48366727,"neighborhood":"Midtown","city_fetched":"Sacramento","state":"CA","country":"United States","canonicalUrl":"https://foursquare.com/v/58-degrees--holding/4b5a9bdef964a52098cd28e3","category":"Wine Bar","checkinsCount":2169,"usersCount":1131,"tipCount":35,"visitsCount":2234,"url":"http://www.58degrees.com","tier":2,"message":"Moderate","currency":"$","rating":7.7},{"name":"The Hideaway","phone":"9164551331","address":"2565 Franklin Blvd","lat":38.556036049711416,"lng":-121.47564143130246,"neighborhood":"Curtis Park","city_fetched":"Sacramento","state":"CA","country":"United States","canonicalUrl":"https://foursquare.com/v/the-hideaway/4cba82a04495721eb2e4507a","category":"Pub","checkinsCount":1687,"usersCount":572,"tipCount":19,"visitsCount":1918,"tier":1,"message":"Cheap","currency":"$","rating":7.7},{"name":"Badlands","phone":"9164488790","twitter":"badlandssac","address":"2003 K St","lat":38.57573152535455,"lng":-121.48000915857399,"neighborhood":"Midtown","city_fetched":"Sacramento","state":"CA","country":"United States","canonicalUrl":"https://foursquare.com/v/badlands/4b0842a6f964a520980723e3","category":"Gay Bar","checkinsCount":5954,"usersCount":1682,"tipCount":27,"visitsCount":6031,"url":"http://www.sacbadlands.com","tier":2,"message":"Moderate","currency":"$","rating":7.6},{"name":"Freeport Bar & Grill","phone":"9166651169","address":"8259 Freeport Blvd","lat":38.45797955989838,"lng":-121.50074568333334,"neighborhood":"Meadowview","city_fetched":"Sacramento","state":"CA","country":"United States","canonicalUrl":"https://foursquare.com/v/freeport-bar--grill/4b3fb682f964a520fbac25e3","category":"Pub","checkinsCount":548,"usersCount":510,"tipCount":7,"visitsCount":857,"url":"http://www.freeportbarandgrill.com","tier":"","message":"","currency":"","rating":7.6},{"name":"Ruhstaller Brewery","phone":"9164471881","twitter":"ruhstallerbeer","address":"630 K St","lat":38.579947013220554,"lng":-121.49804171024482,"neighborhood":"Downtown Sacramento","city_fetched":"Sacramento","state":"CA","country":"United States","canonicalUrl":"https://foursquare.com/v/ruhstaller-brewery/5359be06498e8a16c1eb8704","category":"Brewery","checkinsCount":232,"usersCount":210,"tipCount":8,"visitsCount":263,"url":"http://ruhstallerbeer.com","tier":"","message":"","currency":"","rating":7.6},{"name":"Faces","phone":"9164487798","twitter":"faces_nightclub","address":"2000 K St","lat":38.575405521274256,"lng":-121.48038288999432,"neighborhood":"Midtown","city_fetched":"Sacramento","state":"CA","country":"United States","canonicalUrl":"https://foursquare.com/v/faces/4b0586b4f964a520896a22e3","category":"Gay Bar","checkinsCount":5399,"usersCount":1832,"tipCount":33,"visitsCount":5540,"url":"http://www.faces.net","tier":2,"message":"Moderate","currency":"$","rating":7.6},{"name":"O'Mally's Irish Pub","phone":"9164921230","address":"1109 2nd St","lat":38.58172164070814,"lng":-121.50467282814019,"neighborhood":"Old Sacramento","city_fetched":"Sacramento","state":"CA","country":"United States","canonicalUrl":"https://foursquare.com/v/omallys-irish-pub/4b0586b4f964a520a16a22e3","category":"Pub","checkinsCount":1490,"usersCount":961,"tipCount":26,"visitsCount":1540,"tier":"","message":"","currency":"","rating":7.6},{"name":"Ace of Spades","phone":"9169300220","twitter":"aceofspadessac","address":"1417 R St","lat":38.569999100000004,"lng":-121.4908904,"neighborhood":"Downtown Sacramento","city_fetched":"Sacramento","state":"CA","country":"United States","canonicalUrl":"https://foursquare.com/v/ace-of-spades/4d0c56483905b1f7e0e0934b","category":"Music Venue","checkinsCount":4268,"usersCount":2242,"tipCount":23,"visitsCount":4351,"url":"http://www.aceofspadessac.com","tier":"","message":"","currency":"","rating":7.6},{"name":"The Bolt","phone":"9166498420","address":"2560 Boxwood St","lat":38.61222376,"lng":-121.44597215,"neighborhood":"North Sacramento","city_fetched":"Sacramento","state":"CA","country":"United States","canonicalUrl":"https://foursquare.com/v/the-bolt/4bb6ed16f562ef3ba2e53097","category":"Gay Bar","checkinsCount":1770,"usersCount":474,"tipCount":14,"visitsCount":2065,"url":"http://www.sacbolt.com","tier":"","message":"","currency":"","rating":7.5},{"name":"Q St. Bar and Grill (Benny's)","phone":"9164435555","address":"2013 Q St","lat":38.5690465513358,"lng":-121.4827368122465,"neighborhood":"Midtown","city_fetched":"Sacramento","state":"CA","country":"United States","canonicalUrl":"https://foursquare.com/v/q-st-bar-and-grill-bennys/48413066f964a52034501fe3","category":"Bar","checkinsCount":2124,"usersCount":721,"tipCount":11,"visitsCount":2237,"url":"http://www.myspace.com/qstbar","tier":1,"message":"Cheap","currency":"$","rating":7.5},{"name":"B-Side","address":"1430 S St","lat":38.56852600427919,"lng":-121.49104766919483,"neighborhood":"Central Sacramento","city_fetched":"Sacramento","state":"CA","country":"United States","canonicalUrl":"https://foursquare.com/v/bside/565e30ea498e9279795f5553","category":"Dive Bar","checkinsCount":197,"usersCount":191,"tipCount":4,"visitsCount":408,"url":"http://www.b-sidesacramento.com","tier":"","message":"","currency":"","rating":7.5},{"name":"Sail Inn Grotto & Bar","phone":"9162722733","address":"1522 Jefferson Blvd","lat":38.56933274312301,"lng":-121.52461964296815,"city_fetched":"Sacramento","state":"CA","country":"United States","canonicalUrl":"https://foursquare.com/v/sail-inn-grotto--bar/56f9def0498e8884f9d9d85f","category":"Dive Bar","checkinsCount":34,"usersCount":33,"tipCount":3,"visitsCount":55,"tier":"","message":"","currency":"","rating":7.5},{"name":"New Helvetia Brewing Co.","phone":"9164699889","twitter":"newhelvetiabrew","address":"1730 Broadway","lat":38.56082611158017,"lng":-121.4898955821991,"neighborhood":"Land Park","city_fetched":"Sacramento","state":"CA","country":"United States","canonicalUrl":"https://foursquare.com/v/new-helvetia-brewing-co/50c2a33ce4b0bde4a8a11669","category":"Brewery","checkinsCount":914,"usersCount":622,"tipCount":14,"visitsCount":1169,"tier":1,"message":"Cheap","currency":"$","rating":7.5},{"name":"Vega's Night Club & Sports Bar","phone":"9167063502","address":"910 2nd St","lat":38.58425382884681,"lng":-121.5038537979126,"neighborhood":"Old Sacramento","city_fetched":"Sacramento","state":"CA","country":"United States","canonicalUrl":"https://foursquare.com/v/vegas-night-club--sports-bar/4b93469af964a520323e34e3","category":"Nightclub","checkinsCount":127,"usersCount":90,"tipCount":2,"visitsCount":127,"tier":"","message":"","currency":"","rating":7.5},{"name":"House Kitchen & Bar","phone":"9164989924","twitter":"housekitchenbar","address":"555 Capitol Mall #155","lat":38.57885272161907,"lng":-121.50108682957257,"neighborhood":"Downtown Sacramento","city_fetched":"Sacramento","state":"CA","country":"United States","canonicalUrl":"https://foursquare.com/v/house-kitchen--bar/4b6b2726f964a52029f62be3","category":"New American Restaurant","checkinsCount":1436,"usersCount":555,"tipCount":23,"visitsCount":1510,"url":"http://www.houseoncapitol.com","tier":2,"message":"Moderate","currency":"$","rating":7.5},{"name":"The Limelight","phone":"9164462208","twitter":"limelightsac","address":"1014 Alhambra Blvd","lat":38.57235790212093,"lng":-121.4656558388714,"neighborhood":"East Sacramento","city_fetched":"Sacramento","state":"CA","country":"United States","canonicalUrl":"https://foursquare.com/v/the-limelight/4a8f7105f964a520491520e3","category":"Bar","checkinsCount":1987,"usersCount":754,"tipCount":17,"visitsCount":2111,"url":"http://www.limelightcardroom.com","tier":"","message":"","currency":"","rating":7.5},{"name":"BJ's Restaurant and Brewhouse","phone":"9165701920","twitter":"bjsrestaurants","address":"1689 Arden Way #1058","lat":38.599693,"lng":-121.427045,"neighborhood":"Arden Fair","city_fetched":"Sacramento","state":"CA","country":"United States","canonicalUrl":"https://foursquare.com/v/bjs-restaurant-and-brewhouse/4d7fb4486174a35de603a003","category":"American Restaurant","checkinsCount":6167,"usersCount":3627,"tipCount":62,"visitsCount":6853,"url":"http://t.co/bl46gcjDLN","tier":2,"message":"Moderate","currency":"$","rating":7.5},{"name":"Blue Lamp","phone":"9164553400","address":"1400 Alhambra Blvd","lat":38.56823355192237,"lng":-121.46748304367065,"neighborhood":"East Sacramento","city_fetched":"Sacramento","state":"CA","country":"United States","canonicalUrl":"https://foursquare.com/v/blue-lamp/4af4f9a8f964a520cef721e3","category":"Music Venue","checkinsCount":813,"usersCount":502,"tipCount":8,"visitsCount":835,"url":"http://www.bluelamp.com","tier":"","message":"","currency":"","rating":7.4},{"name":"Yolo Brewing Co.","phone":"9163797585","twitter":"yolobrew","address":"1520 Terminal St","lat":38.56942345798917,"lng":-121.54190370331101,"city_fetched":"Sacramento","state":"CA","country":"United States","canonicalUrl":"https://foursquare.com/v/yolo-brewing-co/53875dc7498ea1c8a7f60ef2","category":"Brewery","checkinsCount":335,"usersCount":359,"tipCount":10,"visitsCount":652,"url":"http://www.yolobrew.com","tier":1,"message":"Cheap","currency":"$","rating":7.4},{"name":"Esquire Grill","phone":"9164488900","twitter":"paragarygroup","address":"1213 K St","lat":38.5782613215432,"lng":-121.48987144231796,"neighborhood":"Downtown Sacramento","city_fetched":"Sacramento","state":"CA","country":"United States","canonicalUrl":"https://foursquare.com/v/esquire-grill/4b48dee5f964a520025b26e3","category":"American Restaurant","checkinsCount":1150,"usersCount":621,"tipCount":7,"visitsCount":1165,"url":"http://www.paragarys.com/go/prg/locations/esquire-grill","tier":3,"message":"Expensive","currency":"$","rating":7.4},{"name":"Capitol Garage","phone":"9164443633","twitter":"capitolgarage","address":"1500 K St","lat":38.57711971172353,"lng":-121.48715447001562,"neighborhood":"Downtown Sacramento","city_fetched":"Sacramento","state":"CA","country":"United States","canonicalUrl":"https://foursquare.com/v/capitol-garage/4a3ece8cf964a52074a31fe3","category":"American Restaurant","checkinsCount":4615,"usersCount":2551,"tipCount":61,"visitsCount":4883,"url":"http://capitolgarage.com","tier":2,"message":"Moderate","currency":"$","rating":7.4},{"name":"Pete's Restaurant & Brewhouse","phone":"9165759950","twitter":"petesrandb","address":"4571 Gateway Park Blvd Ste 1C","lat":38.655596,"lng":-121.50322128333333,"neighborhood":"North Sacramento","city_fetched":"Sacramento","state":"CA","country":"United States","canonicalUrl":"https://foursquare.com/v/petes-restaurant--brewhouse/4b85fa06f964a5204d7c31e3","category":"Pizza Place","checkinsCount":1396,"usersCount":708,"tipCount":18,"visitsCount":1701,"url":"http://www.originalpetes.net","tier":"","message":"","currency":"","rating":7.4},{"name":"Vapour House Vape Shop Lounge","phone":"9163968052","twitter":"vapourhousesac","address":"1910 Q St","lat":38.568971737433735,"lng":-121.4839518070221,"neighborhood":"Midtown","city_fetched":"Sacramento","state":"CA","country":"United States","canonicalUrl":"https://foursquare.com/v/vapour-house-vape-shop-lounge/527e163011d2475044845b71","category":"Smoke Shop","checkinsCount":2256,"usersCount":1026,"tipCount":30,"visitsCount":2293,"url":"http://www.vapourhousesac.com","tier":"","message":"","currency":"","rating":7.4},{"name":"Socal's Tavern","phone":"9164551646","address":"5200 Folsom Blvd","lat":38.56013967086194,"lng":-121.44286425172905,"neighborhood":"East Sacramento","city_fetched":"Sacramento","state":"CA","country":"United States","canonicalUrl":"https://foursquare.com/v/socals-tavern/4b3c309ff964a520bf8225e3","category":"Dive Bar","checkinsCount":2012,"usersCount":465,"tipCount":12,"visitsCount":2094,"tier":"","message":"","currency":"","rating":7.4},{"name":"Fieldwork Brewing Sacramento Taproom","address":"1508 Capitol Ave","lat":38.574147,"lng":-121.483188,"neighborhood":"Midtown","city_fetched":"Sacramento","state":"California","canonicalUrl":"https://foursquare.com/v/fieldwork-brewing-sacramento-taproom/57b6322d498e3f2ad1b73132","category":"Beer Bar","checkinsCount":61,"usersCount":50,"tipCount":1,"visitsCount":61,"tier":"","message":"","currency":"","rating":7.4},{"name":"The Grand Wine Bar","phone":"9164440472","address":"1600 L St","lat":38.576025559348544,"lng":-121.48620067189901,"neighborhood":"Downtown Sacramento","city_fetched":"Sacramento","state":"CA","country":"United States","canonicalUrl":"https://foursquare.com/v/the-grand-wine-bar/4b627306f964a52013482ae3","category":"Wine Bar","checkinsCount":461,"usersCount":191,"tipCount":4,"visitsCount":475,"tier":"","message":"","currency":"","rating":7.3},{"name":"Blue Cue","phone":"9164416810","twitter":"bluecuemidtown","address":"1004 28th St","lat":38.57369005680084,"lng":-121.4694893360138,"neighborhood":"Midtown","city_fetched":"Sacramento","state":"CA","country":"United States","canonicalUrl":"https://foursquare.com/v/blue-cue/4b0586b5f964a520aa6a22e3","category":"Lounge","checkinsCount":3232,"usersCount":1198,"tipCount":21,"visitsCount":3256,"url":"http://www.bluecue.com","tier":2,"message":"Moderate","currency":"$","rating":7.3},{"name":"Laughs Unlimited","phone":"9164465905","address":"1207 Front St","lat":38.580991,"lng":-121.506189,"neighborhood":"Old Sacramento","city_fetched":"Sacramento","state":"CA","country":"United States","canonicalUrl":"https://foursquare.com/v/laughs-unlimited/4b0586b5f964a520bc6a22e3","category":"Comedy Club","checkinsCount":947,"usersCount":663,"tipCount":6,"visitsCount":965,"url":"http://laughsunlimited.com","tier":"","message":"","currency":"","rating":7.3},{"name":"Bonn Lair","phone":"9164557155","address":"3651 J St","lat":38.5708171680333,"lng":-121.45747303962708,"neighborhood":"East Sacramento","city_fetched":"Sacramento","state":"CA","country":"United States","canonicalUrl":"https://foursquare.com/v/bonn-lair/4aa724f8f964a520004c20e3","category":"Pub","checkinsCount":2307,"usersCount":761,"tipCount":24,"visitsCount":2393,"url":"http://bonnlair.com","tier":"","message":"","currency":"","rating":7.3},{"name":"New Glory Craft Brewery","phone":"9167608306","twitter":"newglorybrewery","address":"8251 Alpine Ave","lat":38.5358136691651,"lng":-121.40209041892139,"neighborhood":"Southeastern Sacramento","city_fetched":"Sacramento","state":"CA","country":"United States","canonicalUrl":"https://foursquare.com/v/new-glory-craft-brewery/5295052211d2a8ed3d8c744a","category":"Brewery","checkinsCount":226,"usersCount":215,"tipCount":8,"visitsCount":370,"url":"http://newglorybeer.com","tier":"","message":"","currency":"","rating":7.2},{"name":"Hana Tsubaki","phone":"9164562849","address":"5006 J St","lat":38.56652221666667,"lng":-121.442351,"neighborhood":"East Sacramento","city_fetched":"Sacramento","state":"CA","country":"United States","canonicalUrl":"https://foursquare.com/v/hana-tsubaki/4b0586b5f964a520bf6a22e3","category":"Sushi Restaurant","checkinsCount":306,"usersCount":174,"tipCount":7,"visitsCount":330,"tier":"","message":"","currency":"","rating":7.2},{"name":"Iron Grill","phone":"9167375115","twitter":"irongrillandbar","address":"2422 13th St","lat":38.562910262292526,"lng":-121.49636295611005,"neighborhood":"Land Park","city_fetched":"Sacramento","state":"CA","country":"United States","canonicalUrl":"https://foursquare.com/v/iron-grill/4b62659bf964a520d8452ae3","category":"Breakfast Spot","checkinsCount":899,"usersCount":614,"tipCount":31,"visitsCount":1184,"url":"http://irongrillsacramento.com","tier":2,"message":"Moderate","currency":"$","rating":7.2},{"name":"Pine Cove Tavern","phone":"9164463624","address":"502 29th St","lat":38.57882074981493,"lng":-121.46581762352046,"neighborhood":"Midtown","city_fetched":"Sacramento","state":"CA","country":"United States","canonicalUrl":"https://foursquare.com/v/pine-cove-tavern/4b0586b4f964a5208d6a22e3","category":"Dive Bar","checkinsCount":2043,"usersCount":909,"tipCount":15,"visitsCount":2192,"url":"http://www.pinecovetavern.com","tier":"","message":"","currency":"","rating":7.2},{"name":"Fanny Ann's Saloon","phone":"9164410505","address":"1023 2nd St","lat":38.58244438755833,"lng":-121.50429904460907,"neighborhood":"Old Sacramento","city_fetched":"Sacramento","state":"CA","country":"United States","canonicalUrl":"https://foursquare.com/v/fanny-anns-saloon/4b0586b3f964a5207e6a22e3","category":"Bar","checkinsCount":2594,"usersCount":1612,"tipCount":27,"visitsCount":2639,"url":"http://fannyannsaloon.com","tier":2,"message":"Moderate","currency":"$","rating":7.2},{"name":"Kasbah Lounge","phone":"9164424388","address":"2115 J St","lat":38.57620971183235,"lng":-121.47783926113479,"neighborhood":"Boulevard Park","city_fetched":"Sacramento","state":"CA","country":"United States","canonicalUrl":"https://foursquare.com/v/kasbah-lounge/4ab5c26df964a5200b7620e3","category":"Lounge","checkinsCount":1366,"usersCount":698,"tipCount":20,"visitsCount":1383,"url":"http://www.kasbahlounge.com","tier":2,"message":"Moderate","currency":"$","rating":7.2},{"name":"3 Fires Lounge","phone":"9162676823","twitter":"3fireslounge","address":"1501 L St","lat":38.57620963131915,"lng":-121.48756722230479,"neighborhood":"Downtown Sacramento","city_fetched":"Sacramento","state":"CA","country":"United States","canonicalUrl":"https://foursquare.com/v/3-fires-lounge/4ad7e330f964a520d70f21e3","category":"Lounge","checkinsCount":1461,"usersCount":748,"tipCount":11,"visitsCount":1468,"url":"http://www.3fireslounge.com","tier":2,"message":"Moderate","currency":"$","rating":7.2},{"name":"KBAR","phone":"9166695762","twitter":"kbaratprg","address":"1024 10th St","lat":38.579100051047696,"lng":-121.4937686920166,"neighborhood":"Downtown Sacramento","city_fetched":"Sacramento","state":"CA","country":"United States","canonicalUrl":"https://foursquare.com/v/kbar/4f7a43dce4b05c0cc9537606","category":"Bar","checkinsCount":1693,"usersCount":964,"tipCount":10,"visitsCount":1742,"url":"http://www.kbarsacramento.com","tier":2,"message":"Moderate","currency":"$","rating":7.2},{"name":"On the Y","address":"615 Munroe St","lat":38.57709671337529,"lng":-121.40173876175041,"neighborhood":"Arden - Arcade","city_fetched":"Sacramento","state":"CA","country":"United States","canonicalUrl":"https://foursquare.com/v/on-the-y/4b78c902f964a52045e22ee3","category":"Bar","checkinsCount":387,"usersCount":250,"tipCount":6,"visitsCount":429,"tier":"","message":"","currency":"","rating":7.2},{"name":"Frasinetti's Winery & Restaurant","phone":"9163832444","address":"7395 Frasinetti Rd","lat":38.48955144382478,"lng":-121.39495659363212,"city_fetched":"Sacramento","state":"CA","country":"United States","canonicalUrl":"https://foursquare.com/v/frasinettis-winery--restaurant/4b0586b8f964a520216b22e3","category":"Wine Bar","checkinsCount":271,"usersCount":238,"tipCount":6,"visitsCount":317,"url":"http://www.frasinetti.com","tier":"","message":"","currency":"","rating":7.1},{"name":"District 30","phone":"9167375770","twitter":"district_30","address":"1022 K St","lat":38.57891133776306,"lng":-121.4932107925415,"neighborhood":"Downtown Sacramento","city_fetched":"Sacramento","state":"CA","country":"United States","canonicalUrl":"https://foursquare.com/v/district-30/4cd4619ea5b346881b9c8750","category":"Nightclub","checkinsCount":2990,"usersCount":1100,"tipCount":18,"visitsCount":3010,"url":"http://district30sacramento.com","tier":2,"message":"Moderate","currency":"$","rating":7.1},{"name":"Clubhouse 56","phone":"9164545656","address":"723 56th St","lat":38.56809553009464,"lng":-121.43362917067121,"neighborhood":"East Sacramento","city_fetched":"Sacramento","state":"CA","country":"United States","canonicalUrl":"https://foursquare.com/v/clubhouse-56/4bdd1110645e0f4735cb6a19","category":"Bar","checkinsCount":1687,"usersCount":540,"tipCount":10,"visitsCount":1789,"tier":2,"message":"Moderate","currency":"$","rating":7.1},{"name":"Old Ironsides","phone":"9164439751","twitter":"theoldironsides","address":"1901 10th St","lat":38.57024257313268,"lng":-121.49765253067017,"neighborhood":"Southside Park","city_fetched":"Sacramento","state":"CA","country":"United States","canonicalUrl":"https://foursquare.com/v/old-ironsides/4b0586b3f964a5207c6a22e3","category":"Bar","checkinsCount":1884,"usersCount":748,"tipCount":11,"visitsCount":1991,"url":"http://www.theoldironsides.com","tier":"","message":"","currency":"","rating":7.1},{"name":"Field House American Sports Bar","phone":"9164871045","twitter":"fieldhousesac","address":"1310 Fulton Ave","lat":38.58948882738087,"lng":-121.40109126321985,"neighborhood":"Arden - Arcade","city_fetched":"Sacramento","state":"CA","country":"United States","canonicalUrl":"https://foursquare.com/v/field-house-american-sports-bar/531a7159498ed1a9376985ae","category":"Sports Bar","checkinsCount":292,"usersCount":232,"tipCount":7,"visitsCount":409,"url":"http://fieldhousesac.com","tier":"","message":"","currency":"","rating":7.1},{"name":"Punch Line Comedy Club Sacramento","phone":"9169258500","twitter":"punchlinesac","address":"2100 Arden Way #225","lat":38.59543583265055,"lng":-121.41727206117156,"neighborhood":"Arden - Arcade","city_fetched":"Sacramento","state":"CA","country":"United States","canonicalUrl":"https://foursquare.com/v/punch-line-comedy-club-sacramento/4c43bd5b2d3ec9b620062eae","category":"Comedy Club","checkinsCount":1937,"usersCount":1174,"tipCount":12,"visitsCount":2026,"url":"http://www.punchlinesac.com","tier":"","message":"","currency":"","rating":7},{"name":"Downtown & Vine","phone":"9162284518","twitter":"downtownandvine","address":"1200 K St #8","lat":38.578148092309746,"lng":-121.49009943008423,"neighborhood":"Downtown Sacramento","city_fetched":"Sacramento","state":"CA","country":"United States","canonicalUrl":"https://foursquare.com/v/downtown--vine/50676303f31c0ff9cf2a2b8d","category":"Winery","checkinsCount":288,"usersCount":201,"tipCount":7,"visitsCount":292,"url":"http://www.downtownandvine.com","tier":"","message":"","currency":"","rating":7},{"name":"The Other Office","address":"928 2nd St","lat":38.583341,"lng":-121.504121,"neighborhood":"Old Sacramento","city_fetched":"Sacramento","state":"CA","country":"United States","canonicalUrl":"https://foursquare.com/v/the-other-office/4cde16dcc4f6a35df9e1c76c","category":"Dive Bar","checkinsCount":321,"usersCount":226,"tipCount":4,"visitsCount":321,"tier":"","message":"","currency":"","rating":7},{"name":"Parlare Euro Lounge","phone":"9164488960","twitter":"parlaresac","address":"1009 10th St","lat":38.58007604961188,"lng":-121.493514,"neighborhood":"Downtown Sacramento","city_fetched":"Sacramento","state":"CA","country":"United States","canonicalUrl":"https://foursquare.com/v/parlare-euro-lounge/4b15dcddf964a52026b523e3","category":"Nightclub","checkinsCount":1601,"usersCount":592,"tipCount":5,"visitsCount":1628,"url":"http://www.parlaresac.com","tier":"","message":"","currency":"","rating":7},{"name":"Ernie's Interlude","phone":"9164870349","address":"2926 Eastern Ave","lat":38.6182902287746,"lng":-121.36406062499101,"neighborhood":"Arden - Arcade","city_fetched":"Sacramento","state":"CA","country":"United States","canonicalUrl":"https://foursquare.com/v/ernies-interlude/4bb0d826f964a52064623ce3","category":"Dive Bar","checkinsCount":323,"usersCount":84,"tipCount":5,"visitsCount":336,"tier":"","message":"","currency":"","rating":7},{"name":"Oishii Sushi Bar & Grill","phone":"9165578088","address":"1000 K St","lat":38.57892858323396,"lng":-121.49367466752321,"neighborhood":"Downtown Sacramento","city_fetched":"Sacramento","state":"CA","country":"United States","canonicalUrl":"https://foursquare.com/v/oishii-sushi-bar--grill/5063abb0e4b05936068265a0","category":"Sushi Restaurant","checkinsCount":729,"usersCount":497,"tipCount":13,"visitsCount":744,"tier":"","message":"","currency":"","rating":6.8},{"name":"Press Club","phone":"9164447914","address":"2030 P St","lat":38.56957570175681,"lng":-121.48158073425293,"neighborhood":"Midtown","city_fetched":"Sacramento","state":"CA","country":"United States","canonicalUrl":"https://foursquare.com/v/press-club/4b0586b6f964a520d06a22e3","category":"Nightclub","checkinsCount":2199,"usersCount":1097,"tipCount":16,"visitsCount":2348,"tier":1,"message":"Cheap","currency":"$","rating":6.8}]