[{"name":"The Michigan Tap Room","address":"Inside Stardust Lanes","lat":43.461927787458094,"lng":-83.97441327415152,"city_fetched":"Saginaw","state":"MI","country":"United States","canonicalUrl":"https://foursquare.com/v/the-michigan-tap-room/4f9364b8e4b08038d7df08c8","category":"Bar","checkinsCount":1659,"usersCount":461,"tipCount":18,"visitsCount":2115,"url":"http://stardustbowling.com","tier":2,"message":"Moderate","currency":"$","rating":8.6},{"name":"Savoy Bar & Grill","phone":"9897549660","address":"127 S Franklin St","lat":43.43226777264654,"lng":-83.93848448316852,"city_fetched":"Saginaw","state":"MI","country":"United States","canonicalUrl":"https://foursquare.com/v/savoy-bar--grill/4b7d5fb3f964a520e4ba2fe3","category":"Bar","checkinsCount":384,"usersCount":229,"tipCount":12,"visitsCount":411,"tier":"","message":"","currency":"","rating":8.4},{"name":"Scottish Inn","phone":"9897991949","address":"630 Gratiot Ave","lat":43.41519831666667,"lng":-83.97048928333334,"city_fetched":"Saginaw","state":"MI","country":"United States","canonicalUrl":"https://foursquare.com/v/scottish-inn/4baa441df964a5201e593ae3","category":"Dive Bar","checkinsCount":480,"usersCount":203,"tipCount":7,"visitsCount":540,"tier":1,"message":"Cheap","currency":"$","rating":8.1},{"name":"Retro Rocks","phone":"9897973900","address":"110 S Hamilton St","lat":43.41666199825947,"lng":-83.96389682230006,"city_fetched":"Saginaw","state":"MI","country":"United States","canonicalUrl":"https://foursquare.com/v/retro-rocks/4b52b1d2f964a520238627e3","category":"Bar","checkinsCount":1998,"usersCount":691,"tipCount":11,"visitsCount":2194,"tier":2,"message":"Moderate","currency":"$","rating":7.7},{"name":"Hamilton Street Pub","phone":"9897908199","address":"308 S Hamilton St","lat":43.415296599193304,"lng":-83.96547828186891,"city_fetched":"Saginaw","state":"MI","country":"United States","canonicalUrl":"https://foursquare.com/v/hamilton-street-pub/4b7605b2f964a52033372ee3","category":"Bar","checkinsCount":1611,"usersCount":555,"tipCount":10,"visitsCount":1801,"url":"http://hamiltonstpub.com","tier":"","message":"","currency":"","rating":7.6},{"name":"Bancroft  Wine & Martini Bar","phone":"9897760011","address":"107 S Washington Ave","lat":43.43304067037519,"lng":-83.93905322325759,"city_fetched":"Saginaw","state":"MI","country":"United States","canonicalUrl":"https://foursquare.com/v/bancroft--wine--martini-bar/5410e801498e6999c974877e","category":"Wine Bar","checkinsCount":155,"usersCount":154,"tipCount":2,"visitsCount":321,"url":"http://bancroftwinebar.com","tier":"","message":"","currency":"","rating":7.6},{"name":"100 Proof Saloon","address":"207 N Hamilton St","lat":43.417842864990234,"lng":-83.96237182617188,"city_fetched":"Saginaw","state":"MI","country":"United States","canonicalUrl":"https://foursquare.com/v/100-proof-saloon/527c394711d23d3038ee1818","category":"Bar","checkinsCount":204,"usersCount":71,"tipCount":5,"visitsCount":224,"tier":"","message":"","currency":"","rating":7.6},{"name":"Mac's","address":"118 N Michigan Ave","lat":43.4180911844319,"lng":-83.96350403513075,"city_fetched":"Saginaw","state":"MI","country":"United States","canonicalUrl":"https://foursquare.com/v/macs/5259d6a8498e5585d617d159","category":"Cocktail Bar","checkinsCount":247,"usersCount":85,"tipCount":6,"visitsCount":269,"tier":"","message":"","currency":"","rating":7.4},{"name":"Zorba's","phone":"9897921959","address":"617 S Harrison St","lat":43.41516852378845,"lng":-83.97086083889008,"city_fetched":"Saginaw","state":"MI","country":"United States","canonicalUrl":"https://foursquare.com/v/zorbas/4b834f71f964a520d00131e3","category":"Greek Restaurant","checkinsCount":247,"usersCount":133,"tipCount":7,"visitsCount":256,"url":"http://www.clickcitymenus.com","tier":"","message":"","currency":"","rating":7.4},{"name":"White's Bar","phone":"9897922631","address":"2609 State St","lat":43.436401,"lng":-83.97449933,"city_fetched":"Saginaw","state":"MI","country":"United States","canonicalUrl":"https://foursquare.com/v/whites-bar/4cd09ba53e63721e50289fcc","category":"Bar","checkinsCount":620,"usersCount":290,"tipCount":4,"visitsCount":665,"url":"http://whitesbar.com","tier":"","message":"","currency":"","rating":7.2},{"name":"Steamers Pub","phone":"9897902088","address":"209 N Hamilton St","lat":43.417926533333336,"lng":-83.962364,"city_fetched":"Saginaw","state":"MI","country":"United States","canonicalUrl":"https://foursquare.com/v/steamers-pub/4b8350bff964a520180231e3","category":"Bar","checkinsCount":1360,"usersCount":291,"tipCount":9,"visitsCount":1362,"tier":"","message":"","currency":"","rating":7.2},{"name":"Woody O'Brians","address":"116 S Hamilton St","lat":43.416551,"lng":-83.963945,"city_fetched":"Saginaw","state":"MI","country":"United States","canonicalUrl":"https://foursquare.com/v/woody-obrians/4c54f2a872cf0f4797cb5ad5","category":"Bar","checkinsCount":184,"usersCount":89,"tipCount":2,"visitsCount":190,"tier":"","message":"","currency":"","rating":7.1},{"name":"Grand Central","phone":"9894013160","address":"3504 State St","lat":43.43695694602773,"lng":-83.99045059582274,"city_fetched":"Saginaw","state":"MI","country":"United States","canonicalUrl":"https://foursquare.com/v/grand-central/4ba69b2bf964a5205a6239e3","category":"Bar","checkinsCount":907,"usersCount":345,"tipCount":3,"visitsCount":1098,"tier":"","message":"","currency":"","rating":6.9},{"name":"Baywood Lounge","address":"2734 Bay Rd","lat":43.44444684935389,"lng":-83.97429959248703,"city_fetched":"Saginaw","state":"MI","country":"United States","canonicalUrl":"https://foursquare.com/v/baywood-lounge/4b7f4cf6f964a520fc2530e3","category":"Bar","checkinsCount":686,"usersCount":342,"tipCount":4,"visitsCount":829,"tier":"","message":"","currency":"","rating":6.4},{"name":"Heck's Bar","phone":"9897542881","address":"555 Shattuck Rd","lat":43.45061123371124,"lng":-83.94853294,"city_fetched":"Saginaw","state":"MI","country":"United States","canonicalUrl":"https://foursquare.com/v/hecks-bar/4c55006330f92d7fb50a5ebb","category":"Bar","checkinsCount":552,"usersCount":213,"tipCount":2,"visitsCount":576,"tier":"","message":"","currency":"","rating":6.3},{"name":"J.B. Meinberg","phone":"9897991171","address":"116 S Hamilton St","lat":43.41659939294466,"lng":-83.96401052337667,"city_fetched":"Saginaw","state":"MI","country":"United States","canonicalUrl":"https://foursquare.com/v/jb-meinberg/4c65d253aebea5935c8f71d0","category":"Bar","checkinsCount":1225,"usersCount":389,"tipCount":3,"visitsCount":1227,"tier":"","message":"","currency":"","rating":6.1},{"name":"The Mixx Nightclub","phone":"9894984022","address":"115 N Hamilton St","lat":43.41747241534255,"lng":-83.96324562113901,"city_fetched":"Saginaw","state":"MI","country":"United States","canonicalUrl":"https://foursquare.com/v/the-mixx-nightclub/4d02fc877d9ba35d1b365d23","category":"Nightclub","checkinsCount":1142,"usersCount":295,"tipCount":5,"visitsCount":1169,"tier":"","message":"","currency":"","rating":6},{"name":"Rascals","phone":"9897909051","address":"2139 Warwick St","lat":43.43769104152688,"lng":-83.9900269838172,"city_fetched":"Saginaw","state":"MI","country":"United States","canonicalUrl":"https://foursquare.com/v/rascals/4c54df7afd2ea5934af1c32a","category":"Dive Bar","checkinsCount":264,"usersCount":84,"tipCount":3,"visitsCount":292,"tier":"","message":"","currency":"","rating":5.9}]