[{"name":"b2 Taphouse","phone":"5039915369","address":"4336 Commercial St SE #150","lat":44.891941396443436,"lng":-123.03459463769468,"neighborhood":"Morningside","city_fetched":"Salem","state":"OR","country":"United States","canonicalUrl":"https://foursquare.com/v/b2-taphouse/51761f07395033caa05adbb7","category":"Pub","checkinsCount":1244,"usersCount":291,"tipCount":18,"visitsCount":1634,"url":"http://www.b2taphouse.com","tier":2,"message":"Moderate","currency":"$","rating":9.1},{"name":"Westside Taphouse & Growler Fill","phone":"5039908805","twitter":"wstaphouse","address":"1594 Edgewater St NW Ste 110","lat":44.93766414571806,"lng":-123.06380421343498,"neighborhood":"West Salem","city_fetched":"Salem","state":"OR","country":"United States","canonicalUrl":"https://foursquare.com/v/westside-taphouse--growler-fill/526b2dde498ea4c6977a718d","category":"Pub","checkinsCount":400,"usersCount":110,"tipCount":5,"visitsCount":576,"url":"http://www.westsidetaphouse.com","tier":"","message":"","currency":"","rating":8.8},{"name":"Venti's Cafe + Taphouse","phone":"5033915100","twitter":"ventiscafe","address":"2840 Commercial St SE","lat":44.91377812410417,"lng":-123.04479542849563,"neighborhood":"South Salem","city_fetched":"Salem","state":"OR","country":"United States","canonicalUrl":"https://foursquare.com/v/ventis-cafe--taphouse/4de532947d8b2547eb44e08c","category":"Food","checkinsCount":2942,"usersCount":860,"tipCount":41,"visitsCount":3274,"url":"http://ventiscafe.com","tier":2,"message":"Moderate","currency":"$","rating":8.8},{"name":"Thompson Brewery & Public House","phone":"5033637286","twitter":"captainneon","address":"3575 Liberty Rd S","lat":44.903952,"lng":-123.0514669418335,"neighborhood":"South Salem","city_fetched":"Salem","state":"OR","country":"United States","canonicalUrl":"https://foursquare.com/v/thompson-brewery--public-house/4b27ee0ef964a5207a8c24e3","category":"Brewery","checkinsCount":1257,"usersCount":675,"tipCount":12,"visitsCount":1519,"url":"http://mcmenamins.com","tier":"","message":"","currency":"","rating":8.8},{"name":"Archive Coffee & Bar","twitter":"archivesalem","address":"102 Liberty St NE Ste 120","lat":44.94024158255818,"lng":-123.03851363729468,"city_fetched":"Salem","state":"OR","country":"United States","canonicalUrl":"https://foursquare.com/v/archive-coffee--bar/54692475498efbfc1ce35d93","category":"Cocktail Bar","checkinsCount":731,"usersCount":261,"tipCount":10,"visitsCount":919,"url":"http://www.archivecoffeeandbar.com","tier":"","message":"","currency":"","rating":8.6},{"name":"Gilgamesh Brewing - The Campus","phone":"5035841789","address":"2065 Madrona Ave SE","lat":44.90624553076128,"lng":-123.019929266808,"neighborhood":"Southeast Salem","city_fetched":"Salem","state":"OR","country":"United States","canonicalUrl":"https://foursquare.com/v/gilgamesh-brewing--the-campus/50a5baa3e4b0ec4c78ceef14","category":"Pub","checkinsCount":1012,"usersCount":737,"tipCount":17,"visitsCount":1467,"tier":2,"message":"Moderate","currency":"$","rating":8.5},{"name":"Growl Movement","phone":"5033851064","twitter":"growlmovement","address":"5137 River Rd N","lat":44.99939334318382,"lng":-123.02688860103878,"city_fetched":"Salem","state":"OR","country":"United States","canonicalUrl":"https://foursquare.com/growlmovement","category":"Bar","checkinsCount":321,"usersCount":63,"tipCount":2,"visitsCount":355,"url":"http://growlmovement.com","tier":"","message":"","currency":"","rating":8.4},{"name":"ƒ/stop Fitzgerald's","address":"335 Grove St NE","lat":44.960744,"lng":-123.031942,"city_fetched":"Salem","state":"OR","country":"United States","canonicalUrl":"https://foursquare.com/v/%C6%92stop-fitzgeralds/4b78d94ff964a5207ae42ee3","category":"Bar","checkinsCount":2946,"usersCount":253,"tipCount":19,"visitsCount":3202,"url":"http://f-stoppub.com","tier":1,"message":"Cheap","currency":"$","rating":8.4},{"name":"Venti's Cafe + Basement Bar","phone":"5033998733","twitter":"ventiscafe","address":"325 Court St NE","lat":44.94138059008083,"lng":-123.039290926977,"city_fetched":"Salem","state":"OR","country":"United States","canonicalUrl":"https://foursquare.com/v/ventis-cafe--basement-bar/49e17f7cf964a520d2611fe3","category":"Bar","checkinsCount":2380,"usersCount":797,"tipCount":27,"visitsCount":2530,"url":"http://ventiscafe.com","tier":2,"message":"Moderate","currency":"$","rating":8.3},{"name":"Boon's Treasury","phone":"5033999062","twitter":"captainneon","address":"888 Liberty St NE","lat":44.94822603311231,"lng":-123.03327859844921,"city_fetched":"Salem","state":"OR","country":"United States","canonicalUrl":"https://foursquare.com/v/boons-treasury/49e2e365f964a52065621fe3","category":"Pub","checkinsCount":1233,"usersCount":925,"tipCount":19,"visitsCount":1632,"url":"http://www.mcmenamins.com","tier":2,"message":"Moderate","currency":"$","rating":8.1},{"name":"Magoo's","phone":"5033635836","address":"275 Commercial St SE","lat":44.93879238103154,"lng":-123.04158551527831,"city_fetched":"Salem","state":"OR","country":"United States","canonicalUrl":"https://foursquare.com/v/magoos/4abd9d61f964a520288b20e3","category":"Bar","checkinsCount":744,"usersCount":359,"tipCount":5,"visitsCount":888,"url":"http://magoossportsbar.com","tier":"","message":"","currency":"","rating":8},{"name":"Vagabond Brewing","phone":"5035129007","address":"2195 Hyacinth St NE","lat":44.98204229951465,"lng":-123.00094485282897,"neighborhood":"Northgate","city_fetched":"Salem","state":"OR","country":"United States","canonicalUrl":"https://foursquare.com/v/vagabond-brewing/5127b700e4b0461e6170bad0","category":"Brewery","checkinsCount":476,"usersCount":240,"tipCount":2,"visitsCount":718,"url":"http://vagabondbrewing.com","tier":2,"message":"Moderate","currency":"$","rating":7.9},{"name":"Sparky's Brewing Co.","phone":"5039319417","twitter":"2sparkys","address":"1252 23rd St SE #110","lat":44.92313003540039,"lng":-123.01407623291016,"neighborhood":"Southeast Salem","city_fetched":"Salem","state":"OR","country":"United States","canonicalUrl":"https://foursquare.com/v/sparkys-brewing-co/530c0fdd498e80d53df30f37","category":"Beer Garden","checkinsCount":221,"usersCount":92,"tipCount":7,"visitsCount":243,"url":"http://2sparkys.com","tier":"","message":"","currency":"","rating":7.8},{"name":"Northern Lights Theater Pub","phone":"5035854232","twitter":"nlightspub","address":"3893 Commercial St SE","lat":44.89982071,"lng":-123.039818,"neighborhood":"Morningside","city_fetched":"Salem","state":"OR","country":"United States","canonicalUrl":"https://foursquare.com/v/northern-lights-theater-pub/4a1398e2f964a520ef771fe3","category":"Movie Theater","checkinsCount":922,"usersCount":389,"tipCount":6,"visitsCount":953,"url":"http://northernlightstheatrepub.com","tier":"","message":"","currency":"","rating":7.8},{"name":"Taproot Lounge & Café","phone":"5039283115","address":"356 State St","lat":44.940144,"lng":-123.03964,"city_fetched":"Salem","state":"OR","country":"United States","canonicalUrl":"https://foursquare.com/v/taproot-lounge--caf%C3%A9/55bc4782498e58c127a82fab","category":"Lounge","checkinsCount":172,"usersCount":89,"tipCount":3,"visitsCount":211,"tier":"","message":"","currency":"","rating":7.8},{"name":"RAM Restaurant & Brewery","phone":"5033631905","twitter":"theram","address":"515 12th St SE","lat":44.932944387525616,"lng":-123.02955186623578,"city_fetched":"Salem","state":"OR","country":"United States","canonicalUrl":"https://foursquare.com/v/ram-restaurant--brewery/4af64cabf964a520ef0222e3","category":"Brewery","checkinsCount":2790,"usersCount":1585,"tipCount":29,"visitsCount":3369,"url":"http://theram.com","tier":2,"message":"Moderate","currency":"$","rating":7.7},{"name":"Santiam Brewing Company","phone":"5035590044","twitter":"santiambrewing","address":"2544 19th St SE","lat":44.91617280759675,"lng":-123.02005521189679,"neighborhood":"Southeast Salem","city_fetched":"Salem","state":"OR","country":"United States","canonicalUrl":"https://foursquare.com/v/santiam-brewing-company/4ff8a846e4b0887e555341ef","category":"Brewery","checkinsCount":408,"usersCount":259,"tipCount":9,"visitsCount":606,"url":"http://www.santiambrewing.com","tier":"","message":"","currency":"","rating":7.6},{"name":"Kraftworks Taphouse","twitter":"kraftworkstaps","address":"241 Liberty St NE","lat":44.94164878720612,"lng":-123.03799426598428,"city_fetched":"Salem","state":"OR","country":"United States","canonicalUrl":"https://foursquare.com/v/kraftworks-taphouse/5314e4f011d27009e9839284","category":"Bar","checkinsCount":298,"usersCount":71,"tipCount":4,"visitsCount":319,"tier":"","message":"","currency":"","rating":7.5},{"name":"The Shack Bar and Grill","phone":"5033998282","address":"2865 Liberty St NE","lat":44.96842382059965,"lng":-123.03221930389755,"city_fetched":"Salem","state":"OR","country":"United States","canonicalUrl":"https://foursquare.com/v/the-shack-bar-and-grill/4f4f1326e4b03cdd79adf721","category":"Bar","checkinsCount":2142,"usersCount":116,"tipCount":10,"visitsCount":2304,"url":"http://www.theshackbar.net","tier":1,"message":"Cheap","currency":"$","rating":7.3},{"name":"Buffalo Wild Wings","phone":"5039676049","twitter":"bwwings","address":"3892 Center St NE","lat":44.938268522166595,"lng":-122.9849374294281,"neighborhood":"Northeast Salem","city_fetched":"Salem","state":"OR","country":"United States","canonicalUrl":"https://foursquare.com/v/buffalo-wild-wings/4fa7fe10e4b017a5e1c94512","category":"Wings Joint","checkinsCount":2298,"usersCount":925,"tipCount":19,"visitsCount":2847,"url":"http://www.buffalowildwings.com","tier":2,"message":"Moderate","currency":"$","rating":7.1},{"name":"The Brick","address":"105 Liberty St NE","lat":44.94024969709128,"lng":-123.03875049322058,"city_fetched":"Salem","state":"OR","country":"United States","canonicalUrl":"https://foursquare.com/v/the-brick/4abd892cf964a520e08a20e3","category":"Bar","checkinsCount":1002,"usersCount":336,"tipCount":6,"visitsCount":1012,"tier":"","message":"","currency":"","rating":7.1},{"name":"kolby's","phone":"5033937665","address":"3838 River Rd N","lat":44.98173013418385,"lng":-123.02598258846777,"city_fetched":"Salem","state":"OR","country":"United States","canonicalUrl":"https://foursquare.com/v/kolbys/5019ad65e4b0458deebcf94c","category":"American Restaurant","checkinsCount":155,"usersCount":45,"tipCount":4,"visitsCount":158,"url":"http://kolbysrbb.com","tier":"","message":"","currency":"","rating":7},{"name":"Liberty Spirit","address":"2653 Commercial St SE","lat":44.91522724986734,"lng":-123.04536705400135,"neighborhood":"South Salem","city_fetched":"Salem","state":"OR","country":"United States","canonicalUrl":"https://foursquare.com/v/liberty-spirit/4bc26334461576b025657d32","category":"Bar","checkinsCount":1248,"usersCount":231,"tipCount":4,"visitsCount":1334,"tier":"","message":"","currency":"","rating":6.9},{"name":"Southside Speakeasy","phone":"5033621139","address":"3529 Fairview Industrial Dr SE","lat":44.90471325763595,"lng":-123.01852219447701,"neighborhood":"Morningside","city_fetched":"Salem","state":"OR","country":"United States","canonicalUrl":"https://foursquare.com/v/southside-speakeasy/4c16cec3daf42d7f34cd4466","category":"Gay Bar","checkinsCount":2981,"usersCount":333,"tipCount":12,"visitsCount":3119,"url":"http://southsidespeakeasy.com","tier":"","message":"","currency":"","rating":6.9},{"name":"Johnny's Bar and Grill","phone":"5035813200","address":"1729 Center St NE","lat":44.939681041415916,"lng":-123.0176496186061,"city_fetched":"Salem","state":"OR","country":"United States","canonicalUrl":"https://foursquare.com/v/johnnys-bar-and-grill/4b58a9bff964a520636428e3","category":"Sports Bar","checkinsCount":903,"usersCount":221,"tipCount":3,"visitsCount":1011,"tier":"","message":"","currency":"","rating":6.7},{"name":"Duffy's Hangar","address":"2275 McGilchrist St SE, Salem, OR 97302","lat":44.91691748752686,"lng":-123.01527491300293,"neighborhood":"Southeast Salem","city_fetched":"Salem","state":"OR","country":"United States","canonicalUrl":"https://foursquare.com/v/duffys-hangar/4b930fc4f964a5205c3234e3","category":"Bar","checkinsCount":378,"usersCount":147,"tipCount":2,"visitsCount":423,"tier":"","message":"","currency":"","rating":6.6},{"name":"Brown's Towne Lounge","phone":"5033919977","twitter":"brownstowne","address":"189 Liberty St NE Ste 112","lat":44.94078489073274,"lng":-123.03852878612244,"city_fetched":"Salem","state":"OR","country":"United States","canonicalUrl":"https://foursquare.com/brownstowne","category":"Bar","checkinsCount":1545,"usersCount":394,"tipCount":21,"visitsCount":1708,"url":"http://brownstownelounge.com","tier":2,"message":"Moderate","currency":"$","rating":6.5},{"name":"Alibi Bar & Grill","address":"590 Taggart Dr NW","lat":44.94785211008644,"lng":-123.0529260635376,"neighborhood":"West Salem","city_fetched":"Salem","state":"OR","country":"United States","canonicalUrl":"https://foursquare.com/v/alibi-bar--grill/4b5bffe8f964a520aa2029e3","category":"Bar","checkinsCount":549,"usersCount":259,"tipCount":6,"visitsCount":624,"tier":"","message":"","currency":"","rating":6.4},{"name":"Windjammers","phone":"5034808888","address":"3890 Commercial St SE","lat":44.90028748219932,"lng":-123.0389788488192,"neighborhood":"Morningside","city_fetched":"Salem","state":"OR","country":"United States","canonicalUrl":"https://foursquare.com/v/windjammers/4bb6bc171344b71357079e04","category":"Bar","checkinsCount":428,"usersCount":154,"tipCount":2,"visitsCount":490,"tier":"","message":"","currency":"","rating":6.3},{"name":"Silver Spur","phone":"5033711911","address":"Silverton Rd NE","lat":44.96304056553663,"lng":-123.01081001758575,"neighborhood":"Northgate","city_fetched":"Salem","state":"OR","country":"United States","canonicalUrl":"https://foursquare.com/v/silver-spur/4c12f6d777cea5932a20ce60","category":"Bar","checkinsCount":452,"usersCount":195,"tipCount":4,"visitsCount":568,"url":"http://thesilverspur.net","tier":"","message":"","currency":"","rating":6.3},{"name":"Jammer's","phone":"5033627494","address":"1897 12th St SE","lat":44.91915373473786,"lng":-123.03089668325944,"neighborhood":"South Central","city_fetched":"Salem","state":"OR","country":"United States","canonicalUrl":"https://foursquare.com/v/jammers/4bb55ed6941ad13abc311ee3","category":"Bar","checkinsCount":598,"usersCount":150,"tipCount":6,"visitsCount":662,"tier":"","message":"","currency":"","rating":6},{"name":"The Grand Hotel","address":"201 Liberty St SE","lat":44.93867464719317,"lng":-123.03993222721881,"city_fetched":"Salem","state":"OR","country":"United States","canonicalUrl":"https://foursquare.com/v/the-grand-hotel/4b9ec13cf964a5202eff36e3","category":"Hotel","checkinsCount":1010,"usersCount":571,"tipCount":6,"visitsCount":1077,"tier":"","message":"","currency":"","rating":6},{"name":"The Triangle Inn","address":"3215 Liberty Rd S","lat":44.90994538085227,"lng":-123.04703353253419,"neighborhood":"South Salem","city_fetched":"Salem","state":"OR","country":"United States","canonicalUrl":"https://foursquare.com/v/the-triangle-inn/4cb6a4e3e262b60cf39970e0","category":"Bar","checkinsCount":274,"usersCount":102,"tipCount":1,"visitsCount":284,"tier":"","message":"","currency":"","rating":5.6}]