[{"name":"Chucks Bar","phone":"7858274868","address":"600 N Santa Fe Ave","lat":38.85080547244939,"lng":-97.60881932245476,"city_fetched":"Salina,US","state":"KS","country":"United States","canonicalUrl":"https://foursquare.com/v/chucks-bar/4f32bfc119836c91c7f64d28","categoryId":"4bf58dd8d48988d116941735","category":"Bar","checkinsCount":37,"usersCount":72,"tipCount":3,"visitsCount":149,"tier":"","message":"","currency":"","rating":7.9},{"name":"Blue Skye Brewery & Eats","phone":"7854042159","address":"116 N Santa Fe Ave","lat":38.84122716730108,"lng":-97.6089040376349,"city_fetched":"Salina,US","state":"KS","country":"United States","canonicalUrl":"https://foursquare.com/v/blue-skye-brewery--eats/528e92dc11d26e6bd48321a4","categoryId":"50327c8591d4c4b30a586d5d","category":"Brewery","checkinsCount":297,"usersCount":270,"tipCount":10,"visitsCount":487,"tier":"","message":"","currency":"","rating":7.4},{"name":"Maggie Mae's","phone":"7858259829","address":"409 S Broadway Blvd","lat":38.83417141,"lng":-97.62450651666667,"city_fetched":"Salina,US","state":"KS","country":"United States","canonicalUrl":"https://foursquare.com/v/maggie-maes/4cc342d7be40a35d4127774c","categoryId":"4bf58dd8d48988d116941735","category":"Bar","checkinsCount":320,"usersCount":110,"tipCount":7,"visitsCount":417,"tier":"","message":"","currency":"","rating":7.2},{"name":"Legends Sports Bar & Grill","phone":"7858252111","address":"2120 W Crawford St","lat":38.82784240287193,"lng":-97.6424169667277,"city_fetched":"Salina,US","state":"KS","country":"United States","canonicalUrl":"https://foursquare.com/v/legends-sports-bar--grill/5022b553e4b0f1c48469ac93","categoryId":"4bf58dd8d48988d1d5941735","category":"Hotel Bar","checkinsCount":303,"usersCount":108,"tipCount":7,"visitsCount":313,"url":"http://legendssalina.com","tier":2,"message":"Moderate","currency":"$","rating":7},{"name":"Speakeasy","phone":"7858237687","address":"2012 S Ohio St","lat":38.80787807773409,"lng":-97.59451389312744,"city_fetched":"Salina,US","state":"KS","country":"United States","canonicalUrl":"https://foursquare.com/v/speakeasy/4c13ed4ba9c220a1eaad569d","categoryId":"4bf58dd8d48988d11d941735","category":"Sports Bar","checkinsCount":684,"usersCount":344,"tipCount":8,"visitsCount":1049,"tier":"","message":"","currency":"","rating":6.9},{"name":"Paramount Bar","phone":"7858270992","address":"219 N Santa Fe Ave","lat":38.84343431747115,"lng":-97.60921642575231,"city_fetched":"Salina,US","state":"KS","country":"United States","canonicalUrl":"https://foursquare.com/v/paramount-bar/4c4a3a45f7cc1b8dc223153e","categoryId":"4bf58dd8d48988d116941735","category":"Bar","checkinsCount":223,"usersCount":117,"tipCount":4,"visitsCount":284,"tier":"","message":"","currency":"","rating":6.5}]