[{"name":"Post No Bills","address":"600 Ortiz Ave","lat":36.61212765434687,"lng":-121.85043727445981,"city_fetched":"Salinas,US","state":"CA","country":"United States","canonicalUrl":"https://foursquare.com/v/post-no-bills/4df285ccd1649c8a28dfc0ba","categoryId":"4bf58dd8d48988d116941735","category":"Bar","checkinsCount":840,"usersCount":543,"tipCount":9,"visitsCount":1088,"url":"http://postnobills.net","tier":"","message":"","currency":"","rating":8.5},{"name":"Farmers Union Pour House","phone":"8319754890","twitter":"farmersunion217","address":"217 Main Street","lat":36.67519987417358,"lng":-121.65478706359863,"neighborhood":"Downtown Salinas","city_fetched":"Salinas,US","state":"CA","country":"United States","canonicalUrl":"https://foursquare.com/v/farmers-union-pour-house/576e9c14cd10933031fbb89e","categoryId":"4bf58dd8d48988d116941735","category":"Bar","checkinsCount":20,"usersCount":10,"tipCount":1,"visitsCount":20,"tier":"","message":"","currency":"","rating":7.2},{"name":"Casa Sorrento Pizzeria","phone":"8317572720","address":"393 Salinas St","lat":36.672004,"lng":-121.655337,"neighborhood":"Downtown Salinas","city_fetched":"Salinas,US","state":"CA","country":"United States","canonicalUrl":"https://foursquare.com/v/casa-sorrento-pizzeria/4b7fe3def964a520c14230e3","categoryId":"4bf58dd8d48988d11f941735","category":"Nightclub","checkinsCount":656,"usersCount":405,"tipCount":10,"visitsCount":848,"url":"http://casasorrento.com","tier":"","message":"","currency":"","rating":6.9},{"name":"English Ales Brewery & Cafe","phone":"8318833000","address":"223 Reindollar Ave","lat":36.680206016666666,"lng":-121.80375158786774,"city_fetched":"Salinas,US","state":"CA","country":"United States","canonicalUrl":"https://foursquare.com/v/english-ales-brewery--cafe/4be22681d27a20a195158f5b","categoryId":"50327c8591d4c4b30a586d5d","category":"Brewery","checkinsCount":773,"usersCount":446,"tipCount":18,"visitsCount":934,"url":"http://www.englishalesbrewery.com","tier":2,"message":"Moderate","currency":"$","rating":6.9},{"name":"The Otter's Den","phone":"8318831227","address":"3166 Vista del Camino","lat":36.686902,"lng":-121.79694950580597,"city_fetched":"Salinas,US","state":"CA","country":"United States","canonicalUrl":"https://foursquare.com/v/the-otters-den/4c8c6cc55e048cfa6025cdcd","categoryId":"4bf58dd8d48988d116941735","category":"Bar","checkinsCount":313,"usersCount":148,"tipCount":6,"visitsCount":316,"url":"http://theottersdenca.com","tier":"","message":"","currency":"","rating":6.5},{"name":"Dubber's Oldtown","phone":"8316760256","lat":36.67561012662452,"lng":-121.65542272704822,"neighborhood":"Downtown Salinas","city_fetched":"Salinas,US","state":"CA","country":"United States","canonicalUrl":"https://foursquare.com/v/dubbers-oldtown/5334b725498ec781667c6672","categoryId":"4bf58dd8d48988d11d941735","category":"Sports Bar","checkinsCount":65,"usersCount":49,"tipCount":1,"visitsCount":69,"tier":"","message":"","currency":"","rating":6.4},{"name":"Monterey Coast Brewing Company","phone":"8317582337","address":"165 Main St","lat":36.675892253414936,"lng":-121.65521108503876,"neighborhood":"Downtown Salinas","city_fetched":"Salinas,US","state":"CA","country":"United States","canonicalUrl":"https://foursquare.com/v/monterey-coast-brewing-company/4bcbd7100687ef3bca81decc","categoryId":"50327c8591d4c4b30a586d5d","category":"Brewery","checkinsCount":1020,"usersCount":565,"tipCount":10,"visitsCount":1033,"url":"http://montereycoastbrewing.com","tier":"","message":"","currency":"","rating":6.4},{"name":"Penny Farthing Tavern","phone":"8314225652","address":"9 E San Luis St","lat":36.672073,"lng":-121.654152,"neighborhood":"Downtown Salinas","city_fetched":"Salinas,US","state":"CA","country":"United States","canonicalUrl":"https://foursquare.com/v/penny-farthing-tavern/4c492375fbafc928b4a184da","categoryId":"4bf58dd8d48988d11b941735","category":"Pub","checkinsCount":662,"usersCount":254,"tipCount":7,"visitsCount":671,"tier":"","message":"","currency":"","rating":6.2}]