[{"name":"Sushi de Kanpai","phone":"4109121440","address":"109 W Main St","lat":38.36547795,"lng":-75.600899,"city_fetched":"Salisbury","state":"MD","country":"United States","canonicalUrl":"https://foursquare.com/v/sushi-de-kanpai/4bad4436f964a520dc3f3be3","category":"Sushi Restaurant","checkinsCount":662,"usersCount":250,"tipCount":13,"visitsCount":734,"url":"http://sushidekanpai.net","tier":"","message":"","currency":"","rating":8.9},{"name":"Evolution Craft Brewing Co. Public House","phone":"4432602337","twitter":"evolutionbeer","address":"201 E Vine St","lat":38.36147564513802,"lng":-75.59623080459113,"city_fetched":"Salisbury","state":"MD","country":"United States","canonicalUrl":"https://foursquare.com/v/evolution-craft-brewing-co-public-house/4f73ad3de4b0fd52609b750f","category":"New American Restaurant","checkinsCount":2700,"usersCount":1566,"tipCount":36,"visitsCount":3243,"url":"http://www.evolutioncraftbrewing.com","tier":3,"message":"Expensive","currency":"$","rating":8.8},{"name":"The Greene Turtle","address":"Centre At Salisbury","lat":38.40116708720883,"lng":-75.56932078621955,"city_fetched":"Salisbury","state":"MD","country":"United States","canonicalUrl":"https://foursquare.com/v/the-greene-turtle/53ded054498e38ab6c67defe","category":"American Restaurant","checkinsCount":342,"usersCount":302,"tipCount":5,"visitsCount":730,"url":"http://thegreeneturtle.com","tier":"","message":"","currency":"","rating":8.4},{"name":"The Greene Turtle","phone":"4108609991","address":"2618 N Salisbury Blvd","lat":38.41316503007883,"lng":-75.56807009565026,"city_fetched":"Salisbury","state":"MD","country":"United States","canonicalUrl":"https://foursquare.com/v/the-greene-turtle/4bb27fca715eef3bdd5185bb","category":"Sports Bar","checkinsCount":2508,"usersCount":947,"tipCount":12,"visitsCount":2521,"url":"http://thegreeneturtle.com","tier":2,"message":"Moderate","currency":"$","rating":8.3},{"name":"Backstreet Grill","phone":"4105481588","address":"401 Snow Rill Road","lat":38.36037128282981,"lng":-75.58950660276052,"city_fetched":"Salisbury","state":"MD","country":"United States","canonicalUrl":"https://foursquare.com/v/backstreet-grill/4b48e2b9f964a520b95b26e3","category":"Bar","checkinsCount":2298,"usersCount":783,"tipCount":17,"visitsCount":2600,"url":"http://backstreetgrillsalisbury.com","tier":1,"message":"Cheap","currency":"$","rating":8.1},{"name":"Mojo's","phone":"4439449507","address":"213 E Main St","lat":38.365750703782155,"lng":-75.59765177156882,"city_fetched":"Salisbury","state":"MD","country":"United States","canonicalUrl":"https://foursquare.com/v/mojos/4eb824edbe7bfc284b71c87f","category":"Bar","checkinsCount":1853,"usersCount":640,"tipCount":19,"visitsCount":2267,"url":"http://mojossalisbury.com","tier":"","message":"","currency":"","rating":8},{"name":"Market Street Inn","phone":"4107424145","twitter":"msipub","address":"130 W Market St","lat":38.363449,"lng":-75.60227733333333,"city_fetched":"Salisbury","state":"MD","country":"United States","canonicalUrl":"https://foursquare.com/v/market-street-inn/4b5dda81f964a520f06f29e3","category":"Seafood Restaurant","checkinsCount":3535,"usersCount":1208,"tipCount":27,"visitsCount":4111,"url":"http://www.marketstreetinnsalisbury.com","tier":2,"message":"Moderate","currency":"$","rating":7.9},{"name":"Sobo's Wine Beerstro","phone":"4102191117","address":"1013 Eastern Shore Drive","lat":38.348795883864874,"lng":-75.59729933738708,"city_fetched":"Salisbury","state":"MD","country":"United States","canonicalUrl":"https://foursquare.com/v/sobos-wine-beerstro/4b9abe00f964a520afd135e3","category":"Gastropub","checkinsCount":1047,"usersCount":307,"tipCount":18,"visitsCount":1076,"url":"http://www.soboswinebeerstro.com","tier":3,"message":"Expensive","currency":"$","rating":7.6},{"name":"The Irish Penny","phone":"4107420002","address":"N.","lat":38.3499938327436,"lng":-75.60239770176489,"city_fetched":"Salisbury","state":"MD","country":"United States","canonicalUrl":"https://foursquare.com/v/the-irish-penny/50cd2b72e4b029bca9b6c893","category":"Pub","checkinsCount":369,"usersCount":147,"tipCount":7,"visitsCount":378,"url":"http://www.theirishpennypub.com","tier":"","message":"","currency":"","rating":7.5},{"name":"Brew River Restaurant & Bar","phone":"4106776757","twitter":"brewriver","address":"502 W Main St","lat":38.364567716839595,"lng":-75.6059158433348,"city_fetched":"Salisbury","state":"MD","country":"United States","canonicalUrl":"https://foursquare.com/v/brew-river-restaurant--bar/4a9fd4d8f964a5205c3d20e3","category":"Gastropub","checkinsCount":2838,"usersCount":1342,"tipCount":21,"visitsCount":3418,"url":"http://www.brewriver.com","tier":3,"message":"Expensive","currency":"$","rating":7.4},{"name":"Roadie Joes Bar & Grill","phone":"4439449156","address":"213 W Main St","lat":38.365492,"lng":-75.602321,"city_fetched":"Salisbury","state":"MD","country":"United States","canonicalUrl":"https://foursquare.com/v/roadie-joes-bar--grill/51358984e4b09aa76e0b958f","category":"Dive Bar","checkinsCount":336,"usersCount":150,"tipCount":15,"visitsCount":422,"url":"http://www.roadiejoes.com","tier":"","message":"","currency":"","rating":6.6},{"name":"Goin' Nuts Caf√®","address":"945 Mt Herman rd","lat":38.36836926363865,"lng":-75.57925771478895,"city_fetched":"Salisbury","state":"MD","country":"United States","canonicalUrl":"https://foursquare.com/v/goin-nuts-caf%C3%A8/4c69b35ed0bdc9b6f4a8a60b","category":"Bar","checkinsCount":352,"usersCount":214,"tipCount":10,"visitsCount":444,"tier":"","message":"","currency":"","rating":6.5},{"name":"The Lagoon Bar & Grill","phone":"4107495445","address":"1800 Sweetbay Dr","lat":38.368396555078604,"lng":-75.54237743441612,"city_fetched":"Salisbury","state":"MD","country":"United States","canonicalUrl":"https://foursquare.com/v/the-lagoon-bar--grill/4c37835a18e72d7fd2ad16f5","category":"Bar","checkinsCount":419,"usersCount":245,"tipCount":1,"visitsCount":422,"tier":"","message":"","currency":"","rating":6}]