[{"name":"Paramour","phone":"2103409880","address":"102 9th St","lat":29.435258865356445,"lng":-98.4837646484375,"neighborhood":"Downtown San Antonio","city_fetched":"San Antonio,US","state":"TX","country":"United States","canonicalUrl":"https://foursquare.com/v/paramour/555de7f5498e6c7fab1624d9","categoryId":"4bf58dd8d48988d11e941735","category":"Cocktail Bar","checkinsCount":664,"usersCount":730,"tipCount":18,"visitsCount":1255,"url":"http://www.paramourbar.com","tier":"","message":"","currency":"","rating":9.3},{"name":"Halcyon","phone":"2102777045","twitter":"halcyonsa","address":"1414 S Alamo St Ste 101","lat":29.410018827694554,"lng":-98.49539167230378,"neighborhood":"King William","city_fetched":"San Antonio,US","state":"TX","country":"United States","canonicalUrl":"https://foursquare.com/halcyonsa","categoryId":"4bf58dd8d48988d121941735","category":"Lounge","checkinsCount":3690,"usersCount":1826,"tipCount":34,"visitsCount":4696,"url":"http://halcyonsouthtown.com","tier":1,"message":"Cheap","currency":"$","rating":9.3},{"name":"Pearl Brewery","phone":"2102127260","twitter":"pearlbrewery","address":"200 E Grayson St Ste 210","lat":29.4426933780432,"lng":-98.4796619369801,"neighborhood":"Tobin Hill","city_fetched":"San Antonio,US","state":"TX","country":"United States","canonicalUrl":"https://foursquare.com/v/pearl-brewery/4b2fb351f964a52042ee24e3","categoryId":"50327c8591d4c4b30a586d5d","category":"Brewery","checkinsCount":7873,"usersCount":3800,"tipCount":38,"visitsCount":8119,"url":"http://atpearl.com","tier":3,"message":"Expensive","currency":"$","rating":9.3},{"name":"The Hoppy Monk","phone":"2105453330","twitter":"thehoppymonk","address":"1010 N Loop 1604 E","lat":29.609379954799085,"lng":-98.47776494394796,"neighborhood":"Far North Central","city_fetched":"San Antonio,US","state":"TX","country":"United States","canonicalUrl":"https://foursquare.com/v/the-hoppy-monk/53d9d68e498e12f1cfc381d0","categoryId":"4bf58dd8d48988d117941735","category":"Beer Garden","checkinsCount":901,"usersCount":975,"tipCount":22,"visitsCount":1878,"url":"http://www.thehoppymonk.com","tier":2,"message":"Moderate","currency":"$","rating":9.2},{"name":"The Friendly Spot","phone":"2102242337","twitter":"thefriendlyspot","address":"943 S Alamo St","lat":29.41457101471242,"lng":-98.49064292905071,"neighborhood":"King William","city_fetched":"San Antonio,US","state":"TX","country":"United States","canonicalUrl":"https://foursquare.com/v/the-friendly-spot/4b130fd7f964a5208e9323e3","categoryId":"4bf58dd8d48988d117941735","category":"Beer Garden","checkinsCount":11365,"usersCount":4936,"tipCount":98,"visitsCount":12962,"url":"http://thefriendlyspot.com","tier":2,"message":"Moderate","currency":"$","rating":9.2},{"name":"Freetail Brewing Company","phone":"2103954974","twitter":"freetailbrewing","address":"4035 N Loop 1604 W","lat":29.601724082908653,"lng":-98.56129467487335,"neighborhood":"Northwest Side","city_fetched":"San Antonio,US","state":"TX","country":"United States","canonicalUrl":"https://foursquare.com/v/freetail-brewing-company/4ae35581f964a520999321e3","categoryId":"50327c8591d4c4b30a586d5d","category":"Brewery","checkinsCount":9979,"usersCount":3731,"tipCount":111,"visitsCount":11226,"url":"http://www.freetailbrewing.com","tier":2,"message":"Moderate","currency":"$","rating":9.2},{"name":"Flying Saucer Draught Emporium","phone":"2106477468","address":"11255 Huebner Rd #212","lat":29.54787489379221,"lng":-98.5774053633213,"neighborhood":"Northwest Side","city_fetched":"San Antonio,US","state":"TX","country":"United States","canonicalUrl":"https://foursquare.com/v/flying-saucer-draught-emporium/4ad8a285f964a5201a1321e3","categoryId":"4bf58dd8d48988d117941735","category":"Beer Garden","checkinsCount":26818,"usersCount":6345,"tipCount":120,"visitsCount":29980,"url":"http://www.beerknurd.com","tier":2,"message":"Moderate","currency":"$","rating":9.1},{"name":"Ocho Lounge","phone":"2102222008","twitter":"hotelhavana","address":"1015 Navarro St","lat":29.430935217394783,"lng":-98.48987651208434,"neighborhood":"Downtown San Antonio","city_fetched":"San Antonio,US","state":"TX","country":"United States","canonicalUrl":"https://foursquare.com/v/ocho-lounge/4dd466bb45ddd7035516843f","categoryId":"4bf58dd8d48988d121941735","category":"Lounge","checkinsCount":2151,"usersCount":1656,"tipCount":50,"visitsCount":2387,"url":"http://havanasanantonio.com","tier":2,"message":"Moderate","currency":"$","rating":9},{"name":"The Block SA","phone":"2106903333","twitter":"theblocksa","address":"14530 Roadrunner Way","lat":29.576104172389265,"lng":-98.6247675081128,"neighborhood":"Northwest Side","city_fetched":"San Antonio,US","state":"TX","country":"United States","canonicalUrl":"https://foursquare.com/v/the-block-sa/5218f368bce6efda6fd13b05","categoryId":"4bf58dd8d48988d117941735","category":"Beer Garden","checkinsCount":1463,"usersCount":1048,"tipCount":14,"visitsCount":2105,"url":"http://theblocksa.com","tier":1,"message":"Cheap","currency":"$","rating":9},{"name":"Big Hops Growler Station \"The Bridge\"","address":"306 Austin St","lat":29.430784083080546,"lng":-98.47982270129936,"neighborhood":"Dignowity Hill","city_fetched":"San Antonio,US","state":"TX","country":"United States","canonicalUrl":"https://foursquare.com/v/big-hops-growler-station-the-bridge/54fa1b31498e38ba3d1b54d4","categoryId":"4bf58dd8d48988d117941735","category":"Beer Garden","checkinsCount":334,"usersCount":267,"tipCount":10,"visitsCount":579,"url":"http://bighops.com","tier":"","message":"","currency":"","rating":9},{"name":"Alamo Beer Company","phone":"2108725589","twitter":"alamobeerco","address":"415 Burnet","lat":29.43001842872901,"lng":-98.47735232750186,"neighborhood":"Dignowity Hill","city_fetched":"San Antonio,US","state":"TX","country":"United States","canonicalUrl":"https://foursquare.com/v/alamo-beer-company/4dd31516c65b47384cf0e320","categoryId":"50327c8591d4c4b30a586d5d","category":"Brewery","checkinsCount":497,"usersCount":542,"tipCount":7,"visitsCount":800,"url":"http://alamobeer.com","tier":"","message":"","currency":"","rating":9},{"name":"Cover 3","twitter":"cover3sa","address":"1806 N Loop 1604 W","lat":29.607635877563983,"lng":-98.52013714140978,"neighborhood":"Far North Central","city_fetched":"San Antonio,US","state":"TX","country":"United States","canonicalUrl":"https://foursquare.com/v/cover-3/51b1f0e1498e77e08c39c1a8","categoryId":"4bf58dd8d48988d11d941735","category":"Sports Bar","checkinsCount":1546,"usersCount":1085,"tipCount":32,"visitsCount":2517,"url":"http://cover-3.com","tier":2,"message":"Moderate","currency":"$","rating":9},{"name":"The Brooklynite","phone":"2104440707","twitter":"brooklynite_sa","address":"516 Brooklyn Ave","lat":29.432985430525783,"lng":-98.48459786375429,"neighborhood":"Downtown San Antonio","city_fetched":"San Antonio,US","state":"TX","country":"United States","canonicalUrl":"https://foursquare.com/brooklynite_sa","categoryId":"4bf58dd8d48988d11e941735","category":"Cocktail Bar","checkinsCount":2000,"usersCount":1378,"tipCount":19,"visitsCount":2415,"url":"http://thebrooklynitesa.com","tier":2,"message":"Moderate","currency":"$","rating":8.9},{"name":"Copa Wine Bar","phone":"2104952672","twitter":"copawinebar","address":"19141 Stone Oak Pkwy","lat":29.624682352562377,"lng":-98.49554175033201,"neighborhood":"Stone Oak","city_fetched":"San Antonio,US","state":"TX","country":"United States","canonicalUrl":"https://foursquare.com/v/copa-wine-bar/4ad7c4d9f964a520890e21e3","categoryId":"4bf58dd8d48988d123941735","category":"Wine Bar","checkinsCount":1069,"usersCount":601,"tipCount":18,"visitsCount":1171,"url":"http://www.thecopawinebar.com","tier":2,"message":"Moderate","currency":"$","rating":8.9},{"name":"Ranger Creek Brewing & Distillingâ€¨","phone":"2107752099","twitter":"rangercreek","address":"4834 Whirlwind Dr","lat":29.52969016846011,"lng":-98.39705616,"neighborhood":"Northeast San Antonio","city_fetched":"San Antonio,US","state":"TX","country":"United States","canonicalUrl":"https://foursquare.com/v/ranger-creek-brewing--distilling/4c9e60f32fb1a1434f02ea40","categoryId":"50327c8591d4c4b30a586d5d","category":"Brewery","checkinsCount":974,"usersCount":738,"tipCount":13,"visitsCount":1221,"url":"http://drinkrangercreek.com","tier":1,"message":"Cheap","currency":"$","rating":8.7},{"name":"La Tuna Grill","phone":"2102125727","address":"100 Probandt","lat":29.40774048608873,"lng":-98.49610990557458,"neighborhood":"Lone Star","city_fetched":"San Antonio,US","state":"TX","country":"United States","canonicalUrl":"https://foursquare.com/v/la-tuna-grill/4b64af14f964a5203fc82ae3","categoryId":"4bf58dd8d48988d117941735","category":"Beer Garden","checkinsCount":2798,"usersCount":1696,"tipCount":32,"visitsCount":3263,"url":"http://latunagrill.com","tier":1,"message":"Cheap","currency":"$","rating":8.7},{"name":"Southerleigh Fine Food & Brewery","phone":"2104555701","twitter":"southerleighsa","address":"136 E Grayson St Ste 120","lat":29.442688589551114,"lng":-98.48051935065101,"neighborhood":"Tobin Hill","city_fetched":"San Antonio,US","state":"TX","country":"United States","canonicalUrl":"https://foursquare.com/v/southerleigh-fine-food--brewery/55184e3e498ef873aa114a75","categoryId":"50327c8591d4c4b30a586d5d","category":"Brewery","checkinsCount":877,"usersCount":722,"tipCount":12,"visitsCount":988,"url":"http://southerleigh.com","tier":"","message":"","currency":"","rating":8.7},{"name":"The Esquire Tavern","phone":"2102222521","twitter":"esquiretavernsa","address":"155 E Commerce St","lat":29.42460637007532,"lng":-98.49175237161852,"city_fetched":"San Antonio,US","state":"TX","country":"United States","canonicalUrl":"https://foursquare.com/v/the-esquire-tavern/4d83def5f9f3a1cd4dfda964","categoryId":"4bf58dd8d48988d11e941735","category":"Cocktail Bar","checkinsCount":8182,"usersCount":6624,"tipCount":155,"visitsCount":9699,"url":"http://www.esquiretavern-sa.com","tier":2,"message":"Moderate","currency":"$","rating":8.7},{"name":"Cullum's Attagirl","address":"726 E Mistletoe Ave","lat":29.453346657389023,"lng":-98.48504772859611,"neighborhood":"Tobin Hill","city_fetched":"San Antonio,US","state":"TX","country":"United States","canonicalUrl":"https://foursquare.com/v/cullums-attagirl/551e0a85498e282ec080a817","categoryId":"4bf58dd8d48988d116941735","category":"Bar","checkinsCount":211,"usersCount":112,"tipCount":9,"visitsCount":270,"tier":"","message":"","currency":"","rating":8.7},{"name":"TBA","twitter":"tbasatx","address":"2801 N Saint Marys St","lat":29.451353,"lng":-98.486221,"neighborhood":"Tobin Hill","city_fetched":"San Antonio,US","state":"TX","country":"United States","canonicalUrl":"https://foursquare.com/v/tba/51c66026498efc7a3a83a2d8","categoryId":"4bf58dd8d48988d121941735","category":"Lounge","checkinsCount":515,"usersCount":362,"tipCount":10,"visitsCount":710,"tier":2,"message":"Moderate","currency":"$","rating":8.7},{"name":"Sanchos's","address":"628 Jackson","lat":29.439444467975324,"lng":-98.49929915835556,"neighborhood":"Five Points","city_fetched":"San Antonio,US","state":"TX","country":"United States","canonicalUrl":"https://foursquare.com/v/sanchoss/52d1cfe0498e2bacdbf68f49","categoryId":"4bf58dd8d48988d118941735","category":"Dive Bar","checkinsCount":247,"usersCount":209,"tipCount":6,"visitsCount":431,"tier":"","message":"","currency":"","rating":8.6},{"name":"Big Hops Growler Station","phone":"2108779663","twitter":"bighopsgrowlers","address":"11224 Huebner Rd","lat":29.546349261570107,"lng":-98.57592455979267,"neighborhood":"Vance Jackson","city_fetched":"San Antonio,US","state":"TX","country":"United States","canonicalUrl":"https://foursquare.com/v/big-hops-growler-station/5298ac7f11d2d4349552e156","categoryId":"4bf58dd8d48988d117941735","category":"Beer Garden","checkinsCount":1924,"usersCount":609,"tipCount":15,"visitsCount":2537,"url":"http://www.bighops.com","tier":2,"message":"Moderate","currency":"$","rating":8.6},{"name":"MASH'D","lat":29.60967903428921,"lng":-98.59866751802848,"neighborhood":"Northwest Side","city_fetched":"San Antonio,US","state":"TX","country":"United States","canonicalUrl":"https://foursquare.com/v/mashd/56553cfa498eec9f8131ba14","categoryId":"4bf58dd8d48988d11e941735","category":"Cocktail Bar","checkinsCount":301,"usersCount":263,"tipCount":10,"visitsCount":382,"tier":"","message":"","currency":"","rating":8.6},{"name":"Little Woodrow's","address":"606 W Afton Oaks Blvd","lat":29.60837221148167,"lng":-98.48569083394138,"neighborhood":"Far North Central","city_fetched":"San Antonio,US","state":"TX","country":"United States","canonicalUrl":"https://foursquare.com/v/little-woodrows/5619c6eb498ecf48646015cc","categoryId":"4bf58dd8d48988d116941735","category":"Bar","checkinsCount":281,"usersCount":486,"tipCount":5,"visitsCount":811,"tier":"","message":"","currency":"","rating":8.5},{"name":"1919","phone":"2102271420","address":"1420 S Alamo St","lat":29.40915078239254,"lng":-98.49521479501128,"neighborhood":"King William","city_fetched":"San Antonio,US","state":"TX","country":"United States","canonicalUrl":"https://foursquare.com/v/1919/4fc1b372e4b0a06f8ea51b25","categoryId":"4bf58dd8d48988d11e941735","category":"Cocktail Bar","checkinsCount":2957,"usersCount":1467,"tipCount":41,"visitsCount":3303,"url":"http://1919bar.com","tier":2,"message":"Moderate","currency":"$","rating":8.5},{"name":"The Lion & Rose","phone":"2108227673","address":"5148 Broadway St","lat":29.47427459377244,"lng":-98.46243381500244,"neighborhood":"Uptown Broadway","city_fetched":"San Antonio,US","state":"TX","country":"United States","canonicalUrl":"https://foursquare.com/v/the-lion--rose/4ad4bffef964a520b8ea20e3","categoryId":"4bf58dd8d48988d11b941735","category":"Pub","checkinsCount":4215,"usersCount":1704,"tipCount":38,"visitsCount":4678,"url":"http://thelionandrose.com","tier":2,"message":"Moderate","currency":"$","rating":8.5},{"name":"Tycoon Flats","phone":"2103200819","twitter":"tycoonflats","address":"2926 N Saint Marys St","lat":29.452232516666665,"lng":-98.48496936,"neighborhood":"Tobin Hill","city_fetched":"San Antonio,US","state":"TX","country":"United States","canonicalUrl":"https://foursquare.com/v/tycoon-flats/4ae244f3f964a520a28c21e3","categoryId":"4bf58dd8d48988d116941735","category":"Bar","checkinsCount":3821,"usersCount":1939,"tipCount":46,"visitsCount":4231,"url":"http://www.tycoonflats.net","tier":2,"message":"Moderate","currency":"$","rating":8.5},{"name":"Pigpen Neighborhood Bar","phone":"2109571430","address":"3714 Broadway San Antonio, TX 78209","lat":29.460935264537753,"lng":-98.46602501452764,"neighborhood":"Uptown Broadway","city_fetched":"San Antonio,US","state":"TX","country":"United States","canonicalUrl":"https://foursquare.com/v/pigpen-neighborhood-bar/5691b7d3498eaae85686f608","categoryId":"4bf58dd8d48988d116941735","category":"Bar","checkinsCount":97,"usersCount":75,"tipCount":5,"visitsCount":125,"tier":"","message":"","currency":"","rating":8.5},{"name":"SA Country","phone":"2105250915","address":"10127 Coachlight St","lat":29.53368704150868,"lng":-98.49368187586529,"neighborhood":"Northeast San Antonio","city_fetched":"San Antonio,US","state":"TX","country":"United States","canonicalUrl":"https://foursquare.com/v/sa-country/4fdb63bde4b034b3a9435a4f","categoryId":"4bf58dd8d48988d116941735","category":"Bar","checkinsCount":1008,"usersCount":433,"tipCount":11,"visitsCount":1504,"tier":1,"message":"Cheap","currency":"$","rating":8.5},{"name":"Lefty's","lat":29.588221513884083,"lng":-98.37867358794034,"neighborhood":"Northeast San Antonio","city_fetched":"San Antonio,US","state":"TX","country":"United States","canonicalUrl":"https://foursquare.com/v/leftys/4fcc29c5e4b05a5ebcbb49e8","categoryId":"4bf58dd8d48988d116941735","category":"Bar","checkinsCount":641,"usersCount":419,"tipCount":8,"visitsCount":1216,"tier":"","message":"","currency":"","rating":8.5},{"name":"Max's Wine Dive San Antonio","phone":"2104449547","twitter":"mwdsanantonio","address":"340 E Basse Rd","lat":29.496413,"lng":-98.478387,"neighborhood":"Uptown Broadway","city_fetched":"San Antonio,US","state":"TX","country":"United States","canonicalUrl":"https://foursquare.com/v/maxs-wine-dive-san-antonio/4cc8b23ae7926dcbffb35777","categoryId":"4bf58dd8d48988d123941735","category":"Wine Bar","checkinsCount":5095,"usersCount":2332,"tipCount":57,"visitsCount":5352,"url":"http://www.maxswinedive.com","tier":3,"message":"Expensive","currency":"$","rating":8.5},{"name":"Branchline Brewing Company","twitter":"branchlinebrew","address":"3633 Metro Pkwy, San Antonio, TX 78247","lat":29.561019280921535,"lng":-98.4283474696535,"neighborhood":"Northeast San Antonio","city_fetched":"San Antonio,US","state":"TX","country":"United States","canonicalUrl":"https://foursquare.com/v/branchline-brewing-company/4f9bff03e4b0d296c72c99c7","categoryId":"50327c8591d4c4b30a586d5d","category":"Brewery","checkinsCount":516,"usersCount":286,"tipCount":9,"visitsCount":654,"tier":"","message":"","currency":"","rating":8.4},{"name":"Cowboys Dancehall","phone":"2106469378","address":"3030 NE Loop 410","lat":29.51803348223967,"lng":-98.39842355360925,"neighborhood":"Northeast San Antonio","city_fetched":"San Antonio,US","state":"TX","country":"United States","canonicalUrl":"https://foursquare.com/v/cowboys-dancehall/4ba1a431f964a52052c537e3","categoryId":"4bf58dd8d48988d11a941735","category":"Other Nightlife","checkinsCount":7645,"usersCount":4371,"tipCount":29,"visitsCount":8946,"url":"http://cowboysdancehall.com","tier":3,"message":"Expensive","currency":"$","rating":8.4},{"name":"The Brass Tap","address":"17619 LA Cantera Pkwy Ste 2-208","lat":29.6100831923816,"lng":-98.59881243362736,"neighborhood":"Northwest Side","city_fetched":"San Antonio,US","state":"TX","country":"United States","canonicalUrl":"https://foursquare.com/v/the-brass-tap/56475c77498e488e5fedbd74","categoryId":"4bf58dd8d48988d117941735","category":"Beer Garden","checkinsCount":257,"usersCount":192,"tipCount":4,"visitsCount":322,"tier":"","message":"","currency":"","rating":8.4},{"name":"The Amp Room","address":"2407 N Saint Marys St","lat":29.448393295093634,"lng":-98.48805429326488,"neighborhood":"Tobin Hill","city_fetched":"San Antonio,US","state":"TX","country":"United States","canonicalUrl":"https://foursquare.com/v/the-amp-room/5516252a498e650d9ae8212d","categoryId":"4bf58dd8d48988d116941735","category":"Bar","checkinsCount":160,"usersCount":97,"tipCount":3,"visitsCount":172,"url":"http://theamproom.com","tier":"","message":"","currency":"","rating":8.4},{"name":"Faust","phone":"2102570628","address":"517 E Woodlawn Ave","lat":29.452593100618724,"lng":-98.48519242681992,"neighborhood":"Tobin Hill","city_fetched":"San Antonio,US","state":"TX","country":"United States","canonicalUrl":"https://foursquare.com/v/faust/51f327af498e6eed97cade13","categoryId":"4bf58dd8d48988d118941735","category":"Dive Bar","checkinsCount":1214,"usersCount":455,"tipCount":10,"visitsCount":1477,"url":"http://fausttavern.com","tier":1,"message":"Cheap","currency":"$","rating":8.4},{"name":"Burleson Yard","address":"430 Austin St","lat":29.432571996037556,"lng":-98.47827401930442,"neighborhood":"Dignowity Hill","city_fetched":"San Antonio,US","state":"TX","country":"United States","canonicalUrl":"https://foursquare.com/v/burleson-yard/56e391dc498e64591b19e8ec","categoryId":"4bf58dd8d48988d117941735","category":"Beer Garden","checkinsCount":132,"usersCount":151,"tipCount":3,"visitsCount":278,"tier":"","message":"","currency":"","rating":8.3},{"name":"Bar Du Mon Ami","phone":"2108328660","address":"4901 Broadway St","lat":29.471886420757038,"lng":-98.46376940050853,"neighborhood":"Uptown Broadway","city_fetched":"San Antonio,US","state":"TX","country":"United States","canonicalUrl":"https://foursquare.com/v/bar-du-mon-ami/4b90401af964a520f07e33e3","categoryId":"4bf58dd8d48988d11e941735","category":"Cocktail Bar","checkinsCount":672,"usersCount":368,"tipCount":12,"visitsCount":733,"url":"http://bardumonami.com","tier":"","message":"","currency":"","rating":8.3},{"name":"54th Street Restaurant | Drafthouse","phone":"2103335455","address":"7307 S New Braunfels","lat":29.35351195858207,"lng":-98.44903724554122,"city_fetched":"San Antonio,US","state":"TX","country":"United States","canonicalUrl":"https://foursquare.com/v/54th-street-restaurant--drafthouse/5213fd1911d27fb283032350","categoryId":"4bf58dd8d48988d117941735","category":"Beer Garden","checkinsCount":1035,"usersCount":776,"tipCount":8,"visitsCount":1729,"url":"http://54thstreetgrill.com","tier":2,"message":"Moderate","currency":"$","rating":8.3},{"name":"Rebar","phone":"2103204091","address":"8134 Broadway St","lat":29.51104128,"lng":-98.465997,"neighborhood":"Oak Park - Northwood","city_fetched":"San Antonio,US","state":"TX","country":"United States","canonicalUrl":"https://foursquare.com/v/rebar/4ad4bffdf964a52093ea20e3","categoryId":"4bf58dd8d48988d116941735","category":"Bar","checkinsCount":4066,"usersCount":1417,"tipCount":25,"visitsCount":4278,"url":"http://rebarsatx.com","tier":2,"message":"Moderate","currency":"$","rating":8.3},{"name":"502","phone":"2102578125","address":"502 Embassy Rd.","lat":29.564209230337553,"lng":-98.48834370154444,"neighborhood":"Northeast San Antonio","city_fetched":"San Antonio,US","state":"TX","country":"United States","canonicalUrl":"https://foursquare.com/v/502/4e302d7e483b93c2f2e69a13","categoryId":"4bf58dd8d48988d116941735","category":"Bar","checkinsCount":3542,"usersCount":831,"tipCount":20,"visitsCount":3737,"url":"http://502bar.com","tier":2,"message":"Moderate","currency":"$","rating":8.3},{"name":"Oasis Lounge","address":"142 Embassy Oaks","lat":29.564247883490463,"lng":-98.48838121751395,"neighborhood":"Northeast San Antonio","city_fetched":"San Antonio,US","state":"TX","country":"United States","canonicalUrl":"https://foursquare.com/v/oasis-lounge/4b345291f964a520fd2625e3","categoryId":"4bf58dd8d48988d118941735","category":"Dive Bar","checkinsCount":4188,"usersCount":498,"tipCount":9,"visitsCount":4361,"tier":"","message":"","currency":"","rating":8.3},{"name":"Martinis","phone":"2103444747","address":"8507 McCullough Ave","lat":29.515775,"lng":-98.49274477320326,"city_fetched":"San Antonio,US","state":"TX","country":"United States","canonicalUrl":"https://foursquare.com/v/martinis/4c2d5a614e132d7fdf669cdf","categoryId":"4bf58dd8d48988d11e941735","category":"Cocktail Bar","checkinsCount":425,"usersCount":329,"tipCount":3,"visitsCount":486,"url":"http://wayneharpersmartiniclub.com","tier":"","message":"","currency":"","rating":8.3},{"name":"Nectar Wine Bar & Ale House","phone":"2103754082","twitter":"nectarsat","address":"214 Broadway St Ste 103","lat":29.42786295173678,"lng":-98.48764162041928,"neighborhood":"Downtown San Antonio","city_fetched":"San Antonio,US","state":"TX","country":"United States","canonicalUrl":"https://foursquare.com/v/nectar-wine-bar--ale-house/55d90bfa498e38340fc622cc","categoryId":"4bf58dd8d48988d123941735","category":"Wine Bar","checkinsCount":255,"usersCount":104,"tipCount":5,"visitsCount":300,"url":"http://www.nectarsa.com","tier":"","message":"","currency":"","rating":8.2},{"name":"Shisha Cafe","phone":"2106944800","twitter":"shishacafesa","address":"5500 Babcock Rd #101","lat":29.516648824466774,"lng":-98.59756724192985,"neighborhood":"Northwest Side","city_fetched":"San Antonio,US","state":"TX","country":"United States","canonicalUrl":"https://foursquare.com/v/shisha-cafe/4b29cc0af964a52063a324e3","categoryId":"4bf58dd8d48988d119941735","category":"Hookah Bar","checkinsCount":3891,"usersCount":1711,"tipCount":57,"visitsCount":5218,"url":"http://www.shishacafesa.com","tier":2,"message":"Moderate","currency":"$","rating":8.2},{"name":"Soho Wine & Martini Bar","phone":"2104441000","address":"214 W Crockett St","lat":29.424907585951257,"lng":-98.49029991629763,"city_fetched":"San Antonio,US","state":"TX","country":"United States","canonicalUrl":"https://foursquare.com/v/soho-wine--martini-bar/4b8556eef964a520ab5731e3","categoryId":"4bf58dd8d48988d123941735","category":"Wine Bar","checkinsCount":3877,"usersCount":1976,"tipCount":76,"visitsCount":3919,"url":"http://sohomartinibar.com","tier":2,"message":"Moderate","currency":"$","rating":8.2},{"name":"Picks","lat":29.596175883029368,"lng":-98.57349396673675,"neighborhood":"Northwest Side","city_fetched":"San Antonio,US","state":"TX","country":"United States","canonicalUrl":"https://foursquare.com/v/picks/551cc197498eee30d3b87dd9","categoryId":"4bf58dd8d48988d121941735","category":"Lounge","checkinsCount":260,"usersCount":162,"tipCount":2,"visitsCount":456,"tier":"","message":"","currency":"","rating":8.2},{"name":"Menger Bar","phone":"2102234361","address":"204 Alamo Plz","lat":29.424889882883043,"lng":-98.48612308502197,"neighborhood":"Downtown San Antonio","city_fetched":"San Antonio,US","state":"TX","country":"United States","canonicalUrl":"https://foursquare.com/v/menger-bar/4b5bc852f964a520f31529e3","categoryId":"4bf58dd8d48988d1d5941735","category":"Hotel Bar","checkinsCount":2254,"usersCount":1825,"tipCount":30,"visitsCount":2296,"url":"http://mengerhotel.com","tier":"","message":"","currency":"","rating":8.2},{"name":"The Hangar Tavern","phone":"2104049430","twitter":"thehangartavern","address":"14532 Brook Hollow Blvd","lat":29.57968551636839,"lng":-98.47520890185227,"neighborhood":"Far North Central","city_fetched":"San Antonio,US","state":"TX","country":"United States","canonicalUrl":"https://foursquare.com/v/the-hangar-tavern/50847305e4b00dbb9e7813ea","categoryId":"4bf58dd8d48988d116941735","category":"Bar","checkinsCount":1505,"usersCount":445,"tipCount":8,"visitsCount":1706,"url":"http://www.thehangartavern.com","tier":2,"message":"Moderate","currency":"$","rating":8.2},{"name":"The Granary 'Cue & Brew","phone":"2102280124","twitter":"thegranarysa","address":"602 Avenue A","lat":29.441579551931238,"lng":-98.47931361546644,"neighborhood":"Tobin Hill","city_fetched":"San Antonio,US","state":"TX","country":"United States","canonicalUrl":"https://foursquare.com/v/the-granary-cue--brew/509af74ae4b01acbd285e302","categoryId":"50327c8591d4c4b30a586d5d","category":"Brewery","checkinsCount":1632,"usersCount":1485,"tipCount":54,"visitsCount":2052,"url":"http://thegranarysa.com","tier":2,"message":"Moderate","currency":"$","rating":8.2},{"name":"Sparky's Pub","phone":"2103205111","address":"1416 N Main Ave","lat":29.44236597078677,"lng":-98.4938212308628,"neighborhood":"Tobin Hill","city_fetched":"San Antonio,US","state":"TX","country":"United States","canonicalUrl":"https://foursquare.com/v/sparkys-pub/4b515f58f964a520f54b27e3","categoryId":"4bf58dd8d48988d11b941735","category":"Pub","checkinsCount":10891,"usersCount":2623,"tipCount":42,"visitsCount":11501,"url":"http://www.thestripsa.com","tier":1,"message":"Cheap","currency":"$","rating":8.2},{"name":"Freetail Brewing Company - Taproom & Production Brewery","address":"2000 S Presa St","lat":29.401916420274162,"lng":-98.48262005542368,"neighborhood":"Riverside","city_fetched":"San Antonio,US","state":"TX","country":"United States","canonicalUrl":"https://foursquare.com/v/freetail-brewing-company--taproom--production-brewery/54595a04498ed2e911476a48","categoryId":"50327c8591d4c4b30a586d5d","category":"Brewery","checkinsCount":200,"usersCount":241,"tipCount":3,"visitsCount":410,"url":"https://freetailbrewing.com","tier":"","message":"","currency":"","rating":8.1},{"name":"The Quarry Hofbrau & Beer Garden","phone":"2102908066","twitter":"quarryhofbrau","address":"7310 Jones Maltsberger Rd","lat":29.497459697149623,"lng":-98.47952796697636,"neighborhood":"Uptown Broadway","city_fetched":"San Antonio,US","state":"TX","country":"United States","canonicalUrl":"https://foursquare.com/v/the-quarry-hofbrau--beer-garden/4be0555b4f15c928a7d7ca0b","categoryId":"4bf58dd8d48988d117941735","category":"Beer Garden","checkinsCount":8798,"usersCount":4377,"tipCount":69,"visitsCount":9507,"url":"http://quarryhofbrau.com","tier":2,"message":"Moderate","currency":"$","rating":8.1},{"name":"Francis Bogside","phone":"2109883093","address":"803 S Saint Marys St","lat":29.416457,"lng":-98.490008,"city_fetched":"San Antonio,US","state":"TX","country":"United States","canonicalUrl":"https://foursquare.com/v/francis-bogside/55ea4405498e36ccf2a8c9d5","categoryId":"4bf58dd8d48988d11e941735","category":"Cocktail Bar","checkinsCount":172,"usersCount":150,"tipCount":2,"visitsCount":237,"tier":"","message":"","currency":"","rating":8.1},{"name":"The Lion & Rose British Restaurant & Pub","phone":"2105473000","address":"8211 Agora Pkwy #112","lat":29.56808220336855,"lng":-98.33029747009277,"city_fetched":"San Antonio,US","state":"TX","country":"United States","canonicalUrl":"https://foursquare.com/v/the-lion--rose-british-restaurant--pub/4b072057f964a520c1f722e3","categoryId":"4bf58dd8d48988d11b941735","category":"Pub","checkinsCount":5881,"usersCount":1506,"tipCount":39,"visitsCount":6321,"url":"http://thelionandrose.com","tier":2,"message":"Moderate","currency":"$","rating":8.1},{"name":"Blue Star Brewing Company","phone":"2102125506","twitter":"bluestarbrewco","address":"1414 S Alamo St","lat":29.40949738527263,"lng":-98.49527375406267,"neighborhood":"King William","city_fetched":"San Antonio,US","state":"TX","country":"United States","canonicalUrl":"https://foursquare.com/v/blue-star-brewing-company/4ad4bffdf964a520a0ea20e3","categoryId":"50327c8591d4c4b30a586d5d","category":"Brewery","checkinsCount":5304,"usersCount":3181,"tipCount":68,"visitsCount":5614,"url":"http://bluestarbrewing.com","tier":2,"message":"Moderate","currency":"$","rating":8.1},{"name":"Phantom Room","lat":29.445797560856477,"lng":-98.48580873718377,"neighborhood":"Tobin Hill","city_fetched":"San Antonio,US","state":"TX","country":"United States","canonicalUrl":"https://foursquare.com/v/phantom-room/55308ea0498e0d57981fd8c2","categoryId":"4bf58dd8d48988d116941735","category":"Bar","checkinsCount":396,"usersCount":283,"tipCount":0,"visitsCount":699,"tier":"","message":"","currency":"","rating":8.1},{"name":"Hi-tones","phone":"2105736220","address":"621 E Dewey Pl","lat":29.44716824114666,"lng":-98.4869556238094,"neighborhood":"Tobin Hill","city_fetched":"San Antonio,US","state":"TX","country":"United States","canonicalUrl":"https://foursquare.com/v/hitones/4e4f32d152b1e893ad5890a2","categoryId":"4bf58dd8d48988d116941735","category":"Bar","checkinsCount":4641,"usersCount":1363,"tipCount":27,"visitsCount":5509,"tier":2,"message":"Moderate","currency":"$","rating":8.1},{"name":"The Lion & Rose British Restaurant & Pub","phone":"2107984154","address":"842 NW Loop 410","lat":29.519359407265657,"lng":-98.50642204284668,"city_fetched":"San Antonio,US","state":"TX","country":"United States","canonicalUrl":"https://foursquare.com/v/the-lion--rose-british-restaurant--pub/4b5d2421f964a520445429e3","categoryId":"4bf58dd8d48988d11b941735","category":"Pub","checkinsCount":7370,"usersCount":3131,"tipCount":51,"visitsCount":7918,"url":"http://thelionandrose.com","tier":2,"message":"Moderate","currency":"$","rating":8.1},{"name":"VFW Post 76","phone":"2109802609","address":"10 10th St","lat":29.43535189437285,"lng":-98.48198769424802,"neighborhood":"Downtown San Antonio","city_fetched":"San Antonio,US","state":"TX","country":"United States","canonicalUrl":"https://foursquare.com/v/vfw-post-76/4b96d13df964a5208fe634e3","categoryId":"4bf58dd8d48988d116941735","category":"Bar","checkinsCount":1645,"usersCount":1351,"tipCount":15,"visitsCount":2193,"url":"http://vfwpost76ontheriverwalk.org","tier":1,"message":"Cheap","currency":"$","rating":8.1},{"name":"Bar Blanco @ Whole Foods Market","address":"8403 Blanco Rd","lat":29.613198806010075,"lng":-98.5109638600756,"neighborhood":"Far North Central","city_fetched":"San Antonio,US","state":"TX","country":"United States","canonicalUrl":"https://foursquare.com/v/bar-blanco--whole-foods-market/505b4b57e4b0644ce25955b3","categoryId":"4bf58dd8d48988d116941735","category":"Bar","checkinsCount":431,"usersCount":156,"tipCount":8,"visitsCount":468,"tier":"","message":"","currency":"","rating":8},{"name":"Little Woodrow's","address":"2535 Babcock Rd","lat":29.507367205830786,"lng":-98.58708589748737,"neighborhood":"Northwest Side","city_fetched":"San Antonio,US","state":"TX","country":"United States","canonicalUrl":"https://foursquare.com/v/little-woodrows/52f3c617498e3d0668a26393","categoryId":"4bf58dd8d48988d117941735","category":"Beer Garden","checkinsCount":1079,"usersCount":1189,"tipCount":9,"visitsCount":2456,"url":"http://littlewoodrows.com","tier":2,"message":"Moderate","currency":"$","rating":8},{"name":"Green Lantern","phone":"2104973722","address":"20626 Stone Oak Pkwy","lat":29.64870211107114,"lng":-98.46304076056505,"neighborhood":"Stone Oak","city_fetched":"San Antonio,US","state":"TX","country":"United States","canonicalUrl":"https://foursquare.com/v/green-lantern/4b25b6acf964a5209b7524e3","categoryId":"4bf58dd8d48988d116941735","category":"Bar","checkinsCount":3233,"usersCount":1357,"tipCount":33,"visitsCount":3556,"tier":2,"message":"Moderate","currency":"$","rating":8},{"name":"Bushwood Country Club","address":"13800 Jones Maltsberger Rd","lat":29.566576,"lng":-98.45323387,"neighborhood":"Northeast San Antonio","city_fetched":"San Antonio,US","state":"TX","country":"United States","canonicalUrl":"https://foursquare.com/v/bushwood-country-club/4b13230ef964a5209b9423e3","categoryId":"4bf58dd8d48988d116941735","category":"Bar","checkinsCount":1009,"usersCount":325,"tipCount":4,"visitsCount":1096,"tier":"","message":"","currency":"","rating":8},{"name":"Luna","phone":"2108042433","address":"6740 San Pedro Ave","lat":29.50180326923458,"lng":-98.49909547095139,"city_fetched":"San Antonio,US","state":"TX","country":"United States","canonicalUrl":"https://foursquare.com/v/luna/4ad4bffef964a520c5ea20e3","categoryId":"4bf58dd8d48988d116941735","category":"Bar","checkinsCount":541,"usersCount":445,"tipCount":9,"visitsCount":735,"url":"http://lunalive.com","tier":"","message":"","currency":"","rating":8},{"name":"Brick House Tavern + Tap","phone":"2104023107","address":"1011 N Loop 1604 E","lat":29.611118527688436,"lng":-98.47774886794018,"neighborhood":"Stone Oak","city_fetched":"San Antonio,US","state":"TX","country":"United States","canonicalUrl":"https://foursquare.com/v/brick-house-tavern--tap/526d4946498ef27fb2e2164c","categoryId":"4bf58dd8d48988d116941735","category":"Bar","checkinsCount":1664,"usersCount":1581,"tipCount":46,"visitsCount":2993,"url":"http://brickhousetavernandtap.com","tier":2,"message":"Moderate","currency":"$","rating":8},{"name":"Oak Hills Tavern","phone":"2106148855","twitter":"oakhilltavern","address":"7920 Fredericksburg Rd","lat":29.51180488528097,"lng":-98.56754926801109,"neighborhood":"Northwest Side","city_fetched":"San Antonio,US","state":"TX","country":"United States","canonicalUrl":"https://foursquare.com/v/oak-hills-tavern/4b4d045ff964a520e6c726e3","categoryId":"4bf58dd8d48988d116941735","category":"Bar","checkinsCount":2063,"usersCount":392,"tipCount":31,"visitsCount":2269,"tier":"","message":"","currency":"","rating":8},{"name":"The Irish Pub","phone":"2106927620","address":"9726 Datapoint Dr","lat":29.52775500311219,"lng":-98.5645931877968,"neighborhood":"Northwest Side","city_fetched":"San Antonio,US","state":"TX","country":"United States","canonicalUrl":"https://foursquare.com/v/the-irish-pub/4c42682fff711b8d4a911305","categoryId":"4bf58dd8d48988d116941735","category":"Bar","checkinsCount":1700,"usersCount":792,"tipCount":13,"visitsCount":2029,"url":"http://theirishpubsa.com","tier":2,"message":"Moderate","currency":"$","rating":8},{"name":"Blue Box","twitter":"blueboxbar","address":"312 Pearl Pkwy","lat":29.44327147101908,"lng":-98.4808783955272,"neighborhood":"Tobin Hill","city_fetched":"San Antonio,US","state":"TX","country":"United States","canonicalUrl":"https://foursquare.com/v/blue-box/4fb6c8c2e4b05e956de233ae","categoryId":"4bf58dd8d48988d11e941735","category":"Cocktail Bar","checkinsCount":2721,"usersCount":1638,"tipCount":39,"visitsCount":2995,"url":"http://blueboxbar.com","tier":2,"message":"Moderate","currency":"$","rating":8},{"name":"Daiquiry Lounge","phone":"2106618200","address":"8275 FM 78","lat":29.496451020240784,"lng":-98.325955,"city_fetched":"San Antonio,US","state":"TX","country":"United States","canonicalUrl":"https://foursquare.com/v/daiquiry-lounge/4c1bd8c1eac020a19e8b45c2","categoryId":"4bf58dd8d48988d11b941735","category":"Pub","checkinsCount":210,"usersCount":128,"tipCount":7,"visitsCount":212,"tier":"","message":"","currency":"","rating":8},{"name":"The Texan","phone":"2105251025","address":"4518 West Ave","lat":29.506931340139815,"lng":-98.52577247972397,"city_fetched":"San Antonio,US","state":"TX","country":"United States","canonicalUrl":"https://foursquare.com/v/the-texan/4cba7d81bac93704483dec7c","categoryId":"4bf58dd8d48988d116941735","category":"Bar","checkinsCount":165,"usersCount":94,"tipCount":4,"visitsCount":241,"tier":"","message":"","currency":"","rating":8},{"name":"McFinnigan's Pub","phone":"2103144194","twitter":"kr8tr","address":"7210 Blanco Rd","lat":29.523581048332733,"lng":-98.50433255610075,"city_fetched":"San Antonio,US","state":"TX","country":"United States","canonicalUrl":"https://foursquare.com/v/mcfinnigans-pub/4d5345f1dcb1a143c958b1bf","categoryId":"4bf58dd8d48988d11b941735","category":"Pub","checkinsCount":3124,"usersCount":614,"tipCount":19,"visitsCount":3267,"tier":"","message":"","currency":"","rating":8},{"name":"Bar Louie","phone":"2109016280","twitter":"barlouie","address":"15900 La Cantera Parkway, Suite 22100","lat":29.592871299881303,"lng":-98.61099706527108,"neighborhood":"Northwest Side","city_fetched":"San Antonio,US","state":"TX","country":"United States","canonicalUrl":"https://foursquare.com/v/bar-louie/51cf1156498ee92116452fdd","categoryId":"4bf58dd8d48988d116941735","category":"Bar","checkinsCount":2323,"usersCount":1269,"tipCount":27,"visitsCount":2517,"url":"http://t.co/6m5uO0JOqN","tier":2,"message":"Moderate","currency":"$","rating":7.9},{"name":"Amore Cafe","phone":"2102132121","twitter":"amorecafesatx","address":"4553 N Loop 1604 W Ste 1113","lat":29.59592041963766,"lng":-98.57389101194013,"neighborhood":"Northwest Side","city_fetched":"San Antonio,US","state":"TX","country":"United States","canonicalUrl":"https://foursquare.com/v/amore-cafe/4e05566645ddb2875c3d67d5","categoryId":"4bf58dd8d48988d116941735","category":"Bar","checkinsCount":391,"usersCount":260,"tipCount":7,"visitsCount":486,"url":"http://amore-cafe.com","tier":"","message":"","currency":"","rating":7.9},{"name":"Brass Monkey","phone":"2104804722","twitter":"brassmonkeytx","address":"2702 North Saint Mary's St","lat":29.45020043796958,"lng":-98.48690716931152,"neighborhood":"Tobin Hill","city_fetched":"San Antonio,US","state":"TX","country":"United States","canonicalUrl":"https://foursquare.com/brassmonkeytx","categoryId":"4bf58dd8d48988d11a941735","category":"Other Nightlife","checkinsCount":3752,"usersCount":1373,"tipCount":16,"visitsCount":4676,"tier":1,"message":"Cheap","currency":"$","rating":7.9},{"name":"Box 903","lat":29.563764529668365,"lng":-98.47870271701265,"neighborhood":"Far North Central","city_fetched":"San Antonio,US","state":"TX","country":"United States","canonicalUrl":"https://foursquare.com/v/box-903/51b124e5498ec0035fe21062","categoryId":"4bf58dd8d48988d116941735","category":"Bar","checkinsCount":266,"usersCount":176,"tipCount":3,"visitsCount":299,"tier":"","message":"","currency":"","rating":7.9},{"name":"Schooners Sports Bar","phone":"2108298252","address":"1325 NE Loop 410","lat":29.516792498647987,"lng":-98.44726422469,"neighborhood":"Northeast San Antonio","city_fetched":"San Antonio,US","state":"TX","country":"United States","canonicalUrl":"https://foursquare.com/v/schooners-sports-bar/4b187ed3f964a5207fd323e3","categoryId":"4bf58dd8d48988d116941735","category":"Bar","checkinsCount":1413,"usersCount":395,"tipCount":9,"visitsCount":1621,"url":"http://www.schooners-sa.com","tier":1,"message":"Cheap","currency":"$","rating":7.9},{"name":"Tucker's Kozy Korner","phone":"2103202192","twitter":"tuckerssa","address":"1338 E Houston St","lat":29.424815126030097,"lng":-98.47650297318995,"neighborhood":"Dignowity Hill","city_fetched":"San Antonio,US","state":"TX","country":"United States","canonicalUrl":"https://foursquare.com/v/tuckers-kozy-korner/4b19ddbcf964a52072e523e3","categoryId":"4bf58dd8d48988d116941735","category":"Bar","checkinsCount":2090,"usersCount":1031,"tipCount":22,"visitsCount":2297,"url":"http://www.tuckerskozykorner.com","tier":"","message":"","currency":"","rating":7.8},{"name":"Suck It SA Hookah & Bubble Tea","phone":"2108079788","twitter":"suckithookah","address":"6565 Babcock Rd #7","lat":29.55590669302993,"lng":-98.61462062478823,"neighborhood":"Northwest Side","city_fetched":"San Antonio,US","state":"TX","country":"United States","canonicalUrl":"https://foursquare.com/v/suck-it-sa-hookah--bubble-tea/4d6e7e72e277ba7a15828287","categoryId":"4bf58dd8d48988d119941735","category":"Hookah Bar","checkinsCount":2219,"usersCount":737,"tipCount":34,"visitsCount":2462,"url":"http://suckitsa.com","tier":1,"message":"Cheap","currency":"$","rating":7.8},{"name":"Fiascos","phone":"2104902651","address":"2250 Thousand Oaks Dr","lat":29.586974,"lng":-98.452848,"neighborhood":"Far North Central","city_fetched":"San Antonio,US","state":"TX","country":"United States","canonicalUrl":"https://foursquare.com/v/fiascos/4b4d02caf964a520a6c726e3","categoryId":"4bf58dd8d48988d120941735","category":"Karaoke Bar","checkinsCount":485,"usersCount":230,"tipCount":4,"visitsCount":562,"tier":"","message":"","currency":"","rating":7.8},{"name":"GS1221 Beer with Discipline","address":"1221 Broadway St","lat":29.43768811626812,"lng":-98.47882596805574,"neighborhood":"Downtown San Antonio","city_fetched":"San Antonio,US","state":"TX","country":"United States","canonicalUrl":"https://foursquare.com/v/gs1221-beer-with-discipline/535bfc28498e5f7e72e5f3a0","categoryId":"4bf58dd8d48988d117941735","category":"Beer Garden","checkinsCount":436,"usersCount":393,"tipCount":6,"visitsCount":738,"tier":"","message":"","currency":"","rating":7.8},{"name":"Pat O'Brien's","phone":"2102201076","address":"121 Alamo Plz","lat":29.424361229757896,"lng":-98.4875987454481,"neighborhood":"Alamo Plaza","city_fetched":"San Antonio,US","state":"TX","country":"United States","canonicalUrl":"https://foursquare.com/v/pat-obriens/4ad7d463f964a520270f21e3","categoryId":"4bf58dd8d48988d116941735","category":"Bar","checkinsCount":9271,"usersCount":6468,"tipCount":97,"visitsCount":9592,"url":"http://patobriens.com/patobriens/sanantonio/","tier":2,"message":"Moderate","currency":"$","rating":7.8},{"name":"Midnight Rodeo San Antonio","phone":"2106550040","address":"12260 Nacogdoches Rd #101","lat":29.550871743006976,"lng":-98.4050883385558,"neighborhood":"Northeast San Antonio","city_fetched":"San Antonio,US","state":"TX","country":"United States","canonicalUrl":"https://foursquare.com/v/midnight-rodeo-san-antonio/4ad4bffef964a520bdea20e3","categoryId":"4bf58dd8d48988d116941735","category":"Bar","checkinsCount":2335,"usersCount":1227,"tipCount":14,"visitsCount":2835,"url":"http://midnightrodeosanantonio.com","tier":2,"message":"Moderate","currency":"$","rating":7.8},{"name":"Wine 101","phone":"2103729002","address":"14743 Old Bandera Rd","lat":29.579881,"lng":-98.692813,"neighborhood":"Northwest Side","city_fetched":"San Antonio,US","state":"TX","country":"United States","canonicalUrl":"https://foursquare.com/v/wine-101/4b32f495f964a5205b1625e3","categoryId":"4bf58dd8d48988d123941735","category":"Wine Bar","checkinsCount":328,"usersCount":210,"tipCount":7,"visitsCount":457,"url":"http://www.wine101tx.com","tier":"","message":"","currency":"","rating":7.8},{"name":"Heat Nightclub","phone":"2102262700","address":"1500 N Main Ave","lat":29.443048287474973,"lng":-98.49402490401506,"neighborhood":"Tobin Hill","city_fetched":"San Antonio,US","state":"TX","country":"United States","canonicalUrl":"https://foursquare.com/v/heat-nightclub/4b136a0cf964a520e69623e3","categoryId":"4bf58dd8d48988d1d8941735","category":"Gay Bar","checkinsCount":7249,"usersCount":2113,"tipCount":17,"visitsCount":7802,"url":"http://heatsa.com","tier":2,"message":"Moderate","currency":"$","rating":7.8},{"name":"Mad Pecker Brewing Co.","twitter":"madpeckerbrew","address":"6025 Tezel Rd #122","lat":29.489857984437357,"lng":-98.66628714022791,"neighborhood":"Great Northwest","city_fetched":"San Antonio,US","state":"TX","country":"United States","canonicalUrl":"https://foursquare.com/v/mad-pecker-brewing-co/51faf258498ed7e0b47785c8","categoryId":"50327c8591d4c4b30a586d5d","category":"Brewery","checkinsCount":514,"usersCount":182,"tipCount":3,"visitsCount":781,"url":"http://madpeckerbrewing.com","tier":"","message":"","currency":"","rating":7.8},{"name":"The Bang Bang Bar","address":"119 El Mio Dr","lat":29.493681782078877,"lng":-98.49982445999001,"city_fetched":"San Antonio,US","state":"TX","country":"United States","canonicalUrl":"https://foursquare.com/v/the-bang-bang-bar/564bc475498e4aee49d00920","categoryId":"4bf58dd8d48988d118941735","category":"Dive Bar","checkinsCount":138,"usersCount":134,"tipCount":1,"visitsCount":242,"tier":"","message":"","currency":"","rating":7.8},{"name":"Thirsty Horse Saloon","phone":"2103481513","twitter":"thirstyhorses","address":"2335 NW Military Hwy","lat":29.542681606546463,"lng":-98.52783154735715,"neighborhood":"Northwest Side","city_fetched":"San Antonio,US","state":"TX","country":"United States","canonicalUrl":"https://foursquare.com/v/thirsty-horse-saloon/4b1c30dbf964a520ed0324e3","categoryId":"4bf58dd8d48988d116941735","category":"Bar","checkinsCount":3780,"usersCount":1882,"tipCount":17,"visitsCount":4439,"url":"http://thirstyhorse.net","tier":"","message":"","currency":"","rating":7.8},{"name":"Sternewirth","lat":29.442812789895978,"lng":-98.48088375441891,"neighborhood":"Tobin Hill","city_fetched":"San Antonio,US","state":"TX","country":"United States","canonicalUrl":"https://foursquare.com/v/sternewirth/56452a38498ef650faa0fd04","categoryId":"4bf58dd8d48988d121941735","category":"Lounge","checkinsCount":152,"usersCount":120,"tipCount":2,"visitsCount":152,"tier":"","message":"","currency":"","rating":7.8},{"name":"Crooked Branch","phone":"2102762500","twitter":"jwsanantonio","address":"23808 Resort Pkwy","lat":29.66661328316769,"lng":-98.40067863464355,"city_fetched":"San Antonio,US","state":"TX","country":"United States","canonicalUrl":"https://foursquare.com/v/crooked-branch/4b8d80a4f964a5209bff32e3","categoryId":"4bf58dd8d48988d1d5941735","category":"Hotel Bar","checkinsCount":489,"usersCount":322,"tipCount":2,"visitsCount":491,"url":"http://www.jwsanantonio.com","tier":"","message":"","currency":"","rating":7.8},{"name":"Hofbrau at the Rim","phone":"2108771500","address":"18403 W Interstate 10","lat":29.61506530040407,"lng":-98.6043655872345,"neighborhood":"Northwest Side","city_fetched":"San Antonio,US","state":"TX","country":"United States","canonicalUrl":"https://foursquare.com/v/hofbrau-at-the-rim/512274f6e4b0788e3819ad3c","categoryId":"4bf58dd8d48988d117941735","category":"Beer Garden","checkinsCount":2128,"usersCount":1780,"tipCount":22,"visitsCount":3080,"url":"http://hofbraurim.com","tier":2,"message":"Moderate","currency":"$","rating":7.7},{"name":"Stetson Bar","lat":29.504857721477975,"lng":-98.6618446277908,"neighborhood":"Far West Side","city_fetched":"San Antonio,US","state":"TX","country":"United States","canonicalUrl":"https://foursquare.com/v/stetson-bar/4eb38185f790d87d01e2456d","categoryId":"4bf58dd8d48988d116941735","category":"Bar","checkinsCount":318,"usersCount":165,"tipCount":3,"visitsCount":395,"tier":"","message":"","currency":"","rating":7.7},{"name":"Bogart's Cocktails","phone":"2105216969","address":"8323 Culebra Rd","lat":29.468920878387035,"lng":-98.64755728003581,"neighborhood":"Pipers Meadow","city_fetched":"San Antonio,US","state":"TX","country":"United States","canonicalUrl":"https://foursquare.com/v/bogarts-cocktails/4b6d0f8df964a52030652ce3","categoryId":"4bf58dd8d48988d116941735","category":"Bar","checkinsCount":405,"usersCount":106,"tipCount":7,"visitsCount":505,"tier":"","message":"","currency":"","rating":7.7},{"name":"Club Sirius","phone":"2106436650","address":"228 Losoya St","lat":29.424599,"lng":-98.4878396987915,"neighborhood":"Alamo Plaza","city_fetched":"San Antonio,US","state":"TX","country":"United States","canonicalUrl":"https://foursquare.com/v/club-sirius/4bf89c5f5317a593cb30007f","categoryId":"4bf58dd8d48988d116941735","category":"Bar","checkinsCount":1563,"usersCount":625,"tipCount":17,"visitsCount":1577,"url":"http://drinksirius.com","tier":"","message":"","currency":"","rating":7.7},{"name":"Martini Ranch","phone":"2103411717","address":"4904 West Ave","lat":29.511489412022957,"lng":-98.52574566931744,"city_fetched":"San Antonio,US","state":"TX","country":"United States","canonicalUrl":"https://foursquare.com/v/martini-ranch/4b8c8679f964a5201cd532e3","categoryId":"4bf58dd8d48988d118941735","category":"Dive Bar","checkinsCount":1021,"usersCount":439,"tipCount":9,"visitsCount":1259,"tier":"","message":"","currency":"","rating":7.7},{"name":"2015 Club","phone":"2107333365","address":"2015 San Pedro Ave","lat":29.453449378112253,"lng":-98.49952428717933,"neighborhood":"Midtown","city_fetched":"San Antonio,US","state":"TX","country":"United States","canonicalUrl":"https://foursquare.com/v/2015-club/4ad4bffef964a520afea20e3","categoryId":"4bf58dd8d48988d1d8941735","category":"Gay Bar","checkinsCount":1358,"usersCount":451,"tipCount":12,"visitsCount":1505,"tier":"","message":"","currency":"","rating":7.7},{"name":"Twenty Grand","address":"Bandera","lat":29.483334614127298,"lng":-98.60190403215248,"neighborhood":"Northwest Side","city_fetched":"San Antonio,US","state":"TX","country":"United States","canonicalUrl":"https://foursquare.com/v/twenty-grand/4d11a3c5b69f224b67717a55","categoryId":"4bf58dd8d48988d116941735","category":"Bar","checkinsCount":968,"usersCount":208,"tipCount":18,"visitsCount":1078,"tier":"","message":"","currency":"","rating":7.7},{"name":"Bonham Exchange","phone":"2102713811","twitter":"bonhamexchange","address":"411 Bonham","lat":29.42656040675527,"lng":-98.48437247389505,"neighborhood":"Alamo Plaza","city_fetched":"San Antonio,US","state":"TX","country":"United States","canonicalUrl":"https://foursquare.com/v/bonham-exchange/4ad4bffef964a520aeea20e3","categoryId":"4bf58dd8d48988d116941735","category":"Bar","checkinsCount":3309,"usersCount":2253,"tipCount":25,"visitsCount":3830,"url":"http://www.bonhamexchange.net","tier":1,"message":"Cheap","currency":"$","rating":7.7},{"name":"Davenport","phone":"2104291071","address":"203 N Presa St","lat":29.42361819518162,"lng":-98.48934056079675,"city_fetched":"San Antonio,US","state":"TX","country":"United States","canonicalUrl":"https://foursquare.com/v/davenport/4e151f06aeb733245eccea4e","categoryId":"4bf58dd8d48988d11f941735","category":"Nightclub","checkinsCount":847,"usersCount":544,"tipCount":17,"visitsCount":862,"url":"http://the-dav.com","tier":"","message":"","currency":"","rating":7.7},{"name":"The Mad Marlin","lat":29.510474057167272,"lng":-98.46644828455862,"neighborhood":"Uptown Broadway","city_fetched":"San Antonio,US","state":"TX","country":"United States","canonicalUrl":"https://foursquare.com/v/the-mad-marlin/54c1d805498efb477d947b97","categoryId":"4bf58dd8d48988d116941735","category":"Bar","checkinsCount":150,"usersCount":159,"tipCount":1,"visitsCount":299,"tier":"","message":"","currency":"","rating":7.7},{"name":"Dorcol Distilling Company","lat":29.405780543905276,"lng":-98.5023706167073,"neighborhood":"Lone Star","city_fetched":"San Antonio,US","state":"TX","country":"United States","canonicalUrl":"https://foursquare.com/v/dorcol-distilling-company/52b38db511d2a31632c7e996","categoryId":"4bf58dd8d48988d121941735","category":"Lounge","checkinsCount":234,"usersCount":243,"tipCount":3,"visitsCount":393,"tier":"","message":"","currency":"","rating":7.7},{"name":"Clicks Billiards San Antonio North","phone":"2104965113","address":"903 Bitters Rd","lat":29.56334130969219,"lng":-98.47878309810481,"neighborhood":"Far North Central","city_fetched":"San Antonio,US","state":"TX","country":"United States","canonicalUrl":"https://foursquare.com/v/clicks-billiards-san-antonio-north/4cab88c45a1e95211f288ece","categoryId":"4bf58dd8d48988d11d941735","category":"Sports Bar","checkinsCount":835,"usersCount":289,"tipCount":7,"visitsCount":951,"url":"http://clicks.com","tier":"","message":"","currency":"","rating":7.7},{"name":"The Hangar","phone":"2108242700","twitter":"thehangarsa","address":"8203 Broadway St","lat":29.511666153663302,"lng":-98.46657514572142,"neighborhood":"Uptown Broadway","city_fetched":"San Antonio,US","state":"TX","country":"United States","canonicalUrl":"https://foursquare.com/v/the-hangar/4baee4cdf964a5201fe03be3","categoryId":"4bf58dd8d48988d11d941735","category":"Sports Bar","checkinsCount":5998,"usersCount":1978,"tipCount":37,"visitsCount":6691,"url":"http://www.thehangarsa.com","tier":2,"message":"Moderate","currency":"$","rating":7.7},{"name":"Kennedy's Bar","phone":"2107641333","address":"19179 Blanco Rd","lat":29.62080668202157,"lng":-98.51321552668307,"neighborhood":"Far North Central","city_fetched":"San Antonio,US","state":"TX","country":"United States","canonicalUrl":"https://foursquare.com/v/kennedys-bar/4c2438dff7ced13a9496226d","categoryId":"4bf58dd8d48988d116941735","category":"Bar","checkinsCount":2316,"usersCount":812,"tipCount":18,"visitsCount":2462,"url":"http://kennedysirishbar.com","tier":"","message":"","currency":"","rating":7.7},{"name":"reggae bar","address":"2016 Austin Hwy","lat":29.502354407946658,"lng":-98.41787354076192,"neighborhood":"Northeast San Antonio","city_fetched":"San Antonio,US","state":"TX","country":"United States","canonicalUrl":"https://foursquare.com/v/reggae-bar/4b8a1a72f964a520256032e3","categoryId":"4bf58dd8d48988d118941735","category":"Dive Bar","checkinsCount":261,"usersCount":143,"tipCount":3,"visitsCount":267,"tier":"","message":"","currency":"","rating":7.6},{"name":"Boozehounds","phone":"2105903223","address":"8531 Perrin Beitel Rd","lat":29.517303512392758,"lng":-98.41148066647776,"neighborhood":"Northeast San Antonio","city_fetched":"San Antonio,US","state":"TX","country":"United States","canonicalUrl":"https://foursquare.com/v/boozehounds/4d2face010e9b1f78b16b4f1","categoryId":"4bf58dd8d48988d116941735","category":"Bar","checkinsCount":1282,"usersCount":326,"tipCount":5,"visitsCount":1322,"tier":"","message":"","currency":"","rating":7.6},{"name":"Moses Rose's Hideout","phone":"2107751808","twitter":"mosesrose1836","address":"518 E Houston St","lat":29.42639906031287,"lng":-98.4872817993164,"neighborhood":"Alamo Plaza","city_fetched":"San Antonio,US","state":"TX","country":"United States","canonicalUrl":"https://foursquare.com/v/moses-roses-hideout/4e70e5d3a8098087a04f6b18","categoryId":"4bf58dd8d48988d116941735","category":"Bar","checkinsCount":2078,"usersCount":1309,"tipCount":34,"visitsCount":2319,"url":"http://mosesroseshideout.com","tier":"","message":"","currency":"","rating":7.6},{"name":"I-10 Icehouse","phone":"2108772100","address":"9518 Console Dr","lat":29.527510858055916,"lng":-98.56025316263096,"neighborhood":"Northwest Side","city_fetched":"San Antonio,US","state":"TX","country":"United States","canonicalUrl":"https://foursquare.com/v/i10-icehouse/5242351f498e601554f94a6f","categoryId":"4bf58dd8d48988d116941735","category":"Bar","checkinsCount":838,"usersCount":614,"tipCount":10,"visitsCount":1579,"url":"http://i10icehouse.com","tier":2,"message":"Moderate","currency":"$","rating":7.6},{"name":"Bombay Bicycle Club","phone":"2107372411","address":"3506 N Saint Marys St","lat":29.457242488861084,"lng":-98.478804,"neighborhood":"Uptown Broadway","city_fetched":"San Antonio,US","state":"TX","country":"United States","canonicalUrl":"https://foursquare.com/v/bombay-bicycle-club/4ae0dd7af964a520298321e3","categoryId":"4bf58dd8d48988d116941735","category":"Bar","checkinsCount":3202,"usersCount":1685,"tipCount":30,"visitsCount":3965,"url":"http://www.bombaybicycleclubsa.com","tier":2,"message":"Moderate","currency":"$","rating":7.6},{"name":"Rod Dog's","phone":"2108282582","address":"2617 Wagon Wheel St","lat":29.517220691372763,"lng":-98.44902117567771,"neighborhood":"Northeast San Antonio","city_fetched":"San Antonio,US","state":"TX","country":"United States","canonicalUrl":"https://foursquare.com/v/rod-dogs/4ba04157f964a520746437e3","categoryId":"4bf58dd8d48988d118941735","category":"Dive Bar","checkinsCount":372,"usersCount":117,"tipCount":5,"visitsCount":386,"tier":"","message":"","currency":"","rating":7.6},{"name":"Whiskey Smith","phone":"2103427321","address":"6310 Callaghan Rd","lat":29.490369542344126,"lng":-98.57279645992188,"neighborhood":"Northwest Side","city_fetched":"San Antonio,US","state":"TX","country":"United States","canonicalUrl":"https://foursquare.com/v/whiskey-smith/4ba14a99f964a520ada937e3","categoryId":"4bf58dd8d48988d116941735","category":"Bar","checkinsCount":1083,"usersCount":558,"tipCount":11,"visitsCount":1178,"tier":"","message":"","currency":"","rating":7.6},{"name":"O'Malleys Pub","address":"8637 Fredericksburg Rd","lat":29.522005196612614,"lng":-98.57421830752065,"neighborhood":"Northwest Side","city_fetched":"San Antonio,US","state":"TX","country":"United States","canonicalUrl":"https://foursquare.com/v/omalleys-pub/4b234256f964a520bf5424e3","categoryId":"4bf58dd8d48988d116941735","category":"Bar","checkinsCount":435,"usersCount":268,"tipCount":6,"visitsCount":531,"tier":"","message":"","currency":"","rating":7.6},{"name":"Beethoven Maennerchor Halle","phone":"2102221521","twitter":"willswtd","address":"422 Pereida St","lat":29.411760512190778,"lng":-98.4916451783869,"neighborhood":"King William","city_fetched":"San Antonio,US","state":"TX","country":"United States","canonicalUrl":"https://foursquare.com/v/beethoven-maennerchor-halle/4b56920ff964a520811528e3","categoryId":"4bf58dd8d48988d117941735","category":"Beer Garden","checkinsCount":2358,"usersCount":1160,"tipCount":19,"visitsCount":2595,"url":"http://beethovenmaennerchor.com","tier":1,"message":"Cheap","currency":"$","rating":7.6},{"name":"The Raven Hookah Lounge","phone":"2106733650","twitter":"ravenhka","address":"1255 SW Loop 410 #133","lat":29.425674844839868,"lng":-98.65136861801147,"neighborhood":"Far West Side","city_fetched":"San Antonio,US","state":"TX","country":"United States","canonicalUrl":"https://foursquare.com/ravenhka","categoryId":"4bf58dd8d48988d119941735","category":"Hookah Bar","checkinsCount":1185,"usersCount":433,"tipCount":16,"visitsCount":1202,"url":"http://www.ravenhookah.com","tier":1,"message":"Cheap","currency":"$","rating":7.6},{"name":"The Mix","phone":"2107351313","address":"2423 N Saint Marys St, San Antonio, TX","lat":29.4490370231581,"lng":-98.48804893386279,"neighborhood":"Tobin Hill","city_fetched":"San Antonio,US","state":"TX","country":"United States","canonicalUrl":"https://foursquare.com/v/the-mix/4adc8e40f964a520332d21e3","categoryId":"4bf58dd8d48988d116941735","category":"Bar","checkinsCount":4436,"usersCount":1302,"tipCount":19,"visitsCount":4642,"tier":1,"message":"Cheap","currency":"$","rating":7.6},{"name":"Busted Sandal Brewery","address":"7114 Oaklawn Dr","lat":29.49903442338638,"lng":-98.55582219423718,"neighborhood":"Northwest Side","city_fetched":"San Antonio,US","state":"TX","country":"United States","canonicalUrl":"https://foursquare.com/v/busted-sandal-brewery/51c635b4498efa7851b208b2","categoryId":"50327c8591d4c4b30a586d5d","category":"Brewery","checkinsCount":255,"usersCount":217,"tipCount":4,"visitsCount":385,"url":"http://bustedsandalbrewing.com","tier":"","message":"","currency":"","rating":7.6},{"name":"The Thirsty Camel","phone":"2102770979","address":"5307 McCullough Ave","lat":29.47950057,"lng":-98.492321,"neighborhood":"Uptown Broadway","city_fetched":"San Antonio,US","state":"TX","country":"United States","canonicalUrl":"https://foursquare.com/v/the-thirsty-camel/4bc7eb4e14d79521935f68e9","categoryId":"4bf58dd8d48988d116941735","category":"Bar","checkinsCount":1302,"usersCount":406,"tipCount":17,"visitsCount":1418,"tier":"","message":"","currency":"","rating":7.6},{"name":"Stay Golden Social House","address":"401 Pearl Pkwy","lat":29.442191,"lng":-98.477992,"city_fetched":"San Antonio,US","state":"TX","country":"United States","canonicalUrl":"https://foursquare.com/v/stay-golden-social-house/534f0530498e495969f943c1","categoryId":"4bf58dd8d48988d116941735","category":"Bar","checkinsCount":277,"usersCount":186,"tipCount":1,"visitsCount":298,"tier":"","message":"","currency":"","rating":7.6},{"name":"Zinc Bistro & Wine Bar","phone":"2102242900","address":"207 N Presa St","lat":29.423686578205324,"lng":-98.48939951525172,"city_fetched":"San Antonio,US","state":"TX","country":"United States","canonicalUrl":"https://foursquare.com/v/zinc-bistro--wine-bar/4ad4bffef964a520cfea20e3","categoryId":"4bf58dd8d48988d11e941735","category":"Cocktail Bar","checkinsCount":3994,"usersCount":2568,"tipCount":69,"visitsCount":4131,"url":"http://www.zincwine.com","tier":2,"message":"Moderate","currency":"$","rating":7.6},{"name":"The Last Word","phone":"2105577901","twitter":"thelastword_sa","address":"229 E Houston St #10","lat":29.426388408617953,"lng":-98.49019272513259,"city_fetched":"San Antonio,US","state":"TX","country":"United States","canonicalUrl":"https://foursquare.com/v/the-last-word/54808ca5498e73c1f9ca9be9","categoryId":"4bf58dd8d48988d116941735","category":"Bar","checkinsCount":329,"usersCount":232,"tipCount":2,"visitsCount":334,"tier":"","message":"","currency":"","rating":7.6},{"name":"Waxy O'Connor's Irish Pub","phone":"2102299299","twitter":"waxyoconnorstx","address":"234 River Walk St","lat":29.425057,"lng":-98.49031269550323,"city_fetched":"San Antonio,US","state":"TX","country":"United States","canonicalUrl":"https://foursquare.com/v/waxy-oconnors-irish-pub/4ba688b4f964a520d45b39e3","categoryId":"4bf58dd8d48988d11b941735","category":"Pub","checkinsCount":4658,"usersCount":3767,"tipCount":75,"visitsCount":4756,"url":"http://waxyoconnors.com","tier":2,"message":"Moderate","currency":"$","rating":7.6},{"name":"The Hideaway","address":"119 El Mio Dr","lat":29.49372870328184,"lng":-98.4997976587976,"city_fetched":"San Antonio,US","state":"TX","country":"United States","canonicalUrl":"https://foursquare.com/v/the-hideaway/4d9931fcb188721efb163a37","categoryId":"4bf58dd8d48988d116941735","category":"Bar","checkinsCount":177,"usersCount":80,"tipCount":5,"visitsCount":192,"tier":"","message":"","currency":"","rating":7.6},{"name":"Bier Garten Riverwalk","phone":"2102127299","twitter":"biergartensa","address":"126 Losoya St","lat":29.425607276102067,"lng":-98.48772737043485,"neighborhood":"Alamo Plaza","city_fetched":"San Antonio,US","state":"TX","country":"United States","canonicalUrl":"https://foursquare.com/v/bier-garten-riverwalk/52115a8911d248a78958e386","categoryId":"4bf58dd8d48988d116941735","category":"Bar","checkinsCount":717,"usersCount":694,"tipCount":20,"visitsCount":783,"url":"http://www.biergartenriverwalk.com","tier":"","message":"","currency":"","rating":7.5},{"name":"juniper Tar","twitter":"juniper_tar","address":"224 Houston","lat":29.426335588151137,"lng":-98.49592230667183,"neighborhood":"Downtown San Antonio","city_fetched":"San Antonio,US","state":"TX","country":"United States","canonicalUrl":"https://foursquare.com/v/juniper-tar/5518b49f498ec7be3d5d7bbd","categoryId":"4bf58dd8d48988d11e941735","category":"Cocktail Bar","checkinsCount":83,"usersCount":93,"tipCount":0,"visitsCount":134,"tier":"","message":"","currency":"","rating":7.5},{"name":"Babio's","address":"527 W Hildebrand Ave","lat":29.466618371107018,"lng":-98.50263327776553,"neighborhood":"Edison","city_fetched":"San Antonio,US","state":"TX","country":"United States","canonicalUrl":"https://foursquare.com/v/babios/4ff0eea2e4b07e8f74b510a9","categoryId":"4bf58dd8d48988d1d8941735","category":"Gay Bar","checkinsCount":354,"usersCount":266,"tipCount":5,"visitsCount":477,"tier":"","message":"","currency":"","rating":7.5},{"name":"Steely Nevada's","lat":29.50820442898578,"lng":-98.62819305718583,"neighborhood":"Northwest Side","city_fetched":"San Antonio,US","state":"TX","country":"United States","canonicalUrl":"https://foursquare.com/v/steely-nevadas/4bd28e3177b29c74c8168f82","categoryId":"4bf58dd8d48988d116941735","category":"Bar","checkinsCount":1045,"usersCount":332,"tipCount":13,"visitsCount":1284,"tier":"","message":"","currency":"","rating":7.5},{"name":"Media Luna Bar & Lounge","address":"308 N Presa St","lat":29.424370076493272,"lng":-98.48897611609931,"city_fetched":"San Antonio,US","state":"TX","country":"United States","canonicalUrl":"https://foursquare.com/v/media-luna-bar--lounge/5136ddcbe4b0b06683de85a7","categoryId":"4bf58dd8d48988d121941735","category":"Lounge","checkinsCount":209,"usersCount":121,"tipCount":4,"visitsCount":219,"tier":"","message":"","currency":"","rating":7.5},{"name":"20nine Restaurant & Wine Bar","phone":"2107989463","address":"255 E Basse Rd Ste 940","lat":29.49717941981416,"lng":-98.48167151565222,"neighborhood":"Uptown Broadway","city_fetched":"San Antonio,US","state":"TX","country":"United States","canonicalUrl":"https://foursquare.com/v/20nine-restaurant--wine-bar/4af86a7ef964a520180d22e3","categoryId":"4bf58dd8d48988d123941735","category":"Wine Bar","checkinsCount":1125,"usersCount":655,"tipCount":18,"visitsCount":1183,"url":"http://www.20ninewine.com","tier":"","message":"","currency":"","rating":7.5},{"name":"The Angry Elephant","phone":"2105453782","address":"19314 US Highway 281 N","lat":29.62147789426932,"lng":-98.46292825061522,"neighborhood":"Far North Central","city_fetched":"San Antonio,US","state":"TX","country":"United States","canonicalUrl":"https://foursquare.com/v/the-angry-elephant/4faae391e4b050ddfdbe4305","categoryId":"4bf58dd8d48988d116941735","category":"Bar","checkinsCount":786,"usersCount":484,"tipCount":6,"visitsCount":962,"url":"http://theangryelephant.com","tier":"","message":"","currency":"","rating":7.5},{"name":"Whimsy Art Studio","phone":"2104606610","twitter":"whimsyartstudio","address":"2211 NW Military Hwy Ste 116","lat":29.53438944065623,"lng":-98.52240800857544,"city_fetched":"San Antonio,US","state":"TX","country":"United States","canonicalUrl":"https://foursquare.com/whimsyartstudio","categoryId":"4bf58dd8d48988d11a941735","category":"Other Nightlife","checkinsCount":85,"usersCount":65,"tipCount":2,"visitsCount":90,"url":"http://www.whimsyartstudio.com","tier":"","message":"","currency":"","rating":7.5},{"name":"Mitchell's Sports Bar","phone":"2109797720","twitter":"bar_sports","address":"1923 Lockhill Selma Rd","lat":29.538363,"lng":-98.52364718914032,"city_fetched":"San Antonio,US","state":"TX","country":"United States","canonicalUrl":"https://foursquare.com/v/mitchells-sports-bar/4bbffa2f74a9a5930a87cff6","categoryId":"4bf58dd8d48988d116941735","category":"Bar","checkinsCount":1070,"usersCount":292,"tipCount":5,"visitsCount":1269,"url":"http://www.mitchellssportbar.com","tier":1,"message":"Cheap","currency":"$","rating":7.5},{"name":"Ernie's Bar @ Crockett Hotel","phone":"2102256500","address":"320 Bonham","lat":29.425309641074804,"lng":-98.48518170842344,"neighborhood":"Alamo Plaza","city_fetched":"San Antonio,US","state":"TX","country":"United States","canonicalUrl":"https://foursquare.com/v/ernies-bar--crockett-hotel/4bb7d073b35776b0033ac801","categoryId":"4bf58dd8d48988d116941735","category":"Bar","checkinsCount":590,"usersCount":248,"tipCount":20,"visitsCount":592,"tier":"","message":"","currency":"","rating":7.5},{"name":"Sherlock's Baker St. Pub","phone":"2105709307","address":"16620 US 281 N, Suite 1","lat":29.591996310985827,"lng":-98.47066283226013,"neighborhood":"Far North Central","city_fetched":"San Antonio,US","state":"TX","country":"United States","canonicalUrl":"https://foursquare.com/v/sherlocks-baker-st-pub/4a8e2a08f964a520231220e3","categoryId":"4bf58dd8d48988d116941735","category":"Bar","checkinsCount":4602,"usersCount":2543,"tipCount":43,"visitsCount":5249,"url":"http://sherlockspub.com","tier":1,"message":"Cheap","currency":"$","rating":7.5},{"name":"Wurzbach Ice House","phone":"2108772100","twitter":"wrzbachicehouse","address":"10141 Wurzbach Rd","lat":29.53429153864283,"lng":-98.55982936631705,"neighborhood":"Vance Jackson","city_fetched":"San Antonio,US","state":"TX","country":"United States","canonicalUrl":"https://foursquare.com/v/wurzbach-ice-house/4d2a12b70fdc6a31c8318f0b","categoryId":"4bf58dd8d48988d116941735","category":"Bar","checkinsCount":5885,"usersCount":2433,"tipCount":46,"visitsCount":7016,"url":"http://wurzbachicehouse.com","tier":1,"message":"Cheap","currency":"$","rating":7.5},{"name":"Cooter Brown's Saloon","phone":"2102631852","twitter":"cooterbrownstx","address":"11881 Bandera Rd #101","lat":29.555337314997697,"lng":-98.66997779097703,"neighborhood":"Northwest Side","city_fetched":"San Antonio,US","state":"TX","country":"United States","canonicalUrl":"https://foursquare.com/v/cooter-browns-saloon/5051642de4b01a27928dca68","categoryId":"4bf58dd8d48988d116941735","category":"Bar","checkinsCount":1525,"usersCount":1007,"tipCount":12,"visitsCount":2131,"url":"http://www.cooterbrownssaloon-tx.com","tier":1,"message":"Cheap","currency":"$","rating":7.5},{"name":"The Roo Pub","phone":"2104914425","address":"19314 US Highway 281 N","lat":29.621613144500696,"lng":-98.46283181364944,"neighborhood":"Far North Central","city_fetched":"San Antonio,US","state":"TX","country":"United States","canonicalUrl":"https://foursquare.com/v/the-roo-pub/5237ac7c11d2ddf4ed8d4b5e","categoryId":"4bf58dd8d48988d116941735","category":"Bar","checkinsCount":484,"usersCount":241,"tipCount":7,"visitsCount":548,"url":"http://theroopub.com","tier":"","message":"","currency":"","rating":7.5},{"name":"On The Rocks Pub","lat":29.423755783851814,"lng":-98.48755051113469,"neighborhood":"Alamo Plaza","city_fetched":"San Antonio,US","state":"TX","country":"United States","canonicalUrl":"https://foursquare.com/v/on-the-rocks-pub/549e3f2e498ee641a53d0134","categoryId":"4bf58dd8d48988d11b941735","category":"Pub","checkinsCount":313,"usersCount":233,"tipCount":3,"visitsCount":323,"tier":"","message":"","currency":"","rating":7.5},{"name":"The Silver Fox","phone":"2106980555","address":"24802 Ima Ruth Pkwy","lat":29.670943235394734,"lng":-98.63075963518688,"neighborhood":"Northwest Side","city_fetched":"San Antonio,US","state":"TX","country":"United States","canonicalUrl":"https://foursquare.com/v/the-silver-fox/4efd4e8b0e01089c5339fd8c","categoryId":"4bf58dd8d48988d116941735","category":"Bar","checkinsCount":460,"usersCount":253,"tipCount":6,"visitsCount":749,"tier":"","message":"","currency":"","rating":7.5},{"name":"Annex","phone":"2102236957","address":"330 San Pedro Ave","lat":29.436826116665152,"lng":-98.4963993447976,"neighborhood":"Tobin Hill","city_fetched":"San Antonio,US","state":"TX","country":"United States","canonicalUrl":"https://foursquare.com/v/annex/4b7785b0f964a520aa9f2ee3","categoryId":"4bf58dd8d48988d116941735","category":"Bar","checkinsCount":3254,"usersCount":687,"tipCount":12,"visitsCount":3964,"tier":"","message":"","currency":"","rating":7.4},{"name":"Hills & Dales Ice House","phone":"2106952307","twitter":"hillsanddalessa","address":"15403 White Fawn Dr","lat":29.587415107164247,"lng":-98.63444857108354,"neighborhood":"Northwest Side","city_fetched":"San Antonio,US","state":"TX","country":"United States","canonicalUrl":"https://foursquare.com/v/hills--dales-ice-house/4b42ca1ff964a520e8d925e3","categoryId":"4bf58dd8d48988d116941735","category":"Bar","checkinsCount":1115,"usersCount":560,"tipCount":13,"visitsCount":1267,"tier":"","message":"","currency":"","rating":7.4},{"name":"Joe Blues","phone":"2102125421","address":"1420 S Alamo St","lat":29.409113,"lng":-98.495249,"neighborhood":"King William","city_fetched":"San Antonio,US","state":"TX","country":"United States","canonicalUrl":"https://foursquare.com/v/joe-blues/4af3755ef964a520dbed21e3","categoryId":"4bf58dd8d48988d11e941735","category":"Cocktail Bar","checkinsCount":866,"usersCount":391,"tipCount":6,"visitsCount":885,"tier":"","message":"","currency":"","rating":7.4},{"name":"Drink Texas Bar","phone":"2102241031","twitter":"drinktx","address":"200 Navarro St #100","lat":29.423403506361943,"lng":-98.48986043349022,"city_fetched":"San Antonio,US","state":"TX","country":"United States","canonicalUrl":"https://foursquare.com/v/drink-texas-bar/4aeb99bdf964a520abc321e3","categoryId":"4bf58dd8d48988d11e941735","category":"Cocktail Bar","checkinsCount":1927,"usersCount":1073,"tipCount":13,"visitsCount":2039,"url":"http://drinktexas.com","tier":"","message":"","currency":"","rating":7.4},{"name":"Alchemy Kombucha and Culture","address":"1123 N Flores St","lat":29.43629334533319,"lng":-98.50190426157225,"neighborhood":"Five Points","city_fetched":"San Antonio,US","state":"TX","country":"United States","canonicalUrl":"https://foursquare.com/v/alchemy-kombucha-and-culture/553594a6498eb3aa60405f07","categoryId":"4bf58dd8d48988d11e941735","category":"Cocktail Bar","checkinsCount":139,"usersCount":158,"tipCount":6,"visitsCount":262,"tier":"","message":"","currency":"","rating":7.4},{"name":"Clown Alley Sports Lounge","phone":"2106747411","twitter":"clownalleysa","address":"5520 W Military Dr","lat":29.37638506587487,"lng":-98.61327854561203,"neighborhood":"South San Antonio","city_fetched":"San Antonio,US","state":"TX","country":"United States","canonicalUrl":"https://foursquare.com/v/clown-alley-sports-lounge/4cf48d337e0da1cd53dda297","categoryId":"4bf58dd8d48988d116941735","category":"Bar","checkinsCount":488,"usersCount":106,"tipCount":0,"visitsCount":730,"url":"http://m.mainstreethub.com/clownalleysportslounge","tier":"","message":"","currency":"","rating":7.4},{"name":"The Pressure Cooker","phone":"2106158305","address":"8024 Fredericksburg Rd","lat":29.513645541774952,"lng":-98.56912136077881,"neighborhood":"Northwest Side","city_fetched":"San Antonio,US","state":"TX","country":"United States","canonicalUrl":"https://foursquare.com/v/the-pressure-cooker/4ba5973ff964a520c41439e3","categoryId":"4bf58dd8d48988d120941735","category":"Karaoke Bar","checkinsCount":780,"usersCount":223,"tipCount":1,"visitsCount":881,"tier":"","message":"","currency":"","rating":7.4},{"name":"Big Hops Bitters","phone":"2104373588","twitter":"bighopsgrowlers","address":"226 W Bitters Rd Ste 108","lat":29.56637059414571,"lng":-98.48631786694115,"neighborhood":"Northeast San Antonio","city_fetched":"San Antonio,US","state":"TX","country":"United States","canonicalUrl":"https://foursquare.com/v/big-hops-bitters/56bbc550498edbeeff54b415","categoryId":"56aa371ce4b08b9a8d57356c","category":"Beer Bar","checkinsCount":216,"usersCount":81,"tipCount":4,"visitsCount":252,"tier":"","message":"","currency":"","rating":7.4},{"name":"Arjons","phone":"2108041419","twitter":"arjonsintlclub","address":"8736 Tesoro Dr","lat":29.51877007834557,"lng":-98.45498868821497,"neighborhood":"Northeast San Antonio","city_fetched":"San Antonio,US","state":"TX","country":"United States","canonicalUrl":"https://foursquare.com/v/arjons/4baf05a9f964a52062e73be3","categoryId":"4bf58dd8d48988d11f941735","category":"Nightclub","checkinsCount":1039,"usersCount":385,"tipCount":12,"visitsCount":1158,"url":"http://arjons.com","tier":"","message":"","currency":"","rating":7.4},{"name":"Club Rio","phone":"2104032582","address":"Highway 281 and Bitters","lat":29.562285143002455,"lng":-98.48453324827459,"neighborhood":"Northeast San Antonio","city_fetched":"San Antonio,US","state":"TX","country":"United States","canonicalUrl":"https://foursquare.com/v/club-rio/4ad4bffef964a520d9ea20e3","categoryId":"4bf58dd8d48988d11f941735","category":"Nightclub","checkinsCount":1860,"usersCount":1050,"tipCount":9,"visitsCount":2081,"url":"http://www.club-rio.net/main.php","tier":2,"message":"Moderate","currency":"$","rating":7.4},{"name":"What's It To Ya? Lounge","phone":"2106475700","address":"5725 Evers Rd","lat":29.48974564095867,"lng":-98.59863531459955,"neighborhood":"Northwest Side","city_fetched":"San Antonio,US","state":"TX","country":"United States","canonicalUrl":"https://foursquare.com/v/whats-it-to-ya-lounge/4bac1401f964a520b5e23ae3","categoryId":"4bf58dd8d48988d118941735","category":"Dive Bar","checkinsCount":565,"usersCount":111,"tipCount":9,"visitsCount":615,"tier":"","message":"","currency":"","rating":7.3},{"name":"Social House","phone":"2103630677","twitter":"socialhousesa","address":"19160 Stone Oak Pkwy Ste 104","lat":29.625594,"lng":-98.494228,"neighborhood":"Stone Oak","city_fetched":"San Antonio,US","state":"TX","country":"United States","canonicalUrl":"https://foursquare.com/v/social-house/51aaeb30498ef99d79641525","categoryId":"4bf58dd8d48988d116941735","category":"Bar","checkinsCount":458,"usersCount":378,"tipCount":5,"visitsCount":645,"url":"http://www.socialhousesa.com","tier":"","message":"","currency":"","rating":7.3},{"name":"Brooks Pub","phone":"2103336992","address":"3354 Lasses Blvd","lat":29.355777308952415,"lng":-98.43332256348,"neighborhood":"Highland Hills","city_fetched":"San Antonio,US","state":"TX","country":"United States","canonicalUrl":"https://foursquare.com/v/brooks-pub/4b5a9220f964a520d7cb28e3","categoryId":"4bf58dd8d48988d11b941735","category":"Pub","checkinsCount":858,"usersCount":162,"tipCount":2,"visitsCount":935,"url":"http://brookspub.biz","tier":"","message":"","currency":"","rating":7.3},{"name":"Texan II","phone":"2102126442","address":"128 Jefferson St","lat":29.427201747894287,"lng":-98.48843514919281,"neighborhood":"Downtown San Antonio","city_fetched":"San Antonio,US","state":"TX","country":"United States","canonicalUrl":"https://foursquare.com/v/texan-ii/4bd25b9cb221c9b66da1d7d0","categoryId":"4bf58dd8d48988d116941735","category":"Bar","checkinsCount":1042,"usersCount":392,"tipCount":8,"visitsCount":1155,"tier":"","message":"","currency":"","rating":7.3},{"name":"Josabi's","phone":"2103729100","address":"17200 State Highway 16 S","lat":29.603240624640588,"lng":-98.70635659168384,"neighborhood":"Northwest Side","city_fetched":"San Antonio,US","state":"TX","country":"United States","canonicalUrl":"https://foursquare.com/v/josabis/4b627226f964a520f6472ae3","categoryId":"4bf58dd8d48988d117941735","category":"Beer Garden","checkinsCount":1111,"usersCount":669,"tipCount":10,"visitsCount":1189,"url":"http://josabis.com","tier":2,"message":"Moderate","currency":"$","rating":7.3},{"name":"The Strip","address":"Main Ave","lat":29.44243697719544,"lng":-98.4939659459407,"neighborhood":"Tobin Hill","city_fetched":"San Antonio,US","state":"TX","country":"United States","canonicalUrl":"https://foursquare.com/v/the-strip/4e487538c65bd6ffbead2cf6","categoryId":"4bf58dd8d48988d1d8941735","category":"Gay Bar","checkinsCount":2534,"usersCount":454,"tipCount":1,"visitsCount":2636,"url":"http://thestripsa.com","tier":2,"message":"Moderate","currency":"$","rating":7.3},{"name":"Salud","phone":"2103206034","twitter":"saludtequilabar","address":"8123 Broadway St","lat":29.51065729,"lng":-98.4666509,"neighborhood":"Uptown Broadway","city_fetched":"San Antonio,US","state":"TX","country":"United States","canonicalUrl":"https://foursquare.com/v/salud/4bad976df964a5209c5d3be3","categoryId":"4bf58dd8d48988d121941735","category":"Lounge","checkinsCount":630,"usersCount":365,"tipCount":9,"visitsCount":645,"tier":"","message":"","currency":"","rating":7.3},{"name":"Swig Martini Bar","phone":"2104760005","twitter":"swigmartinibar","address":"111 W Crockett St","lat":29.425264699445908,"lng":-98.4890725865829,"city_fetched":"San Antonio,US","state":"TX","country":"United States","canonicalUrl":"https://foursquare.com/v/swig-martini-bar/4ad4bffdf964a5208fea20e3","categoryId":"4bf58dd8d48988d11e941735","category":"Cocktail Bar","checkinsCount":3533,"usersCount":2076,"tipCount":30,"visitsCount":3545,"url":"http://www.swigmartini.com","tier":2,"message":"Moderate","currency":"$","rating":7.3},{"name":"Crazy D's","phone":"2106537299","address":"12234 Nacogdoches Rd","lat":29.550911240093267,"lng":-98.40623934553517,"neighborhood":"Northeast San Antonio","city_fetched":"San Antonio,US","state":"TX","country":"United States","canonicalUrl":"https://foursquare.com/v/crazy-ds/4b9dc2d9f964a520b6bc36e3","categoryId":"4bf58dd8d48988d120941735","category":"Karaoke Bar","checkinsCount":360,"usersCount":145,"tipCount":3,"visitsCount":362,"url":"http://crazydssaloon.com","tier":"","message":"","currency":"","rating":7.3},{"name":"Beer N All","phone":"2109323300","address":"1331 SE Military Dr","lat":29.35413,"lng":-98.47652614116669,"neighborhood":"Harlandale","city_fetched":"San Antonio,US","state":"TX","country":"United States","canonicalUrl":"https://foursquare.com/v/beer-n-all/4c09b93dffb8c9b6e1816a61","categoryId":"4bf58dd8d48988d116941735","category":"Bar","checkinsCount":204,"usersCount":113,"tipCount":3,"visitsCount":205,"url":"http://mybeernall.com","tier":"","message":"","currency":"","rating":7.3},{"name":"Pegasus","phone":"2102994222","address":"1402 N Main Ave","lat":29.442087707654427,"lng":-98.49395522629577,"neighborhood":"Tobin Hill","city_fetched":"San Antonio,US","state":"TX","country":"United States","canonicalUrl":"https://foursquare.com/v/pegasus/4b4421e9f964a520dcf125e3","categoryId":"4bf58dd8d48988d1d8941735","category":"Gay Bar","checkinsCount":8321,"usersCount":1931,"tipCount":18,"visitsCount":8903,"url":"http://www.pegasussanantonio.com","tier":1,"message":"Cheap","currency":"$","rating":7.2},{"name":"George's Keep","address":"17101 LA Cantera Pkwy Ste 1200","lat":29.60999689081997,"lng":-98.6063054828231,"neighborhood":"Northwest Side","city_fetched":"San Antonio,US","state":"TX","country":"United States","canonicalUrl":"https://foursquare.com/v/georges-keep/5320e98f498e04397c7393d4","categoryId":"4bf58dd8d48988d116941735","category":"Bar","checkinsCount":777,"usersCount":421,"tipCount":13,"visitsCount":1008,"tier":3,"message":"Expensive","currency":"$","rating":7.2},{"name":"Recovery Room","phone":"2109306612","twitter":"recoveryroom3","address":"1139 Harry Wurzbach Rd","lat":29.469987854310688,"lng":-98.43873181310038,"neighborhood":"Uptown Broadway","city_fetched":"San Antonio,US","state":"TX","country":"United States","canonicalUrl":"https://foursquare.com/v/recovery-room/4da3c9a09935a093eecfd06f","categoryId":"4bf58dd8d48988d116941735","category":"Bar","checkinsCount":408,"usersCount":86,"tipCount":5,"visitsCount":412,"url":"http://recoveryroomsa-hub.com","tier":"","message":"","currency":"","rating":7.2},{"name":"Olmos Pharmacy","phone":"2107069855","address":"3902 McCullough Ave","lat":29.466649711858757,"lng":-98.49162373975888,"neighborhood":"Uptown Broadway","city_fetched":"San Antonio,US","state":"TX","country":"United States","canonicalUrl":"https://foursquare.com/v/olmos-pharmacy/4ad4bffff964a5205ceb20e3","categoryId":"4bf58dd8d48988d116941735","category":"Bar","checkinsCount":1351,"usersCount":952,"tipCount":21,"visitsCount":1611,"url":"http://olmosrx.com","tier":1,"message":"Cheap","currency":"$","rating":7.2},{"name":"The Local Bar","address":"606 N Presa St","lat":29.426283415818975,"lng":-98.4887885349571,"city_fetched":"San Antonio,US","state":"TX","country":"United States","canonicalUrl":"https://foursquare.com/v/the-local-bar/50a0a30be4b035e93fc24c0c","categoryId":"4bf58dd8d48988d116941735","category":"Bar","checkinsCount":540,"usersCount":291,"tipCount":8,"visitsCount":551,"tier":"","message":"","currency":"","rating":7.2},{"name":"Cootey's Tavern","phone":"2103424998","address":"8318 Jones Maltsberger Rd","lat":29.513784772682747,"lng":-98.48066939904766,"city_fetched":"San Antonio,US","state":"TX","country":"United States","canonicalUrl":"https://foursquare.com/v/cooteys-tavern/4b1ca2ebf964a520cd0824e3","categoryId":"4bf58dd8d48988d118941735","category":"Dive Bar","checkinsCount":785,"usersCount":388,"tipCount":10,"visitsCount":896,"tier":"","message":"","currency":"","rating":7.2},{"name":"Wild West","phone":"2104969453","address":"21025 Encino Commons #111","lat":29.637718704342635,"lng":-98.45184445381165,"neighborhood":"Far North Central","city_fetched":"San Antonio,US","state":"TX","country":"United States","canonicalUrl":"https://foursquare.com/v/wild-west/4cedbe297b94370407412953","categoryId":"4bf58dd8d48988d11f941735","category":"Nightclub","checkinsCount":2766,"usersCount":1541,"tipCount":20,"visitsCount":3451,"url":"http://wildwestsanantonio.com","tier":2,"message":"Moderate","currency":"$","rating":7.2},{"name":"J&O's Cantina","address":"1014 S Presa St","lat":29.410317,"lng":-98.486826,"city_fetched":"San Antonio,US","state":"TX","country":"United States","canonicalUrl":"https://foursquare.com/v/jos-cantina/4ffc9e68e4b0990d47bfd19f","categoryId":"4bf58dd8d48988d116941735","category":"Bar","checkinsCount":162,"usersCount":92,"tipCount":4,"visitsCount":170,"tier":"","message":"","currency":"","rating":7.2},{"name":"Allstars Gentlemen's Sports Club","phone":"2105930576","twitter":"allstarssa","address":"9440 W Interstate 10","lat":29.527530355179444,"lng":-98.55980254384525,"neighborhood":"Northwest Side","city_fetched":"San Antonio,US","state":"TX","country":"United States","canonicalUrl":"https://foursquare.com/v/allstars-gentlemens-sports-club/4ba85c57f964a52006d839e3","categoryId":"4bf58dd8d48988d1d6941735","category":"Strip Club","checkinsCount":1077,"usersCount":464,"tipCount":5,"visitsCount":1145,"url":"http://www.allstarstx.com","tier":"","message":"","currency":"","rating":7.2},{"name":"Perfect Ten","phone":"2103446601","twitter":"perfect10club","address":"111 NW Loop 410","lat":29.521157,"lng":-98.494446,"city_fetched":"San Antonio,US","state":"TX","country":"United States","canonicalUrl":"https://foursquare.com/v/perfect-ten/4bbea070ba9776b0c114fec8","categoryId":"4bf58dd8d48988d1d6941735","category":"Strip Club","checkinsCount":1860,"usersCount":484,"tipCount":30,"visitsCount":1931,"tier":"","message":"","currency":"","rating":7.1},{"name":"Waxclub Lounge","phone":"2107379191","twitter":"waxclublounge","address":"2211 San Pedro Ave","lat":29.455418634948163,"lng":-98.49951356674389,"neighborhood":"Midtown","city_fetched":"San Antonio,US","state":"TX","country":"United States","canonicalUrl":"https://foursquare.com/v/waxclub-lounge/4c9677edf7cfa1cdb688c615","categoryId":"4bf58dd8d48988d1d8941735","category":"Gay Bar","checkinsCount":433,"usersCount":228,"tipCount":2,"visitsCount":496,"tier":"","message":"","currency":"","rating":7.1},{"name":"Charlie Brown's Neighborhood Bar & Grill","phone":"2104967092","address":"11888 Starcrest Dr #101","lat":29.548078179359436,"lng":-98.46101,"neighborhood":"Northeast San Antonio","city_fetched":"San Antonio,US","state":"TX","country":"United States","canonicalUrl":"https://foursquare.com/v/charlie-browns-neighborhood-bar--grill/4b10b7a6f964a520107523e3","categoryId":"4bf58dd8d48988d116941735","category":"Bar","checkinsCount":1413,"usersCount":570,"tipCount":27,"visitsCount":1875,"url":"http://www.charlie-browns.com","tier":"","message":"","currency":"","rating":7.1},{"name":"Industry Night Club","phone":"2103663229","address":"8021 Pinebrook Dr","lat":29.51063319601314,"lng":-98.54972333096785,"neighborhood":"Northwest Side","city_fetched":"San Antonio,US","state":"TX","country":"United States","canonicalUrl":"https://foursquare.com/v/industry-night-club/4ba31535f964a520172b38e3","categoryId":"4bf58dd8d48988d11f941735","category":"Nightclub","checkinsCount":2346,"usersCount":1147,"tipCount":22,"visitsCount":2727,"url":"http://feelgoodfridays.com","tier":2,"message":"Moderate","currency":"$","rating":7.1},{"name":"Fatso's Sports Garden","phone":"2104040121","address":"1704 Bandera Rd","lat":29.470601053081513,"lng":-98.57219553611348,"neighborhood":"Northwest Side","city_fetched":"San Antonio,US","state":"TX","country":"United States","canonicalUrl":"https://foursquare.com/v/fatsos-sports-garden/4b084a0df964a5203f0823e3","categoryId":"4bf58dd8d48988d11d941735","category":"Sports Bar","checkinsCount":1774,"usersCount":963,"tipCount":18,"visitsCount":2120,"url":"http://www.fatsossportsgarden.com","tier":1,"message":"Cheap","currency":"$","rating":7.1},{"name":"Bond's 007 Rock Bar","phone":"2102250007","address":"450 Soledad St","lat":29.42961387471407,"lng":-98.493151257272,"neighborhood":"Downtown San Antonio","city_fetched":"San Antonio,US","state":"TX","country":"United States","canonicalUrl":"https://foursquare.com/v/bonds-007-rock-bar/4b25b457f964a520877524e3","categoryId":"4bf58dd8d48988d116941735","category":"Bar","checkinsCount":984,"usersCount":564,"tipCount":10,"visitsCount":1020,"url":"http://bonds007rockbar.com","tier":2,"message":"Moderate","currency":"$","rating":7.1},{"name":"Bad Dogz Beer & Bites","address":"12952 Bandera Rd","lat":29.563697231671437,"lng":-98.68550518329732,"neighborhood":"Northwest Side","city_fetched":"San Antonio,US","state":"TX","country":"United States","canonicalUrl":"https://foursquare.com/v/bad-dogz-beer--bites/53740203498ed9f34000ccfe","categoryId":"4bf58dd8d48988d116941735","category":"Bar","checkinsCount":78,"usersCount":60,"tipCount":4,"visitsCount":100,"tier":"","message":"","currency":"","rating":7.1},{"name":"Alibis Sports and Spirits","phone":"2102255552","address":"1141 E Commerce St","lat":29.422015582253596,"lng":-98.47917964608277,"neighborhood":"Downtown San Antonio","city_fetched":"San Antonio,US","state":"TX","country":"United States","canonicalUrl":"https://foursquare.com/v/alibis-sports-and-spirits/4b25498bf964a5205e6f24e3","categoryId":"4bf58dd8d48988d11d941735","category":"Sports Bar","checkinsCount":1301,"usersCount":587,"tipCount":8,"visitsCount":1454,"url":"http://alibisbar.com","tier":"","message":"","currency":"","rating":7.1},{"name":"Southtown 101","phone":"2102639880","twitter":"themontereysa","address":"101 Pereida St","lat":29.41317,"lng":-98.488298,"city_fetched":"San Antonio,US","state":"TX","country":"United States","canonicalUrl":"https://foursquare.com/v/southtown-101/4f7f753be4b0c2f76485c448","categoryId":"4bf58dd8d48988d116941735","category":"Bar","checkinsCount":2183,"usersCount":796,"tipCount":23,"visitsCount":2691,"tier":1,"message":"Cheap","currency":"$","rating":7},{"name":"Bar America","phone":"2102237462","address":"723 S Alamo St","lat":29.416785,"lng":-98.488718,"city_fetched":"San Antonio,US","state":"TX","country":"United States","canonicalUrl":"https://foursquare.com/v/bar-america/4b63d8b2f964a52013942ae3","categoryId":"4bf58dd8d48988d118941735","category":"Dive Bar","checkinsCount":1031,"usersCount":646,"tipCount":4,"visitsCount":1152,"tier":"","message":"","currency":"","rating":7},{"name":"EspaÃ±a Bar de Tapas","phone":"2106904433","address":"5638 W Hausman Rd","lat":29.572173949428628,"lng":-98.59795367855155,"neighborhood":"Northwest Side","city_fetched":"San Antonio,US","state":"TX","country":"United States","canonicalUrl":"https://foursquare.com/v/espa%C3%B1a-bar-de-tapas/4ae92f3ef964a52089b421e3","categoryId":"4bf58dd8d48988d116941735","category":"Bar","checkinsCount":4138,"usersCount":1634,"tipCount":24,"visitsCount":4463,"url":"http://espanabar.com/daytime/","tier":2,"message":"Moderate","currency":"$","rating":7},{"name":"Retox Bar","phone":"2107752886","twitter":"retoxbar","address":"1031 Patricia #105","lat":29.54538127488764,"lng":-98.51208432387267,"neighborhood":"Northwest Side","city_fetched":"San Antonio,US","state":"TX","country":"United States","canonicalUrl":"https://foursquare.com/v/retox-bar/4ad4bffef964a520cbea20e3","categoryId":"4bf58dd8d48988d116941735","category":"Bar","checkinsCount":2316,"usersCount":515,"tipCount":16,"visitsCount":2382,"url":"http://www.retoxbar.net","tier":1,"message":"Cheap","currency":"$","rating":7},{"name":"Jerry Dean's","phone":"2106551280","address":"12536 Nacogdoches Rd","lat":29.554088,"lng":-98.40181804,"neighborhood":"Northeast San Antonio","city_fetched":"San Antonio,US","state":"TX","country":"United States","canonicalUrl":"https://foursquare.com/v/jerry-deans/4b5fb70cf964a5209cc929e3","categoryId":"4bf58dd8d48988d116941735","category":"Bar","checkinsCount":100,"usersCount":40,"tipCount":4,"visitsCount":100,"tier":"","message":"","currency":"","rating":7},{"name":"Splach","address":"905 Nogalitos","lat":29.404094579222896,"lng":-98.50920546238966,"neighborhood":"Lone Star","city_fetched":"San Antonio,US","state":"TX","country":"United States","canonicalUrl":"https://foursquare.com/v/splach/4bf7624d5317a5939117fe7e","categoryId":"4bf58dd8d48988d116941735","category":"Bar","checkinsCount":101,"usersCount":77,"tipCount":2,"visitsCount":117,"tier":"","message":"","currency":"","rating":7},{"name":"Legend's Sports Bar","phone":"2106740627","address":"1305 SW Loop 410","lat":29.423819772169487,"lng":-98.65103756092006,"neighborhood":"Far West Side","city_fetched":"San Antonio,US","state":"TX","country":"United States","canonicalUrl":"https://foursquare.com/v/legends-sports-bar/4bc0175eb492d13ad1e5a360","categoryId":"4bf58dd8d48988d11d941735","category":"Sports Bar","checkinsCount":1925,"usersCount":514,"tipCount":14,"visitsCount":2203,"tier":"","message":"","currency":"","rating":7},{"name":"The Lost Bar n Grill","address":"12730 NW Military Hwy","lat":29.559590481385673,"lng":-98.53553209936234,"neighborhood":"Far North Central","city_fetched":"San Antonio,US","state":"TX","country":"United States","canonicalUrl":"https://foursquare.com/v/the-lost-bar-n-grill/5229481611d2613667e73c56","categoryId":"4bf58dd8d48988d11e941735","category":"Cocktail Bar","checkinsCount":244,"usersCount":168,"tipCount":5,"visitsCount":378,"tier":"","message":"","currency":"","rating":7},{"name":"The Cork Bar At The Contessa","lat":29.4231196464103,"lng":-98.48997298372107,"city_fetched":"San Antonio,US","state":"TX","country":"United States","canonicalUrl":"https://foursquare.com/v/the-cork-bar-at-the-contessa/4e4f220118383eb2af1dcbfa","categoryId":"4bf58dd8d48988d123941735","category":"Wine Bar","checkinsCount":141,"usersCount":122,"tipCount":1,"visitsCount":142,"tier":"","message":"","currency":"","rating":7},{"name":"Marty's Cocktails","phone":"2103419259","address":"603 Isom Rd","lat":29.528924,"lng":-98.493095,"neighborhood":"Northeast San Antonio","city_fetched":"San Antonio,US","state":"TX","country":"United States","canonicalUrl":"https://foursquare.com/v/martys-cocktails/4b482bbbf964a520684926e3","categoryId":"4bf58dd8d48988d116941735","category":"Bar","checkinsCount":643,"usersCount":176,"tipCount":1,"visitsCount":721,"tier":"","message":"","currency":"","rating":7},{"name":"Thirsty Turtle","phone":"2108203600","address":"1626 NE Loop 410","lat":29.51466130957253,"lng":-98.43884964268308,"neighborhood":"Oak Park - Northwood","city_fetched":"San Antonio,US","state":"TX","country":"United States","canonicalUrl":"https://foursquare.com/v/thirsty-turtle/4bc2827ff8219c746c08b510","categoryId":"4bf58dd8d48988d116941735","category":"Bar","checkinsCount":982,"usersCount":412,"tipCount":11,"visitsCount":1090,"tier":"","message":"","currency":"","rating":7},{"name":"Rookie's","lat":29.490870243613145,"lng":-98.57256574753993,"neighborhood":"Northwest Side","city_fetched":"San Antonio,US","state":"TX","country":"United States","canonicalUrl":"https://foursquare.com/v/rookies/4bad8f76f964a520925b3be3","categoryId":"4bf58dd8d48988d116941735","category":"Bar","checkinsCount":606,"usersCount":256,"tipCount":7,"visitsCount":687,"tier":"","message":"","currency":"","rating":7},{"name":"Joe's Volcano","phone":"2106807225","twitter":"joes_volcano","address":"6844 Ingram Rd","lat":29.464277537675194,"lng":-98.62478898443024,"neighborhood":"Northwest Side","city_fetched":"San Antonio,US","state":"TX","country":"United States","canonicalUrl":"https://foursquare.com/v/joes-volcano/4c845428dc018cfa666de06c","categoryId":"4bf58dd8d48988d11f941735","category":"Nightclub","checkinsCount":806,"usersCount":247,"tipCount":9,"visitsCount":912,"url":"http://joes-volcano.com","tier":"","message":"","currency":"","rating":7},{"name":"Highlander Bar & Grill","phone":"2103404577","address":"5566 Fredericksburg Rd.","lat":29.509585201881006,"lng":-98.56554276906343,"neighborhood":"Northwest Side","city_fetched":"San Antonio,US","state":"TX","country":"United States","canonicalUrl":"https://foursquare.com/v/highlander-bar--grill/4b7ade2ff964a52059422fe3","categoryId":"4bf58dd8d48988d116941735","category":"Bar","checkinsCount":2373,"usersCount":1030,"tipCount":17,"visitsCount":3228,"url":"http://highlanderbarandgrill.com","tier":1,"message":"Cheap","currency":"$","rating":7},{"name":"Jack's Bar & Restaurant","phone":"2104942309","twitter":"jackspatiobar","address":"3030 Thousand Oaks Dr","lat":29.574511484362237,"lng":-98.43979865312576,"neighborhood":"Northeast San Antonio","city_fetched":"San Antonio,US","state":"TX","country":"United States","canonicalUrl":"https://foursquare.com/v/jacks-bar--restaurant/4ad4bffef964a520c3ea20e3","categoryId":"4bf58dd8d48988d116941735","category":"Bar","checkinsCount":1912,"usersCount":1047,"tipCount":10,"visitsCount":2074,"tier":1,"message":"Cheap","currency":"$","rating":7},{"name":"Evil Olive Elixir Lounge","phone":"2104950957","address":"2950 Thousand Oaks Dr","lat":29.57668438529286,"lng":-98.44116342473062,"neighborhood":"Northeast San Antonio","city_fetched":"San Antonio,US","state":"TX","country":"United States","canonicalUrl":"https://foursquare.com/v/evil-olive-elixir-lounge/4cec99a4b80da093f3861d00","categoryId":"4bf58dd8d48988d116941735","category":"Bar","checkinsCount":1811,"usersCount":777,"tipCount":13,"visitsCount":2003,"tier":1,"message":"Cheap","currency":"$","rating":7},{"name":"Rick's Cabaret","phone":"2106572800","address":"5418 Brewster St","lat":29.540616,"lng":-98.382695,"neighborhood":"Northeast San Antonio","city_fetched":"San Antonio,US","state":"TX","country":"United States","canonicalUrl":"https://foursquare.com/v/ricks-cabaret/4b4aabf7f964a5209f8c26e3","categoryId":"4bf58dd8d48988d1d6941735","category":"Strip Club","checkinsCount":694,"usersCount":414,"tipCount":9,"visitsCount":877,"url":"http://ricks.com","tier":"","message":"","currency":"","rating":6.9},{"name":"Bohanan's Bar","phone":"2104722202","twitter":"bohanans","address":"219 E Houston St","lat":29.426531616666665,"lng":-98.490515,"neighborhood":"Downtown San Antonio","city_fetched":"San Antonio,US","state":"TX","country":"United States","canonicalUrl":"https://foursquare.com/v/bohanans-bar/4b3bdb60f964a520bf7c25e3","categoryId":"4bf58dd8d48988d116941735","category":"Bar","checkinsCount":1317,"usersCount":743,"tipCount":18,"visitsCount":1322,"url":"http://www.bohanans.com","tier":3,"message":"Expensive","currency":"$","rating":6.9},{"name":"Roxy Sports Bar","phone":"2105210410","address":"3249 Wurzbach Rd","lat":29.467019928380637,"lng":-98.62427355448058,"neighborhood":"Northwest Side","city_fetched":"San Antonio,US","state":"TX","country":"United States","canonicalUrl":"https://foursquare.com/v/roxy-sports-bar/4b652646f964a5206ae62ae3","categoryId":"4bf58dd8d48988d11d941735","category":"Sports Bar","checkinsCount":1174,"usersCount":457,"tipCount":7,"visitsCount":1281,"tier":2,"message":"Moderate","currency":"$","rating":6.9},{"name":"Shenanygans Sports Bar & Lounge","phone":"2106901156","twitter":"shenanyganssa","address":"6422 Babcock Rd","lat":29.545971469097655,"lng":-98.61545272574938,"neighborhood":"Northwest Side","city_fetched":"San Antonio,US","state":"TX","country":"United States","canonicalUrl":"https://foursquare.com/v/shenanygans-sports-bar--lounge/4b63a38df964a52004892ae3","categoryId":"4bf58dd8d48988d11d941735","category":"Sports Bar","checkinsCount":2549,"usersCount":1170,"tipCount":18,"visitsCount":2961,"url":"http://shenanygans.com","tier":1,"message":"Cheap","currency":"$","rating":6.9},{"name":"Dixies Bar & Patio","phone":"2109305552","address":"502 Embassy Oaks","lat":29.563899708120235,"lng":-98.48802749625821,"neighborhood":"Northeast San Antonio","city_fetched":"San Antonio,US","state":"TX","country":"United States","canonicalUrl":"https://foursquare.com/v/dixies-bar--patio/4e0e80ca52b1b27c1b882efe","categoryId":"4bf58dd8d48988d116941735","category":"Bar","checkinsCount":2895,"usersCount":641,"tipCount":13,"visitsCount":2922,"url":"http://dixiesbarsa.com","tier":1,"message":"Cheap","currency":"$","rating":6.9},{"name":"Vbar","phone":"2102279700","twitter":"hotelvalenciarw","address":"150 E Houston St","lat":29.42645782214029,"lng":-98.49205787316532,"city_fetched":"San Antonio,US","state":"TX","country":"United States","canonicalUrl":"https://foursquare.com/v/vbar/4ad4bffef964a520c0ea20e3","categoryId":"4bf58dd8d48988d1d5941735","category":"Hotel Bar","checkinsCount":1110,"usersCount":729,"tipCount":15,"visitsCount":1118,"url":"http://www.hotelvalencia-riverwalk.com/dining/citrus.php","tier":"","message":"","currency":"","rating":6.9},{"name":"The Crazy Ape","phone":"2107449207","address":"9930 San Pedro Ave","lat":29.52985318813848,"lng":-98.49507543743685,"city_fetched":"San Antonio,US","state":"TX","country":"United States","canonicalUrl":"https://foursquare.com/v/the-crazy-ape/4bda50ad63c5c9b62fc22368","categoryId":"4bf58dd8d48988d116941735","category":"Bar","checkinsCount":918,"usersCount":318,"tipCount":8,"visitsCount":1075,"tier":"","message":"","currency":"","rating":6.9},{"name":"PHX Lounge","phone":"2105950749","twitter":"phxlounge","address":"7859 Broadway","lat":29.506232229518663,"lng":-98.46712337840088,"neighborhood":"Uptown Broadway","city_fetched":"San Antonio,US","state":"TX","country":"United States","canonicalUrl":"https://foursquare.com/v/phx-lounge/506e2090e4b09a5d51475fcc","categoryId":"4bf58dd8d48988d121941735","category":"Lounge","checkinsCount":149,"usersCount":99,"tipCount":2,"visitsCount":151,"url":"http://www.phxlounge.com","tier":"","message":"","currency":"","rating":6.9},{"name":"Haunt","address":"300 E Travis St","lat":29.427642388804774,"lng":-98.4897586024739,"neighborhood":"Downtown San Antonio","city_fetched":"San Antonio,US","state":"TX","country":"United States","canonicalUrl":"https://foursquare.com/v/haunt/55c564af498e01d9e8258fac","categoryId":"4bf58dd8d48988d121941735","category":"Lounge","checkinsCount":79,"usersCount":69,"tipCount":0,"visitsCount":79,"url":"http://www.thestanthonyhotel.com/san-antonio-restaurants","tier":"","message":"","currency":"","rating":6.9},{"name":"Tilted Kilt San Antonio","phone":"2104972800","twitter":"tiltedkiltpub","address":"2070 N Loop 1604 E","lat":29.60567852,"lng":-98.45919958,"neighborhood":"Far North Central","city_fetched":"San Antonio,US","state":"TX","country":"United States","canonicalUrl":"https://foursquare.com/v/tilted-kilt-san-antonio/4d7673e5fafba143b843e0e6","categoryId":"4bf58dd8d48988d11b941735","category":"Pub","checkinsCount":3536,"usersCount":1990,"tipCount":37,"visitsCount":4189,"url":"http://www.tiltedkilt.com","tier":"","message":"","currency":"","rating":6.9},{"name":"Three Legged Monkey","address":"2313 NW Military Hwy","lat":29.54131019458101,"lng":-98.52706475259512,"neighborhood":"Northwest Side","city_fetched":"San Antonio,US","state":"TX","country":"United States","canonicalUrl":"https://foursquare.com/v/three-legged-monkey/4b651a1ef964a52032e42ae3","categoryId":"4bf58dd8d48988d116941735","category":"Bar","checkinsCount":872,"usersCount":444,"tipCount":4,"visitsCount":1051,"tier":"","message":"","currency":"","rating":6.9},{"name":"Main St Bar","phone":"2104903038","address":"wetmore","lat":29.563854375651463,"lng":-98.42056149521788,"neighborhood":"Northeast San Antonio","city_fetched":"San Antonio,US","state":"TX","country":"United States","canonicalUrl":"https://foursquare.com/v/main-st-bar/4bfdf7ff8992a593b5f8acb0","categoryId":"4bf58dd8d48988d116941735","category":"Bar","checkinsCount":664,"usersCount":190,"tipCount":3,"visitsCount":718,"url":"http://www.mainstreetcrossing.com","tier":"","message":"","currency":"","rating":6.9},{"name":"San Antonio Men's Club","phone":"2105907088","address":"8244 Interchange Pkwy","lat":29.51590080274709,"lng":-98.39739578425915,"neighborhood":"Northeast San Antonio","city_fetched":"San Antonio,US","state":"TX","country":"United States","canonicalUrl":"https://foursquare.com/v/san-antonio-mens-club/4c15c203a5eb76b006ddc3b7","categoryId":"4bf58dd8d48988d1d6941735","category":"Strip Club","checkinsCount":996,"usersCount":462,"tipCount":6,"visitsCount":1326,"tier":"","message":"","currency":"","rating":6.9},{"name":"Half Time","address":"7126 Tezel Rd #107","lat":29.501617731419447,"lng":-98.66166736239059,"neighborhood":"Far West Side","city_fetched":"San Antonio,US","state":"TX","country":"United States","canonicalUrl":"https://foursquare.com/v/half-time/4e5fee44aeb7360313d21b19","categoryId":"4bf58dd8d48988d116941735","category":"Bar","checkinsCount":392,"usersCount":162,"tipCount":6,"visitsCount":397,"tier":1,"message":"Cheap","currency":"$","rating":6.9},{"name":"Nirvana Bar and Rock","phone":"2103781394","address":"18730 Stone Oak Pkwy Ste 108","lat":29.610362393852725,"lng":-98.49215434759535,"neighborhood":"Stone Oak","city_fetched":"San Antonio,US","state":"TX","country":"United States","canonicalUrl":"https://foursquare.com/v/nirvana-bar-and-rock/534612c0498e7dd0a7f1e510","categoryId":"4bf58dd8d48988d121941735","category":"Lounge","checkinsCount":211,"usersCount":182,"tipCount":2,"visitsCount":362,"url":"http://www.nirvanabarandrock.com","tier":"","message":"","currency":"","rating":6.9},{"name":"Essence","phone":"2102235418","address":"1010 N Main Ave","lat":29.43794,"lng":-98.493867,"neighborhood":"Tobin Hill","city_fetched":"San Antonio,US","state":"TX","country":"United States","canonicalUrl":"https://foursquare.com/v/essence/4b9f0fb1f964a520301237e3","categoryId":"4bf58dd8d48988d1d8941735","category":"Gay Bar","checkinsCount":2661,"usersCount":840,"tipCount":14,"visitsCount":3504,"tier":1,"message":"Cheap","currency":"$","rating":6.9},{"name":"151 Saloon","phone":"2102489757","address":"10619 Westover Hills Blvd","lat":29.464094518965528,"lng":-98.69033059825925,"neighborhood":"Far West Side","city_fetched":"San Antonio,US","state":"TX","country":"United States","canonicalUrl":"https://foursquare.com/v/151-saloon/4c3e3ade80bc20a1f0baaa58","categoryId":"4bf58dd8d48988d11f941735","category":"Nightclub","checkinsCount":873,"usersCount":723,"tipCount":8,"visitsCount":1319,"url":"http://www.151saloon.com","tier":"","message":"","currency":"","rating":6.9},{"name":"Ringside Sports Bar","phone":"2102228057","address":"1163 E Commerce St","lat":29.421845534861713,"lng":-98.4785365963609,"neighborhood":"Downtown San Antonio","city_fetched":"San Antonio,US","state":"TX","country":"United States","canonicalUrl":"https://foursquare.com/v/ringside-sports-bar/4c538fcda724e21e8a76f0f4","categoryId":"4bf58dd8d48988d11d941735","category":"Sports Bar","checkinsCount":228,"usersCount":116,"tipCount":4,"visitsCount":238,"tier":"","message":"","currency":"","rating":6.9},{"name":"Fizz","phone":"2102558156","address":"1218 W Bitters Rd","lat":29.578548671852435,"lng":-98.51214865722716,"neighborhood":"Far North Central","city_fetched":"San Antonio,US","state":"TX","country":"United States","canonicalUrl":"https://foursquare.com/v/fizz/4bd28ece462cb713afb3dc07","categoryId":"4bf58dd8d48988d118941735","category":"Dive Bar","checkinsCount":832,"usersCount":284,"tipCount":13,"visitsCount":880,"tier":1,"message":"Cheap","currency":"$","rating":6.8},{"name":"The Leaky Barrel","address":"7959 Fredericksburg Rd","lat":29.51116525208835,"lng":-98.56936267367487,"neighborhood":"Northwest Side","city_fetched":"San Antonio,US","state":"TX","country":"United States","canonicalUrl":"https://foursquare.com/v/the-leaky-barrel/52eee59a498e62b87190d92e","categoryId":"4bf58dd8d48988d116941735","category":"Bar","checkinsCount":306,"usersCount":140,"tipCount":3,"visitsCount":328,"tier":"","message":"","currency":"","rating":6.8},{"name":"Make My Day Lounge","phone":"2106556367","address":"12114 Nacogdoches Rd","lat":29.54962219,"lng":-98.40913619,"neighborhood":"Northeast San Antonio","city_fetched":"San Antonio,US","state":"TX","country":"United States","canonicalUrl":"https://foursquare.com/v/make-my-day-lounge/4c89bcafa92fa0934b818bbf","categoryId":"4bf58dd8d48988d116941735","category":"Bar","checkinsCount":107,"usersCount":50,"tipCount":6,"visitsCount":107,"tier":"","message":"","currency":"","rating":6.8},{"name":"El Fuerte","address":"7011 San Perdo","lat":29.508958,"lng":-98.50032061,"city_fetched":"San Antonio,US","state":"TX","country":"United States","canonicalUrl":"https://foursquare.com/v/el-fuerte/4b32bb0ff964a520d21225e3","categoryId":"4bf58dd8d48988d11f941735","category":"Nightclub","checkinsCount":297,"usersCount":139,"tipCount":5,"visitsCount":311,"tier":"","message":"","currency":"","rating":6.8},{"name":"Charlies Long Bar - Hyatt Hill Country Resort","phone":"2106471234","twitter":"hr_hillcountry","address":"9800 Hyatt Resort Dr","lat":29.461020320232315,"lng":-98.68121737442597,"neighborhood":"Far West Side","city_fetched":"San Antonio,US","state":"TX","country":"United States","canonicalUrl":"https://foursquare.com/v/charlies-long-bar--hyatt-hill-country-resort/4b625999f964a52098432ae3","categoryId":"4bf58dd8d48988d1d5941735","category":"Hotel Bar","checkinsCount":599,"usersCount":266,"tipCount":2,"visitsCount":609,"url":"http://www.hillcountry.hyatt.com","tier":"","message":"","currency":"","rating":6.8},{"name":"Mambo Martini","phone":"2102655420","address":"281 North","lat":29.621296687833638,"lng":-98.46284252886176,"neighborhood":"Far North Central","city_fetched":"San Antonio,US","state":"TX","country":"United States","canonicalUrl":"https://foursquare.com/v/mambo-martini/5057b7ade4b05fe81dfcc5f1","categoryId":"4bf58dd8d48988d11f941735","category":"Nightclub","checkinsCount":143,"usersCount":72,"tipCount":8,"visitsCount":143,"tier":"","message":"","currency":"","rating":6.8},{"name":"Rosarios Mexican Cafe y Cantina","phone":"2108294084","twitter":"hmshost","address":"San Antonio International Airport, 9710 Airport Blvd., Ste. TS-204","lat":29.52872364472362,"lng":-98.47217605890155,"neighborhood":"Northeast San Antonio","city_fetched":"San Antonio,US","state":"TX","country":"United States","canonicalUrl":"https://foursquare.com/v/rosarios-mexican-cafe-y-cantina/4b734202f964a520b7a42de3","categoryId":"4bf58dd8d48988d116941735","category":"Bar","checkinsCount":1842,"usersCount":1240,"tipCount":35,"visitsCount":1860,"url":"http://rosariossa.com","tier":2,"message":"Moderate","currency":"$","rating":6.8},{"name":"Hookah Cafe","phone":"2104994144","address":"2250 Thousand Oaks Dr","lat":29.58778,"lng":-98.45272421836853,"neighborhood":"Far North Central","city_fetched":"San Antonio,US","state":"TX","country":"United States","canonicalUrl":"https://foursquare.com/v/hookah-cafe/4b4d381cf964a52087ce26e3","categoryId":"4bf58dd8d48988d119941735","category":"Hookah Bar","checkinsCount":1866,"usersCount":641,"tipCount":21,"visitsCount":2070,"tier":1,"message":"Cheap","currency":"$","rating":6.8},{"name":"The Bend Sports Bar","address":"Bandera Road","lat":29.512261931652795,"lng":-98.63141471704151,"neighborhood":"Northwest Side","city_fetched":"San Antonio,US","state":"TX","country":"United States","canonicalUrl":"https://foursquare.com/v/the-bend-sports-bar/4fa71ba0e4b0bcbb484aa067","categoryId":"4bf58dd8d48988d11d941735","category":"Sports Bar","checkinsCount":1418,"usersCount":627,"tipCount":24,"visitsCount":1732,"tier":"","message":"","currency":"","rating":6.8},{"name":"Speedway Sports Bar","address":"8811 Grissom Rd","lat":29.480284641319905,"lng":-98.65824568346845,"neighborhood":"Far West Side","city_fetched":"San Antonio,US","state":"TX","country":"United States","canonicalUrl":"https://foursquare.com/v/speedway-sports-bar/4bca837dcc8cd13a84fabdcf","categoryId":"4bf58dd8d48988d11d941735","category":"Sports Bar","checkinsCount":667,"usersCount":223,"tipCount":9,"visitsCount":860,"tier":"","message":"","currency":"","rating":6.7},{"name":"Fast Eddie's Billiards","phone":"2105203325","address":"7616 Culebra Rd #103","lat":29.459686003178327,"lng":-98.63990981221582,"neighborhood":"Far West Side","city_fetched":"San Antonio,US","state":"TX","country":"United States","canonicalUrl":"https://foursquare.com/v/fast-eddies-billiards/4bff3c4168c7a593986f4044","categoryId":"4bf58dd8d48988d11d941735","category":"Sports Bar","checkinsCount":553,"usersCount":395,"tipCount":6,"visitsCount":711,"url":"http://fasteddiesbilliards.com","tier":"","message":"","currency":"","rating":6.7},{"name":"Smitty's Pub","phone":"2106158644","address":"4121 Gardendale St","lat":29.522056214293233,"lng":-98.56635823816993,"neighborhood":"Northwest Side","city_fetched":"San Antonio,US","state":"TX","country":"United States","canonicalUrl":"https://foursquare.com/v/smittys-pub/4bcd21c0511f9521bd55b4c7","categoryId":"4bf58dd8d48988d116941735","category":"Bar","checkinsCount":664,"usersCount":289,"tipCount":4,"visitsCount":819,"tier":"","message":"","currency":"","rating":6.7},{"name":"Finnegan's","phone":"2104954717","address":"16260 San Pedro Ave","lat":29.58910415282447,"lng":-98.47354888916016,"neighborhood":"Far North Central","city_fetched":"San Antonio,US","state":"TX","country":"United States","canonicalUrl":"https://foursquare.com/v/finnegans/4bb6c741ef159c74f68976f7","categoryId":"4bf58dd8d48988d118941735","category":"Dive Bar","checkinsCount":567,"usersCount":199,"tipCount":7,"visitsCount":633,"tier":1,"message":"Cheap","currency":"$","rating":6.7},{"name":"Backstage Lounge","phone":"2105250728","address":"830 NW Loop 410","lat":29.518425791163867,"lng":-98.50625038146973,"city_fetched":"San Antonio,US","state":"TX","country":"United States","canonicalUrl":"https://foursquare.com/v/backstage-lounge/4b481f83f964a520b04826e3","categoryId":"4bf58dd8d48988d116941735","category":"Bar","checkinsCount":2258,"usersCount":871,"tipCount":18,"visitsCount":2335,"tier":1,"message":"Cheap","currency":"$","rating":6.7},{"name":"Serna's Backyard Sports Bar","phone":"2106795588","address":"12023 FM 1957","lat":29.43101517923376,"lng":-98.7305954027434,"neighborhood":"Far West Side","city_fetched":"San Antonio,US","state":"TX","country":"United States","canonicalUrl":"https://foursquare.com/v/sernas-backyard-sports-bar/4d01adf53c89b60c62ce628f","categoryId":"4bf58dd8d48988d116941735","category":"Bar","checkinsCount":543,"usersCount":356,"tipCount":7,"visitsCount":786,"tier":"","message":"","currency":"","rating":6.7},{"name":"The Long Bar","phone":"2104901400","address":"18402 US Highway 281 N","lat":29.610418273764854,"lng":-98.46575176552047,"neighborhood":"Far North Central","city_fetched":"San Antonio,US","state":"TX","country":"United States","canonicalUrl":"https://foursquare.com/v/the-long-bar/4b8de37af964a5202e1233e3","categoryId":"4bf58dd8d48988d121941735","category":"Lounge","checkinsCount":1398,"usersCount":779,"tipCount":7,"visitsCount":1482,"tier":"","message":"","currency":"","rating":6.7},{"name":"Fast Eddies Billiards","phone":"2106806800","twitter":"fasteddies_","address":"9910 W 1604 N","lat":29.534180415934102,"lng":-98.68090573851708,"neighborhood":"Northwest Side","city_fetched":"San Antonio,US","state":"TX","country":"United States","canonicalUrl":"https://foursquare.com/v/fast-eddies-billiards/4c0dd972336220a1ab63cb77","categoryId":"4bf58dd8d48988d11d941735","category":"Sports Bar","checkinsCount":2276,"usersCount":994,"tipCount":9,"visitsCount":2417,"url":"http://fasteddiesbilliards.com","tier":2,"message":"Moderate","currency":"$","rating":6.7},{"name":"Cowabunga's","phone":"2102261338","twitter":"cowabunga210","address":"402 E Travis St #1","lat":29.42747668,"lng":-98.48827421665192,"neighborhood":"Downtown San Antonio","city_fetched":"San Antonio,US","state":"TX","country":"United States","canonicalUrl":"https://foursquare.com/v/cowabungas/4c22f7a39085d13a2c3b87cc","categoryId":"4bf58dd8d48988d11f941735","category":"Nightclub","checkinsCount":1031,"usersCount":212,"tipCount":5,"visitsCount":1039,"tier":"","message":"","currency":"","rating":6.7},{"name":"Agora Bar","address":"17703 W Interstate 10","lat":29.608481782621606,"lng":-98.59932232403973,"neighborhood":"Northwest Side","city_fetched":"San Antonio,US","state":"TX","country":"United States","canonicalUrl":"https://foursquare.com/v/agora-bar/4c48e6019e3e2d7f8f770748","categoryId":"4bf58dd8d48988d116941735","category":"Bar","checkinsCount":647,"usersCount":376,"tipCount":3,"visitsCount":647,"tier":"","message":"","currency":"","rating":6.7},{"name":"Sala Bebida Botana Bar","phone":"2108294503","address":"9710 Airport Blvd","lat":29.5288205373579,"lng":-98.47203138570363,"neighborhood":"Northeast San Antonio","city_fetched":"San Antonio,US","state":"TX","country":"United States","canonicalUrl":"https://foursquare.com/v/sala-bebida-botana-bar/4ebc3d28f5b9e505b7851fa5","categoryId":"4bf58dd8d48988d116941735","category":"Bar","checkinsCount":246,"usersCount":216,"tipCount":6,"visitsCount":246,"tier":"","message":"","currency":"","rating":6.7},{"name":"Firehouse Pub & Grill","phone":"2109469600","address":"5380 Walzem Rd","lat":29.510021450820723,"lng":-98.38596815627263,"neighborhood":"Northeast San Antonio","city_fetched":"San Antonio,US","state":"TX","country":"United States","canonicalUrl":"https://foursquare.com/v/firehouse-pub--grill/4ad7a535f964a520300d21e3","categoryId":"4bf58dd8d48988d11b941735","category":"Pub","checkinsCount":1884,"usersCount":534,"tipCount":15,"visitsCount":2102,"url":"http://firehousepub.com","tier":2,"message":"Moderate","currency":"$","rating":6.7},{"name":"Celebs Star Bar","address":"245 E Commerce St","lat":29.424878719826076,"lng":-98.48978540009644,"city_fetched":"San Antonio,US","state":"TX","country":"United States","canonicalUrl":"https://foursquare.com/v/celebs-star-bar/50825024e4b05e913468f751","categoryId":"4bf58dd8d48988d119941735","category":"Hookah Bar","checkinsCount":510,"usersCount":329,"tipCount":2,"visitsCount":510,"tier":"","message":"","currency":"","rating":6.7},{"name":"Cork Bar","phone":"2102299222","lat":29.423236,"lng":-98.49008736,"city_fetched":"San Antonio,US","state":"TX","country":"United States","canonicalUrl":"https://foursquare.com/v/cork-bar/4b8c6dc4f964a52065d032e3","categoryId":"4bf58dd8d48988d11e941735","category":"Cocktail Bar","checkinsCount":173,"usersCount":126,"tipCount":6,"visitsCount":173,"tier":"","message":"","currency":"","rating":6.7},{"name":"Mad Dogs British Pub","phone":"2102220220","twitter":"maddogspubs","address":"123 Losoya St","lat":29.425618776329838,"lng":-98.48846197128296,"neighborhood":"Alamo Plaza","city_fetched":"San Antonio,US","state":"TX","country":"United States","canonicalUrl":"https://foursquare.com/v/mad-dogs-british-pub/4ad4bffdf964a52091ea20e3","categoryId":"4bf58dd8d48988d11b941735","category":"Pub","checkinsCount":8169,"usersCount":5924,"tipCount":97,"visitsCount":8272,"url":"http://www.maddogs.net","tier":2,"message":"Moderate","currency":"$","rating":6.7},{"name":"Stacy's Sports Bar","address":"Blanco","lat":29.481861974925838,"lng":-98.50853535210251,"city_fetched":"San Antonio,US","state":"TX","country":"United States","canonicalUrl":"https://foursquare.com/v/stacys-sports-bar/4c423ea5af052d7faab17e79","categoryId":"4bf58dd8d48988d116941735","category":"Bar","checkinsCount":203,"usersCount":72,"tipCount":2,"visitsCount":209,"tier":"","message":"","currency":"","rating":6.7},{"name":"Silver Dollar","address":"1812 North Main","lat":29.446572665548306,"lng":-98.49401418436175,"neighborhood":"Tobin Hill","city_fetched":"San Antonio,US","state":"TX","country":"United States","canonicalUrl":"https://foursquare.com/v/silver-dollar/4b77a402f964a5202ba52ee3","categoryId":"4bf58dd8d48988d1d8941735","category":"Gay Bar","checkinsCount":2300,"usersCount":527,"tipCount":10,"visitsCount":2515,"tier":1,"message":"Cheap","currency":"$","rating":6.6},{"name":"Slackers","phone":"2105240088","address":"116 W. Rector Dr.","lat":29.516261807021216,"lng":-98.49565430904931,"city_fetched":"San Antonio,US","state":"TX","country":"United States","canonicalUrl":"https://foursquare.com/v/slackers/51a4fa32498e347330d7b6f8","categoryId":"4bf58dd8d48988d11d941735","category":"Sports Bar","checkinsCount":726,"usersCount":559,"tipCount":9,"visitsCount":1077,"url":"http://slackerssa.com","tier":1,"message":"Cheap","currency":"$","rating":6.6},{"name":"Liv Ultra Lounge","lat":29.621387538508355,"lng":-98.4628371712554,"neighborhood":"Far North Central","city_fetched":"San Antonio,US","state":"TX","country":"United States","canonicalUrl":"https://foursquare.com/v/liv-ultra-lounge/5348bdfb498e278a71ffedca","categoryId":"4bf58dd8d48988d11f941735","category":"Nightclub","checkinsCount":198,"usersCount":144,"tipCount":2,"visitsCount":243,"tier":"","message":"","currency":"","rating":6.6},{"name":"Cross Eyed Seagull","phone":"2105453440","address":"19151 Stone Oak Parkway, Suite 206","lat":29.62611436843872,"lng":-98.49612611,"neighborhood":"Stone Oak","city_fetched":"San Antonio,US","state":"TX","country":"United States","canonicalUrl":"https://foursquare.com/v/cross-eyed-seagull/4ad7f831f964a5205b1021e3","categoryId":"4bf58dd8d48988d116941735","category":"Bar","checkinsCount":2392,"usersCount":824,"tipCount":9,"visitsCount":2500,"tier":"","message":"","currency":"","rating":6.6},{"name":"High Velocity Sports Bar","phone":"2104033434","twitter":"jwsanantonio","address":"23808 Resort Pkwy","lat":29.666538703131774,"lng":-98.40024948120117,"city_fetched":"San Antonio,US","state":"TX","country":"United States","canonicalUrl":"https://foursquare.com/v/high-velocity-sports-bar/4b5fd090f964a520b7cd29e3","categoryId":"4bf58dd8d48988d11d941735","category":"Sports Bar","checkinsCount":1772,"usersCount":1092,"tipCount":16,"visitsCount":1788,"url":"http://www.highvelocitysa.com","tier":"","message":"","currency":"","rating":6.6},{"name":"Tonic Bar","phone":"2108775858","address":"5500 Babcock Rd Ste 117","lat":29.517872198624218,"lng":-98.59691245102411,"neighborhood":"Northwest Side","city_fetched":"San Antonio,US","state":"TX","country":"United States","canonicalUrl":"https://foursquare.com/v/tonic-bar/4adf9766f964a520e67b21e3","categoryId":"4bf58dd8d48988d121941735","category":"Lounge","checkinsCount":2767,"usersCount":742,"tipCount":11,"visitsCount":2876,"url":"http://www.tonicthebar.com","tier":"","message":"","currency":"","rating":6.6},{"name":"Concrete Jungle","phone":"2103739907","address":"1628 S Presa St","lat":29.404318076156343,"lng":-98.48372937980992,"city_fetched":"San Antonio,US","state":"TX","country":"United States","canonicalUrl":"https://foursquare.com/v/concrete-jungle/54828680498e6510cbe73c4d","categoryId":"56aa371be4b08b9a8d57354d","category":"Tiki Bar","checkinsCount":117,"usersCount":140,"tipCount":1,"visitsCount":251,"tier":"","message":"","currency":"","rating":6.6},{"name":"Zona Bar & Bistro","address":"12066 Starcrest Dr","lat":29.551146162758602,"lng":-98.46510347283056,"neighborhood":"Northeast San Antonio","city_fetched":"San Antonio,US","state":"TX","country":"United States","canonicalUrl":"https://foursquare.com/v/zona-bar--bistro/4c85a3d92f1c236af6e65643","categoryId":"4bf58dd8d48988d116941735","category":"Bar","checkinsCount":646,"usersCount":266,"tipCount":10,"visitsCount":667,"tier":"","message":"","currency":"","rating":6.6},{"name":"The Park","address":"6565 Babcock Rd","lat":29.556393452055016,"lng":-98.61470651866041,"neighborhood":"Northwest Side","city_fetched":"San Antonio,US","state":"TX","country":"United States","canonicalUrl":"https://foursquare.com/v/the-park/4ecdc67b61af476c059b8e9e","categoryId":"4bf58dd8d48988d11d941735","category":"Sports Bar","checkinsCount":1388,"usersCount":412,"tipCount":4,"visitsCount":1453,"tier":1,"message":"Cheap","currency":"$","rating":6.6},{"name":"Dad's Karaoke","phone":"2103403887","address":"2615 Mossrock","lat":29.513373692076428,"lng":-98.53549992272268,"neighborhood":"Northwest Side","city_fetched":"San Antonio,US","state":"TX","country":"United States","canonicalUrl":"https://foursquare.com/v/dads-karaoke/4b50da4af964a5204c3527e3","categoryId":"4bf58dd8d48988d120941735","category":"Karaoke Bar","checkinsCount":1415,"usersCount":710,"tipCount":9,"visitsCount":1500,"tier":2,"message":"Moderate","currency":"$","rating":6.6},{"name":"Hooligan's Bar & Grill","phone":"2106544444","twitter":"hooliganssa","address":"13920 N Interstate 35","lat":29.565691439905155,"lng":-98.33423657511815,"city_fetched":"San Antonio,US","state":"TX","country":"United States","canonicalUrl":"https://foursquare.com/v/hooligans-bar--grill/4c17c2b350389c74ff60b3cf","categoryId":"4bf58dd8d48988d11b941735","category":"Pub","checkinsCount":2025,"usersCount":1034,"tipCount":25,"visitsCount":2231,"url":"http://hooligansbarandgrill.com","tier":"","message":"","currency":"","rating":6.5},{"name":"Shenanygans II","phone":"2102579726","address":"8827 State Highway 151 #106","lat":29.44469235485811,"lng":-98.66299954878377,"neighborhood":"Far West Side","city_fetched":"San Antonio,US","state":"TX","country":"United States","canonicalUrl":"https://foursquare.com/v/shenanygans-ii/534df1c3498e3b4805550c60","categoryId":"4bf58dd8d48988d121941735","category":"Lounge","checkinsCount":456,"usersCount":393,"tipCount":8,"visitsCount":878,"url":"http://shenanygans.com","tier":2,"message":"Moderate","currency":"$","rating":6.5},{"name":"Marquee","address":"19178 Blanco Rd Ste 201","lat":29.620605815851476,"lng":-98.51146779867263,"neighborhood":"Stone Oak","city_fetched":"San Antonio,US","state":"TX","country":"United States","canonicalUrl":"https://foursquare.com/v/marquee/51bbe7d6498e7e946106db77","categoryId":"4bf58dd8d48988d11f941735","category":"Nightclub","checkinsCount":172,"usersCount":123,"tipCount":2,"visitsCount":200,"url":"http://marqueesanantonio.com","tier":"","message":"","currency":"","rating":6.5},{"name":"Basement Bar and Lounge","phone":"2102240047","address":"244 Losoya St #B","lat":29.42424132057084,"lng":-98.48740580837985,"neighborhood":"Alamo Plaza","city_fetched":"San Antonio,US","state":"TX","country":"United States","canonicalUrl":"https://foursquare.com/v/basement-bar-and-lounge/4b12169ef964a520f68823e3","categoryId":"4bf58dd8d48988d116941735","category":"Bar","checkinsCount":1613,"usersCount":870,"tipCount":12,"visitsCount":1622,"tier":"","message":"","currency":"","rating":6.5},{"name":"Sir Winston's","phone":"2108295933","address":"2522 Nacodoches Rd.","lat":29.518452966466278,"lng":-98.4490265322985,"neighborhood":"Northeast San Antonio","city_fetched":"San Antonio,US","state":"TX","country":"United States","canonicalUrl":"https://foursquare.com/v/sir-winstons/4ba454c6f964a520859638e3","categoryId":"4bf58dd8d48988d118941735","category":"Dive Bar","checkinsCount":522,"usersCount":168,"tipCount":7,"visitsCount":573,"tier":"","message":"","currency":"","rating":6.5},{"name":"Deol Bar","phone":"21096962222","address":"6851 N Loop 1604 W","lat":29.588749992472536,"lng":-98.62399436471235,"neighborhood":"Northwest Side","city_fetched":"San Antonio,US","state":"TX","country":"United States","canonicalUrl":"https://foursquare.com/v/deol-bar/4deef8ba183822e7cf2e85ca","categoryId":"4bf58dd8d48988d11d941735","category":"Sports Bar","checkinsCount":1318,"usersCount":900,"tipCount":11,"visitsCount":2170,"tier":"","message":"","currency":"","rating":6.5},{"name":"The Ticket Sports Bar","phone":"2105662555","address":"2617 Pat Booker Rd","lat":29.556586404707975,"lng":-98.31874924874185,"city_fetched":"San Antonio,US","state":"TX","country":"United States","canonicalUrl":"https://foursquare.com/v/the-ticket-sports-bar/4c27eb0eed0ac9b674895faa","categoryId":"4bf58dd8d48988d11d941735","category":"Sports Bar","checkinsCount":2489,"usersCount":412,"tipCount":14,"visitsCount":2831,"tier":"","message":"","currency":"","rating":6.5},{"name":"The Hidden Tavern","phone":"2105410001","address":"11407 West Ave","lat":29.54392886,"lng":-98.512096,"city_fetched":"San Antonio,US","state":"TX","country":"United States","canonicalUrl":"https://foursquare.com/v/the-hidden-tavern/4b525036f964a520a07627e3","categoryId":"4bf58dd8d48988d116941735","category":"Bar","checkinsCount":521,"usersCount":264,"tipCount":5,"visitsCount":560,"tier":"","message":"","currency":"","rating":6.5},{"name":"I Don't Know Yet","phone":"2107335806","address":"1229 Babcock Rd","lat":29.48529598124489,"lng":-98.5600654044781,"neighborhood":"Northwest Side","city_fetched":"San Antonio,US","state":"TX","country":"United States","canonicalUrl":"https://foursquare.com/v/i-dont-know-yet/4bc123c0461576b0ca897b32","categoryId":"4bf58dd8d48988d116941735","category":"Bar","checkinsCount":584,"usersCount":232,"tipCount":7,"visitsCount":759,"tier":"","message":"","currency":"","rating":6.5},{"name":"Sideliners Grill","phone":"2104040121","twitter":"sasideliners","address":"15630 Henderson Pass","lat":29.585057484617007,"lng":-98.45157632719204,"neighborhood":"North Central Thousand Oaks","city_fetched":"San Antonio,US","state":"TX","country":"United States","canonicalUrl":"https://foursquare.com/v/sideliners-grill/4b83223cf964a520a7f930e3","categoryId":"4bf58dd8d48988d11d941735","category":"Sports Bar","checkinsCount":2585,"usersCount":1180,"tipCount":22,"visitsCount":3365,"url":"http://www.sasideliners.com","tier":2,"message":"Moderate","currency":"$","rating":6.4},{"name":"Fitzgerald's Bar & Live Music","phone":"2106295141","address":"437 McCarty Rd Ste 101","lat":29.529236537924238,"lng":-98.49912643432616,"city_fetched":"San Antonio,US","state":"TX","country":"United States","canonicalUrl":"https://foursquare.com/v/fitzgeralds-bar--live-music/50500633183fcefbbef602c8","categoryId":"4bf58dd8d48988d116941735","category":"Bar","checkinsCount":362,"usersCount":325,"tipCount":5,"visitsCount":539,"tier":1,"message":"Cheap","currency":"$","rating":6.4},{"name":"Sportsman's Bar","phone":"2102818629","twitter":"sportsmanbartx","address":"9204 FM 78","lat":29.527175368856103,"lng":-98.30593828315044,"city_fetched":"San Antonio,US","state":"TX","country":"United States","canonicalUrl":"https://foursquare.com/v/sportsmans-bar/51b25b66498efbbd03b44573","categoryId":"4bf58dd8d48988d11d941735","category":"Sports Bar","checkinsCount":74,"usersCount":24,"tipCount":5,"visitsCount":76,"url":"http://sportsmansbartx-hub.com","tier":"","message":"","currency":"","rating":6.4},{"name":"Mulligans Sports Pub","address":"19314 US Highway 281 N","lat":29.62180854067742,"lng":-98.46264965527396,"neighborhood":"Far North Central","city_fetched":"San Antonio,US","state":"TX","country":"United States","canonicalUrl":"https://foursquare.com/v/mulligans-sports-pub/4ba18021f964a52034bc37e3","categoryId":"4bf58dd8d48988d116941735","category":"Bar","checkinsCount":1006,"usersCount":445,"tipCount":6,"visitsCount":1006,"tier":"","message":"","currency":"","rating":6.4},{"name":"Bar 601","phone":"2102233101","address":"601 Tower Of The Americas Way","lat":29.419155427565453,"lng":-98.48374009799964,"neighborhood":"Hemisfair","city_fetched":"San Antonio,US","state":"TX","country":"United States","canonicalUrl":"https://foursquare.com/v/bar-601/4e599d341495a8911282420d","categoryId":"4bf58dd8d48988d116941735","category":"Bar","checkinsCount":535,"usersCount":267,"tipCount":11,"visitsCount":535,"tier":"","message":"","currency":"","rating":6.4},{"name":"Bottom Bracket Social Club","address":"1603 N Colorado St","lat":29.44273692329984,"lng":-98.50923299789429,"neighborhood":"West Side","city_fetched":"San Antonio,US","state":"TX","country":"United States","canonicalUrl":"https://foursquare.com/v/bottom-bracket-social-club/51b64d0c50198590ae76c60f","categoryId":"4bf58dd8d48988d116941735","category":"Bar","checkinsCount":638,"usersCount":378,"tipCount":5,"visitsCount":1021,"tier":"","message":"","currency":"","rating":6.4},{"name":"Billy D's Pub","phone":"2105660559","address":"1805 Pat Booker Rd","lat":29.552916661427915,"lng":-98.30833883390477,"city_fetched":"San Antonio,US","state":"TX","country":"United States","canonicalUrl":"https://foursquare.com/v/billy-ds-pub/4be3781d660ec9282852cc3b","categoryId":"4bf58dd8d48988d116941735","category":"Bar","checkinsCount":265,"usersCount":82,"tipCount":5,"visitsCount":269,"url":"http://www.myspace.com/realmenmusic","tier":"","message":"","currency":"","rating":6.4},{"name":"Safe House Drinkery","phone":"2105619743","address":"5450 Babcock Rd #140","lat":29.516780302016592,"lng":-98.59595711046893,"neighborhood":"Northwest Side","city_fetched":"San Antonio,US","state":"TX","country":"United States","canonicalUrl":"https://foursquare.com/v/safe-house-drinkery/4b9ad231f964a520fdd835e3","categoryId":"4bf58dd8d48988d116941735","category":"Bar","checkinsCount":1325,"usersCount":471,"tipCount":9,"visitsCount":1442,"tier":1,"message":"Cheap","currency":"$","rating":6.4},{"name":"Hemingway's Tavern","phone":"2108775410","address":"8931 Wurzbach Rd","lat":29.52576263468792,"lng":-98.56808040896875,"neighborhood":"Northwest Side","city_fetched":"San Antonio,US","state":"TX","country":"United States","canonicalUrl":"https://foursquare.com/v/hemingways-tavern/4bbfdd70abf49521fa7fbe93","categoryId":"4bf58dd8d48988d116941735","category":"Bar","checkinsCount":1209,"usersCount":353,"tipCount":7,"visitsCount":1243,"tier":"","message":"","currency":"","rating":6.4},{"name":"The Squeezebox","lat":29.451439,"lng":-98.485776,"neighborhood":"Tobin Hill","city_fetched":"San Antonio,US","state":"TX","country":"United States","canonicalUrl":"https://foursquare.com/v/the-squeezebox/577731ff498e8006a3b31ec8","categoryId":"4bf58dd8d48988d118941735","category":"Dive Bar","checkinsCount":47,"usersCount":46,"tipCount":1,"visitsCount":65,"tier":"","message":"","currency":"","rating":6.4},{"name":"Liquid Monkey Lounge","phone":"2102124980","address":"248 Losoya St","lat":29.424066421303802,"lng":-98.48790958954211,"city_fetched":"San Antonio,US","state":"TX","country":"United States","canonicalUrl":"https://foursquare.com/v/liquid-monkey-lounge/4aebc854f964a520c6c421e3","categoryId":"4bf58dd8d48988d116941735","category":"Bar","checkinsCount":1301,"usersCount":796,"tipCount":7,"visitsCount":1309,"tier":1,"message":"Cheap","currency":"$","rating":6.4},{"name":"WXYZ Bar at Aloft","address":"838 NW Loop 410","lat":29.518746965519885,"lng":-98.505994347963,"city_fetched":"San Antonio,US","state":"TX","country":"United States","canonicalUrl":"https://foursquare.com/v/wxyz-bar-at-aloft/4f4826abe4b01d17b9705f7b","categoryId":"4bf58dd8d48988d116941735","category":"Bar","checkinsCount":283,"usersCount":187,"tipCount":3,"visitsCount":285,"tier":"","message":"","currency":"","rating":6.3},{"name":"Coco Beach","phone":"2103415330","address":"12159 Valliant St","lat":29.552776080379992,"lng":-98.4972033484709,"neighborhood":"Northeast San Antonio","city_fetched":"San Antonio,US","state":"TX","country":"United States","canonicalUrl":"https://foursquare.com/v/coco-beach/4b9833ddf964a520d13335e3","categoryId":"4bf58dd8d48988d118941735","category":"Dive Bar","checkinsCount":967,"usersCount":422,"tipCount":10,"visitsCount":1230,"tier":"","message":"","currency":"","rating":6.3},{"name":"Nola Tropical Winery","lat":29.424241345899706,"lng":-98.48579801869957,"neighborhood":"Downtown San Antonio","city_fetched":"San Antonio,US","state":"TX","country":"United States","canonicalUrl":"https://foursquare.com/v/nola-tropical-winery/4ec96e1899115348db4b85fa","categoryId":"4bf58dd8d48988d123941735","category":"Wine Bar","checkinsCount":187,"usersCount":163,"tipCount":7,"visitsCount":187,"tier":"","message":"","currency":"","rating":6.3},{"name":"Greenhouse Rooftop","phone":"2103930511","address":"4553 N Loop 1604 W","lat":29.59625933660708,"lng":-98.5736871236033,"neighborhood":"Northwest Side","city_fetched":"San Antonio,US","state":"TX","country":"United States","canonicalUrl":"https://foursquare.com/v/greenhouse-rooftop/51eb5de0498eaa6b54e8f3b0","categoryId":"4bf58dd8d48988d11f941735","category":"Nightclub","checkinsCount":257,"usersCount":161,"tipCount":5,"visitsCount":271,"tier":1,"message":"Cheap","currency":"$","rating":6.3},{"name":"New York Bar","phone":"2105455558","address":"2838 N Loop 1604 E","lat":29.601649200766374,"lng":-98.4434665657152,"neighborhood":"Far North Central","city_fetched":"San Antonio,US","state":"TX","country":"United States","canonicalUrl":"https://foursquare.com/v/new-york-bar/4afa3eedf964a520851722e3","categoryId":"4bf58dd8d48988d121941735","category":"Lounge","checkinsCount":1832,"usersCount":722,"tipCount":11,"visitsCount":1925,"tier":1,"message":"Cheap","currency":"$","rating":6.3},{"name":"Vegas Bar","phone":"2106915552","address":"8826 Huebner Rd","lat":29.52379481035163,"lng":-98.59919350929718,"neighborhood":"Northwest Side","city_fetched":"San Antonio,US","state":"TX","country":"United States","canonicalUrl":"https://foursquare.com/v/vegas-bar/4ba422dbf964a520238538e3","categoryId":"4bf58dd8d48988d116941735","category":"Bar","checkinsCount":1974,"usersCount":883,"tipCount":14,"visitsCount":2137,"tier":1,"message":"Cheap","currency":"$","rating":6.3},{"name":"Coyote Ugly Saloon - San Antonio","phone":"2104658459","address":"409 E Commerce St","lat":29.42425755355556,"lng":-98.48850984383697,"city_fetched":"San Antonio,US","state":"TX","country":"United States","canonicalUrl":"https://foursquare.com/v/coyote-ugly-saloon--san-antonio/4ae228a4f964a5204f8b21e3","categoryId":"4bf58dd8d48988d116941735","category":"Bar","checkinsCount":4178,"usersCount":3438,"tipCount":37,"visitsCount":4217,"url":"http://www.coyoteuglysaloon.com","tier":2,"message":"Moderate","currency":"$","rating":6.3},{"name":"Dick's Last Resort","phone":"2102240026","twitter":"dicksez","address":"406 Navarro St","lat":29.42536718807655,"lng":-98.48956030036345,"city_fetched":"San Antonio,US","state":"TX","country":"United States","canonicalUrl":"https://foursquare.com/v/dicks-last-resort/4ad4bffdf964a5208dea20e3","categoryId":"4bf58dd8d48988d116941735","category":"Bar","checkinsCount":5737,"usersCount":4246,"tipCount":72,"visitsCount":5751,"url":"http://dickslastresort.com","tier":2,"message":"Moderate","currency":"$","rating":6.3},{"name":"Afterburner","phone":"2106733700","twitter":"afterburnerstx","address":"6515 W Military Dr","lat":29.400920430507295,"lng":-98.62811788674661,"neighborhood":"Far West Side","city_fetched":"San Antonio,US","state":"TX","country":"United States","canonicalUrl":"https://foursquare.com/v/afterburner/4c96d0c994a0236a8361a212","categoryId":"4bf58dd8d48988d116941735","category":"Bar","checkinsCount":1157,"usersCount":154,"tipCount":9,"visitsCount":1217,"url":"http://www.afterburnersbar.com","tier":"","message":"","currency":"","rating":6.3},{"name":"Agave Room","address":"521","lat":29.425086331063877,"lng":-98.49114137224117,"city_fetched":"San Antonio,US","state":"TX","country":"United States","canonicalUrl":"https://foursquare.com/v/agave-room/4c5e0e676147be9aef079409","categoryId":"4bf58dd8d48988d121941735","category":"Lounge","checkinsCount":129,"usersCount":108,"tipCount":5,"visitsCount":129,"tier":"","message":"","currency":"","rating":6.2},{"name":"Me and C.A. Karaoke Bar","phone":"2105906322","address":"8373 Perrin Beitel Rd","lat":29.514541855734027,"lng":-98.4111499786377,"neighborhood":"Northeast San Antonio","city_fetched":"San Antonio,US","state":"TX","country":"United States","canonicalUrl":"https://foursquare.com/v/me-and-ca-karaoke-bar/4b497b00f964a520637026e3","categoryId":"4bf58dd8d48988d120941735","category":"Karaoke Bar","checkinsCount":839,"usersCount":414,"tipCount":15,"visitsCount":961,"url":"http://meandca.com","tier":"","message":"","currency":"","rating":6.2},{"name":"Sugar's","phone":"2103401289","address":"2731 NW Loop 410","lat":29.510964076197283,"lng":-98.53885709256755,"neighborhood":"Northwest Side","city_fetched":"San Antonio,US","state":"TX","country":"United States","canonicalUrl":"https://foursquare.com/v/sugars/4ad4bffef964a520c4ea20e3","categoryId":"4bf58dd8d48988d116941735","category":"Bar","checkinsCount":1552,"usersCount":721,"tipCount":14,"visitsCount":1671,"url":"http://www.sugarsperfect.com/SSA/","tier":2,"message":"Moderate","currency":"$","rating":6.2},{"name":"Sparks","address":"8011 Webbles Dr","lat":29.509179809562053,"lng":-98.40015259332348,"neighborhood":"Northeast San Antonio","city_fetched":"San Antonio,US","state":"TX","country":"United States","canonicalUrl":"https://foursquare.com/v/sparks/4bdfad546198c9b62c2218ff","categoryId":"4bf58dd8d48988d1d8941735","category":"Gay Bar","checkinsCount":329,"usersCount":72,"tipCount":11,"visitsCount":347,"tier":"","message":"","currency":"","rating":6.2},{"name":"Claude Hopper's","phone":"2103620678","twitter":"claudehopperssa","address":"19178 Blanco Rd","lat":29.620648648511512,"lng":-98.51153749257321,"neighborhood":"Stone Oak","city_fetched":"San Antonio,US","state":"TX","country":"United States","canonicalUrl":"https://foursquare.com/v/claude-hoppers/538b8888498ef00115eb3025","categoryId":"4bf58dd8d48988d117941735","category":"Beer Garden","checkinsCount":122,"usersCount":98,"tipCount":4,"visitsCount":163,"tier":"","message":"","currency":"","rating":6.2},{"name":"The Bar At Marriott Rivercenter","lat":29.42316141874564,"lng":-98.48408843999682,"neighborhood":"Downtown San Antonio","city_fetched":"San Antonio,US","state":"TX","country":"United States","canonicalUrl":"https://foursquare.com/v/the-bar-at-marriott-rivercenter/4f330dcde4b001a09855be43","categoryId":"4bf58dd8d48988d1d5941735","category":"Hotel Bar","checkinsCount":845,"usersCount":399,"tipCount":4,"visitsCount":846,"tier":"","message":"","currency":"","rating":6.2},{"name":"Chicago Bar","phone":"2104945558","address":"19141 Stone Oak Pkwy","lat":29.62488903951541,"lng":-98.49590622678761,"neighborhood":"Stone Oak","city_fetched":"San Antonio,US","state":"TX","country":"United States","canonicalUrl":"https://foursquare.com/v/chicago-bar/4ad7ffa8f964a5207c1021e3","categoryId":"4bf58dd8d48988d116941735","category":"Bar","checkinsCount":2200,"usersCount":1028,"tipCount":11,"visitsCount":2239,"tier":"","message":"","currency":"","rating":6.1},{"name":"Boneheadz Sports Pub","phone":"2105939878","address":"9503 Console Dr","lat":29.527920979111066,"lng":-98.56058039938021,"neighborhood":"Northwest Side","city_fetched":"San Antonio,US","state":"TX","country":"United States","canonicalUrl":"https://foursquare.com/v/boneheadz-sports-pub/4b6e4bc1f964a520d4b62ce3","categoryId":"4bf58dd8d48988d116941735","category":"Bar","checkinsCount":1115,"usersCount":507,"tipCount":6,"visitsCount":1174,"tier":"","message":"","currency":"","rating":6.1},{"name":"Roxys Sports Bar","address":"942 Kitty Hawk Rd","lat":29.547110577970038,"lng":-98.3153110301966,"city_fetched":"San Antonio,US","state":"TX","country":"United States","canonicalUrl":"https://foursquare.com/v/roxys-sports-bar/4d980b45af3d236a33ee33c7","categoryId":"4bf58dd8d48988d11d941735","category":"Sports Bar","checkinsCount":543,"usersCount":157,"tipCount":8,"visitsCount":608,"tier":"","message":"","currency":"","rating":6.1},{"name":"The Saint Showbar","phone":"2102257330","twitter":"thesaintshowbar","address":"800 Lexington Ave","lat":29.43792690666319,"lng":-98.49348356342851,"neighborhood":"Tobin Hill","city_fetched":"San Antonio,US","state":"TX","country":"United States","canonicalUrl":"https://foursquare.com/thesaintshowbar","categoryId":"4bf58dd8d48988d1d8941735","category":"Gay Bar","checkinsCount":3928,"usersCount":1253,"tipCount":19,"visitsCount":4036,"url":"http://www.thesaintshowbar.com","tier":"","message":"","currency":"","rating":6.1},{"name":"My House Lounge","phone":"2106846222","address":"8075 Culebra Rd","lat":29.466442732090364,"lng":-98.64619850968045,"neighborhood":"Pipers Meadow","city_fetched":"San Antonio,US","state":"TX","country":"United States","canonicalUrl":"https://foursquare.com/v/my-house-lounge/4cfdd020d8468cfad666026c","categoryId":"4bf58dd8d48988d116941735","category":"Bar","checkinsCount":528,"usersCount":80,"tipCount":10,"visitsCount":538,"tier":"","message":"","currency":"","rating":6.1},{"name":"Miami Bar","phone":"2105410220","address":"602 NW Loop 410 Ste 144","lat":29.519259511210137,"lng":-98.50248456001282,"city_fetched":"San Antonio,US","state":"TX","country":"United States","canonicalUrl":"https://foursquare.com/v/miami-bar/4f234433a17cdae4c9d006d8","categoryId":"4bf58dd8d48988d116941735","category":"Bar","checkinsCount":1718,"usersCount":742,"tipCount":10,"visitsCount":1844,"tier":1,"message":"Cheap","currency":"$","rating":6.1},{"name":"The Ticket","phone":"2102229722","address":"420 E Houston St","lat":29.42638435848517,"lng":-98.48800069926108,"neighborhood":"Alamo Plaza","city_fetched":"San Antonio,US","state":"TX","country":"United States","canonicalUrl":"https://foursquare.com/v/the-ticket/4aee3b35f964a5201fd321e3","categoryId":"4bf58dd8d48988d11d941735","category":"Sports Bar","checkinsCount":2606,"usersCount":1727,"tipCount":29,"visitsCount":2801,"url":"http://ticketsportspub.com","tier":"","message":"","currency":"","rating":6},{"name":"Hardbodies","phone":"92107364865","address":"2726 N Saint Marys St","lat":29.450892,"lng":-98.48617672920227,"neighborhood":"Tobin Hill","city_fetched":"San Antonio,US","state":"TX","country":"United States","canonicalUrl":"https://foursquare.com/v/hardbodies/4c04848047049c746d09ae4d","categoryId":"4bf58dd8d48988d1d6941735","category":"Strip Club","checkinsCount":205,"usersCount":173,"tipCount":10,"visitsCount":208,"url":"http://hardbodiesclub.com","tier":"","message":"","currency":"","rating":6},{"name":"The Amp Room","address":"2407 N Saint Marys St","lat":29.448496538591364,"lng":-98.48807037147347,"neighborhood":"Tobin Hill","city_fetched":"San Antonio,US","state":"TX","country":"United States","canonicalUrl":"https://foursquare.com/v/the-amp-room/51e2e3cb8bbd01c33a539ded","categoryId":"4bf58dd8d48988d116941735","category":"Bar","checkinsCount":441,"usersCount":203,"tipCount":5,"visitsCount":455,"tier":"","message":"","currency":"","rating":6},{"name":"Leaping Lizard Pub","phone":"2102719494","address":"302 E Commerce St","lat":29.424053551200817,"lng":-98.48960317645121,"city_fetched":"San Antonio,US","state":"TX","country":"United States","canonicalUrl":"https://foursquare.com/v/leaping-lizard-pub/4ad9146cf964a520e61721e3","categoryId":"4bf58dd8d48988d116941735","category":"Bar","checkinsCount":3128,"usersCount":1259,"tipCount":11,"visitsCount":3154,"tier":1,"message":"Cheap","currency":"$","rating":6},{"name":"Sporting News Bar & Grill","phone":"2105202850","address":"10135 State Highway 151","lat":29.44828024912662,"lng":-98.67966458048501,"neighborhood":"Far West Side","city_fetched":"San Antonio,US","state":"TX","country":"United States","canonicalUrl":"https://foursquare.com/v/sporting-news-bar--grill/4ba40bedf964a5206d7b38e3","categoryId":"4bf58dd8d48988d116941735","category":"Bar","checkinsCount":902,"usersCount":321,"tipCount":12,"visitsCount":971,"url":"http://www.sportingnewsgrillsa.com","tier":"","message":"","currency":"","rating":6},{"name":"Baker Street Pub","phone":"2105617757","address":"4326 Gardendale St","lat":29.525404275965148,"lng":-98.56861691876149,"neighborhood":"Northwest Side","city_fetched":"San Antonio,US","state":"TX","country":"United States","canonicalUrl":"https://foursquare.com/v/baker-street-pub/4b74caecf964a52054f22de3","categoryId":"4bf58dd8d48988d11b941735","category":"Pub","checkinsCount":1726,"usersCount":576,"tipCount":7,"visitsCount":1824,"tier":1,"message":"Cheap","currency":"$","rating":5.9},{"name":"Shennanigans","address":"4032 Vance Jackson Rd","lat":29.510741307532278,"lng":-98.53481349100387,"city_fetched":"San Antonio,US","state":"TX","country":"United States","canonicalUrl":"https://foursquare.com/v/shennanigans/5115e748e4b06e75d90d3fdc","categoryId":"4bf58dd8d48988d116941735","category":"Bar","checkinsCount":118,"usersCount":82,"tipCount":3,"visitsCount":166,"tier":"","message":"","currency":"","rating":5.9},{"name":"Gypsy Cafe and Hookah Bar","phone":"2104941314","address":"2813 Thousand Oaks Dr","lat":29.579363500829444,"lng":-98.4426498413086,"neighborhood":"Far North Central","city_fetched":"San Antonio,US","state":"TX","country":"United States","canonicalUrl":"https://foursquare.com/v/gypsy-cafe-and-hookah-bar/4b2adc62f964a52010b124e3","categoryId":"4bf58dd8d48988d119941735","category":"Hookah Bar","checkinsCount":846,"usersCount":489,"tipCount":17,"visitsCount":917,"url":"http://gypsycafe-sa.com","tier":"","message":"","currency":"","rating":5.9},{"name":"Tiffany's Cocktails","lat":29.38139558,"lng":-98.63794684410095,"neighborhood":"Far West Side","city_fetched":"San Antonio,US","state":"TX","country":"United States","canonicalUrl":"https://foursquare.com/v/tiffanys-cocktails/4c47d25676d72d7f048d3e4d","categoryId":"4bf58dd8d48988d118941735","category":"Dive Bar","checkinsCount":307,"usersCount":97,"tipCount":3,"visitsCount":312,"tier":"","message":"","currency":"","rating":5.9},{"name":"Nektar Lounge","phone":"2108335370","twitter":"nektarlounge","address":"19239 Stone Oak Pkwy Ste 110","lat":29.628823870141357,"lng":-98.4962010252101,"neighborhood":"Stone Oak","city_fetched":"San Antonio,US","state":"TX","country":"United States","canonicalUrl":"https://foursquare.com/v/nektar-lounge/4fe652e8e4b0a0c3b0541e35","categoryId":"4bf58dd8d48988d11f941735","category":"Nightclub","checkinsCount":723,"usersCount":420,"tipCount":11,"visitsCount":789,"url":"http://www.nektarlounge.com","tier":"","message":"","currency":"","rating":5.9},{"name":"Crazy J's Sports Bar","phone":"2106885915","address":"126 Gembler Rd","lat":29.435274,"lng":-98.43316555023193,"city_fetched":"San Antonio,US","state":"TX","country":"United States","canonicalUrl":"https://foursquare.com/v/crazy-js-sports-bar/4baeba8df964a520cbd23be3","categoryId":"4bf58dd8d48988d11d941735","category":"Sports Bar","checkinsCount":147,"usersCount":124,"tipCount":4,"visitsCount":204,"tier":"","message":"","currency":"","rating":5.9},{"name":"Ivory Lounge","phone":"2103404879","address":"5152 Fredericksburg Rd Ste 150","lat":29.50232893143542,"lng":-98.55914271402713,"neighborhood":"Northwest Side","city_fetched":"San Antonio,US","state":"TX","country":"United States","canonicalUrl":"https://foursquare.com/v/ivory-lounge/4ea87f7bc2eea8b0cef8ba38","categoryId":"4bf58dd8d48988d11f941735","category":"Nightclub","checkinsCount":400,"usersCount":281,"tipCount":10,"visitsCount":431,"url":"http://ivoryloungesa.com","tier":"","message":"","currency":"","rating":5.9},{"name":"Bikinis Sports Bar & Grill","phone":"2105934300","twitter":"bikinissbg","address":"8224 Fredericksburg Rd","lat":29.51603569469313,"lng":-98.57143878936768,"neighborhood":"Northwest Side","city_fetched":"San Antonio,US","state":"TX","country":"United States","canonicalUrl":"https://foursquare.com/v/bikinis-sports-bar--grill/4afdc690f964a520bc2a22e3","categoryId":"4bf58dd8d48988d11d941735","category":"Sports Bar","checkinsCount":1424,"usersCount":743,"tipCount":15,"visitsCount":1484,"url":"http://www.bikinissportsbarandgrill.com","tier":"","message":"","currency":"","rating":5.8},{"name":"Bar Rojo","phone":"2102241234","twitter":"grandhyattsa","address":"600 E Market St","lat":29.42196958424955,"lng":-98.48444938659668,"neighborhood":"Hemisfair","city_fetched":"San Antonio,US","state":"TX","country":"United States","canonicalUrl":"https://foursquare.com/v/bar-rojo/4bd0d27ccaff95214ea3cff0","categoryId":"4bf58dd8d48988d1d5941735","category":"Hotel Bar","checkinsCount":2305,"usersCount":1445,"tipCount":31,"visitsCount":2318,"url":"http://www.barrojosa.com","tier":"","message":"","currency":"","rating":5.8},{"name":"Bombay Ranch","phone":"2106991077","address":"8811 Fredericksburg Rd","lat":29.525157635234233,"lng":-98.57496948304122,"neighborhood":"Northwest Side","city_fetched":"San Antonio,US","state":"TX","country":"United States","canonicalUrl":"https://foursquare.com/v/bombay-ranch/4ced299d4cd4236a416da663","categoryId":"4bf58dd8d48988d116941735","category":"Bar","checkinsCount":1675,"usersCount":615,"tipCount":18,"visitsCount":1825,"tier":"","message":"","currency":"","rating":5.7},{"name":"The Old San Juan Restaurant & Discotek","address":"2668 Austin Hwy","lat":29.511135264713843,"lng":-98.40611086015645,"neighborhood":"Northeast San Antonio","city_fetched":"San Antonio,US","state":"TX","country":"United States","canonicalUrl":"https://foursquare.com/v/the-old-san-juan-restaurant--discotek/4bbfd6e174a9a593ed40cff6","categoryId":"4bf58dd8d48988d11f941735","category":"Nightclub","checkinsCount":169,"usersCount":124,"tipCount":9,"visitsCount":169,"tier":"","message":"","currency":"","rating":5.7},{"name":"Brews Brothers Icehouse","address":"7403 Leslie Rd","lat":29.508154090798104,"lng":-98.69888597735357,"city_fetched":"San Antonio,US","state":"TX","country":"United States","canonicalUrl":"https://foursquare.com/v/brews-brothers-icehouse/55724183498e2a6baefb3e06","categoryId":"4bf58dd8d48988d116941735","category":"Bar","checkinsCount":109,"usersCount":279,"tipCount":0,"visitsCount":552,"tier":"","message":"","currency":"","rating":5.7},{"name":"Crazy Sam's","phone":"2102127299","address":"126 Losoya St","lat":29.42557913,"lng":-98.48779123,"neighborhood":"Alamo Plaza","city_fetched":"San Antonio,US","state":"TX","country":"United States","canonicalUrl":"https://foursquare.com/v/crazy-sams/4bb268b914cfd13aa2e514ab","categoryId":"4bf58dd8d48988d11d941735","category":"Sports Bar","checkinsCount":342,"usersCount":321,"tipCount":12,"visitsCount":342,"tier":"","message":"","currency":"","rating":5.7},{"name":"Studio 13 Hookah Bar","phone":"2103901402","address":"7201-7223 Farm-To-Market Road 2696","lat":29.524056315422058,"lng":-98.504162,"city_fetched":"San Antonio,US","state":"TX","country":"United States","canonicalUrl":"https://foursquare.com/v/studio-13-hookah-bar/4c81cc7fd92ea093dffb4472","categoryId":"4bf58dd8d48988d119941735","category":"Hookah Bar","checkinsCount":302,"usersCount":171,"tipCount":7,"visitsCount":302,"tier":"","message":"","currency":"","rating":5.7},{"name":"Maroc","lat":29.562015902538455,"lng":-98.48484407971517,"neighborhood":"Northeast San Antonio","city_fetched":"San Antonio,US","state":"TX","country":"United States","canonicalUrl":"https://foursquare.com/v/maroc/4bf76af35ec320a17a1687d3","categoryId":"4bf58dd8d48988d11f941735","category":"Nightclub","checkinsCount":645,"usersCount":295,"tipCount":1,"visitsCount":682,"tier":"","message":"","currency":"","rating":5.7},{"name":"Mission City Ice House","address":"San Antonio International Airport","lat":29.527234441677635,"lng":-98.4704292825993,"neighborhood":"Northeast San Antonio","city_fetched":"San Antonio,US","state":"TX","country":"United States","canonicalUrl":"https://foursquare.com/v/mission-city-ice-house/51b9fb58498ef440a47b2c09","categoryId":"4bf58dd8d48988d11b941735","category":"Pub","checkinsCount":97,"usersCount":83,"tipCount":3,"visitsCount":97,"tier":"","message":"","currency":"","rating":5.6},{"name":"Stone Street Pub","phone":"2104790800","address":"16353 Huebner Rd","lat":29.592369604694234,"lng":-98.5289254498513,"neighborhood":"Far North Central","city_fetched":"San Antonio,US","state":"TX","country":"United States","canonicalUrl":"https://foursquare.com/v/stone-street-pub/4c832a6e74d7b60c6bef87d8","categoryId":"4bf58dd8d48988d121941735","category":"Lounge","checkinsCount":1884,"usersCount":810,"tipCount":18,"visitsCount":2147,"tier":2,"message":"Moderate","currency":"$","rating":5.6},{"name":"The Mine Shaft","phone":"2108281470","address":"902 NE Loop 410","lat":29.51575560156785,"lng":-98.46095860004425,"neighborhood":"Oak Park - Northwood","city_fetched":"San Antonio,US","state":"TX","country":"United States","canonicalUrl":"https://foursquare.com/v/the-mine-shaft/4b875996f964a5209dbc31e3","categoryId":"4bf58dd8d48988d118941735","category":"Dive Bar","checkinsCount":973,"usersCount":453,"tipCount":9,"visitsCount":1006,"tier":"","message":"","currency":"","rating":5.6},{"name":"Kremlin (on the Riverwalk)","address":"212 College St","lat":29.425364,"lng":-98.489107,"city_fetched":"San Antonio,US","state":"TX","country":"United States","canonicalUrl":"https://foursquare.com/v/kremlin-on-the-riverwalk/4b6e463bf964a520a6b52ce3","categoryId":"4bf58dd8d48988d11f941735","category":"Nightclub","checkinsCount":1062,"usersCount":774,"tipCount":9,"visitsCount":1096,"tier":"","message":"","currency":"","rating":5.6},{"name":"Grand Agave Night Club","phone":"2104020045","address":"18615 Tuscany Stone","lat":29.61096652,"lng":-98.48891,"neighborhood":"Stone Oak","city_fetched":"San Antonio,US","state":"TX","country":"United States","canonicalUrl":"https://foursquare.com/v/grand-agave-night-club/4d5726509e508cfaee1e189b","categoryId":"4bf58dd8d48988d11f941735","category":"Nightclub","checkinsCount":957,"usersCount":708,"tipCount":11,"visitsCount":1208,"tier":"","message":"","currency":"","rating":5.6},{"name":"XTC Cabaret","phone":"2108223104","twitter":"xtccabaret","address":"2023 Sable Ln","lat":29.520420334764605,"lng":-98.46246749734006,"neighborhood":"Northeast San Antonio","city_fetched":"San Antonio,US","state":"TX","country":"United States","canonicalUrl":"https://foursquare.com/v/xtc-cabaret/4cb3883e1463a1438c1ab5a9","categoryId":"4bf58dd8d48988d1d6941735","category":"Strip Club","checkinsCount":1145,"usersCount":230,"tipCount":6,"visitsCount":1199,"url":"http://xtccabaret.com","tier":"","message":"","currency":"","rating":5.4},{"name":"Cascabel Restaurant","phone":"2103214860","twitter":"cascabelbar","address":"37 NE Loop 410","lat":29.521391308265766,"lng":-98.49062685029303,"city_fetched":"San Antonio,US","state":"TX","country":"United States","canonicalUrl":"https://foursquare.com/v/cascabel-restaurant/4c69260b8d22c928e164b645","categoryId":"4bf58dd8d48988d116941735","category":"Bar","checkinsCount":186,"usersCount":97,"tipCount":3,"visitsCount":187,"tier":"","message":"","currency":"","rating":5.3},{"name":"Garden","phone":"2102908484","lat":29.61082049659185,"lng":-98.50680917541236,"neighborhood":"Stone Oak","city_fetched":"San Antonio,US","state":"TX","country":"United States","canonicalUrl":"https://foursquare.com/v/garden/51cf9640498ea1f46dbd4234","categoryId":"4bf58dd8d48988d11e941735","category":"Cocktail Bar","checkinsCount":354,"usersCount":229,"tipCount":3,"visitsCount":468,"url":"http://gardenbistrobar.com","tier":2,"message":"Moderate","currency":"$","rating":5.3},{"name":"Boston Pub","phone":"2105583110","address":"8202 N Loop 1604 W","lat":29.572193399822936,"lng":-98.6472726344432,"neighborhood":"Northwest Side","city_fetched":"San Antonio,US","state":"TX","country":"United States","canonicalUrl":"https://foursquare.com/v/boston-pub/4b1c683ff964a520070724e3","categoryId":"4bf58dd8d48988d11b941735","category":"Pub","checkinsCount":2758,"usersCount":1124,"tipCount":28,"visitsCount":2827,"tier":1,"message":"Cheap","currency":"$","rating":5.2},{"name":"Sinatra's Mixology, Coffee, & Desserts","address":"1846 N Loop 1604 W #109","lat":29.60701024673612,"lng":-98.5214400414571,"neighborhood":"Far North Central","city_fetched":"San Antonio,US","state":"TX","country":"United States","canonicalUrl":"https://foursquare.com/v/sinatras-mixology-coffee--desserts/5295589811d201cca150dd9e","categoryId":"4bf58dd8d48988d116941735","category":"Bar","checkinsCount":176,"usersCount":106,"tipCount":8,"visitsCount":179,"url":"http://www.sinatras-sa.com","tier":"","message":"","currency":"","rating":5.2},{"name":"Nexus Martini Bar And Lounge","lat":29.596177619966742,"lng":-98.57356908323757,"neighborhood":"Northwest Side","city_fetched":"San Antonio,US","state":"TX","country":"United States","canonicalUrl":"https://foursquare.com/v/nexus-martini-bar-and-lounge/518f19cd498e9443a4a7defc","categoryId":"4bf58dd8d48988d121941735","category":"Lounge","checkinsCount":202,"usersCount":123,"tipCount":5,"visitsCount":220,"tier":"","message":"","currency":"","rating":5},{"name":"Alamo City Microbrewery & Grill","phone":"2109309100","address":"Terminal A","lat":29.5253296785519,"lng":-98.4723150730133,"neighborhood":"Northeast San Antonio","city_fetched":"San Antonio,US","state":"TX","country":"United States","canonicalUrl":"https://foursquare.com/v/alamo-city-microbrewery--grill/4c41d59bcc410f47aac1ab61","categoryId":"50327c8591d4c4b30a586d5d","category":"Brewery","checkinsCount":352,"usersCount":282,"tipCount":11,"visitsCount":352,"tier":"","message":"","currency":"","rating":4.8},{"name":"flying tiger sports bar","lat":29.35330626703495,"lng":-98.45103529204451,"city_fetched":"San Antonio,US","state":"TX","country":"United States","canonicalUrl":"https://foursquare.com/v/flying-tiger-sports-bar/4f7398cfe4b05ea2818fc521","categoryId":"4bf58dd8d48988d11d941735","category":"Sports Bar","checkinsCount":676,"usersCount":311,"tipCount":17,"visitsCount":698,"tier":1,"message":"Cheap","currency":"$","rating":4.7}]