[{"name":"Zero One Ale House","phone":"3256535123","twitter":"zeroonealehouse","address":"20 W Beauregard Ave","lat":31.462445466924354,"lng":-100.43768868565809,"city_fetched":"San Angelo","state":"TX","country":"United States","canonicalUrl":"https://foursquare.com/v/zero-one-ale-house/4f91a5cfe4b0c93d7f916f72","category":"Brewery","checkinsCount":677,"usersCount":535,"tipCount":21,"visitsCount":1104,"url":"http://www.zeroonealehousesanangelo.com","tier":2,"message":"Moderate","currency":"$","rating":8.7},{"name":"The Deadhorse","phone":"3257638335","address":"210 S Chadbourne St","lat":31.4609383,"lng":-100.4357355,"city_fetched":"San Angelo","state":"TX","country":"United States","canonicalUrl":"https://foursquare.com/v/the-deadhorse/4b9ffb41f964a520a94f37e3","category":"Bar","checkinsCount":1393,"usersCount":422,"tipCount":12,"visitsCount":1528,"url":"http://thedeadhorse.net","tier":2,"message":"Moderate","currency":"$","rating":8.1},{"name":"Blaine's Pub","phone":"3256537074","address":"10 W Harris Ave","lat":31.4638551,"lng":-100.437834,"city_fetched":"San Angelo","state":"TX","country":"United States","canonicalUrl":"https://foursquare.com/v/blaines-pub/4bd341499854d13ac04dfd4d","category":"Bar","checkinsCount":358,"usersCount":212,"tipCount":6,"visitsCount":485,"url":"http://www.blainespub.com","tier":"","message":"","currency":"","rating":7.8},{"name":"Woofers and Tweeters","phone":"3259475800","address":"3520 Knickerbocker Rd","lat":31.42002712620587,"lng":-100.4715590965167,"city_fetched":"San Angelo","state":"TX","country":"United States","canonicalUrl":"https://foursquare.com/v/woofers-and-tweeters/4bf6bb69c07c9c74b77dbbef","category":"Karaoke Bar","checkinsCount":628,"usersCount":149,"tipCount":4,"visitsCount":640,"tier":"","message":"","currency":"","rating":7.7},{"name":"Shenanigans","address":"The Commons Shoping Center","lat":31.44674865501511,"lng":-100.48005200008228,"city_fetched":"San Angelo","state":"TX","country":"United States","canonicalUrl":"https://foursquare.com/v/shenanigans/4ba99a38f964a52099303ae3","category":"Sports Bar","checkinsCount":942,"usersCount":285,"tipCount":1,"visitsCount":1225,"tier":"","message":"","currency":"","rating":7.2},{"name":"The House Of Fifi DuBois","phone":"3256583434","address":"105 S Chadbourne St","lat":31.461580661369627,"lng":-100.43647044202844,"city_fetched":"San Angelo","state":"TX","country":"United States","canonicalUrl":"https://foursquare.com/v/the-house-of-fifi-dubois/4d3270f7329e548106e8b01d","category":"Lounge","checkinsCount":387,"usersCount":230,"tipCount":6,"visitsCount":405,"url":"http://fifidubois.com","tier":"","message":"","currency":"","rating":7.2},{"name":"Fat Boss'","phone":"3256174532","address":"114 S Chadbourne St","lat":31.46187722682953,"lng":-100.436269,"city_fetched":"San Angelo","state":"TX","country":"United States","canonicalUrl":"https://foursquare.com/v/fat-boss/4bc15223b492d13a54ffa560","category":"Bar","checkinsCount":1131,"usersCount":278,"tipCount":4,"visitsCount":1183,"url":"http://fatbosspub.com","tier":"","message":"","currency":"","rating":6.9},{"name":"Fiddlestrings Sports Bar","phone":"3259429178","twitter":"fiddlestringstx","address":"3301 Arden Rd","lat":31.445835965977835,"lng":-100.48245906829834,"city_fetched":"San Angelo","state":"TX","country":"United States","canonicalUrl":"https://foursquare.com/v/fiddlestrings-sports-bar/4b8291c9f964a520c4d830e3","category":"Sports Bar","checkinsCount":545,"usersCount":301,"tipCount":8,"visitsCount":774,"url":"http://www.fiddlestringssanangelo.com","tier":"","message":"","currency":"","rating":6.8},{"name":"Sealy Flats","lat":31.461461,"lng":-100.434004,"city_fetched":"San Angelo","state":"TX","country":"United States","canonicalUrl":"https://foursquare.com/v/sealy-flats/4baec9a4f964a5200ed83be3","category":"Beer Garden","checkinsCount":331,"usersCount":240,"tipCount":9,"visitsCount":359,"tier":"","message":"","currency":"","rating":6.5},{"name":"The Parrot's Head","address":"Ave. N","lat":31.442919373512268,"lng":-100.46172022819519,"city_fetched":"San Angelo","state":"TX","country":"United States","canonicalUrl":"https://foursquare.com/v/the-parrots-head/4d58a50fd1a08cfa043113ba","category":"Bar","checkinsCount":334,"usersCount":213,"tipCount":4,"visitsCount":546,"tier":"","message":"","currency":"","rating":6.4},{"name":"Grinners Daiquiri Bar","phone":"3256552062","twitter":"grinnerdaiquiri","address":"217 S Chadbourne St","lat":31.460662866149793,"lng":-100.43622851371765,"city_fetched":"San Angelo","state":"TX","country":"United States","canonicalUrl":"https://foursquare.com/v/grinners-daiquiri-bar/4d06ce939d33a143b97fc878","category":"Bar","checkinsCount":776,"usersCount":256,"tipCount":9,"visitsCount":785,"url":"http://grinnersdaiquiribar.com","tier":"","message":"","currency":"","rating":6.3},{"name":"Midnight Rodeo San Angelo","phone":"3259428614","twitter":"mrsanangelo","address":"2581 Sunset Dr","lat":31.420991838525996,"lng":-100.47346951915277,"city_fetched":"San Angelo","state":"TX","country":"United States","canonicalUrl":"https://foursquare.com/v/midnight-rodeo-san-angelo/4baec887f964a520acd73be3","category":"Bar","checkinsCount":419,"usersCount":234,"tipCount":3,"visitsCount":467,"url":"http://midnightrodeosanangelo.com","tier":"","message":"","currency":"","rating":6.1},{"name":"Miss Hattie's Restaurant and Cathouse Lounge","phone":"3256530570","twitter":"miss_hatties","address":"34 E Concho Ave","lat":31.460540027187154,"lng":-100.43455481529236,"city_fetched":"San Angelo","state":"TX","country":"United States","canonicalUrl":"https://foursquare.com/v/miss-hatties-restaurant-and-cathouse-lounge/4bbd16f9078095218d32da91","category":"Lounge","checkinsCount":260,"usersCount":213,"tipCount":5,"visitsCount":267,"url":"http://www.misshatties.com","tier":"","message":"","currency":"","rating":5.6}]