[{"name":"Central Coast Brewing","phone":"8057832739","address":"1422 Monterey St","lat":35.285796991784714,"lng":-120.65564519421982,"city_fetched":"San Luis Obispo,US","state":"CA","country":"United States","canonicalUrl":"https://foursquare.com/v/central-coast-brewing/4a522f4ef964a52059b11fe3","categoryId":"50327c8591d4c4b30a586d5d","category":"Brewery","checkinsCount":1513,"usersCount":778,"tipCount":17,"visitsCount":1780,"url":"http://www.centralcoastbrewing.com","tier":"","message":"","currency":"","rating":9},{"name":"Sidecar","phone":"8055405340","address":"1127 Broad St","lat":35.27845482812259,"lng":-120.66420442045013,"city_fetched":"San Luis Obispo,US","state":"CA","country":"United States","canonicalUrl":"https://foursquare.com/v/sidecar/4eae0fc5b8f765aba1984acb","categoryId":"4bf58dd8d48988d11e941735","category":"Cocktail Bar","checkinsCount":1146,"usersCount":711,"tipCount":22,"visitsCount":1231,"url":"http://sidecarslo.com","tier":2,"message":"Moderate","currency":"$","rating":8.8},{"name":"Frog & Peach Pub","phone":"8055933764","twitter":"frogandpeachpub","address":"728 Higuera St","lat":35.27927559758585,"lng":-120.6642830458094,"city_fetched":"San Luis Obispo,US","state":"CA","country":"United States","canonicalUrl":"https://foursquare.com/v/frog--peach-pub/4adea2f4f964a5208d7621e3","categoryId":"4bf58dd8d48988d11b941735","category":"Pub","checkinsCount":2936,"usersCount":1520,"tipCount":20,"visitsCount":2947,"url":"http://www.frogandpeachpub.com","tier":1,"message":"Cheap","currency":"$","rating":8.6},{"name":"McCarthy's Irish Pub","phone":"8055440268","twitter":"mccarthysslo","address":"600 Marsh St","lat":35.277707,"lng":-120.66495056666666,"city_fetched":"San Luis Obispo,US","state":"CA","country":"United States","canonicalUrl":"https://foursquare.com/v/mccarthys-irish-pub/4afc8994f964a520a92322e3","categoryId":"4bf58dd8d48988d116941735","category":"Bar","checkinsCount":4217,"usersCount":903,"tipCount":31,"visitsCount":4715,"tier":2,"message":"Moderate","currency":"$","rating":8.5},{"name":"Black Sheep Bar & Grill","phone":"8055447433","address":"1117 Chorro St","lat":35.2795371287298,"lng":-120.66272176160206,"city_fetched":"San Luis Obispo,US","state":"CA","country":"United States","canonicalUrl":"https://foursquare.com/v/black-sheep-bar--grill/4b4d7719f964a520b2d226e3","categoryId":"4bf58dd8d48988d116941735","category":"Bar","checkinsCount":3006,"usersCount":1277,"tipCount":25,"visitsCount":3079,"url":"http://www.blacksheepslo.com","tier":2,"message":"Moderate","currency":"$","rating":8.5},{"name":"Spike's Pub","phone":"8055447157","twitter":"spikespub","address":"570 Higuera St","lat":35.27775862720086,"lng":-120.66666662693024,"city_fetched":"San Luis Obispo,US","state":"CA","country":"United States","canonicalUrl":"https://foursquare.com/v/spikes-pub/4b03812df964a520a14f22e3","categoryId":"4bf58dd8d48988d11b941735","category":"Pub","checkinsCount":1581,"usersCount":625,"tipCount":19,"visitsCount":1757,"url":"http://www.spikespub.com","tier":2,"message":"Moderate","currency":"$","rating":8.2},{"name":"The Boardroom Surf Pub","phone":"8052956222","address":"160 Hinds Ave","lat":35.13901475430273,"lng":-120.64187282763122,"city_fetched":"San Luis Obispo,US","state":"CA","country":"United States","canonicalUrl":"https://foursquare.com/v/the-boardroom-surf-pub/4c3539bb09a99c74315d0c2a","categoryId":"4bf58dd8d48988d116941735","category":"Bar","checkinsCount":820,"usersCount":356,"tipCount":13,"visitsCount":845,"url":"http://theboardroompismobeach.com","tier":"","message":"","currency":"","rating":8.2},{"name":"Bang the Drum Brewery","phone":"8052428372","twitter":"bangthedrumbrew","address":"950 Orcutt Rd","lat":35.26145063911282,"lng":-120.64576148986815,"city_fetched":"San Luis Obispo,US","state":"CA","country":"United States","canonicalUrl":"https://foursquare.com/v/bang-the-drum-brewery/5240e888049385b534586787","categoryId":"50327c8591d4c4b30a586d5d","category":"Brewery","checkinsCount":236,"usersCount":188,"tipCount":4,"visitsCount":394,"tier":"","message":"","currency":"","rating":8},{"name":"Creekside Brewing","phone":"8055429804","address":"1040 Broad St","lat":35.279284672180005,"lng":-120.6646761718674,"city_fetched":"San Luis Obispo,US","state":"CA","country":"United States","canonicalUrl":"https://foursquare.com/v/creekside-brewing/4b593838f964a520cb8128e3","categoryId":"50327c8591d4c4b30a586d5d","category":"Brewery","checkinsCount":3002,"usersCount":1070,"tipCount":26,"visitsCount":3062,"url":"http://www.creeksidebrewing.com","tier":2,"message":"Moderate","currency":"$","rating":7.9},{"name":"Luis Wine Bar","phone":"8057624747","address":"1021 Higuera St","lat":35.281261512988195,"lng":-120.6599978919723,"city_fetched":"San Luis Obispo,US","state":"CA","country":"United States","canonicalUrl":"https://foursquare.com/v/luis-wine-bar/4de51ea645dd180ae5856709","categoryId":"4bf58dd8d48988d123941735","category":"Wine Bar","checkinsCount":667,"usersCount":286,"tipCount":7,"visitsCount":691,"tier":"","message":"","currency":"","rating":7.7},{"name":"SLO Brew","phone":"8055431843","twitter":"slobrew","address":"1119 Garden St","lat":35.279151173843985,"lng":-120.6633956996119,"neighborhood":"Downtown","city_fetched":"San Luis Obispo,US","state":"CA","country":"United States","canonicalUrl":"https://foursquare.com/v/slo-brew/4ab34533f964a5209a6d20e3","categoryId":"50327c8591d4c4b30a586d5d","category":"Brewery","checkinsCount":5124,"usersCount":2415,"tipCount":34,"visitsCount":5386,"url":"http://www.slobrewingco.com","tier":1,"message":"Cheap","currency":"$","rating":7.7},{"name":"Granada Bistro","phone":"8055449100","address":"1126 Morro St","lat":35.28017056666667,"lng":-120.66131,"city_fetched":"San Luis Obispo,US","state":"CA","country":"United States","canonicalUrl":"https://foursquare.com/v/granada-bistro/4bd3a1e9046076b06aa07671","categoryId":"4bf58dd8d48988d123941735","category":"Wine Bar","checkinsCount":549,"usersCount":413,"tipCount":11,"visitsCount":554,"url":"http://www.granadabistro.com","tier":"","message":"","currency":"","rating":7.6},{"name":"The Libertine Brewing Company","twitter":"libertinebrew","address":"1234 Broad St","lat":35.277707115811864,"lng":-120.66317667015535,"city_fetched":"San Luis Obispo,US","state":"CA","country":"United States","canonicalUrl":"https://foursquare.com/v/the-libertine-brewing-company/55d7e32f498e8e61fd84c02c","categoryId":"50327c8591d4c4b30a586d5d","category":"Brewery","checkinsCount":169,"usersCount":139,"tipCount":1,"visitsCount":241,"tier":"","message":"","currency":"","rating":7.6},{"name":"Madonna Inn - Silver Bar","phone":"8057842432","twitter":"madonnainn","address":"100 Madonna Rd","lat":35.267519162127684,"lng":-120.6746757030487,"city_fetched":"San Luis Obispo,US","state":"CA","country":"United States","canonicalUrl":"https://foursquare.com/v/madonna-inn--silver-bar/4b776848f964a5206e982ee3","categoryId":"4bf58dd8d48988d121941735","category":"Lounge","checkinsCount":790,"usersCount":563,"tipCount":6,"visitsCount":792,"url":"http://madonnainn.com","tier":3,"message":"Expensive","currency":"$","rating":7.5},{"name":"Tap It Brewing Co.","twitter":"tapitbrewing","address":"675 Clarion Ct","lat":35.244047926559695,"lng":-120.64598447502813,"city_fetched":"San Luis Obispo,US","state":"CA","country":"United States","canonicalUrl":"https://foursquare.com/v/tap-it-brewing-co/4d3e4ce68edf3704a7a4c2a5","categoryId":"50327c8591d4c4b30a586d5d","category":"Brewery","checkinsCount":539,"usersCount":409,"tipCount":9,"visitsCount":748,"url":"http://tapitbrewing.com","tier":"","message":"","currency":"","rating":7.4},{"name":"Mr. Rick's","phone":"8055957425","twitter":"mrricks_ca","address":"404 Front Street","lat":35.17906946938739,"lng":-120.73408289136262,"city_fetched":"San Luis Obispo,US","state":"CA","country":"United States","canonicalUrl":"https://foursquare.com/v/mr-ricks/4b4fdbaaf964a520c41727e3","categoryId":"4bf58dd8d48988d120941735","category":"Karaoke Bar","checkinsCount":1374,"usersCount":811,"tipCount":15,"visitsCount":1381,"url":"http://mrricks.com","tier":"","message":"","currency":"","rating":7.4},{"name":"BarrelHouse Speakeasy","twitter":"barrelhousebeer","address":"1033 Chorro St","lat":35.280135329254904,"lng":-120.66317667015535,"city_fetched":"San Luis Obispo,US","state":"CA","country":"United States","canonicalUrl":"https://foursquare.com/v/barrelhouse-speakeasy/56905047498ea35a31f057cf","categoryId":"50327c8591d4c4b30a586d5d","category":"Brewery","checkinsCount":109,"usersCount":94,"tipCount":2,"visitsCount":122,"url":"http://www.barrelhousebrewing.com","tier":"","message":"","currency":"","rating":7.3},{"name":"PierFront Wine & Brew","address":"480 Front Street","lat":35.17921455009203,"lng":-120.73463296048335,"city_fetched":"San Luis Obispo,US","state":"CA","country":"United States","canonicalUrl":"https://foursquare.com/v/pierfront-wine--brew/54cabf8b498ed9d4e7051024","categoryId":"52e81612bcbc57f1066b7a0d","category":"Beach Bar","checkinsCount":57,"usersCount":41,"tipCount":1,"visitsCount":58,"tier":"","message":"","currency":"","rating":7.1},{"name":"Buffalo Pub & Grill","phone":"8055445515","address":"717 Higuera St","lat":35.2789093355621,"lng":-120.6641538755503,"city_fetched":"San Luis Obispo,US","state":"CA","country":"United States","canonicalUrl":"https://foursquare.com/v/buffalo-pub--grill/4af10ae7f964a5209fe021e3","categoryId":"4bf58dd8d48988d116941735","category":"Bar","checkinsCount":1821,"usersCount":747,"tipCount":15,"visitsCount":1843,"url":"http://blacksheepslo.com","tier":"","message":"","currency":"","rating":7},{"name":"Scotty's","phone":"8057731922","address":"750 Price St","lat":35.14213,"lng":-120.64022833333334,"city_fetched":"San Luis Obispo,US","state":"CA","country":"United States","canonicalUrl":"https://foursquare.com/v/scottys/4bfc782ae9d8c9284aa1b2c7","categoryId":"4bf58dd8d48988d11d941735","category":"Sports Bar","checkinsCount":267,"usersCount":202,"tipCount":7,"visitsCount":268,"url":"http://www.sbng.com","tier":"","message":"","currency":"","rating":6.8},{"name":"The Graduate","phone":"8055410969","address":"990 Industrial Way","lat":35.25367543273467,"lng":-120.63903987407684,"city_fetched":"San Luis Obispo,US","state":"CA","country":"United States","canonicalUrl":"https://foursquare.com/v/the-graduate/4b411f4ff964a52085c125e3","categoryId":"4bf58dd8d48988d11f941735","category":"Nightclub","checkinsCount":915,"usersCount":512,"tipCount":8,"visitsCount":1151,"url":"http://ticketsus.at/yahooinc/338293.html","tier":"","message":"","currency":"","rating":6.8},{"name":"The Library","phone":"8055420199","address":"723 Higuera St","lat":35.2789888,"lng":-120.6639951467514,"city_fetched":"San Luis Obispo,US","state":"CA","country":"United States","canonicalUrl":"https://foursquare.com/v/the-library/4b6d27acf964a52027692ce3","categoryId":"4bf58dd8d48988d11f941735","category":"Nightclub","checkinsCount":1651,"usersCount":628,"tipCount":7,"visitsCount":1660,"tier":"","message":"","currency":"","rating":6.8},{"name":"Marston's Bar & Grill","phone":"8055443668","address":"673 Higuera St","lat":35.278470261331265,"lng":-120.66500902175903,"city_fetched":"San Luis Obispo,US","state":"CA","country":"United States","canonicalUrl":"https://foursquare.com/v/marstons-bar--grill/4c8b1fb5770fb60c7975d9c3","categoryId":"4bf58dd8d48988d116941735","category":"Bar","checkinsCount":1228,"usersCount":478,"tipCount":10,"visitsCount":1236,"url":"http://myspace.com/martisslo","tier":"","message":"","currency":"","rating":6.4},{"name":"Wine Shed","phone":"8055439463","twitter":"wineshed_slo","address":"3590 Broad St","lat":35.25477935821472,"lng":-120.64575418138895,"city_fetched":"San Luis Obispo,US","state":"CA","country":"United States","canonicalUrl":"https://foursquare.com/v/wine-shed/4f32e4260cd60690b7369603","categoryId":"4bf58dd8d48988d123941735","category":"Wine Bar","checkinsCount":218,"usersCount":111,"tipCount":3,"visitsCount":220,"tier":"","message":"","currency":"","rating":6.1},{"name":"Gaslight Lounge","phone":"8055434262","address":"2143 Broad St","lat":35.27051712069668,"lng":-120.65719842910767,"city_fetched":"San Luis Obispo,US","state":"CA","country":"United States","canonicalUrl":"https://foursquare.com/v/gaslight-lounge/4c116fe2416620a10d1dd9e4","categoryId":"4bf58dd8d48988d118941735","category":"Dive Bar","checkinsCount":449,"usersCount":115,"tipCount":6,"visitsCount":461,"tier":"","message":"","currency":"","rating":6.1},{"name":"Bull's Tavern","phone":"8055432217","address":"1032 Chorro St","lat":35.280149,"lng":-120.66299695,"city_fetched":"San Luis Obispo,US","state":"CA","country":"United States","canonicalUrl":"https://foursquare.com/v/bulls-tavern/4b46d233f964a520a52826e3","categoryId":"4bf58dd8d48988d118941735","category":"Dive Bar","checkinsCount":1346,"usersCount":671,"tipCount":11,"visitsCount":1418,"tier":"","message":"","currency":"","rating":5.3}]