[{"name":"AleSmith Brewing Company","phone":"8585499888","twitter":"alesmithbrewing","address":"9990 Alesmith Ct","lat":32.88773717326314,"lng":-117.1494849397999,"neighborhood":"Miramar","city_fetched":"San Diego","state":"CA","country":"United States","canonicalUrl":"https://foursquare.com/v/alesmith-brewing-company/5574c6d4498e7ea8d3aab7b8","category":"Brewery","checkinsCount":1577,"usersCount":1556,"tipCount":12,"visitsCount":2559,"url":"http://alesmith.com","tier":"","message":"","currency":"","rating":9.6},{"name":"CUCINA urbana","phone":"6192392222","twitter":"cucinaurbana","address":"505 Laurel St","lat":32.73139080656275,"lng":-117.16022629951672,"neighborhood":"Park West","city_fetched":"San Diego","state":"CA","country":"United States","canonicalUrl":"https://foursquare.com/v/cucina-urbana/4d25603c3b62f04d2a732078","category":"Italian Restaurant","checkinsCount":7187,"usersCount":5165,"tipCount":143,"visitsCount":8065,"url":"http://www.cucinaurbana.com","tier":3,"message":"Expensive","currency":"$","rating":9.5},{"name":"Carnitas' Snack Shack","phone":"6192947675","twitter":"carnitassnacks","address":"2632 University Ave","lat":32.748657,"lng":-117.13549398707833,"neighborhood":"North Park","city_fetched":"San Diego","state":"CA","country":"United States","canonicalUrl":"https://foursquare.com/carnitassnacks","category":"American Restaurant","checkinsCount":8498,"usersCount":5181,"tipCount":178,"visitsCount":10327,"url":"http://carnitassnackshack.com","tier":2,"message":"Moderate","currency":"$","rating":9.5},{"name":"Societe Brewing Company","phone":"8585894509","twitter":"societebrewing","address":"8262 Clairemont Mesa Blvd","lat":32.833742553847344,"lng":-117.1460154178182,"neighborhood":"Kearny Mesa","city_fetched":"San Diego","state":"CA","country":"United States","canonicalUrl":"https://foursquare.com/societebrewing","category":"Brewery","checkinsCount":7192,"usersCount":3782,"tipCount":44,"visitsCount":9051,"url":"http://societebrewing.com","tier":1,"message":"Cheap","currency":"$","rating":9.5},{"name":"Ballast Point Brewing & Spirits","phone":"8587906900","twitter":"bpbrewing","address":"9045 Carroll Way","lat":32.887672431703656,"lng":-117.15816423188916,"neighborhood":"Miramar","city_fetched":"San Diego","state":"CA","country":"United States","canonicalUrl":"https://foursquare.com/v/ballast-point-brewing--spirits/5331de18498e7b294de023a9","category":"Brewery","checkinsCount":4296,"usersCount":4373,"tipCount":56,"visitsCount":7542,"url":"http://www.ballastpoint.com","tier":"","message":"","currency":"","rating":9.4},{"name":"Pizza Port Brewing Company","phone":"6192244700","twitter":"pizzaportbeer","address":"1956 Bacon St","lat":32.747997576484444,"lng":-117.25027635696325,"neighborhood":"Ocean Beach","city_fetched":"San Diego","state":"CA","country":"United States","canonicalUrl":"https://foursquare.com/v/pizza-port-brewing-company/4bcf3837046076b02cdc6d71","category":"Pizza Place","checkinsCount":12137,"usersCount":7132,"tipCount":119,"visitsCount":13738,"url":"http://www.pizzaport.com","tier":2,"message":"Moderate","currency":"$","rating":9.4},{"name":"Bankers Hill Bar & Restaurant","phone":"6192310222","twitter":"bankershillbarr","address":"2202 4th Ave","lat":32.72846460342407,"lng":-117.161359,"neighborhood":"Park West","city_fetched":"San Diego","state":"CA","country":"United States","canonicalUrl":"https://foursquare.com/bankershillbarr","category":"American Restaurant","checkinsCount":3696,"usersCount":2685,"tipCount":53,"visitsCount":4400,"url":"http://bankershillsd.com","tier":3,"message":"Expensive","currency":"$","rating":9.3},{"name":"Ballast Point Brewing & Spirits","phone":"8586952739","twitter":"bpbrewing","address":"10051 Old Grove Rd","lat":32.89872506512701,"lng":-117.11096405982971,"neighborhood":"Scripps Ranch","city_fetched":"San Diego","state":"CA","country":"United States","canonicalUrl":"https://foursquare.com/v/ballast-point-brewing--spirits/43f5ea04f964a520a62f1fe3","category":"Brewery","checkinsCount":8368,"usersCount":4947,"tipCount":62,"visitsCount":9682,"url":"http://www.ballastpoint.com","tier":1,"message":"Cheap","currency":"$","rating":9.3},{"name":"Cellar 3","phone":"8582633883","twitter":"greenflashbeer","address":"12260 Crosthwaite Cir","lat":32.94032528744967,"lng":-117.0341610511028,"city_fetched":"San Diego","state":"CA","country":"United States","canonicalUrl":"https://foursquare.com/v/cellar-3/5557a61e498e3205b7058236","category":"Beer Garden","checkinsCount":461,"usersCount":467,"tipCount":6,"visitsCount":788,"url":"http://www.greenflashbrew.com/cellar3/","tier":"","message":"","currency":"","rating":9.3},{"name":"Belly Up Tavern","phone":"8584819022","twitter":"bellyupmusic","address":"143 S Cedros Ave","lat":32.99055952142688,"lng":-117.27051258087158,"city_fetched":"San Diego","state":"CA","country":"United States","canonicalUrl":"https://foursquare.com/v/belly-up-tavern/40e0b100f964a520b0011fe3","category":"Rock Club","checkinsCount":9625,"usersCount":5183,"tipCount":63,"visitsCount":10460,"url":"http://www.bellyup.com","tier":"","message":"","currency":"","rating":9.3},{"name":"Cowboy Star Restaurant & Butcher Shop","phone":"6194505880","twitter":"cowboystarsd","address":"640 10th Ave","lat":32.71211287879821,"lng":-117.15578047881533,"neighborhood":"East Village","city_fetched":"San Diego","state":"CA","country":"United States","canonicalUrl":"https://foursquare.com/v/cowboy-star-restaurant--butcher-shop/48a55026f964a52095511fe3","category":"Steakhouse","checkinsCount":5093,"usersCount":2000,"tipCount":103,"visitsCount":5413,"url":"http://www.thecowboystar.com","tier":3,"message":"Expensive","currency":"$","rating":9.3},{"name":"Home Brew Mart / Ballast Point Brewery","phone":"6192952337","twitter":"bpbrewing","address":"5401 Linda Vista Rd","lat":32.76672702576376,"lng":-117.19538738074546,"neighborhood":"Morena","city_fetched":"San Diego","state":"CA","country":"United States","canonicalUrl":"https://foursquare.com/v/home-brew-mart--ballast-point-brewery/40e0b100f964a520a7011fe3","category":"Brewery","checkinsCount":4566,"usersCount":2237,"tipCount":36,"visitsCount":5888,"url":"http://www.ballastpoint.com/home-brew-mart","tier":2,"message":"Moderate","currency":"$","rating":9.3},{"name":"OB Noodle House & Sake Bar","phone":"6194506868","twitter":"obnoodlehouse","address":"2218 Cable St","lat":32.751303707584086,"lng":-117.24477607265905,"neighborhood":"Ocean Beach","city_fetched":"San Diego","state":"CA","country":"United States","canonicalUrl":"https://foursquare.com/v/ob-noodle-house--sake-bar/4cdc8190a1bba35dc1d69ae5","category":"Asian Restaurant","checkinsCount":8613,"usersCount":4800,"tipCount":120,"visitsCount":9611,"url":"http://obnoodlehouse.com","tier":2,"message":"Moderate","currency":"$","rating":9.3},{"name":"George's at The Cove","phone":"8584544244","twitter":"treyfoshee","address":"1250 Prospect St","lat":32.849436969177276,"lng":-117.27190858501194,"neighborhood":"Village","city_fetched":"San Diego","state":"CA","country":"United States","canonicalUrl":"https://foursquare.com/v/georges-at-the-cove/40e0b100f964a5202c021fe3","category":"New American Restaurant","checkinsCount":11761,"usersCount":10037,"tipCount":186,"visitsCount":12967,"url":"http://www.georgesatthecove.com","tier":3,"message":"Expensive","currency":"$","rating":9.3},{"name":"Phil's BBQ","phone":"6192266333","twitter":"philsbbqsd","address":"3740 Sports Arena Blvd","lat":32.75483416205354,"lng":-117.21583843231201,"neighborhood":"Midway District","city_fetched":"San Diego","state":"CA","country":"United States","canonicalUrl":"https://foursquare.com/v/phils-bbq/460d2cfcf964a52002451fe3","category":"BBQ Joint","checkinsCount":31703,"usersCount":21885,"tipCount":410,"visitsCount":37615,"url":"http://www.philsbbq.net","tier":2,"message":"Moderate","currency":"$","rating":9.3},{"name":"Romeo & Julieta Wine Cafe","phone":"6195466919","address":"4715 Monroe Ave","lat":32.75879548097109,"lng":-117.09260957047798,"neighborhood":"Talmadge","city_fetched":"San Diego","state":"CA","country":"United States","canonicalUrl":"https://foursquare.com/v/romeo--julieta-wine-cafe/50f21630e4b058f4cee433ad","category":"Wine Bar","checkinsCount":189,"usersCount":179,"tipCount":13,"visitsCount":354,"url":"http://romeoandjulietawinecafe.com","tier":"","message":"","currency":"","rating":9.2},{"name":"Regents Pizzeria","phone":"8585500406","address":"4150 Regents Park Row Ste 170","lat":32.8733122566627,"lng":-117.21805335272906,"neighborhood":"University City","city_fetched":"San Diego","state":"CA","country":"United States","canonicalUrl":"https://foursquare.com/v/regents-pizzeria/46596392f964a52017471fe3","category":"Pizza Place","checkinsCount":4047,"usersCount":2072,"tipCount":79,"visitsCount":4982,"url":"http://regentspizza.com","tier":1,"message":"Cheap","currency":"$","rating":9.2},{"name":"Mike Hess Brewing","phone":"6192557136","twitter":"mhb","address":"3812 Grim Ave","lat":32.74775227483149,"lng":-117.12861522588945,"neighborhood":"North Park","city_fetched":"San Diego","state":"CA","country":"United States","canonicalUrl":"https://foursquare.com/v/mike-hess-brewing/4f9b0c8de4b04dce4408e280","category":"Brewery","checkinsCount":4191,"usersCount":2806,"tipCount":47,"visitsCount":5492,"url":"http://www.mikehessbrewing.com","tier":1,"message":"Cheap","currency":"$","rating":9.2},{"name":"Vin de Syrah Wine Parlor","phone":"6192344166","address":"901 5th Ave","lat":32.71477259346671,"lng":-117.16000556945801,"neighborhood":"Gaslamp","city_fetched":"San Diego","state":"CA","country":"United States","canonicalUrl":"https://foursquare.com/v/vin-de-syrah-wine-parlor/4a3dd4d2f964a520b3a21fe3","category":"Wine Bar","checkinsCount":8647,"usersCount":5886,"tipCount":81,"visitsCount":8950,"url":"http://syrahwineparlor.com","tier":"","message":"","currency":"","rating":9.2},{"name":"Bottega Americano","phone":"6192368397","twitter":"bottegamericano","address":"1195 Island Ave","lat":32.710310982386495,"lng":-117.15394812928652,"neighborhood":"East Village","city_fetched":"San Diego","state":"CA","country":"United States","canonicalUrl":"https://foursquare.com/v/bottega-americano/52fc3f07498ea5a81aefb311","category":"Restaurant","checkinsCount":1026,"usersCount":989,"tipCount":20,"visitsCount":1513,"url":"http://www.bottegaamericano.com","tier":"","message":"","currency":"","rating":9.2},{"name":"Ballast Point Tasting Room & Kitchen","phone":"6192557213","twitter":"bpbrewing","address":"2215 India St","lat":32.72762875479487,"lng":-117.16985283612685,"neighborhood":"Little Italy","city_fetched":"San Diego","state":"CA","country":"United States","canonicalUrl":"https://foursquare.com/v/ballast-point-tasting-room--kitchen/5187e02b498e51f783bac1ea","category":"Brewery","checkinsCount":7816,"usersCount":6953,"tipCount":101,"visitsCount":11047,"url":"http://ballastpoint.com","tier":2,"message":"Moderate","currency":"$","rating":9.2},{"name":"Tiger!Tiger!","phone":"6197645475","twitter":"tigertigertav","address":"3025 El Cajon Blvd","lat":32.754978528015876,"lng":-117.12977170944214,"neighborhood":"North Park","city_fetched":"San Diego","state":"CA","country":"United States","canonicalUrl":"https://foursquare.com/v/tigertiger/4e7298d5814d3c0bc2aead05","category":"Pub","checkinsCount":9471,"usersCount":4368,"tipCount":94,"visitsCount":10944,"url":"http://tigertigertavern.blogspot.com","tier":2,"message":"Moderate","currency":"$","rating":9.2},{"name":"The US Grant Hotel","phone":"8002375029","twitter":"spg","address":"326 Broadway","lat":32.715900953391824,"lng":-117.16152369976044,"neighborhood":"Central San Diego","city_fetched":"San Diego","state":"CA","country":"United States","canonicalUrl":"https://foursquare.com/v/the-us-grant-hotel/4a5d5b65f964a52094bd1fe3","category":"Hotel","checkinsCount":9379,"usersCount":5260,"tipCount":69,"visitsCount":9975,"url":"http://www.usgrant.net","tier":"","message":"","currency":"","rating":9.2},{"name":"Green Flash Brewing Company","phone":"8586220085","twitter":"greenflashbeer","address":"6550 Mira Mesa Blvd","lat":32.90734078600012,"lng":-117.17763529533472,"neighborhood":"Sorrento Valley","city_fetched":"San Diego","state":"CA","country":"United States","canonicalUrl":"https://foursquare.com/v/green-flash-brewing-company/4d6330661a83f04d8413712b","category":"Brewery","checkinsCount":11184,"usersCount":6844,"tipCount":79,"visitsCount":13290,"url":"http://www.greenflashbrew.com","tier":1,"message":"Cheap","currency":"$","rating":9.2},{"name":"Modern Times Lomaland Fermentorium","twitter":"moderntimesbeer","address":"3725 Greenwood St","lat":32.754263463067524,"lng":-117.20638900995255,"neighborhood":"Midway District","city_fetched":"San Diego","state":"CA","country":"United States","canonicalUrl":"https://foursquare.com/v/modern-times-lomaland-fermentorium/515dc2fff31cfd25572eea72","category":"Brewery","checkinsCount":3293,"usersCount":2537,"tipCount":41,"visitsCount":4398,"url":"http://www.moderntimesbeer.com","tier":2,"message":"Moderate","currency":"$","rating":9.2},{"name":"AMC Chula Vista 10","phone":"6193719105","twitter":"amctheatres","address":"555 Broadway #2050","lat":32.629805160035815,"lng":-117.08486411718307,"neighborhood":"Downtown Chula Vista","city_fetched":"San Diego","state":"CA","country":"United States","canonicalUrl":"https://foursquare.com/v/amc-chula-vista-10/540e48e3498e9f2631860daa","category":"Multiplex","checkinsCount":961,"usersCount":862,"tipCount":3,"visitsCount":1947,"url":"https://www.amctheatres.com/movie-theatres/san-diego/amc-chula-vista-10","tier":"","message":"","currency":"","rating":9.2},{"name":"Hodad's","phone":"6192244623","twitter":"hodads1502","address":"5010 Newport Ave","lat":32.74710724240093,"lng":-117.25125238338047,"neighborhood":"Ocean Beach","city_fetched":"San Diego","state":"CA","country":"United States","canonicalUrl":"https://foursquare.com/v/hodads/4a57a830f964a5208bb61fe3","category":"Burger Joint","checkinsCount":9880,"usersCount":8267,"tipCount":197,"visitsCount":10703,"url":"http://hodadies.com","tier":1,"message":"Cheap","currency":"$","rating":9.2},{"name":"Morton's The Steakhouse","phone":"6196963369","twitter":"mortons","address":"285 J St","lat":32.70934902785608,"lng":-117.16224239569642,"neighborhood":"Marina","city_fetched":"San Diego","state":"CA","country":"United States","canonicalUrl":"https://foursquare.com/v/mortons-the-steakhouse/4b36e49af964a520e13d25e3","category":"Steakhouse","checkinsCount":2397,"usersCount":1617,"tipCount":32,"visitsCount":2708,"url":"http://www.mortons.com","tier":3,"message":"Expensive","currency":"$","rating":9.2},{"name":"The Local Pacific Beach","phone":"8582637475","twitter":"thelocalpb","address":"809 Thomas Ave","lat":32.79372015861261,"lng":-117.25401393838612,"neighborhood":"Pacific Beach","city_fetched":"San Diego","state":"CA","country":"United States","canonicalUrl":"https://foursquare.com/v/the-local-pacific-beach/539e85d9498ee5525acf0786","category":"Bar","checkinsCount":2829,"usersCount":1696,"tipCount":14,"visitsCount":4051,"url":"http://www.thelocalpb.com","tier":"","message":"","currency":"","rating":9.1},{"name":"Eddie V's Prime Seafood","phone":"8584595500","twitter":"eddievs","address":"1270 Prospect St","lat":32.84942519,"lng":-117.2709384,"neighborhood":"Village","city_fetched":"San Diego","state":"CA","country":"United States","canonicalUrl":"https://foursquare.com/v/eddie-vs-prime-seafood/4e0cd60614954f127e6a798f","category":"Seafood Restaurant","checkinsCount":3399,"usersCount":2032,"tipCount":48,"visitsCount":3656,"url":"http://eddiev.com","tier":4,"message":"Very Expensive","currency":"$","rating":9.1},{"name":"Modern Times Flavordome","phone":"6192695222","twitter":"moderntimesbeer","address":"3000 Upas St","lat":32.741548728573214,"lng":-117.13002843605324,"neighborhood":"North Park","city_fetched":"San Diego","state":"CA","country":"United States","canonicalUrl":"https://foursquare.com/v/modern-times-flavordome/536add8e11d21c7853ef0883","category":"Brewery","checkinsCount":1894,"usersCount":1317,"tipCount":18,"visitsCount":2169,"url":"http://www.moderntimesbeer.com","tier":"","message":"","currency":"","rating":9.1},{"name":"Rip Current Brewing","phone":"6197934777","twitter":"ripcurrentbeer","address":"4101 30th St","lat":32.75235401298041,"lng":-117.13000545710378,"neighborhood":"North Park","city_fetched":"San Diego","state":"CA","country":"United States","canonicalUrl":"https://foursquare.com/v/rip-current-brewing/54b30e17498e563854d910e4","category":"Brewery","checkinsCount":1137,"usersCount":856,"tipCount":12,"visitsCount":1520,"url":"http://ripcurrentbrewing.com","tier":"","message":"","currency":"","rating":9.1},{"name":"Polite Provisions","phone":"6196773784","twitter":"politesandiego","address":"4693 30th St","lat":32.76261520385742,"lng":-117.13037109375,"neighborhood":"North Park","city_fetched":"San Diego","state":"CA","country":"United States","canonicalUrl":"https://foursquare.com/v/polite-provisions/50930fb3e4b055b34b6a7713","category":"Cocktail Bar","checkinsCount":5743,"usersCount":3388,"tipCount":83,"visitsCount":6395,"url":"http://politeprovisions.com","tier":2,"message":"Moderate","currency":"$","rating":9.1},{"name":"Baja Betty's","phone":"6192698510","address":"1421 University Ave","lat":32.74834704049962,"lng":-117.15066824016978,"neighborhood":"Hillcrest","city_fetched":"San Diego","state":"CA","country":"United States","canonicalUrl":"https://foursquare.com/v/baja-bettys/42a78680f964a52019251fe3","category":"Mexican Restaurant","checkinsCount":17446,"usersCount":6257,"tipCount":115,"visitsCount":18789,"url":"http://bajabettyssd.com","tier":2,"message":"Moderate","currency":"$","rating":9.1},{"name":"BevMo!","twitter":"bevmo","address":"9755 Mission Gorge Rd","lat":32.837481433320534,"lng":-116.98491096496582,"city_fetched":"San Diego","state":"CA","country":"United States","canonicalUrl":"https://foursquare.com/v/bevmo/505b69d8b0ed9130e7acb571","category":"Liquor Store","checkinsCount":651,"usersCount":537,"tipCount":2,"visitsCount":1072,"url":"http://www.bevmo.com","tier":"","message":"","currency":"","rating":9.1},{"name":"Blind Lady Ale House","phone":"6192552491","twitter":"blindladyale","address":"3416 Adams Ave","lat":32.763513749566734,"lng":-117.12033033370972,"neighborhood":"Adams North","city_fetched":"San Diego","state":"CA","country":"United States","canonicalUrl":"https://foursquare.com/v/blind-lady-ale-house/4a2ec2c4f964a5204f981fe3","category":"Bar","checkinsCount":13420,"usersCount":5225,"tipCount":130,"visitsCount":14558,"url":"http://www.blindladyalehouse.com","tier":2,"message":"Moderate","currency":"$","rating":9.1},{"name":"Caf√© Bleu","phone":"6192911717","twitter":"cafebleusd","address":"807 W Washington St","lat":32.7498372,"lng":-117.17073508333333,"neighborhood":"Hillcrest","city_fetched":"San Diego","state":"CA","country":"United States","canonicalUrl":"https://foursquare.com/v/caf%C3%A9-bleu/4a885cfaf964a520080620e3","category":"French Restaurant","checkinsCount":1089,"usersCount":630,"tipCount":16,"visitsCount":1113,"url":"http://www.cafebleusd.com","tier":2,"message":"Moderate","currency":"$","rating":9.1},{"name":"CUCINA enoteca Del Mar","phone":"8587044500","twitter":"cucinaenoteca","address":"2730 Via De La Valle","lat":32.980849150825904,"lng":-117.2490441799164,"neighborhood":"North City","city_fetched":"San Diego","state":"CA","country":"United States","canonicalUrl":"https://foursquare.com/v/cucina-enoteca-del-mar/51d8783a498e73d490e1877d","category":"Italian Restaurant","checkinsCount":1494,"usersCount":1961,"tipCount":31,"visitsCount":3292,"url":"http://cucinaenoteca.com","tier":2,"message":"Moderate","currency":"$","rating":9.1},{"name":"Izakaya Masa","phone":"6195421354","address":"928 Fort Stockton Dr","lat":32.75111522804126,"lng":-117.17204688785158,"neighborhood":"Mission Hills","city_fetched":"San Diego","state":"CA","country":"United States","canonicalUrl":"https://foursquare.com/v/izakaya-masa/4b1c53b2f964a520220624e3","category":"Sushi Restaurant","checkinsCount":2556,"usersCount":1500,"tipCount":50,"visitsCount":3046,"url":"http://izakayamasa.com","tier":2,"message":"Moderate","currency":"$","rating":9.1},{"name":"Neighborhood","phone":"6194460002","twitter":"neighborhoodsd","address":"777 G St","lat":32.712542702031165,"lng":-117.15740602910056,"neighborhood":"Central San Diego","city_fetched":"San Diego","state":"CA","country":"United States","canonicalUrl":"https://foursquare.com/v/neighborhood/46c1c912f964a520f2491fe3","category":"Gastropub","checkinsCount":13898,"usersCount":8428,"tipCount":184,"visitsCount":15026,"url":"http://www.neighborhoodsd.com","tier":2,"message":"Moderate","currency":"$","rating":9.1},{"name":"Stone Brewing World Bistro & Gardens Liberty Station","phone":"6192692100","twitter":"stonebistro","address":"2816 Historic Decatur Rd #116","lat":32.74034877982939,"lng":-117.21172528181303,"neighborhood":"Naval Training Center","city_fetched":"San Diego","state":"CA","country":"United States","canonicalUrl":"https://foursquare.com/v/stone-brewing-world-bistro--gardens-liberty-station/4fa5a105e4b0fed48200ea41","category":"Brewery","checkinsCount":11507,"usersCount":9068,"tipCount":172,"visitsCount":14450,"url":"http://www.stonelibertystation.com","tier":3,"message":"Expensive","currency":"$","rating":9.1},{"name":"Babycakes","phone":"6192964173","twitter":"babycakessd","address":"3766 5th Ave","lat":32.746437475900755,"lng":-117.16061688380319,"neighborhood":"Hillcrest","city_fetched":"San Diego","state":"CA","country":"United States","canonicalUrl":"https://foursquare.com/v/babycakes/4abd45f0f964a5205b8920e3","category":"Dessert Shop","checkinsCount":11922,"usersCount":4800,"tipCount":107,"visitsCount":12481,"url":"http://www.babycakessandiego.com","tier":2,"message":"Moderate","currency":"$","rating":9.1},{"name":"Raglan Public House","phone":"6197942304","twitter":"raglanpublic","address":"1851 Bacon St","lat":32.74611745504199,"lng":-117.25156241431162,"neighborhood":"Ocean Beach","city_fetched":"San Diego","state":"CA","country":"United States","canonicalUrl":"https://foursquare.com/raglanpublic","category":"Gastropub","checkinsCount":3721,"usersCount":1849,"tipCount":54,"visitsCount":4041,"url":"http://www.raglanpublichouse.com","tier":2,"message":"Moderate","currency":"$","rating":9.1},{"name":"URBN Coal Fired Pizza","phone":"6192557300","twitter":"urbnnorthpark","address":"3085 University Ave","lat":32.74830321,"lng":-117.12741136550903,"neighborhood":"North Park","city_fetched":"San Diego","state":"CA","country":"United States","canonicalUrl":"https://foursquare.com/v/urbn-coal-fired-pizza/4c379a7bdfb0e21ea918ada8","category":"Pizza Place","checkinsCount":10230,"usersCount":4805,"tipCount":108,"visitsCount":10722,"url":"http://www.urbnnorthpark.com","tier":2,"message":"Moderate","currency":"$","rating":9.1},{"name":"The Fish Market San Diego","phone":"6192323474","twitter":"thefishmarkets","address":"750 N Harbor Dr","lat":32.71232577039643,"lng":-117.17560663819313,"neighborhood":"Marina","city_fetched":"San Diego","state":"CA","country":"United States","canonicalUrl":"https://foursquare.com/v/the-fish-market-san-diego/4a821d43f964a520a7f81fe3","category":"Seafood Restaurant","checkinsCount":10926,"usersCount":9594,"tipCount":153,"visitsCount":12273,"url":"http://www.thefishmarket.com","tier":3,"message":"Expensive","currency":"$","rating":9.1},{"name":"JRDN","phone":"8582705736","twitter":"tower23hotel","address":"4551 Ocean Blvd","lat":32.79709733572279,"lng":-117.25687879637788,"neighborhood":"Pacific Beach","city_fetched":"San Diego","state":"CA","country":"United States","canonicalUrl":"https://foursquare.com/v/jrdn/4a54f24ef964a52073b31fe3","category":"Seafood Restaurant","checkinsCount":5159,"usersCount":3175,"tipCount":75,"visitsCount":5415,"url":"http://www.jrdn.com","tier":2,"message":"Moderate","currency":"$","rating":9.1},{"name":"O'Brien's Pub","phone":"8587151745","twitter":"obrienspubsd","address":"4646 Convoy St","lat":32.825264624750275,"lng":-117.15587812707645,"neighborhood":"Kearny Mesa","city_fetched":"San Diego","state":"CA","country":"United States","canonicalUrl":"https://foursquare.com/v/obriens-pub/40e0b100f964a52085021fe3","category":"Pub","checkinsCount":9051,"usersCount":2395,"tipCount":58,"visitsCount":9705,"url":"http://obrienspub.net","tier":2,"message":"Moderate","currency":"$","rating":9.1},{"name":"Herringbone","phone":"8584590221","twitter":"herringboneeats","address":"7838 Herschel Ave","lat":32.846163292433374,"lng":-117.27278117380033,"neighborhood":"Village","city_fetched":"San Diego","state":"CA","country":"United States","canonicalUrl":"https://foursquare.com/v/herringbone/4f10d53ee4b019e99087b247","category":"Seafood Restaurant","checkinsCount":3410,"usersCount":2642,"tipCount":47,"visitsCount":4328,"url":"http://www.herringboneeats.com","tier":3,"message":"Expensive","currency":"$","rating":9},{"name":"Extraordinary Desserts","phone":"6192947001","twitter":"exdesserts","address":"1430 Union St","lat":32.720281111354645,"lng":-117.1657857298851,"neighborhood":"Little Italy","city_fetched":"San Diego","state":"CA","country":"United States","canonicalUrl":"https://foursquare.com/v/extraordinary-desserts/42aa2980f964a52022251fe3","category":"Dessert Shop","checkinsCount":15711,"usersCount":12057,"tipCount":242,"visitsCount":18356,"url":"http://www.extraordinarydesserts.com","tier":2,"message":"Moderate","currency":"$","rating":9},{"name":"Karl Strauss Brewery & Restaurant","phone":"8585872739","address":"9675 Scranton Rd","lat":32.89662957437958,"lng":-117.20184804348253,"neighborhood":"Sorrento Valley","city_fetched":"San Diego","state":"CA","country":"United States","canonicalUrl":"https://foursquare.com/v/karl-strauss-brewery--restaurant/40e0b100f964a52054021fe3","category":"Brewery","checkinsCount":12858,"usersCount":5978,"tipCount":73,"visitsCount":15329,"url":"http://karlstrauss.com","tier":2,"message":"Moderate","currency":"$","rating":9},{"name":"The Whiskey House","phone":"6195466289","address":"420 Third Avenue","lat":32.70970153808594,"lng":-117.16201782226562,"neighborhood":"Marina","city_fetched":"San Diego","state":"CA","country":"United States","canonicalUrl":"https://foursquare.com/v/the-whiskey-house/54c44349498e47f3d5ea8208","category":"Whisky Bar","checkinsCount":478,"usersCount":458,"tipCount":8,"visitsCount":604,"url":"http://thewhiskeyhousesd.com","tier":2,"message":"Moderate","currency":"$","rating":9},{"name":"Pizza Port","phone":"8584817332","twitter":"pizzaportbeer","address":"135 N Highway 101","lat":32.99296518262829,"lng":-117.27218988049627,"city_fetched":"San Diego","state":"CA","country":"United States","canonicalUrl":"https://foursquare.com/v/pizza-port/40e0b100f964a520a2021fe3","category":"Pizza Place","checkinsCount":8969,"usersCount":5511,"tipCount":109,"visitsCount":9873,"url":"http://pizzaport.com","tier":2,"message":"Moderate","currency":"$","rating":9},{"name":"Slater's 50/50","phone":"6193982600","twitter":"slaters5050","address":"2750 Dewey Rd","lat":32.73830271208526,"lng":-117.21229791641235,"neighborhood":"Naval Training Center","city_fetched":"San Diego","state":"CA","country":"United States","canonicalUrl":"https://foursquare.com/v/slaters-5050/4e38ccfd1fc7e413a51a65d3","category":"Burger Joint","checkinsCount":14467,"usersCount":9468,"tipCount":179,"visitsCount":15981,"url":"http://www.slaters5050.com","tier":2,"message":"Moderate","currency":"$","rating":9},{"name":"La Valencia Hotel","phone":"8584540771","twitter":"lavalenciahotel","address":"1132 Prospect St","lat":32.848739189214236,"lng":-117.27386616377817,"neighborhood":"Village","city_fetched":"San Diego","state":"CA","country":"United States","canonicalUrl":"https://foursquare.com/lavalenciahotel","category":"Hotel","checkinsCount":4904,"usersCount":2504,"tipCount":31,"visitsCount":5177,"url":"http://www.lavalencia.com","tier":"","message":"","currency":"","rating":9},{"name":"The Patio on Goldfinch","phone":"6195015090","twitter":"patiogoldfinch","address":"4020 Goldfinch St","lat":32.75038923645615,"lng":-117.17147253103774,"neighborhood":"Mission Hills","city_fetched":"San Diego","state":"CA","country":"United States","canonicalUrl":"https://foursquare.com/v/the-patio-on-goldfinch/538b4bf5498e63a9b04d6d41","category":"American Restaurant","checkinsCount":1292,"usersCount":1108,"tipCount":31,"visitsCount":1748,"url":"http://thepatioongoldfinch.com","tier":3,"message":"Expensive","currency":"$","rating":9},{"name":"Panama 66","phone":"6197026373","twitter":"panama66","address":"1460 El Prado","lat":32.73183535284817,"lng":-117.15105884267659,"neighborhood":"Balboa Park","city_fetched":"San Diego","state":"CA","country":"United States","canonicalUrl":"https://foursquare.com/v/panama-66/53bd89e1498e3329fccedb8d","category":"Gastropub","checkinsCount":1584,"usersCount":1002,"tipCount":22,"visitsCount":1729,"url":"http://panama66.blogspot.com","tier":"","message":"","currency":"","rating":9},{"name":"Woodstock's Pizza","phone":"6192650999","twitter":"woodstockssd","address":"6145 El Cajon Blvd","lat":32.76084463397342,"lng":-117.06620604176537,"neighborhood":"Rolando","city_fetched":"San Diego","state":"CA","country":"United States","canonicalUrl":"https://foursquare.com/woodstockssd","category":"Pizza Place","checkinsCount":4735,"usersCount":1968,"tipCount":30,"visitsCount":5237,"url":"http://www.woodstockssd.com/menu.html","tier":1,"message":"Cheap","currency":"$","rating":9},{"name":"Bali Hai Restaurant","phone":"6192221181","twitter":"balihaisd","address":"2230 Shelter Island Dr","lat":32.71934375721777,"lng":-117.22052825230692,"neighborhood":"La Playa","city_fetched":"San Diego","state":"CA","country":"United States","canonicalUrl":"https://foursquare.com/v/bali-hai-restaurant/450048b3f964a520ba381fe3","category":"Seafood Restaurant","checkinsCount":6100,"usersCount":4588,"tipCount":80,"visitsCount":7112,"url":"http://www.balihairestaurant.com","tier":1,"message":"Cheap","currency":"$","rating":9},{"name":"Yard House","phone":"6195740468","twitter":"yardhouse","address":"1640 Camino Del Rio North","lat":32.76815047222553,"lng":-117.1487956354671,"neighborhood":"Mission Valley East","city_fetched":"San Diego","state":"CA","country":"United States","canonicalUrl":"https://foursquare.com/v/yard-house/55e0c978498e55dbe85a4ddd","category":"American Restaurant","checkinsCount":897,"usersCount":607,"tipCount":10,"visitsCount":1032,"url":"http://www.yardhouse.com","tier":"","message":"","currency":"","rating":9},{"name":"The Lion's Share","phone":"6195646924","twitter":"thelionssharesd","address":"629 Kettner Blvd","lat":32.711987740085426,"lng":-117.1690446138382,"neighborhood":"Marina","city_fetched":"San Diego","state":"CA","country":"United States","canonicalUrl":"https://foursquare.com/v/the-lions-share/4ea9de56f9f45048e718d81f","category":"Bar","checkinsCount":3455,"usersCount":2221,"tipCount":63,"visitsCount":3762,"url":"http://lionssharesd.com","tier":1,"message":"Cheap","currency":"$","rating":9},{"name":"Urban Mo's","phone":"6194910400","twitter":"mosuniverse","address":"308 University Ave","lat":32.748389368110935,"lng":-117.16227685870633,"neighborhood":"Hillcrest","city_fetched":"San Diego","state":"CA","country":"United States","canonicalUrl":"https://foursquare.com/v/urban-mos/45811496f964a5205b3f1fe3","category":"Gay Bar","checkinsCount":36326,"usersCount":8693,"tipCount":131,"visitsCount":38994,"url":"http://www.mosuniverse.com","tier":2,"message":"Moderate","currency":"$","rating":9},{"name":"The 3rd Corner","phone":"6192232700","twitter":"thirdcorner","address":"2265 Bacon St","lat":32.752916266666666,"lng":-117.24567532539368,"neighborhood":"Ocean Beach","city_fetched":"San Diego","state":"CA","country":"United States","canonicalUrl":"https://foursquare.com/v/the-3rd-corner/4b1871f1f964a520d1d223e3","category":"Wine Bar","checkinsCount":2187,"usersCount":1283,"tipCount":39,"visitsCount":2467,"url":"http://www.the3rdcorner.com","tier":"","message":"","currency":"","rating":9},{"name":"Hamilton's Tavern","phone":"6192385460","twitter":"hamiltonstavern","address":"1521 30th St","lat":32.72173208997133,"lng":-117.13000774383545,"neighborhood":"South Park","city_fetched":"San Diego","state":"CA","country":"United States","canonicalUrl":"https://foursquare.com/v/hamiltons-tavern/4537a289f964a520c33b1fe3","category":"Pub","checkinsCount":13295,"usersCount":4928,"tipCount":97,"visitsCount":14417,"url":"http://hamiltonstavern.com","tier":1,"message":"Cheap","currency":"$","rating":9},{"name":"The Joint","phone":"6192228272","twitter":"thejointob","address":"4902 Newport Ave","lat":32.746032115503205,"lng":-117.24932329131083,"neighborhood":"Ocean Beach","city_fetched":"San Diego","state":"CA","country":"United States","canonicalUrl":"https://foursquare.com/v/the-joint/4d555190cc65a14383cb4c5e","category":"Tapas Restaurant","checkinsCount":2015,"usersCount":1291,"tipCount":35,"visitsCount":2290,"url":"http://thejointob.com","tier":2,"message":"Moderate","currency":"$","rating":9},{"name":"Altitude Sky Lounge","phone":"6194466086","twitter":"altitudesky","address":"660 K St","lat":32.70844448652966,"lng":-117.15880393981934,"neighborhood":"East Village","city_fetched":"San Diego","state":"CA","country":"United States","canonicalUrl":"https://foursquare.com/v/altitude-sky-lounge/429ba900f964a52092241fe3","category":"Bar","checkinsCount":10148,"usersCount":7501,"tipCount":68,"visitsCount":10468,"url":"http://www.altitudeskybar.com","tier":3,"message":"Expensive","currency":"$","rating":8.9},{"name":"OB Noodle House: Bar 1502","phone":"6196651251","address":"4993 Niagara Ave Ste 103","lat":32.74598290840885,"lng":-117.25164279262327,"neighborhood":"Ocean Beach","city_fetched":"San Diego","state":"CA","country":"United States","canonicalUrl":"https://foursquare.com/v/ob-noodle-house-bar-1502/536fc08d498eea7a9697a9e1","category":"Vietnamese Restaurant","checkinsCount":1272,"usersCount":888,"tipCount":23,"visitsCount":1499,"url":"http://obnoodlehouse.com","tier":2,"message":"Moderate","currency":"$","rating":8.9},{"name":"Fathom Bistro, Bait & Tackle","phone":"6192225835","twitter":"fathombistro23","address":"1776 Shelter Island Dr","lat":32.71157035703132,"lng":-117.2281881906147,"city_fetched":"San Diego","state":"CA","country":"United States","canonicalUrl":"https://foursquare.com/v/fathom-bistro-bait--tackle/4ff9f726e4b0208919b5f66f","category":"Bar","checkinsCount":972,"usersCount":617,"tipCount":18,"visitsCount":1097,"url":"http://www.fathombistro.com","tier":1,"message":"Cheap","currency":"$","rating":8.9},{"name":"WaveHouse Beach Club","phone":"8582289283","twitter":"wavehousesd","address":"3125 Ocean Front Walk","lat":32.77098061247841,"lng":-117.25269344903298,"neighborhood":"Mission Beach","city_fetched":"San Diego","state":"CA","country":"United States","canonicalUrl":"https://foursquare.com/v/wavehouse-beach-club/4527b30cf964a520073b1fe3","category":"Bar","checkinsCount":14569,"usersCount":8719,"tipCount":75,"visitsCount":15822,"url":"http://www.belmontpark.com/restaurants/wavehouse","tier":2,"message":"Moderate","currency":"$","rating":8.9},{"name":"Starlite","phone":"6193589766","twitter":"starlitesd","address":"3175 India St","lat":32.736432353552914,"lng":-117.17506885528564,"neighborhood":"Midtown","city_fetched":"San Diego","state":"CA","country":"United States","canonicalUrl":"https://foursquare.com/v/starlite/4672dd26f964a520d1471fe3","category":"Lounge","checkinsCount":6302,"usersCount":3866,"tipCount":76,"visitsCount":6881,"url":"http://www.starlitesandiego.com","tier":2,"message":"Moderate","currency":"$","rating":8.9},{"name":"Wood Ranch BBQ & Grill","phone":"6197644411","address":"7510 Hazard Center Dr. Unit 215","lat":32.770064120118924,"lng":-117.15949108001487,"neighborhood":"Mission Valley East","city_fetched":"San Diego","state":"CA","country":"United States","canonicalUrl":"https://foursquare.com/v/wood-ranch-bbq--grill/554ac835498efb9e60cfa4c9","category":"BBQ Joint","checkinsCount":493,"usersCount":544,"tipCount":15,"visitsCount":804,"url":"https://www.woodranch.com","tier":"","message":"","currency":"","rating":8.9},{"name":"Basic Urban Kitchen & Bar","phone":"6195318869","twitter":"barbasic","address":"410 10th Ave","lat":32.709468,"lng":-117.155817,"neighborhood":"East Village","city_fetched":"San Diego","state":"CA","country":"United States","canonicalUrl":"https://foursquare.com/v/basic-urban-kitchen--bar/449c1288f964a520a9341fe3","category":"Pizza Place","checkinsCount":14144,"usersCount":8043,"tipCount":95,"visitsCount":15232,"url":"http://barbasic.com","tier":2,"message":"Moderate","currency":"$","rating":8.9},{"name":"Searsucker","phone":"6192337327","twitter":"searsucker","address":"611 5th Ave","lat":32.71173216869795,"lng":-117.16005398268287,"neighborhood":"Gaslamp","city_fetched":"San Diego","state":"CA","country":"United States","canonicalUrl":"https://foursquare.com/v/searsucker/4c12742b583c9c7489433fa4","category":"American Restaurant","checkinsCount":15426,"usersCount":10609,"tipCount":235,"visitsCount":15526,"url":"http://www.searsucker.com","tier":3,"message":"Expensive","currency":"$","rating":8.9},{"name":"Station Tavern & Burgers","phone":"6192550657","twitter":"stationtavernsd","address":"2204 Fern St","lat":32.728819105479936,"lng":-117.12977170944214,"neighborhood":"South Park","city_fetched":"San Diego","state":"CA","country":"United States","canonicalUrl":"https://foursquare.com/v/station-tavern--burgers/4a947c88f964a520c32120e3","category":"Bar","checkinsCount":7980,"usersCount":3886,"tipCount":109,"visitsCount":8619,"url":"http://stationtavern.com","tier":2,"message":"Moderate","currency":"$","rating":8.9},{"name":"The Regal Beagle Ale House & Sausage Grill","phone":"6192972337","twitter":"regalbeaglesd","address":"3659 India St","lat":32.74185800350996,"lng":-117.17966270647908,"neighborhood":"Midtown","city_fetched":"San Diego","state":"CA","country":"United States","canonicalUrl":"https://foursquare.com/v/the-regal-beagle-ale-house--sausage-grill/4bfc716d1be376b029b5f8b4","category":"Pub","checkinsCount":4757,"usersCount":1966,"tipCount":38,"visitsCount":5001,"url":"http://www.regalbeaglesd.com","tier":2,"message":"Moderate","currency":"$","rating":8.9},{"name":"Coronado Brewing Company","phone":"6192752215","twitter":"coronadobrewing","address":"1205 Knoxville St","lat":32.77198721437416,"lng":-117.20468492739136,"neighborhood":"Bay Park","city_fetched":"San Diego","state":"CA","country":"United States","canonicalUrl":"https://foursquare.com/v/coronado-brewing-company/4e388fea1f6ecc2de15a77e3","category":"Brewery","checkinsCount":2171,"usersCount":1447,"tipCount":27,"visitsCount":2934,"url":"http://coronadobrewingcompany.com","tier":2,"message":"Moderate","currency":"$","rating":8.9},{"name":"Noble Experiment","phone":"6198884713","address":"777 G St","lat":32.71262117,"lng":-117.157491,"neighborhood":"Central San Diego","city_fetched":"San Diego","state":"CA","country":"United States","canonicalUrl":"https://foursquare.com/v/noble-experiment/4b764958f964a520ba462ee3","category":"Speakeasy","checkinsCount":4526,"usersCount":3018,"tipCount":93,"visitsCount":4565,"url":"http://nobleexperimentsd.com","tier":3,"message":"Expensive","currency":"$","rating":8.9},{"name":"Hillcrest Brewing Company","phone":"6192694323","twitter":"queensofbeer","address":"1458 University Ave","lat":32.74906849298976,"lng":-117.1498812887424,"neighborhood":"Hillcrest","city_fetched":"San Diego","state":"CA","country":"United States","canonicalUrl":"https://foursquare.com/v/hillcrest-brewing-company/4f8229b6e4b024a26eebb088","category":"Brewery","checkinsCount":4199,"usersCount":1787,"tipCount":45,"visitsCount":4504,"url":"http://hillcrestbrewingcompany.com","tier":2,"message":"Moderate","currency":"$","rating":8.9},{"name":"Belching Beaver Brewery","phone":"6192821062","twitter":"belchingbeaver","address":"4223 30th St","lat":32.754568,"lng":-117.129929,"neighborhood":"North Park","city_fetched":"San Diego","state":"CA","country":"United States","canonicalUrl":"https://foursquare.com/v/belching-beaver-brewery/51789e8fe4b076e1bce5cfc4","category":"Brewery","checkinsCount":3522,"usersCount":2280,"tipCount":33,"visitsCount":4399,"url":"http://belchinbeaver.com","tier":1,"message":"Cheap","currency":"$","rating":8.9},{"name":"Urge Gastropub","phone":"8586738743","twitter":"urgegastropub","address":"16761 Bernardo Center Dr","lat":33.01719230960616,"lng":-117.07433581352234,"neighborhood":"Rancho Bernardo","city_fetched":"San Diego","state":"CA","country":"United States","canonicalUrl":"https://foursquare.com/v/urge-gastropub/4c48768e19fde21e98a20b76","category":"Gastropub","checkinsCount":7502,"usersCount":3352,"tipCount":86,"visitsCount":8469,"url":"http://www.urgegastropub.com","tier":2,"message":"Moderate","currency":"$","rating":8.9},{"name":"Fairweather","address":"795 J St","lat":32.708846659922514,"lng":-117.15750367658687,"neighborhood":"East Village","city_fetched":"San Diego","state":"CA","country":"United States","canonicalUrl":"https://foursquare.com/v/fairweather/53f901c0498e70ab3640fca2","category":"Bar","checkinsCount":675,"usersCount":413,"tipCount":11,"visitsCount":688,"url":"http://godblessrareform.com","tier":"","message":"","currency":"","rating":8.9},{"name":"Fall Brewing Co.","phone":"6195010903","twitter":"fallbrewing","address":"4542 30th St","lat":32.75998008820712,"lng":-117.13029843851727,"neighborhood":"North Park","city_fetched":"San Diego","state":"CA","country":"United States","canonicalUrl":"https://foursquare.com/v/fall-brewing-co/53af5ac7498ec433ee926b84","category":"Brewery","checkinsCount":1767,"usersCount":1316,"tipCount":17,"visitsCount":2851,"url":"http://fallbrewing.com","tier":"","message":"","currency":"","rating":8.9},{"name":"Half Door Brewing Company","phone":"6192329840","twitter":"halfdoorbrewing","address":"903 Island Ave","lat":32.710336476162404,"lng":-117.1564065756821,"neighborhood":"East Village","city_fetched":"San Diego","state":"CA","country":"United States","canonicalUrl":"https://foursquare.com/v/half-door-brewing-company/52e8bab311d2c54734f2299c","category":"Brewery","checkinsCount":1461,"usersCount":1312,"tipCount":11,"visitsCount":1991,"url":"http://halfdoorbrewing.com","tier":"","message":"","currency":"","rating":8.9},{"name":"Rare Form","phone":"6192556507","address":"793 J St","lat":32.70881923084235,"lng":-117.15740602910056,"neighborhood":"East Village","city_fetched":"San Diego","state":"CA","country":"United States","canonicalUrl":"https://foursquare.com/v/rare-form/539caa4f498efdb7bfb9b3d0","category":"Cocktail Bar","checkinsCount":1066,"usersCount":679,"tipCount":20,"visitsCount":1108,"url":"http://godblessrareform.com","tier":"","message":"","currency":"","rating":8.9},{"name":"Art Hookah Lounge","phone":"6195598855","address":"923 6th Ave","lat":32.71493305605959,"lng":-117.15937045781325,"neighborhood":"Gaslamp","city_fetched":"San Diego","state":"CA","country":"United States","canonicalUrl":"https://foursquare.com/v/art-hookah-lounge/55b1cbfa498ec1a2f1b5e61a","category":"Lounge","checkinsCount":460,"usersCount":262,"tipCount":4,"visitsCount":537,"tier":"","message":"","currency":"","rating":8.9},{"name":"Bistro Sixty","phone":"6192878186","twitter":"bistrosixtysd","address":"5987 El Cajon Blvd","lat":32.760509,"lng":-117.068481,"city_fetched":"San Diego","state":"CA","country":"United States","canonicalUrl":"https://foursquare.com/bistrosixtysd","category":"Restaurant","checkinsCount":856,"usersCount":221,"tipCount":3,"visitsCount":1021,"url":"http://bistrosixtysd.com","tier":3,"message":"Expensive","currency":"$","rating":8.9},{"name":"Mission Brewery","phone":"6195440555","twitter":"missionbrewery","address":"1441 L St","lat":32.707072284294235,"lng":-117.1515941619873,"neighborhood":"East Village","city_fetched":"San Diego","state":"CA","country":"United States","canonicalUrl":"https://foursquare.com/v/mission-brewery/4c422b9caf052d7f9b8e7e79","category":"Brewery","checkinsCount":5116,"usersCount":4098,"tipCount":58,"visitsCount":6235,"url":"http://missionbrewery.com","tier":2,"message":"Moderate","currency":"$","rating":8.9},{"name":"The Casbah","phone":"6192324355","twitter":"casbahsandiego","address":"2501 Kettner Blvd","lat":32.730287,"lng":-117.171886,"neighborhood":"Midtown","city_fetched":"San Diego","state":"CA","country":"United States","canonicalUrl":"https://foursquare.com/v/the-casbah/40e0b100f964a520d9011fe3","category":"Rock Club","checkinsCount":8485,"usersCount":3881,"tipCount":41,"visitsCount":9421,"tier":"","message":"","currency":"","rating":8.9},{"name":"Monkey Paw Pub & Brewery","phone":"6193589901","twitter":"monkeypawbrew","address":"805 16th St","lat":32.713806706031804,"lng":-117.14931964874268,"neighborhood":"East Village","city_fetched":"San Diego","state":"CA","country":"United States","canonicalUrl":"https://foursquare.com/v/monkey-paw-pub--brewery/4e010c21922ecbc92f4a62d4","category":"Brewery","checkinsCount":7320,"usersCount":3597,"tipCount":81,"visitsCount":8723,"url":"http://monkeypawbrewing.com","tier":1,"message":"Cheap","currency":"$","rating":8.9},{"name":"Queenstown Public House","phone":"6195460444","twitter":"queenstownph","address":"1557 Columbia St","lat":32.721724249016276,"lng":-117.16719352196455,"neighborhood":"Little Italy","city_fetched":"San Diego","state":"CA","country":"United States","canonicalUrl":"https://foursquare.com/v/queenstown-public-house/4f57df61e4b0b09e31372326","category":"New American Restaurant","checkinsCount":3790,"usersCount":2718,"tipCount":83,"visitsCount":4631,"url":"http://queenstownpublichouse.com","tier":2,"message":"Moderate","currency":"$","rating":8.9},{"name":"Jake's Del Mar","phone":"8587552002","twitter":"jakesindelmar","address":"1660 Coast Blvd","lat":32.96187033462669,"lng":-117.2680507786003,"city_fetched":"San Diego","state":"CA","country":"United States","canonicalUrl":"https://foursquare.com/jakesindelmar","category":"Seafood Restaurant","checkinsCount":4358,"usersCount":3427,"tipCount":70,"visitsCount":4636,"url":"http://www.jakesdelmar.com","tier":2,"message":"Moderate","currency":"$","rating":8.9},{"name":"White Labs Brewing Co.","phone":"8586933441","twitter":"whitelabs","address":"9495 Candida St","lat":32.895819,"lng":-117.121552,"neighborhood":"Miramar","city_fetched":"San Diego","state":"CA","country":"United States","canonicalUrl":"https://foursquare.com/v/white-labs-brewing-co/4faec204e4b07f15cee9f9ce","category":"Brewery","checkinsCount":1597,"usersCount":1402,"tipCount":15,"visitsCount":2062,"url":"http://whitelabs.com","tier":1,"message":"Cheap","currency":"$","rating":8.8},{"name":"Karl Strauss Brewery & Restaurant","phone":"8583762739","twitter":"karl_strauss","address":"10448 Reserve Dr","lat":33.021504345332666,"lng":-117.11330482786855,"city_fetched":"San Diego","state":"CA","country":"United States","canonicalUrl":"https://foursquare.com/v/karl-strauss-brewery--restaurant/500acb0de4b042b4061ec94f","category":"Brewery","checkinsCount":4290,"usersCount":2300,"tipCount":37,"visitsCount":5928,"url":"http://www.karlstrauss.com","tier":2,"message":"Moderate","currency":"$","rating":8.8},{"name":"Barleymash","phone":"6192557373","twitter":"barleymashsd","address":"600 5th Ave","lat":32.711650318077844,"lng":-117.16018609226846,"neighborhood":"Gaslamp","city_fetched":"San Diego","state":"CA","country":"United States","canonicalUrl":"https://foursquare.com/v/barleymash/4ee7e3a102d5895bd6b461e0","category":"Bar","checkinsCount":15535,"usersCount":9949,"tipCount":144,"visitsCount":16573,"url":"http://www.barleymash.com","tier":2,"message":"Moderate","currency":"$","rating":8.8},{"name":"Puesto","phone":"6192338880","twitter":"eatpuesto","address":"789 W Harbor Dr","lat":32.710563266785954,"lng":-117.17025488925289,"neighborhood":"Marina","city_fetched":"San Diego","state":"CA","country":"United States","canonicalUrl":"https://foursquare.com/v/puesto/519d265c498eac015c45f7f1","category":"Taco Place","checkinsCount":4092,"usersCount":3503,"tipCount":88,"visitsCount":5007,"url":"http://www.eatpuesto.com","tier":2,"message":"Moderate","currency":"$","rating":8.8},{"name":"Casa Guadalajara","phone":"6192955111","twitter":"casaguadalajar1","address":"4105 Taylor St","lat":32.75679677643888,"lng":-117.19806355572578,"neighborhood":"Old Town","city_fetched":"San Diego","state":"CA","country":"United States","canonicalUrl":"https://foursquare.com/v/casa-guadalajara/40e0b100f964a520d7011fe3","category":"Mexican Restaurant","checkinsCount":7169,"usersCount":6614,"tipCount":102,"visitsCount":8486,"url":"http://www.casaguadalajara.com","tier":2,"message":"Moderate","currency":"$","rating":8.8},{"name":"The Quartyard","twitter":"quartyardsd","address":"1102 Market St","lat":32.71207616605309,"lng":-117.15416640375767,"neighborhood":"East Village","city_fetched":"San Diego","state":"CA","country":"United States","canonicalUrl":"https://foursquare.com/v/the-quartyard/54fbbd45498e88b585b3b667","category":"Pedestrian Plaza","checkinsCount":1459,"usersCount":1210,"tipCount":11,"visitsCount":2220,"url":"http://www.quartyardsd.com","tier":"","message":"","currency":"","rating":8.8},{"name":"Yu Me Ya Sake House","phone":"7606334288","address":"1246 N Coast Highway 101","lat":33.07055389232809,"lng":-117.3044960483165,"city_fetched":"San Diego","state":"CA","country":"United States","canonicalUrl":"https://foursquare.com/v/yu-me-ya-sake-house/4b2eedfcf964a52069e824e3","category":"Sake Bar","checkinsCount":571,"usersCount":368,"tipCount":15,"visitsCount":665,"url":"http://sakehouseyumeya.com","tier":"","message":"","currency":"","rating":8.8},{"name":"Second Chance Beer Co.","phone":"8586496275","twitter":"2ndchancebeerco","address":"15378 Avenue of Science #222","lat":32.99459143202581,"lng":-117.08165782860087,"neighborhood":"Carmel Mountain","city_fetched":"San Diego","state":"CA","country":"United States","canonicalUrl":"https://foursquare.com/v/second-chance-beer-co/55f0da5d498e1b4c653c4406","category":"Brewery","checkinsCount":262,"usersCount":263,"tipCount":5,"visitsCount":537,"url":"http://secondchancebeer.com","tier":"","message":"","currency":"","rating":8.8},{"name":"Cali Comfort BBQ","phone":"6193370670","twitter":"calicomfort","address":"8910 Troy St","lat":32.73689777,"lng":-117.007991,"city_fetched":"San Diego","state":"CA","country":"United States","canonicalUrl":"https://foursquare.com/v/cali-comfort-bbq/4af8dd99f964a520561022e3","category":"BBQ Joint","checkinsCount":2362,"usersCount":1139,"tipCount":40,"visitsCount":3072,"url":"http://www.calicomfortsd.com","tier":2,"message":"Moderate","currency":"$","rating":8.8},{"name":"The Balboa Theatre","address":"868 4th Ave","lat":32.714341000901925,"lng":-117.16116255177911,"neighborhood":"Horton Plaza","city_fetched":"San Diego","state":"CA","country":"United States","canonicalUrl":"https://foursquare.com/v/the-balboa-theatre/4ac7c857f964a520bfb920e3","category":"Theater","checkinsCount":3617,"usersCount":2596,"tipCount":23,"visitsCount":3814,"tier":"","message":"","currency":"","rating":8.8},{"name":"Tower23","phone":"8582702323","address":"723 Felspar St","lat":32.797085903723165,"lng":-117.25683860827121,"neighborhood":"Pacific Beach","city_fetched":"San Diego","state":"CA","country":"United States","canonicalUrl":"https://foursquare.com/v/tower23/4ac80b2df964a52058bb20e3","category":"Hotel","checkinsCount":4337,"usersCount":2738,"tipCount":25,"visitsCount":4369,"url":"http://www.tower23hotel.com","tier":"","message":"","currency":"","rating":8.8},{"name":"The Red Door","phone":"6192956000","twitter":"thereddoorsd","address":"741 W Washington St","lat":32.749838,"lng":-117.170297,"neighborhood":"Hillcrest","city_fetched":"San Diego","state":"CA","country":"United States","canonicalUrl":"https://foursquare.com/v/the-red-door/4b285435f964a520899224e3","category":"American Restaurant","checkinsCount":1366,"usersCount":858,"tipCount":31,"visitsCount":1383,"url":"http://www.thereddoorsd.com","tier":3,"message":"Expensive","currency":"$","rating":8.8},{"name":"Small Bar","phone":"6197957998","twitter":"smallbarsd","address":"4628 Park Blvd","lat":32.761578509426116,"lng":-117.14643895626068,"neighborhood":"University Heights","city_fetched":"San Diego","state":"CA","country":"United States","canonicalUrl":"https://foursquare.com/v/small-bar/4ab33317f964a520916d20e3","category":"Bar","checkinsCount":12591,"usersCount":3983,"tipCount":104,"visitsCount":12935,"url":"http://smallbarsd.com","tier":1,"message":"Cheap","currency":"$","rating":8.8},{"name":"Amarin Thai Restaurant","phone":"6192966056","address":"3843 Richmond St","lat":32.748055458067896,"lng":-117.151145,"neighborhood":"Hillcrest","city_fetched":"San Diego","state":"CA","country":"United States","canonicalUrl":"https://foursquare.com/v/amarin-thai-restaurant/4ad55c8ff964a520e60221e3","category":"Thai Restaurant","checkinsCount":4437,"usersCount":2608,"tipCount":68,"visitsCount":4526,"url":"http://www.amarinthaisandiego.com","tier":2,"message":"Moderate","currency":"$","rating":8.8},{"name":"Council Brewing Co.","phone":"8582560038","twitter":"councilbrewing","address":"7705 Convoy Ct","lat":32.83447092714768,"lng":-117.15426979684709,"neighborhood":"Kearny Mesa","city_fetched":"San Diego","state":"CA","country":"United States","canonicalUrl":"https://foursquare.com/v/council-brewing-co/536c35df498e66e48fedda3d","category":"Brewery","checkinsCount":1394,"usersCount":950,"tipCount":22,"visitsCount":2085,"url":"http://councilbrew.com","tier":"","message":"","currency":"","rating":8.8},{"name":"The Aero Club Bar","phone":"6192977211","twitter":"aeroclub3365","address":"3365 India St","lat":32.73806807336119,"lng":-117.17648506164551,"neighborhood":"Midtown","city_fetched":"San Diego","state":"CA","country":"United States","canonicalUrl":"https://foursquare.com/v/the-aero-club-bar/40e0b100f964a5209c011fe3","category":"Whisky Bar","checkinsCount":4326,"usersCount":2105,"tipCount":33,"visitsCount":4828,"url":"http://aeroclubbar.com","tier":2,"message":"Moderate","currency":"$","rating":8.8},{"name":"Luce Bar & Kitchen","phone":"6192750321","address":"1959 Morena Blvd","lat":32.78164974925539,"lng":-117.20702791094665,"neighborhood":"Bay Park","city_fetched":"San Diego","state":"CA","country":"United States","canonicalUrl":"https://foursquare.com/v/luce-bar--kitchen/504ad2bae4b06b302104e9e0","category":"Gastropub","checkinsCount":2140,"usersCount":935,"tipCount":21,"visitsCount":2663,"url":"http://sandiegoluce.com","tier":2,"message":"Moderate","currency":"$","rating":8.8},{"name":"SD Tap Room","phone":"8582741010","twitter":"taproom","address":"1269 Garnet Ave","lat":32.798368569574514,"lng":-117.24664779376681,"neighborhood":"Pacific Beach","city_fetched":"San Diego","state":"CA","country":"United States","canonicalUrl":"https://foursquare.com/v/sd-tap-room/48465e4cf964a5206b501fe3","category":"Bar","checkinsCount":7820,"usersCount":3554,"tipCount":62,"visitsCount":8366,"url":"http://sdtaproom.com","tier":2,"message":"Moderate","currency":"$","rating":8.7},{"name":"Cat Eye Club","phone":"6193309509","twitter":"cateyeclub","address":"370 7th Ave","lat":32.70920922360443,"lng":-117.15831931847742,"neighborhood":"East Village","city_fetched":"San Diego","state":"CA","country":"United States","canonicalUrl":"https://foursquare.com/cateyeclub","category":"Cocktail Bar","checkinsCount":961,"usersCount":495,"tipCount":11,"visitsCount":1002,"url":"http://www.cateyeclubsd.com","tier":2,"message":"Moderate","currency":"$","rating":8.7},{"name":"The Canyon Sports Pub & Grill","phone":"6194221806","twitter":"cynclub","address":"421 Telegraph Canyon Rd","lat":32.62900508333333,"lng":-117.045537,"neighborhood":"Hilltop","city_fetched":"San Diego","state":"CA","country":"United States","canonicalUrl":"https://foursquare.com/v/the-canyon-sports-pub--grill/4a822cf2f964a520d0f81fe3","category":"Sports Bar","checkinsCount":2792,"usersCount":531,"tipCount":18,"visitsCount":3002,"url":"http://www.cynclub.com","tier":"","message":"","currency":"","rating":8.7},{"name":"Chiba","phone":"6195841836","twitter":"normeezy","address":"10435 San Diego Mission Rd","lat":32.78467233663225,"lng":-117.11147367954254,"neighborhood":"Grantville","city_fetched":"San Diego","state":"CA","country":"United States","canonicalUrl":"https://foursquare.com/v/chiba/4a56b00af964a520a5b51fe3","category":"Sushi Restaurant","checkinsCount":2208,"usersCount":907,"tipCount":23,"visitsCount":2321,"url":"http://chibasandiego.com","tier":"","message":"","currency":"","rating":8.7},{"name":"Cass Street Bar & Grill","phone":"8582701320","address":"4612 Cass St","lat":32.7986429,"lng":-117.25237295,"neighborhood":"Pacific Beach","city_fetched":"San Diego","state":"CA","country":"United States","canonicalUrl":"https://foursquare.com/v/cass-street-bar--grill/40e0b100f964a520da011fe3","category":"Bar","checkinsCount":4617,"usersCount":2109,"tipCount":42,"visitsCount":4746,"tier":1,"message":"Cheap","currency":"$","rating":8.7},{"name":"Toronado","phone":"6192820456","twitter":"toronadosd","address":"4026 30th St","lat":32.75084990408535,"lng":-117.13040184362248,"neighborhood":"North Park","city_fetched":"San Diego","state":"CA","country":"United States","canonicalUrl":"https://foursquare.com/v/toronado/48344d88f964a520e54f1fe3","category":"Bar","checkinsCount":14195,"usersCount":5038,"tipCount":81,"visitsCount":15062,"url":"http://www.toronadosd.com","tier":2,"message":"Moderate","currency":"$","rating":8.7},{"name":"The Patio on Lamont Street","phone":"8584124648","twitter":"patioonlamont","address":"4445 Lamont St","lat":32.79981087607812,"lng":-117.23482847213745,"neighborhood":"Pacific Beach","city_fetched":"San Diego","state":"CA","country":"United States","canonicalUrl":"https://foursquare.com/v/the-patio-on-lamont-street/4f997d5d7b0c6426c6ed8561","category":"New American Restaurant","checkinsCount":2592,"usersCount":1959,"tipCount":32,"visitsCount":3371,"url":"http://thepatioonlamont.com","tier":3,"message":"Expensive","currency":"$","rating":8.7},{"name":"Turf Supper Club","phone":"6192346363","twitter":"turfsupperclub","address":"1116 25th St","lat":32.71728246080882,"lng":-117.14046061400525,"neighborhood":"Golden Hill","city_fetched":"San Diego","state":"CA","country":"United States","canonicalUrl":"https://foursquare.com/v/turf-supper-club/40e0b100f964a520d5021fe3","category":"Lounge","checkinsCount":6240,"usersCount":2078,"tipCount":50,"visitsCount":6613,"url":"http://www.turfsupperclub.com","tier":2,"message":"Moderate","currency":"$","rating":8.7},{"name":"Karl Strauss Brewery & Restaurant","phone":"6192342739","twitter":"karlstraussbeer","address":"1157 Columbia St","lat":32.71746077180261,"lng":-117.16723372783578,"neighborhood":"Central San Diego","city_fetched":"San Diego","state":"CA","country":"United States","canonicalUrl":"https://foursquare.com/v/karl-strauss-brewery--restaurant/40e0b100f964a52052021fe3","category":"Brewery","checkinsCount":8990,"usersCount":5585,"tipCount":102,"visitsCount":9702,"url":"http://karlstrauss.com","tier":2,"message":"Moderate","currency":"$","rating":8.7},{"name":"Shakespeare Pub & Grille","phone":"6192990230","twitter":"shakespearepub1","address":"3701 India St","lat":32.742627,"lng":-117.180445,"neighborhood":"Midtown","city_fetched":"San Diego","state":"CA","country":"United States","canonicalUrl":"https://foursquare.com/shakespearepub1","category":"Bar","checkinsCount":6087,"usersCount":3562,"tipCount":65,"visitsCount":6306,"url":"http://www.shakespearepub.com","tier":2,"message":"Moderate","currency":"$","rating":8.7},{"name":"El Dorado Cocktail Lounge","phone":"6192370550","twitter":"eldoradobar","address":"1030 Broadway","lat":32.71591865247647,"lng":-117.15505098739222,"neighborhood":"Central San Diego","city_fetched":"San Diego","state":"CA","country":"United States","canonicalUrl":"https://foursquare.com/v/el-dorado-cocktail-lounge/491be395f964a52073521fe3","category":"Cocktail Bar","checkinsCount":6141,"usersCount":3047,"tipCount":71,"visitsCount":6449,"url":"http://eldoradobar.com","tier":2,"message":"Moderate","currency":"$","rating":8.7},{"name":"Flicks","phone":"6192972056","address":"1017 University Ave","lat":32.748286,"lng":-117.154791,"neighborhood":"Hillcrest","city_fetched":"San Diego","state":"CA","country":"United States","canonicalUrl":"https://foursquare.com/v/flicks/40e0b100f964a52029021fe3","category":"Gay Bar","checkinsCount":10932,"usersCount":3435,"tipCount":34,"visitsCount":12689,"url":"http://sdflicks.com","tier":1,"message":"Cheap","currency":"$","rating":8.7},{"name":"Newport Pizza & Ale House","phone":"6192244540","twitter":"newportpizza","address":"5050 Newport Ave","lat":32.74752038693307,"lng":-117.25185522086399,"neighborhood":"Ocean Beach","city_fetched":"San Diego","state":"CA","country":"United States","canonicalUrl":"https://foursquare.com/v/newport-pizza--ale-house/4a8ef973f964a520691320e3","category":"Pizza Place","checkinsCount":2720,"usersCount":1316,"tipCount":48,"visitsCount":2736,"url":"http://obpizzashop.com","tier":1,"message":"Cheap","currency":"$","rating":8.7},{"name":"Wonderland Ocean Pub","phone":"6192553358","twitter":"wonderlandob","address":"5083 Santa Monica Ave #2C","lat":32.748417325113664,"lng":-117.25216525086726,"neighborhood":"Ocean Beach","city_fetched":"San Diego","state":"CA","country":"United States","canonicalUrl":"https://foursquare.com/v/wonderland-ocean-pub/51759f18e4b0c13e9168df19","category":"American Restaurant","checkinsCount":4657,"usersCount":2625,"tipCount":62,"visitsCount":5275,"url":"http://www.wonderlandob.com","tier":2,"message":"Moderate","currency":"$","rating":8.7},{"name":"Harney Sushi","phone":"6192953272","twitter":"harneysushi","address":"3964 Harney St","lat":32.75226908959603,"lng":-117.19550223876386,"neighborhood":"Old Town","city_fetched":"San Diego","state":"CA","country":"United States","canonicalUrl":"https://foursquare.com/v/harney-sushi/4a6bc7b8f964a520f1cf1fe3","category":"Sushi Restaurant","checkinsCount":5193,"usersCount":3516,"tipCount":85,"visitsCount":5681,"url":"http://www.harneysushi.com","tier":2,"message":"Moderate","currency":"$","rating":8.7},{"name":"Gossip Grill","phone":"6192608023","address":"1220 University Ave","lat":32.748772217218935,"lng":-117.15299461176592,"neighborhood":"Hillcrest","city_fetched":"San Diego","state":"CA","country":"United States","canonicalUrl":"https://foursquare.com/v/gossip-grill/4b11a3b9f964a520248123e3","category":"American Restaurant","checkinsCount":11000,"usersCount":3598,"tipCount":68,"visitsCount":11935,"url":"http://thegossipgrill.com","tier":2,"message":"Moderate","currency":"$","rating":8.7},{"name":"Wine Steals - Seaside Grotto","phone":"7602302657","twitter":"wine_steals","address":"1953 San Elijo Ave","lat":33.02309745365209,"lng":-117.28356766510188,"city_fetched":"San Diego","state":"CA","country":"United States","canonicalUrl":"https://foursquare.com/v/wine-steals--seaside-grotto/4af23431f964a5208ae621e3","category":"Wine Bar","checkinsCount":2230,"usersCount":1152,"tipCount":30,"visitsCount":2442,"url":"http://www.winestealssd.com","tier":"","message":"","currency":"","rating":8.6},{"name":"En Fuego Cantina & Grill","phone":"8587926551","twitter":"enfuegodelmar","address":"1342 Camino del Mar","lat":32.95830149418836,"lng":-117.26516962051392,"city_fetched":"San Diego","state":"CA","country":"United States","canonicalUrl":"https://foursquare.com/v/en-fuego-cantina--grill/40e0b100f964a5201d021fe3","category":"Mexican Restaurant","checkinsCount":3748,"usersCount":2629,"tipCount":29,"visitsCount":4196,"url":"http://www.enfuegocantina.com","tier":2,"message":"Moderate","currency":"$","rating":8.6},{"name":"Eddie V's Prime Seafood","phone":"6196150281","twitter":"eddievs","address":"789 W Harbor Dr","lat":32.71133326,"lng":-117.1690607,"neighborhood":"Marina","city_fetched":"San Diego","state":"CA","country":"United States","canonicalUrl":"https://foursquare.com/v/eddie-vs-prime-seafood/52d98abc11d23c6d7d412924","category":"Seafood Restaurant","checkinsCount":716,"usersCount":529,"tipCount":6,"visitsCount":796,"url":"http://eddiev.com","tier":"","message":"","currency":"","rating":8.6},{"name":"South Beach Bar & Grille","phone":"6192264577","address":"5059 Newport Ave","lat":32.747394486825115,"lng":-117.25224807858467,"neighborhood":"Ocean Beach","city_fetched":"San Diego","state":"CA","country":"United States","canonicalUrl":"https://foursquare.com/v/south-beach-bar--grille/45a8f771f964a5201f411fe3","category":"Bar","checkinsCount":12688,"usersCount":7325,"tipCount":184,"visitsCount":13180,"url":"http://southbeachob.com","tier":2,"message":"Moderate","currency":"$","rating":8.6},{"name":"Eastbound Bar and Grill","phone":"6193342566","address":"10053 Maine Ave","lat":32.86129182002396,"lng":-116.92196515060562,"city_fetched":"San Diego","state":"CA","country":"United States","canonicalUrl":"https://foursquare.com/v/eastbound-bar-and-grill/4b6f6f0bf964a52059f02ce3","category":"Bar","checkinsCount":2761,"usersCount":1142,"tipCount":25,"visitsCount":3290,"url":"http://eastboundbarandgrill.com","tier":2,"message":"Moderate","currency":"$","rating":8.6},{"name":"Rough Draft Brewing Company","phone":"8584537238","twitter":"roughdraftbrew","address":"8830 Rehco Rd Ste D","lat":32.88366195117525,"lng":-117.17157661914825,"neighborhood":"Sorrento Valley","city_fetched":"San Diego","state":"CA","country":"United States","canonicalUrl":"https://foursquare.com/roughdraftbrew","category":"Brewery","checkinsCount":1771,"usersCount":1321,"tipCount":18,"visitsCount":2288,"url":"http://www.roughdraftbrew.com","tier":1,"message":"Cheap","currency":"$","rating":8.6},{"name":"Halcyon East Village","phone":"6192340807","twitter":"halcyonsd","address":"1429 Island Ave","lat":32.71017514268848,"lng":-117.15171367462175,"neighborhood":"East Village","city_fetched":"San Diego","state":"CA","country":"United States","canonicalUrl":"https://foursquare.com/halcyonsd","category":"Lounge","checkinsCount":463,"usersCount":308,"tipCount":4,"visitsCount":598,"url":"http://halcyoneastvillage.com","tier":2,"message":"Moderate","currency":"$","rating":8.6},{"name":"Salt & Cleaver","phone":"6197566677","address":"3805 5th Ave","lat":32.74724670422991,"lng":-117.16016886058821,"neighborhood":"Hillcrest","city_fetched":"San Diego","state":"CA","country":"United States","canonicalUrl":"https://foursquare.com/v/salt--cleaver/51901142498e62e04fae0bb8","category":"Gastropub","checkinsCount":1602,"usersCount":1006,"tipCount":37,"visitsCount":1659,"url":"http://www.enjoysausage.com","tier":2,"message":"Moderate","currency":"$","rating":8.6},{"name":"Board & Brew","phone":"8584811021","twitter":"boardnbrewsc","address":"1212 Camino del Mar","lat":32.956786,"lng":-117.264486,"city_fetched":"San Diego","state":"CA","country":"United States","canonicalUrl":"https://foursquare.com/v/board--brew/442a8b33f964a520c8311fe3","category":"Sandwich Place","checkinsCount":3521,"usersCount":2189,"tipCount":43,"visitsCount":4271,"url":"http://boardnbrewdelmar.com","tier":1,"message":"Cheap","currency":"$","rating":8.6},{"name":"Duck Foot Brewing Company","phone":"8584337916","twitter":"duckfootbeer","address":"8920 Kenamar Dr #210","lat":32.88520616535315,"lng":-117.15616532757471,"neighborhood":"Miramar","city_fetched":"San Diego","state":"CA","country":"United States","canonicalUrl":"https://foursquare.com/duckfootbeer","category":"Brewery","checkinsCount":378,"usersCount":505,"tipCount":6,"visitsCount":689,"url":"http://www.duckfootbeer.com","tier":"","message":"","currency":"","rating":8.6},{"name":"Catania Restaurant","phone":"8582470351","twitter":"cataniasd","address":"7863 Girard Ave","lat":32.84658802321718,"lng":-117.2742393071237,"neighborhood":"Village","city_fetched":"San Diego","state":"CA","country":"United States","canonicalUrl":"https://foursquare.com/v/catania-restaurant/540b7962498e51f0a5102663","category":"Restaurant","checkinsCount":304,"usersCount":297,"tipCount":6,"visitsCount":398,"url":"http://cataniasd.com","tier":4,"message":"Very Expensive","currency":"$","rating":8.6},{"name":"Mikkeller Brewing San Diego","phone":"8583537174","twitter":"mikkellersd","address":"9368 Cabot Dr","lat":32.89226749067668,"lng":-117.14475741439826,"neighborhood":"Miramar","city_fetched":"San Diego","state":"CA","country":"United States","canonicalUrl":"https://foursquare.com/v/mikkeller-brewing-san-diego/56bec6a7498ea4e621f505f9","category":"Brewery","checkinsCount":320,"usersCount":366,"tipCount":4,"visitsCount":464,"url":"http://mikkeller.dk/location/mikkeller-brewing-san-diego/","tier":"","message":"","currency":"","rating":8.6},{"name":"Harbor Town Pub","phone":"6192241321","twitter":"harbortownpub","address":"1125 Rosecrans St","lat":32.72159538519947,"lng":-117.23142663802693,"neighborhood":"Roseville - Fleet Ridge","city_fetched":"San Diego","state":"CA","country":"United States","canonicalUrl":"https://foursquare.com/v/harbor-town-pub/4e62a056d22d509a39b79be8","category":"Bar","checkinsCount":2738,"usersCount":1582,"tipCount":34,"visitsCount":3426,"url":"http://www.harbortownpub.com","tier":2,"message":"Moderate","currency":"$","rating":8.6},{"name":"The Waterfront Bar & Grill","phone":"6192329656","twitter":"waterfrontsd","address":"2044 Kettner Blvd","lat":32.72571256948746,"lng":-117.17014968395233,"neighborhood":"Harborview","city_fetched":"San Diego","state":"CA","country":"United States","canonicalUrl":"https://foursquare.com/v/the-waterfront-bar--grill/40e0b100f964a520da021fe3","category":"Dive Bar","checkinsCount":14038,"usersCount":6314,"tipCount":94,"visitsCount":15653,"url":"http://www.waterfrontbarandgrill.com","tier":2,"message":"Moderate","currency":"$","rating":8.6},{"name":"Pony Room","address":"5921 Valencia Cir","lat":32.9909475789587,"lng":-117.18639953984473,"city_fetched":"San Diego","state":"CA","country":"United States","canonicalUrl":"https://foursquare.com/v/pony-room/50aafaefe4b0b07578a22b72","category":"Hotel Bar","checkinsCount":189,"usersCount":112,"tipCount":7,"visitsCount":197,"url":"http://ranchovalencia.com","tier":"","message":"","currency":"","rating":8.6},{"name":"Mike Hess Brewing Ocean Beach","twitter":"mhb","address":"4893 Voltaire St","lat":32.75074670363958,"lng":-117.24485456943513,"neighborhood":"Ocean Beach","city_fetched":"San Diego","state":"CA","country":"United States","canonicalUrl":"https://foursquare.com/v/mike-hess-brewing-ocean-beach/55e24101498e77ce6e538689","category":"Brewery","checkinsCount":209,"usersCount":201,"tipCount":2,"visitsCount":280,"url":"http://www.mikehessbrewing.com","tier":"","message":"","currency":"","rating":8.6},{"name":"Stone Brewing Tap Room","phone":"6197274452","twitter":"stonetaproomsd","address":"795 J St","lat":32.70879448123587,"lng":-117.15740602910056,"neighborhood":"East Village","city_fetched":"San Diego","state":"CA","country":"United States","canonicalUrl":"https://foursquare.com/v/stone-brewing-tap-room/52eae1c0498e2dabe6e19245","category":"Gastropub","checkinsCount":1596,"usersCount":1302,"tipCount":20,"visitsCount":1657,"url":"http://stonebrewing.com/visit/","tier":2,"message":"Moderate","currency":"$","rating":8.6},{"name":"High Dive Bar & Grill","phone":"6192750460","twitter":"highdivesd","address":"1801 Morena Blvd","lat":32.77913660335213,"lng":-117.20737820763536,"neighborhood":"Bay Park","city_fetched":"San Diego","state":"CA","country":"United States","canonicalUrl":"https://foursquare.com/v/high-dive-bar--grill/45520788f964a520ef3c1fe3","category":"Sports Bar","checkinsCount":5852,"usersCount":2303,"tipCount":72,"visitsCount":6474,"url":"http://highdiveinc.com","tier":2,"message":"Moderate","currency":"$","rating":8.6},{"name":"Bleu Boheme","phone":"6192554167","address":"4090 Adams Ave","lat":32.76341868378001,"lng":-117.10746187368204,"neighborhood":"Kensington","city_fetched":"San Diego","state":"CA","country":"United States","canonicalUrl":"https://foursquare.com/v/bleu-boheme/4a906532f964a520a01720e3","category":"French Restaurant","checkinsCount":3300,"usersCount":1267,"tipCount":37,"visitsCount":3356,"url":"http://www.bleuboheme.com","tier":3,"message":"Expensive","currency":"$","rating":8.5},{"name":"Wine Vault & Bistro","phone":"6192953939","address":"3731 India St","lat":32.74298071861267,"lng":-117.180676,"neighborhood":"Midtown","city_fetched":"San Diego","state":"CA","country":"United States","canonicalUrl":"https://foursquare.com/v/wine-vault--bistro/4b205a5ff964a520073124e3","category":"Wine Bar","checkinsCount":861,"usersCount":522,"tipCount":20,"visitsCount":865,"url":"http://www.winevaultbistro.com","tier":"","message":"","currency":"","rating":8.5},{"name":"The Westin San Diego","phone":"6192394500","twitter":"spg","address":"400 W Broadway","lat":32.71594232247268,"lng":-117.16692931175699,"neighborhood":"Central San Diego","city_fetched":"San Diego","state":"CA","country":"United States","canonicalUrl":"https://foursquare.com/v/the-westin-san-diego/4ab7f469f964a520967b20e3","category":"Hotel","checkinsCount":9364,"usersCount":5355,"tipCount":69,"visitsCount":11090,"url":"http://www.spg.com/foursquare/","tier":"","message":"","currency":"","rating":8.5},{"name":"Counterpoint","phone":"6195646722","address":"830 25th St","lat":32.714420557022095,"lng":-117.14034243333333,"neighborhood":"Golden Hill","city_fetched":"San Diego","state":"CA","country":"United States","canonicalUrl":"https://foursquare.com/v/counterpoint/4b089fe7f964a520b90f23e3","category":"Bar","checkinsCount":2705,"usersCount":1086,"tipCount":24,"visitsCount":2904,"url":"http://counterpointsd.com","tier":2,"message":"Moderate","currency":"$","rating":8.5},{"name":"Enoteca Adriano","phone":"8584900085","address":"4864 Cass St","lat":32.803344,"lng":-117.253793,"neighborhood":"Pacific Beach","city_fetched":"San Diego","state":"CA","country":"United States","canonicalUrl":"https://foursquare.com/v/enoteca-adriano/4a9730f6f964a520eb2820e3","category":"Italian Restaurant","checkinsCount":1010,"usersCount":727,"tipCount":15,"visitsCount":1121,"url":"http://www.enotecaadriano.com","tier":2,"message":"Moderate","currency":"$","rating":8.5},{"name":"Stone Company Store","phone":"6194504518","twitter":"stonestore","address":"1202 Kettner Blvd Ste 101","lat":32.717741327863074,"lng":-117.16937037133154,"neighborhood":"Central San Diego","city_fetched":"San Diego","state":"CA","country":"United States","canonicalUrl":"https://foursquare.com/v/stone-company-store/52785f0f11d25028a33cfc74","category":"Pub","checkinsCount":973,"usersCount":670,"tipCount":14,"visitsCount":1209,"url":"http://www.stonebrewing.com","tier":1,"message":"Cheap","currency":"$","rating":8.5},{"name":"Sbicca","phone":"8584811001","twitter":"sbicca","address":"215 15th St","lat":32.95935624571609,"lng":-117.26586924812551,"city_fetched":"San Diego","state":"CA","country":"United States","canonicalUrl":"https://foursquare.com/v/sbicca/442ab9d6f964a520cb311fe3","category":"Wine Bar","checkinsCount":1554,"usersCount":1006,"tipCount":27,"visitsCount":1597,"url":"http://www.sbiccabistro.com","tier":"","message":"","currency":"","rating":8.5},{"name":"Truluck's Seafood, Steak and Crab House","phone":"8584532583","twitter":"truluckslajolla","address":"8990 University Center Ln","lat":32.87074770700394,"lng":-117.22436785697937,"neighborhood":"University City","city_fetched":"San Diego","state":"CA","country":"United States","canonicalUrl":"https://foursquare.com/v/trulucks-seafood-steak-and-crab-house/4a872db5f964a520110320e3","category":"Seafood Restaurant","checkinsCount":2769,"usersCount":2043,"tipCount":46,"visitsCount":3026,"url":"http://www.trulucks.com","tier":3,"message":"Expensive","currency":"$","rating":8.5},{"name":"Eureka Gourmet Burger and Craft Beer","phone":"8582103444","twitter":"discover_eureka","address":"4353 La Jolla Village Dr","lat":32.86974728238772,"lng":-117.21244882805125,"neighborhood":"University City","city_fetched":"San Diego","state":"CA","country":"United States","canonicalUrl":"https://foursquare.com/v/eureka-gourmet-burger-and-craft-beer/50bffa15e4b0c9670efcf431","category":"Gastropub","checkinsCount":4636,"usersCount":2944,"tipCount":75,"visitsCount":5696,"url":"http://eurekarestaurantgroup.com","tier":2,"message":"Moderate","currency":"$","rating":8.5},{"name":"Thorn Street Brewery","phone":"6195012739","address":"3176 Thorn St","lat":32.739404963329626,"lng":-117.12547280917937,"neighborhood":"North Park","city_fetched":"San Diego","state":"CA","country":"United States","canonicalUrl":"https://foursquare.com/v/thorn-street-brewery/50ac5b75e4b0e68f4018f430","category":"Brewery","checkinsCount":2634,"usersCount":1409,"tipCount":23,"visitsCount":3355,"url":"http://thornstreetbrew.com","tier":1,"message":"Cheap","currency":"$","rating":8.5},{"name":"Veranda at Rancho Bernardo Inn","phone":"8772695250","address":"17550 Bernardo Oaks Dr","lat":33.03118101101454,"lng":-117.06720593179892,"neighborhood":"Rancho Bernardo","city_fetched":"San Diego","state":"CA","country":"United States","canonicalUrl":"https://foursquare.com/v/veranda-at-rancho-bernardo-inn/4aeb5bcaf964a5205dc121e3","category":"Caf√©","checkinsCount":1295,"usersCount":784,"tipCount":12,"visitsCount":1317,"url":"http://www.ranchobernardoinn.com/veranda/","tier":2,"message":"Moderate","currency":"$","rating":8.5},{"name":"ENO Wine Room at The Del","phone":"6195228546","address":"1500 Orange Ave","lat":32.6802740014072,"lng":-117.17835187911987,"city_fetched":"San Diego","state":"CA","country":"United States","canonicalUrl":"https://foursquare.com/v/eno-wine-room-at-the-del/4b1d19fbf964a520dc0b24e3","category":"Wine Bar","checkinsCount":552,"usersCount":438,"tipCount":12,"visitsCount":555,"url":"http://www.hoteldel.com/?utm_campaign=foursquare_profile&utm_source=foursquare&utm_medium=social","tier":"","message":"","currency":"","rating":8.5},{"name":"Nolbu Mini","phone":"8584998999","address":"4633 Convoy St Ste 102","lat":32.824775351238664,"lng":-117.15483845790642,"neighborhood":"Kearny Mesa","city_fetched":"San Diego","state":"CA","country":"United States","canonicalUrl":"https://foursquare.com/v/nolbu-mini/5179d11a498e5b4056da1d2f","category":"Dive Bar","checkinsCount":1157,"usersCount":292,"tipCount":24,"visitsCount":1221,"tier":1,"message":"Cheap","currency":"$","rating":8.5},{"name":"UnderBelly","phone":"6192694626","twitter":"underbellysd","address":"750 W Fir St Ste 101","lat":32.724207,"lng":-117.169315,"neighborhood":"Little Italy","city_fetched":"San Diego","state":"CA","country":"United States","canonicalUrl":"https://foursquare.com/underbellysd","category":"Gastropub","checkinsCount":5821,"usersCount":3416,"tipCount":81,"visitsCount":6349,"url":"http://www.godblessunderbelly.com","tier":2,"message":"Moderate","currency":"$","rating":8.5},{"name":"Coronado Brewing Company","phone":"6194374452","twitter":"coronadobrewing","address":"170 Orange Ave","lat":32.69773815447714,"lng":-117.17328749305842,"city_fetched":"San Diego","state":"CA","country":"United States","canonicalUrl":"https://foursquare.com/v/coronado-brewing-company/40e0b100f964a520f7011fe3","category":"Brewery","checkinsCount":7491,"usersCount":6422,"tipCount":83,"visitsCount":8890,"url":"http://www.coronadobrewingcompany.com","tier":2,"message":"Moderate","currency":"$","rating":8.5},{"name":"The Shout House","phone":"6192316700","twitter":"theshouthousesd","address":"655 4th Ave","lat":32.712082525827434,"lng":-117.16085314750671,"neighborhood":"Gaslamp","city_fetched":"San Diego","state":"CA","country":"United States","canonicalUrl":"https://foursquare.com/v/the-shout-house/4a8230fdf964a520d6f81fe3","category":"Piano Bar","checkinsCount":6347,"usersCount":4829,"tipCount":41,"visitsCount":6420,"url":"http://www.theshouthouse.com","tier":"","message":"","currency":"","rating":8.5},{"name":"BO-beau kitchen + garden","phone":"6193373445","twitter":"bobeaugarden","address":"8384 La Mesa Blvd","lat":32.76584775693604,"lng":-117.01729753064404,"city_fetched":"San Diego","state":"CA","country":"United States","canonicalUrl":"https://foursquare.com/v/bobeau-kitchen--garden/522e5ad011d2f2b78de5453d","category":"French Restaurant","checkinsCount":909,"usersCount":618,"tipCount":17,"visitsCount":1161,"url":"http://www.cohnrestaurants.com/bobeaukitchengarden","tier":2,"message":"Moderate","currency":"$","rating":8.5},{"name":"El Camino","phone":"6196853881","twitter":"elcaminosd","address":"2400 India St","lat":32.72940405719778,"lng":-117.17092752456665,"neighborhood":"Little Italy","city_fetched":"San Diego","state":"CA","country":"United States","canonicalUrl":"https://foursquare.com/v/el-camino/4b29a964f964a52040a224e3","category":"Mexican Restaurant","checkinsCount":9082,"usersCount":5423,"tipCount":84,"visitsCount":10093,"url":"http://www.elcaminosd.com","tier":2,"message":"Moderate","currency":"$","rating":8.5},{"name":"North Park Beer Company","lat":32.748729,"lng":-117.129109,"neighborhood":"North Park","city_fetched":"San Diego","state":"CA","country":"United States","canonicalUrl":"https://foursquare.com/v/north-park-beer-company/576e132c498e38f2b98b656e","category":"Brewery","checkinsCount":269,"usersCount":260,"tipCount":4,"visitsCount":335,"tier":"","message":"","currency":"","rating":8.5},{"name":"Brigantine Point Loma","phone":"6192242871","twitter":"brigantinesd","address":"2725 Shelter Island Dr","lat":32.72080201520008,"lng":-117.22853845072613,"neighborhood":"La Playa","city_fetched":"San Diego","state":"CA","country":"United States","canonicalUrl":"https://foursquare.com/v/brigantine-point-loma/4a6bea75f964a5203ed01fe3","category":"Seafood Restaurant","checkinsCount":2427,"usersCount":1725,"tipCount":24,"visitsCount":2746,"url":"http://brigantine.com","tier":2,"message":"Moderate","currency":"$","rating":8.5},{"name":"Seasons 52","phone":"8584501252","twitter":"seasons52","address":"4505 La Jolla Village Dr Ste C-1","lat":32.87221056,"lng":-117.2096293,"neighborhood":"University City","city_fetched":"San Diego","state":"CA","country":"United States","canonicalUrl":"https://foursquare.com/v/seasons-52/509a8e7be4b08bf010fb30af","category":"New American Restaurant","checkinsCount":3733,"usersCount":2720,"tipCount":37,"visitsCount":4797,"url":"http://seasons52.com","tier":3,"message":"Expensive","currency":"$","rating":8.5},{"name":"Donovan's Steak & Chop House - Gaslamp","phone":"6192379700","twitter":"donovanssd","address":"570 K St","lat":32.70840777132793,"lng":-117.15942789696575,"neighborhood":"Gaslamp","city_fetched":"San Diego","state":"CA","country":"United States","canonicalUrl":"https://foursquare.com/v/donovans-steak--chop-house--gaslamp/4a9c921ff964a520923720e3","category":"Steakhouse","checkinsCount":2346,"usersCount":1695,"tipCount":28,"visitsCount":2361,"url":"http://www.donovanssteakhouse.com","tier":4,"message":"Very Expensive","currency":"$","rating":8.4},{"name":"Dolce Panne & Vino","phone":"8588321518","address":"16081 San Dieguito Rd","lat":32.990154,"lng":-117.196547,"city_fetched":"San Diego","state":"CA","country":"United States","canonicalUrl":"https://foursquare.com/v/dolce-panne--vino/4ba2d3c4f964a520531c38e3","category":"Wine Bar","checkinsCount":537,"usersCount":310,"tipCount":13,"visitsCount":884,"url":"http://www.dolcepaneevino.com","tier":"","message":"","currency":"","rating":8.4},{"name":"Ritual Kitchen, Tavern and Beer Garden","phone":"6192831618","twitter":"ritualtavern","address":"4095 30th St","lat":32.752067465446295,"lng":-117.13001694657882,"neighborhood":"North Park","city_fetched":"San Diego","state":"CA","country":"United States","canonicalUrl":"https://foursquare.com/v/ritual-kitchen-tavern-and-beer-garden/46a0d24ff964a52021491fe3","category":"Gastropub","checkinsCount":5577,"usersCount":1702,"tipCount":44,"visitsCount":5695,"url":"http://www.ritualtavern.com","tier":2,"message":"Moderate","currency":"$","rating":8.4},{"name":"Hooleys Irish Pub","phone":"6196707468","address":"2955 Jamacha Rd","lat":32.737079613846284,"lng":-116.93992876258676,"city_fetched":"San Diego","state":"CA","country":"United States","canonicalUrl":"https://foursquare.com/v/hooleys-irish-pub/40e0b100f964a5203b021fe3","category":"Bar","checkinsCount":2549,"usersCount":1147,"tipCount":37,"visitsCount":2659,"url":"http://hooleys.com","tier":2,"message":"Moderate","currency":"$","rating":8.4},{"name":"Kaito Sushi","phone":"7606342746","twitter":"kaito_sushi","address":"130 N El Camino Real","lat":33.04732,"lng":-117.260214,"city_fetched":"San Diego","state":"CA","country":"United States","canonicalUrl":"https://foursquare.com/v/kaito-sushi/4a8503eaf964a52002fe1fe3","category":"Japanese Restaurant","checkinsCount":432,"usersCount":252,"tipCount":19,"visitsCount":442,"url":"http://www.sushikaito.com","tier":"","message":"","currency":"","rating":8.4},{"name":"Toma Sol Tavern","phone":"6192911159","twitter":"tomasoltavern","address":"301 W Washington St","lat":32.74983561407325,"lng":-117.166205,"neighborhood":"Hillcrest","city_fetched":"San Diego","state":"CA","country":"United States","canonicalUrl":"https://foursquare.com/v/toma-sol-tavern/4e9f2a68cc21b2fa8e3fe6d8","category":"Sports Bar","checkinsCount":640,"usersCount":231,"tipCount":4,"visitsCount":651,"url":"http://www.tomasoltavern.com","tier":"","message":"","currency":"","rating":8.4},{"name":"The Brew Project","phone":"6197957890","twitter":"sdbrewproject","address":"3683 5th Ave","lat":32.744779,"lng":-117.160335,"neighborhood":"Hillcrest","city_fetched":"San Diego","state":"CA","country":"United States","canonicalUrl":"https://foursquare.com/v/the-brew-project/562ec97a498e95f29d0108f0","category":"Gastropub","checkinsCount":498,"usersCount":362,"tipCount":10,"visitsCount":565,"url":"http://www.thebrewproject.com","tier":2,"message":"Moderate","currency":"$","rating":8.4},{"name":"98 Bottles","phone":"6192557885","twitter":"98bottlessd","address":"2400 Kettner Blvd Ste 110","lat":32.72846972722833,"lng":-117.17149550534131,"neighborhood":"Harborview","city_fetched":"San Diego","state":"CA","country":"United States","canonicalUrl":"https://foursquare.com/98bottlessd","category":"Lounge","checkinsCount":2120,"usersCount":1267,"tipCount":12,"visitsCount":2405,"url":"http://www.98bottlessd.com","tier":2,"message":"Moderate","currency":"$","rating":8.4},{"name":"Pacific Beach AleHouse","phone":"8585812337","twitter":"pb_alehouse","address":"721 Grand Ave","lat":32.794413,"lng":-117.255327,"neighborhood":"Pacific Beach","city_fetched":"San Diego","state":"CA","country":"United States","canonicalUrl":"https://foursquare.com/v/pacific-beach-alehouse/4aa2b020f964a520124220e3","category":"Brewery","checkinsCount":15132,"usersCount":9350,"tipCount":87,"visitsCount":16587,"url":"http://www.pbalehouse.com","tier":2,"message":"Moderate","currency":"$","rating":8.4},{"name":"Union Kitchen & Tap","phone":"6197959463","twitter":"uniongaslamp","address":"333 5th Ave","lat":32.70869473512584,"lng":-117.16015162890652,"neighborhood":"Gaslamp","city_fetched":"San Diego","state":"CA","country":"United States","canonicalUrl":"https://foursquare.com/v/union-kitchen--tap/536ad143498e568600e86667","category":"American Restaurant","checkinsCount":2698,"usersCount":2622,"tipCount":22,"visitsCount":3300,"url":"http://www.gaslampunion.com","tier":4,"message":"Very Expensive","currency":"$","rating":8.4},{"name":"Coin-Op Game Room","phone":"6195646924","address":"3926 30th St","lat":32.749114,"lng":-117.13039,"neighborhood":"North Park","city_fetched":"San Diego","state":"CA","country":"United States","canonicalUrl":"https://foursquare.com/v/coinop-game-room/5267615f498e50b9764c6d2e","category":"Bar","checkinsCount":3439,"usersCount":2111,"tipCount":39,"visitsCount":3700,"url":"http://coinopsd.com","tier":2,"message":"Moderate","currency":"$","rating":8.4},{"name":"Leroy's Kitchen & Lounge","phone":"6194376087","address":"1015 Orange Ave","lat":32.68521764686795,"lng":-117.179633989748,"city_fetched":"San Diego","state":"CA","country":"United States","canonicalUrl":"https://foursquare.com/v/leroys-kitchen--lounge/4e1f5e33ae6015b212909cad","category":"Gastropub","checkinsCount":2824,"usersCount":2243,"tipCount":51,"visitsCount":3051,"url":"http://www.leroyskitchenandlounge.com","tier":2,"message":"Moderate","currency":"$","rating":8.4},{"name":"Saigon On Fifth","phone":"6192208828","address":"3900 5th Ave","lat":32.748306,"lng":-117.16086366,"neighborhood":"Hillcrest","city_fetched":"San Diego","state":"CA","country":"United States","canonicalUrl":"https://foursquare.com/v/saigon-on-fifth/4a9ec554f964a5201d3b20e3","category":"Vietnamese Restaurant","checkinsCount":2981,"usersCount":1796,"tipCount":49,"visitsCount":3059,"url":"http://saigononfifth.menutoeat.com","tier":2,"message":"Moderate","currency":"$","rating":8.4},{"name":"Hard Rock Cafe San Diego","phone":"6196157625","twitter":"hardrock","address":"801 4th Ave","lat":32.713743516769696,"lng":-117.16087996959686,"neighborhood":"Gaslamp","city_fetched":"San Diego","state":"CA","country":"United States","canonicalUrl":"https://foursquare.com/v/hard-rock-cafe-san-diego/4b5bebbcf964a520591d29e3","category":"Theme Restaurant","checkinsCount":6583,"usersCount":5447,"tipCount":63,"visitsCount":6798,"url":"http://www.facebook.com/hardrock","tier":2,"message":"Moderate","currency":"$","rating":8.4},{"name":"Leucadia Pizzeria & Italian Restaurant - Encinitas","phone":"7609422222","twitter":"leucadiapizza","address":"315 S Coast Highway 101","lat":33.04859571666667,"lng":-117.29389923,"city_fetched":"San Diego","state":"CA","country":"United States","canonicalUrl":"https://foursquare.com/v/leucadia-pizzeria--italian-restaurant--encinitas/4a74a115f964a520f1de1fe3","category":"Pizza Place","checkinsCount":1114,"usersCount":908,"tipCount":17,"visitsCount":1351,"url":"http://www.leucadiapizzaencinitas.com/index.htm","tier":"","message":"","currency":"","rating":8.4},{"name":"The Field Irish Pub & Restaurant","phone":"6192329840","twitter":"fieldirishpub","address":"544 5th Ave","lat":32.711110924362224,"lng":-117.1601516289065,"neighborhood":"Gaslamp","city_fetched":"San Diego","state":"CA","country":"United States","canonicalUrl":"https://foursquare.com/v/the-field-irish-pub--restaurant/40e0b100f964a52023021fe3","category":"Irish Pub","checkinsCount":8669,"usersCount":5614,"tipCount":67,"visitsCount":8743,"url":"http://thefield.com","tier":2,"message":"Moderate","currency":"$","rating":8.4},{"name":"The Smoking Goat","phone":"6199555295","twitter":"thesmokinggoat","address":"3408 30th St","lat":32.74136,"lng":-117.13026071666667,"neighborhood":"North Park","city_fetched":"San Diego","state":"CA","country":"United States","canonicalUrl":"https://foursquare.com/v/the-smoking-goat/4b8348aef964a520b00031e3","category":"French Restaurant","checkinsCount":1425,"usersCount":1041,"tipCount":42,"visitsCount":1442,"url":"http://thesmokinggoatrestaurant.com","tier":3,"message":"Expensive","currency":"$","rating":8.4},{"name":"94th Aero Squadron","phone":"8585606771","twitter":"94thsd","address":"8885 Balboa Ave","lat":32.81968541109941,"lng":-117.13684158138847,"neighborhood":"Kearny Mesa","city_fetched":"San Diego","state":"CA","country":"United States","canonicalUrl":"https://foursquare.com/v/94th-aero-squadron/40e0b100f964a5209a011fe3","category":"American Restaurant","checkinsCount":3188,"usersCount":2668,"tipCount":48,"visitsCount":4140,"url":"http://www.94thaerosquadron.signonsandiego.com","tier":2,"message":"Moderate","currency":"$","rating":8.4},{"name":"Lazy Dog Restaurant & Bar","phone":"6194816191","twitter":"lazydoghq","address":"1202 Camino del Rio N","lat":32.76656185789468,"lng":-117.15412619531992,"neighborhood":"Mission Valley East","city_fetched":"San Diego","state":"CA","country":"United States","canonicalUrl":"https://foursquare.com/v/lazy-dog-restaurant--bar/51aa8132498ebb2ef274ae44","category":"Restaurant","checkinsCount":4756,"usersCount":3136,"tipCount":98,"visitsCount":5725,"url":"http://www.lazydogrestaurants.com","tier":2,"message":"Moderate","currency":"$","rating":8.4},{"name":"The WineSellar & Brasserie","phone":"8584509557","address":"9550 Waples St Ste 115","lat":32.903715,"lng":-117.1831529,"neighborhood":"Sorrento Valley","city_fetched":"San Diego","state":"CA","country":"United States","canonicalUrl":"https://foursquare.com/v/the-winesellar--brasserie/4ada1c84f964a5208a1e21e3","category":"French Restaurant","checkinsCount":525,"usersCount":435,"tipCount":9,"visitsCount":726,"url":"http://www.winesellar.com/brasserie.asp","tier":2,"message":"Moderate","currency":"$","rating":8.4},{"name":"Amplified Ale Works","phone":"8582705222","twitter":"amplifiedales","address":"4150 Mission Blvd #208","lat":32.79107169408887,"lng":-117.25433349609375,"neighborhood":"Pacific Beach","city_fetched":"San Diego","state":"CA","country":"United States","canonicalUrl":"https://foursquare.com/v/amplified-ale-works/4f70dd6ee4b04ed4759b7cd4","category":"Brewery","checkinsCount":1294,"usersCount":1199,"tipCount":10,"visitsCount":1820,"url":"http://amplifiedales.com","tier":2,"message":"Moderate","currency":"$","rating":8.4},{"name":"Cafe Sevilla","phone":"6192335979","twitter":"sevillatapassd","address":"353 5th Ave","lat":32.70895927801157,"lng":-117.1602148117323,"neighborhood":"Gaslamp","city_fetched":"San Diego","state":"CA","country":"United States","canonicalUrl":"https://foursquare.com/v/cafe-sevilla/40e0b100f964a520ce011fe3","category":"Tapas Restaurant","checkinsCount":6875,"usersCount":4373,"tipCount":88,"visitsCount":6977,"url":"http://www.cafesevilla.com","tier":2,"message":"Moderate","currency":"$","rating":8.4},{"name":"The Tipsy Crow","phone":"6193389300","twitter":"thetipsycrow","address":"770 5th Ave","lat":32.71354492165452,"lng":-117.16031670570374,"neighborhood":"Gaslamp","city_fetched":"San Diego","state":"CA","country":"United States","canonicalUrl":"https://foursquare.com/thetipsycrow","category":"Bar","checkinsCount":16936,"usersCount":10150,"tipCount":119,"visitsCount":17696,"url":"http://thetipsycrow.com","tier":2,"message":"Moderate","currency":"$","rating":8.4},{"name":"Bub's at the Ballpark","phone":"6195460815","twitter":"bubsballpark","address":"715 J St","lat":32.70935926735753,"lng":-117.15827336690795,"neighborhood":"East Village","city_fetched":"San Diego","state":"CA","country":"United States","canonicalUrl":"https://foursquare.com/bubsballpark","category":"Sports Bar","checkinsCount":21528,"usersCount":8668,"tipCount":98,"visitsCount":22152,"url":"http://www.bubssandiego.com","tier":2,"message":"Moderate","currency":"$","rating":8.4},{"name":"Stone Brewing Co.","phone":"6196868533","address":"Terminal 2","lat":32.732301395194334,"lng":-117.20406472133746,"neighborhood":"Midway District","city_fetched":"San Diego","state":"CA","country":"United States","canonicalUrl":"https://foursquare.com/v/stone-brewing-co/5224d19d11d2d5a00079effb","category":"Bar","checkinsCount":2304,"usersCount":1980,"tipCount":38,"visitsCount":2342,"url":"http://stonebrewing.com","tier":2,"message":"Moderate","currency":"$","rating":8.4},{"name":"Border X Brewing","phone":"6194310771","twitter":"borderxbrewing","address":"2181 Logan Ave","lat":32.698235622377844,"lng":-117.1395817119433,"neighborhood":"Central San Diego","city_fetched":"San Diego","state":"CA","country":"United States","canonicalUrl":"https://foursquare.com/v/border-x-brewing/531b9c46498ec99ed9931f92","category":"Brewery","checkinsCount":311,"usersCount":237,"tipCount":5,"visitsCount":345,"url":"http://borderxbrewing.com","tier":"","message":"","currency":"","rating":8.4},{"name":"Next Door Craft Beer & Wine Bar","phone":"6197415066","address":"7235 El Cajon Blvd","lat":32.76864710411744,"lng":-117.04178195158175,"neighborhood":"Rolando","city_fetched":"San Diego","state":"CA","country":"United States","canonicalUrl":"https://foursquare.com/v/next-door-craft-beer--wine-bar/50666c26e4b0b6a07cad922a","category":"Wine Bar","checkinsCount":434,"usersCount":214,"tipCount":5,"visitsCount":547,"url":"http://www.nextdoorsd.com","tier":"","message":"","currency":"","rating":8.4},{"name":"URBN St. Brewing Co.","phone":"6193286922","twitter":"urbnstbrewingco","address":"110 N Magnolia Ave","lat":32.795479,"lng":-116.962638,"city_fetched":"San Diego","state":"CA","country":"United States","canonicalUrl":"https://foursquare.com/v/urbn-st-brewing-co/53b6fd0c498e63627895c974","category":"Brewery","checkinsCount":433,"usersCount":353,"tipCount":2,"visitsCount":578,"url":"http://urbnstbrewing.com","tier":"","message":"","currency":"","rating":8.4},{"name":"Hoffer's Cigar Bar","phone":"6194668282","address":"8282 La Mesa Blvd","lat":32.76508767080423,"lng":-117.01944721631102,"city_fetched":"San Diego","state":"CA","country":"United States","canonicalUrl":"https://foursquare.com/v/hoffers-cigar-bar/4b16a2fff964a52039bb23e3","category":"Bar","checkinsCount":6062,"usersCount":702,"tipCount":21,"visitsCount":6288,"url":"http://hofferscigar.com","tier":2,"message":"Moderate","currency":"$","rating":8.4},{"name":"Barrel Republic","phone":"8582709922","address":"1261 Garnet Ave","lat":32.798366,"lng":-117.246852,"neighborhood":"Pacific Beach","city_fetched":"San Diego","state":"CA","country":"United States","canonicalUrl":"https://foursquare.com/v/barrel-republic/5287c798498ea6c47d8d5256","category":"Bar","checkinsCount":1361,"usersCount":1013,"tipCount":21,"visitsCount":1523,"url":"http://barrelrepublic.com","tier":2,"message":"Moderate","currency":"$","rating":8.4},{"name":"South Park Brewing Company","phone":"6196109038","twitter":"southparkbrewco","address":"1517 30th St","lat":32.721788459273085,"lng":-117.13008013868017,"neighborhood":"South Park","city_fetched":"San Diego","state":"CA","country":"United States","canonicalUrl":"https://foursquare.com/v/south-park-brewing-company/54f1357c498e6a39f0705557","category":"Brewery","checkinsCount":648,"usersCount":408,"tipCount":6,"visitsCount":707,"url":"http://www.southparkbrewing.com","tier":"","message":"","currency":"","rating":8.4},{"name":"The 3rd Corner","phone":"7609422104","twitter":"3rdcornerwine","address":"897 S Coast Highway 101 Ste F-104","lat":33.04115651113643,"lng":-117.29270042425416,"city_fetched":"San Diego","state":"CA","country":"United States","canonicalUrl":"https://foursquare.com/v/the-3rd-corner/4bb68741941ad13a8e981fe3","category":"Wine Bar","checkinsCount":2184,"usersCount":1289,"tipCount":32,"visitsCount":2370,"url":"http://www.the3rdcorner.com","tier":"","message":"","currency":"","rating":8.4},{"name":"The Local Eatery and Drinking Hole","phone":"6192314447","twitter":"thelocalsd","address":"1065 4th Ave","lat":32.71652489534215,"lng":-117.16099023573334,"neighborhood":"Central San Diego","city_fetched":"San Diego","state":"CA","country":"United States","canonicalUrl":"https://foursquare.com/thelocalsd","category":"Bar","checkinsCount":11274,"usersCount":4060,"tipCount":71,"visitsCount":12117,"url":"http://www.thelocalsandiego.com","tier":2,"message":"Moderate","currency":"$","rating":8.4},{"name":"The Wine Lover","phone":"6192949200","address":"3968 5th Ave","lat":32.74961800080721,"lng":-117.16053646945218,"neighborhood":"Hillcrest","city_fetched":"San Diego","state":"CA","country":"United States","canonicalUrl":"https://foursquare.com/v/the-wine-lover/40e0b100f964a520dd021fe3","category":"Wine Bar","checkinsCount":579,"usersCount":398,"tipCount":18,"visitsCount":584,"url":"http://www.thewinelover.us","tier":"","message":"","currency":"","rating":8.4},{"name":"The Hole","phone":"6192269019","address":"2820 Lytton St","lat":32.74356831703134,"lng":-117.21065718503044,"neighborhood":"Loma Portal","city_fetched":"San Diego","state":"CA","country":"United States","canonicalUrl":"https://foursquare.com/v/the-hole/40e0b100f964a52039021fe3","category":"Dive Bar","checkinsCount":5474,"usersCount":1731,"tipCount":26,"visitsCount":5851,"url":"http://www.thehole.com","tier":1,"message":"Cheap","currency":"$","rating":8.4},{"name":"Iron Fist Brewery Barrio Logan","phone":"6192555818","twitter":"ironfistbrewing","address":"1985 National Ave Ste 1132","lat":32.69969866749538,"lng":-117.1454524766016,"neighborhood":"Central San Diego","city_fetched":"San Diego","state":"CA","country":"United States","canonicalUrl":"https://foursquare.com/v/iron-fist-brewery-barrio-logan/5599a05b498e68db4b4efca8","category":"Brewery","checkinsCount":173,"usersCount":133,"tipCount":4,"visitsCount":192,"url":"http://ironfistbrewing.com","tier":"","message":"","currency":"","rating":8.3},{"name":"Knotty Barrel","phone":"6192697156","twitter":"knottybarrel","address":"844 Market St","lat":32.71159956885305,"lng":-117.15665280818939,"neighborhood":"East Village","city_fetched":"San Diego","state":"CA","country":"United States","canonicalUrl":"https://foursquare.com/knottybarrel","category":"Gastropub","checkinsCount":6871,"usersCount":3062,"tipCount":50,"visitsCount":7122,"url":"http://www.knottybarrel.com","tier":2,"message":"Moderate","currency":"$","rating":8.3},{"name":"Redwing Bar & Grill","phone":"6192818700","twitter":"redwingbar","address":"4012 30th St","lat":32.750645178141596,"lng":-117.13039609889579,"neighborhood":"North Park","city_fetched":"San Diego","state":"CA","country":"United States","canonicalUrl":"https://foursquare.com/redwingbar","category":"Karaoke Bar","checkinsCount":6924,"usersCount":1994,"tipCount":49,"visitsCount":7134,"url":"http://www.redwingbar.com","tier":2,"message":"Moderate","currency":"$","rating":8.3},{"name":"Humphrey's Restaurant","phone":"6192243577","twitter":"humphreysrest","address":"2241 Shelter Island Dr","lat":32.71642915953302,"lng":-117.22428935269303,"neighborhood":"La Playa","city_fetched":"San Diego","state":"CA","country":"United States","canonicalUrl":"https://foursquare.com/v/humphreys-restaurant/4c3cfb3617f2ef3b204181f4","category":"Seafood Restaurant","checkinsCount":1310,"usersCount":1006,"tipCount":25,"visitsCount":1334,"url":"http://www.humphreysrestaurant.com","tier":3,"message":"Expensive","currency":"$","rating":8.3},{"name":"Wine Steals","phone":"6192951188","twitter":"wine_steals","address":"1243 University Ave","lat":32.7483013573877,"lng":-117.15233445167542,"neighborhood":"Hillcrest","city_fetched":"San Diego","state":"CA","country":"United States","canonicalUrl":"https://foursquare.com/v/wine-steals/42a39200f964a520ee241fe3","category":"Wine Bar","checkinsCount":4196,"usersCount":1865,"tipCount":25,"visitsCount":4251,"url":"http://www.winestealssd.com","tier":2,"message":"Moderate","currency":"$","rating":8.3},{"name":"Home & Away","phone":"6195010522","twitter":"homeandawaysd","address":"2222 San Diego Ave","lat":32.74790183406363,"lng":-117.19102272800745,"neighborhood":"Old Town","city_fetched":"San Diego","state":"CA","country":"United States","canonicalUrl":"https://foursquare.com/v/home--away/54a73aca498ef4dcbc2ef71e","category":"Sports Bar","checkinsCount":257,"usersCount":286,"tipCount":3,"visitsCount":460,"url":"http://homeandawaysd.com","tier":"","message":"","currency":"","rating":8.3},{"name":"Cesars Cigar and Wine Bar","address":"503 5th Ave","lat":32.71055678758734,"lng":-117.16003100709405,"neighborhood":"Gaslamp","city_fetched":"San Diego","state":"CA","country":"United States","canonicalUrl":"https://foursquare.com/v/cesars-cigar-and-wine-bar/4d391895c52854812186dfb9","category":"Bar","checkinsCount":405,"usersCount":275,"tipCount":4,"visitsCount":405,"tier":"","message":"","currency":"","rating":8.3},{"name":"Omnia Nightclub","phone":"6155449500","twitter":"omniasandiego","address":"454 6th Ave","lat":32.710352628005694,"lng":-117.15953703131107,"neighborhood":"Gaslamp","city_fetched":"San Diego","state":"CA","country":"United States","canonicalUrl":"https://foursquare.com/v/omnia-nightclub/55430be3498e5c23e7658791","category":"Nightclub","checkinsCount":1536,"usersCount":1304,"tipCount":7,"visitsCount":2024,"url":"http://omnianightclub.com","tier":"","message":"","currency":"","rating":8.3},{"name":"Black Cat Bar","phone":"6192805834","address":"4246 University Ave","lat":32.749781,"lng":-117.103353,"neighborhood":"City Heights","city_fetched":"San Diego","state":"CA","country":"United States","canonicalUrl":"https://foursquare.com/v/black-cat-bar/4d57597496ed5481d38a2070","category":"Dive Bar","checkinsCount":792,"usersCount":395,"tipCount":9,"visitsCount":1016,"tier":"","message":"","currency":"","rating":8.3},{"name":"Helix Brewing Co.","phone":"6197418447","twitter":"helixbrewingco","address":"8101 Commercial St","lat":32.771973461267464,"lng":-117.02347638070688,"city_fetched":"San Diego","state":"CA","country":"United States","canonicalUrl":"https://foursquare.com/v/helix-brewing-co/539fb373498ee5525b11de0e","category":"Brewery","checkinsCount":296,"usersCount":272,"tipCount":2,"visitsCount":542,"url":"http://drinkhelix.com","tier":"","message":"","currency":"","rating":8.3},{"name":"BJ's Restaurant and Brewhouse","phone":"6195897222","twitter":"bjsrestaurants","address":"5500 Grossmont Center Dr","lat":32.77996836,"lng":-117.0102739,"city_fetched":"San Diego","state":"CA","country":"United States","canonicalUrl":"https://foursquare.com/v/bjs-restaurant-and-brewhouse/4a74cd46f964a520a7df1fe3","category":"American Restaurant","checkinsCount":12402,"usersCount":4794,"tipCount":70,"visitsCount":13536,"url":"http://t.co/bl46gcjDLN","tier":2,"message":"Moderate","currency":"$","rating":8.3},{"name":"Helm's Brewing Co.","phone":"8583842772","twitter":"helmsbrewingco","address":"5640 Kearny Mesa Rd","lat":32.83718395440922,"lng":-117.13896632194519,"neighborhood":"Kearny Mesa","city_fetched":"San Diego","state":"CA","country":"United States","canonicalUrl":"https://foursquare.com/helmsbrewingco","category":"Brewery","checkinsCount":1083,"usersCount":685,"tipCount":13,"visitsCount":1277,"url":"http://helmsbrewingco.com","tier":1,"message":"Cheap","currency":"$","rating":8.3},{"name":"Culture Brewing Co.","phone":"8583451144","twitter":"culturebrewco","address":"111 S Cedros Ave #200","lat":32.991602829569196,"lng":-117.27068006541926,"city_fetched":"San Diego","state":"CA","country":"United States","canonicalUrl":"https://foursquare.com/v/culture-brewing-co/51292906e4b0623be701bf9a","category":"Brewery","checkinsCount":1849,"usersCount":1247,"tipCount":26,"visitsCount":2325,"url":"http://www.culturebrewingco.com","tier":1,"message":"Cheap","currency":"$","rating":8.3},{"name":"The Oceanaire Seafood Room","phone":"6198582277","twitter":"oceanaire","address":"400 J St","lat":32.70945546455399,"lng":-117.16089258990966,"neighborhood":"Gaslamp","city_fetched":"San Diego","state":"CA","country":"United States","canonicalUrl":"https://foursquare.com/v/the-oceanaire-seafood-room/467d6701f964a52009481fe3","category":"Seafood Restaurant","checkinsCount":4500,"usersCount":2838,"tipCount":59,"visitsCount":4614,"url":"http://www.theoceanaire.com/Home.aspx","tier":3,"message":"Expensive","currency":"$","rating":8.3},{"name":"Wa Dining OKAN","phone":"8582790941","twitter":"wadiningokan","address":"3860 Convoy St Ste 110","lat":32.81417361058231,"lng":-117.1538160156779,"neighborhood":"Kearny Mesa","city_fetched":"San Diego","state":"CA","country":"United States","canonicalUrl":"https://foursquare.com/v/wa-dining-okan/4a8f6310f964a5201f1520e3","category":"Japanese Restaurant","checkinsCount":1550,"usersCount":798,"tipCount":34,"visitsCount":1569,"url":"http://okanus.com","tier":2,"message":"Moderate","currency":"$","rating":8.3},{"name":"Churchill Cigar Lounge & Wine Bar","phone":"8585494422","address":"7094 Miramar Rd #113","lat":32.880107,"lng":-117.1618995,"neighborhood":"Miramar","city_fetched":"San Diego","state":"CA","country":"United States","canonicalUrl":"https://foursquare.com/v/churchill-cigar-lounge--wine-bar/4dc8316d7d8b14fb466bda47","category":"Wine Bar","checkinsCount":232,"usersCount":110,"tipCount":9,"visitsCount":235,"url":"http://churchillcigarlounge.com","tier":"","message":"","currency":"","rating":8.3},{"name":"Crushed","phone":"8582306567","address":"967 Garnet Ave","lat":32.79711661201527,"lng":-117.25230306386946,"neighborhood":"Pacific Beach","city_fetched":"San Diego","state":"CA","country":"United States","canonicalUrl":"https://foursquare.com/v/crushed/5434917b498e90773581b1e3","category":"American Restaurant","checkinsCount":584,"usersCount":551,"tipCount":7,"visitsCount":769,"url":"http://barcrushed.com","tier":2,"message":"Moderate","currency":"$","rating":8.3},{"name":"Dirty Bird's","phone":"8582742473","twitter":"dirtybirdspb","address":"4656 Mission Blvd","lat":32.79876172042313,"lng":-117.25635060919271,"neighborhood":"Pacific Beach","city_fetched":"San Diego","state":"CA","country":"United States","canonicalUrl":"https://foursquare.com/v/dirty-birds/4b0cc1faf964a520a74123e3","category":"Wings Joint","checkinsCount":6033,"usersCount":2731,"tipCount":65,"visitsCount":6186,"url":"http://www.dirtybirdspb.com","tier":2,"message":"Moderate","currency":"$","rating":8.3},{"name":"Encinitas Ale House","phone":"7609437180","address":"1044 S Coast Highway 101","lat":33.0385033,"lng":-117.2930011,"city_fetched":"San Diego","state":"CA","country":"United States","canonicalUrl":"https://foursquare.com/v/encinitas-ale-house/4b8adbd4f964a520bb8532e3","category":"Bar","checkinsCount":3611,"usersCount":1631,"tipCount":67,"visitsCount":3898,"url":"http://encinitasalehouse.com","tier":2,"message":"Moderate","currency":"$","rating":8.3},{"name":"Waypoint Public","phone":"6192558778","twitter":"waypointpublic","address":"3794 30th St","lat":32.747289,"lng":-117.130219,"neighborhood":"North Park","city_fetched":"San Diego","state":"CA","country":"United States","canonicalUrl":"https://foursquare.com/v/waypoint-public/5250756011d2dd3869c5b004","category":"New American Restaurant","checkinsCount":2759,"usersCount":1918,"tipCount":48,"visitsCount":3236,"url":"http://waypointpublic-hub.com","tier":3,"message":"Expensive","currency":"$","rating":8.3},{"name":"Time Out Sports Tavern","phone":"6196150933","twitter":"timeoutsd","address":"634 Broadway","lat":32.71588801267098,"lng":-117.15868693066194,"neighborhood":"Central San Diego","city_fetched":"San Diego","state":"CA","country":"United States","canonicalUrl":"https://foursquare.com/v/time-out-sports-tavern/4d360eebfe972c0f49a99ab3","category":"American Restaurant","checkinsCount":634,"usersCount":332,"tipCount":7,"visitsCount":689,"url":"http://www.timeoutsportstavern.com","tier":1,"message":"Cheap","currency":"$","rating":8.2},{"name":"Main Tap Tavern","phone":"6197496333","twitter":"maintaptavern","address":"518 E Main St","lat":32.795253366666664,"lng":-116.956039,"city_fetched":"San Diego","state":"CA","country":"United States","canonicalUrl":"https://foursquare.com/v/main-tap-tavern/4ad936b7f964a5201f1921e3","category":"Bar","checkinsCount":2200,"usersCount":697,"tipCount":22,"visitsCount":2612,"url":"http://www.maintaptavern.com","tier":1,"message":"Cheap","currency":"$","rating":8.2},{"name":"Mike Hess Brewing","phone":"6197864377","twitter":"mhb","address":"7955 Silverton Ave #1201","lat":32.889497860371044,"lng":-117.14997410774231,"neighborhood":"Miramar","city_fetched":"San Diego","state":"CA","country":"United States","canonicalUrl":"https://foursquare.com/v/mike-hess-brewing/4c350aabed37a5935af16f03","category":"Brewery","checkinsCount":3059,"usersCount":1445,"tipCount":27,"visitsCount":3340,"url":"http://www.mikehessbrewing.com","tier":1,"message":"Cheap","currency":"$","rating":8.2},{"name":"Bar Nelson","phone":"+526646858988","address":"721 Revoluci√≥n","lat":32.536135432468136,"lng":-117.03720714566612,"neighborhood":"Zona Centro","city_fetched":"San Diego","state":"Baja California","country":"M√©xico","canonicalUrl":"https://foursquare.com/v/bar-nelson/51bd369c498eecfed92c0cd5","category":"Cocktail Bar","checkinsCount":423,"usersCount":264,"tipCount":2,"visitsCount":591,"tier":"","message":"","currency":"","rating":8.2},{"name":"Wet Stone Winebar and Cafe","phone":"6192552856","address":"1927 4th Ave","lat":32.725497,"lng":-117.16107277,"neighborhood":"Park West","city_fetched":"San Diego","state":"CA","country":"United States","canonicalUrl":"https://foursquare.com/v/wet-stone-winebar-and-cafe/4bc5faf4db8fa593e5889b37","category":"South American Restaurant","checkinsCount":779,"usersCount":516,"tipCount":27,"visitsCount":805,"url":"http://wetstonewinebar.com","tier":2,"message":"Moderate","currency":"$","rating":8.2},{"name":"Seven Grand","phone":"6192698820","twitter":"sevengrand","address":"3054 University Ave","lat":32.74862620429867,"lng":-117.12867736816406,"neighborhood":"North Park","city_fetched":"San Diego","state":"CA","country":"United States","canonicalUrl":"https://foursquare.com/v/seven-grand/4fe60c19be77acb4dd58427a","category":"Whisky Bar","checkinsCount":5118,"usersCount":2977,"tipCount":42,"visitsCount":5800,"url":"http://213nightlife.com/sevengrand","tier":2,"message":"Moderate","currency":"$","rating":8.1}]