[{"name":"Kokkari Estiatorio","phone":"4159810983","address":"200 Jackson St","lat":37.79693592834394,"lng":-122.39975702239228,"neighborhood":"Northern Waterfront","city_fetched":"San Francisco","state":"CA","country":"United States","canonicalUrl":"https://foursquare.com/v/kokkari-estiatorio/4570691ff964a5205c3e1fe3","category":"Greek Restaurant","checkinsCount":11234,"usersCount":9209,"tipCount":204,"visitsCount":13101,"url":"http://www.kokkari.com","tier":3,"message":"Expensive","currency":"$","rating":9.5},{"name":"Anchor Brewing Company","phone":"4158638350","twitter":"anchorbrewing","address":"1705 Mariposa St","lat":37.7634866204544,"lng":-122.40136921405792,"neighborhood":"Potrero Hill","city_fetched":"San Francisco","state":"CA","country":"United States","canonicalUrl":"https://foursquare.com/v/anchor-brewing-company/43a16022f964a5202c2c1fe3","category":"Brewery","checkinsCount":4869,"usersCount":4109,"tipCount":69,"visitsCount":5810,"url":"http://www.anchorbrewing.com","tier":1,"message":"Cheap","currency":"$","rating":9.5},{"name":"Pizzeria Delfina","phone":"4154376800","twitter":"delfinasf","address":"3611 18th St","lat":37.761594,"lng":-122.42427,"neighborhood":"Mission Dolores","city_fetched":"San Francisco","state":"CA","country":"United States","canonicalUrl":"https://foursquare.com/v/pizzeria-delfina/44088735f964a52058301fe3","category":"Pizza Place","checkinsCount":12016,"usersCount":7851,"tipCount":236,"visitsCount":12230,"url":"http://www.pizzeriadelfina.com","tier":2,"message":"Moderate","currency":"$","rating":9.5},{"name":"Nopa","phone":"4158648643","twitter":"nopa_restaurant","address":"560 Divisadero St","lat":37.77494821103535,"lng":-122.43765838868448,"neighborhood":"Alamo Square","city_fetched":"San Francisco","state":"CA","country":"United States","canonicalUrl":"https://foursquare.com/v/nopa/44646408f964a52026331fe3","category":"New American Restaurant","checkinsCount":31247,"usersCount":16325,"tipCount":487,"visitsCount":33888,"url":"http://www.nopasf.com","tier":3,"message":"Expensive","currency":"$","rating":9.4},{"name":"City Beer Store","phone":"4155031033","twitter":"citybeerstore","address":"1168 Folsom St","lat":37.775637248098725,"lng":-122.40932076125404,"neighborhood":"SoMa","city_fetched":"San Francisco","state":"CA","country":"United States","canonicalUrl":"https://foursquare.com/v/city-beer-store/45587735f964a520443d1fe3","category":"Beer Store","checkinsCount":16968,"usersCount":7215,"tipCount":107,"visitsCount":18417,"url":"http://www.citybeerstore.com","tier":"","message":"","currency":"","rating":9.4},{"name":"Pizzetta 211","phone":"4153799880","twitter":"pizzetta","address":"211 23rd Ave","lat":37.783749,"lng":-122.48286803,"neighborhood":"Outer Richmond","city_fetched":"San Francisco","state":"CA","country":"United States","canonicalUrl":"https://foursquare.com/v/pizzetta-211/40df5f80f964a52096011fe3","category":"Pizza Place","checkinsCount":2797,"usersCount":1900,"tipCount":68,"visitsCount":3370,"url":"http://pizzetta211.com","tier":2,"message":"Moderate","currency":"$","rating":9.4},{"name":"Beretta","phone":"4156951199","twitter":"berettasf","address":"1199 Valencia St","lat":37.753789220911024,"lng":-122.42070871708691,"neighborhood":"Mission District","city_fetched":"San Francisco","state":"CA","country":"United States","canonicalUrl":"https://foursquare.com/v/beretta/49a2545cf964a52094521fe3","category":"Italian Restaurant","checkinsCount":26767,"usersCount":17399,"tipCount":428,"visitsCount":34431,"url":"http://berettasf.com","tier":2,"message":"Moderate","currency":"$","rating":9.4},{"name":"The Interval at Long Now","phone":"4155616582","twitter":"interval","address":"2 Marina Blvd, Fort Mason Building A","lat":37.806561,"lng":-122.432058,"city_fetched":"San Francisco","state":"CA","country":"United States","canonicalUrl":"https://foursquare.com/v/the-interval-at-long-now/537979dc498e39215d52229e","category":"Cocktail Bar","checkinsCount":3594,"usersCount":2821,"tipCount":66,"visitsCount":4376,"url":"http://theinterval.org","tier":2,"message":"Moderate","currency":"$","rating":9.3},{"name":"Monk’s Kettle","phone":"4158659523","twitter":"monkskettle","address":"3141 16th St","lat":37.76480271624263,"lng":-122.42292643175631,"neighborhood":"Mission Dolores","city_fetched":"San Francisco","state":"CA","country":"United States","canonicalUrl":"https://foursquare.com/v/monks-kettle/47d7ba05f964a520234e1fe3","category":"Gastropub","checkinsCount":19848,"usersCount":12073,"tipCount":284,"visitsCount":20748,"url":"http://www.monkskettle.com","tier":2,"message":"Moderate","currency":"$","rating":9.3},{"name":"Mission Cheese","phone":"4157308132","twitter":"missioncheese","address":"736 Valencia St","lat":37.761173233987186,"lng":-122.42153829164974,"neighborhood":"Mission District","city_fetched":"San Francisco","state":"CA","country":"United States","canonicalUrl":"https://foursquare.com/v/mission-cheese/4d9517f1daec224b4c80f73d","category":"Cheese Shop","checkinsCount":6971,"usersCount":4100,"tipCount":86,"visitsCount":7163,"url":"http://missioncheese.net","tier":"","message":"","currency":"","rating":9.3},{"name":"Marlowe","phone":"4157771413","twitter":"marlowesf","address":"500 Brannan St","lat":37.77832332138957,"lng":-122.39679203144317,"neighborhood":"SoMa","city_fetched":"San Francisco","state":"CA","country":"United States","canonicalUrl":"https://foursquare.com/v/marlowe/4b71ed7af964a520b3642de3","category":"New American Restaurant","checkinsCount":12344,"usersCount":9522,"tipCount":192,"visitsCount":14859,"url":"http://www.marlowesf.com","tier":3,"message":"Expensive","currency":"$","rating":9.3},{"name":"Tony’s Pizza Napoletana","phone":"4158359888","twitter":"tonyspizza415","address":"1570 Stockton St","lat":37.80032801203867,"lng":-122.40904033184052,"neighborhood":"North Beach","city_fetched":"San Francisco","state":"CA","country":"United States","canonicalUrl":"https://foursquare.com/v/tonys-pizza-napoletana/4a469839f964a52029a91fe3","category":"Pizza Place","checkinsCount":19268,"usersCount":11895,"tipCount":355,"visitsCount":20194,"url":"http://tonyspizzanapoletana.com","tier":2,"message":"Moderate","currency":"$","rating":9.3},{"name":"Hotel Biron","phone":"4157030403","address":"45 Rose St","lat":37.773536,"lng":-122.42211,"neighborhood":"Civic Center","city_fetched":"San Francisco","state":"CA","country":"United States","canonicalUrl":"https://foursquare.com/v/hotel-biron/43fb0c0ef964a520df2f1fe3","category":"Wine Bar","checkinsCount":5803,"usersCount":2908,"tipCount":56,"visitsCount":6126,"url":"http://hotelbiron.com","tier":3,"message":"Expensive","currency":"$","rating":9.3},{"name":"El Techo","phone":"4155506970","twitter":"eltechosf","address":"2518 Mission St","lat":37.756699,"lng":-122.418971,"neighborhood":"Mission District","city_fetched":"San Francisco","state":"CA","country":"United States","canonicalUrl":"https://foursquare.com/eltechosf","category":"Latin American Restaurant","checkinsCount":12291,"usersCount":8728,"tipCount":128,"visitsCount":13215,"url":"http://www.eltechosf.com","tier":2,"message":"Moderate","currency":"$","rating":9.3},{"name":"Yield Wine Bar","phone":"4154018984","twitter":"yieldwinebar","address":"2490 3rd St","lat":37.758201,"lng":-122.388416,"neighborhood":"Dogpatch","city_fetched":"San Francisco","state":"CA","country":"United States","canonicalUrl":"https://foursquare.com/v/yield-wine-bar/44d3809ef964a52046361fe3","category":"Wine Bar","checkinsCount":2533,"usersCount":1397,"tipCount":26,"visitsCount":2585,"url":"http://www.yieldandpause.com","tier":2,"message":"Moderate","currency":"$","rating":9.3},{"name":"El Rio","phone":"4152823325","twitter":"elriosf","address":"3158 Mission St","lat":37.746868,"lng":-122.41951655,"neighborhood":"Bernal Heights","city_fetched":"San Francisco","state":"CA","country":"United States","canonicalUrl":"https://foursquare.com/v/el-rio/40870b00f964a520a0f21ee3","category":"Dive Bar","checkinsCount":16947,"usersCount":9736,"tipCount":106,"visitsCount":19559,"url":"http://www.elriosf.com","tier":2,"message":"Moderate","currency":"$","rating":9.3},{"name":"Garaje","phone":"4156640838","address":"475 3rd St","lat":37.781810106659364,"lng":-122.3960286433832,"neighborhood":"SoMa","city_fetched":"San Francisco","state":"CA","country":"United States","canonicalUrl":"https://foursquare.com/v/garaje/511ab11fe4b078c672896eab","category":"Mexican Restaurant","checkinsCount":14838,"usersCount":8485,"tipCount":232,"visitsCount":20378,"url":"http://www.garaje475.com","tier":2,"message":"Moderate","currency":"$","rating":9.3},{"name":"Trick Dog","phone":"4154712999","twitter":"trickdogbar","address":"3010 20th St","lat":37.75919166879584,"lng":-122.41123451083322,"neighborhood":"Mission District","city_fetched":"San Francisco","state":"CA","country":"United States","canonicalUrl":"https://foursquare.com/v/trick-dog/5095da318302abffba3c23fd","category":"Cocktail Bar","checkinsCount":14758,"usersCount":8234,"tipCount":254,"visitsCount":15472,"url":"http://www.trickdogbar.com","tier":2,"message":"Moderate","currency":"$","rating":9.2},{"name":"Wingtip","phone":"4157650993","twitter":"wingtip","address":"550 Montgomery St","lat":37.79443626297072,"lng":-122.40293765671763,"neighborhood":"Financial District","city_fetched":"San Francisco","state":"CA","country":"United States","canonicalUrl":"https://foursquare.com/v/wingtip/4ce74d7d0f196dcb1cb13dae","category":"Men's Store","checkinsCount":2991,"usersCount":1368,"tipCount":18,"visitsCount":3362,"url":"http://wingtip.com","tier":"","message":"","currency":"","rating":9.2},{"name":"Zero Zero","phone":"4153488800","twitter":"zerozerosf","address":"826 Folsom St","lat":37.78167112478022,"lng":-122.40177154541016,"neighborhood":"SoMa","city_fetched":"San Francisco","state":"CA","country":"United States","canonicalUrl":"https://foursquare.com/v/zero-zero/4c44d4b9dcd61b8df9e67b56","category":"Italian Restaurant","checkinsCount":25967,"usersCount":17752,"tipCount":375,"visitsCount":31646,"url":"http://www.zerozerosf.com","tier":2,"message":"Moderate","currency":"$","rating":9.2},{"name":"Rosamunde Sausage Grill","phone":"4159709015","twitter":"rosamundesf","address":"2832 Mission St","lat":37.75178660309551,"lng":-122.41852967001614,"neighborhood":"Mission District","city_fetched":"San Francisco","state":"CA","country":"United States","canonicalUrl":"https://foursquare.com/v/rosamunde-sausage-grill/4b54afd9f964a52016c727e3","category":"Hot Dog Joint","checkinsCount":17871,"usersCount":9023,"tipCount":173,"visitsCount":20367,"url":"http://rosamundesausagegrill.com","tier":1,"message":"Cheap","currency":"$","rating":9.2},{"name":"Bourbon & Branch","phone":"4153461735","address":"501 Jones St","lat":37.785828234206285,"lng":-122.41311504005402,"neighborhood":"Tenderloin","city_fetched":"San Francisco","state":"CA","country":"United States","canonicalUrl":"https://foursquare.com/v/bourbon--branch/4617e746f964a52051451fe3","category":"Speakeasy","checkinsCount":18566,"usersCount":14526,"tipCount":290,"visitsCount":19602,"url":"http://www.bourbonandbranch.com","tier":2,"message":"Moderate","currency":"$","rating":9.2},{"name":"Domo Sushi","phone":"4158618887","address":"511 Laguna St","lat":37.77603201110472,"lng":-122.42610991001129,"neighborhood":"Hayes Valley","city_fetched":"San Francisco","state":"CA","country":"United States","canonicalUrl":"https://foursquare.com/v/domo-sushi/49ce86fff964a520515a1fe3","category":"Sushi Restaurant","checkinsCount":6067,"usersCount":3629,"tipCount":148,"visitsCount":6527,"url":"http://www.domosf.com","tier":2,"message":"Moderate","currency":"$","rating":9.2},{"name":"Slanted Door","phone":"4158618032","address":"1 Ferry Building #3","lat":37.79619516102866,"lng":-122.3938000202179,"neighborhood":"Financial District","city_fetched":"San Francisco","state":"CA","country":"United States","canonicalUrl":"https://foursquare.com/v/slanted-door/3fd66200f964a52018ed1ee3","category":"Vietnamese Restaurant","checkinsCount":23444,"usersCount":18356,"tipCount":414,"visitsCount":23677,"url":"http://www.slanteddoor.com","tier":3,"message":"Expensive","currency":"$","rating":9.2},{"name":"flour + water","phone":"4158267000","twitter":"flourandwater","address":"2401 Harrison St","lat":37.759049759198376,"lng":-122.41240154910597,"neighborhood":"Mission District","city_fetched":"San Francisco","state":"CA","country":"United States","canonicalUrl":"https://foursquare.com/v/flour--water/4a8b6942f964a520660c20e3","category":"Italian Restaurant","checkinsCount":12115,"usersCount":9277,"tipCount":218,"visitsCount":13763,"url":"http://flourandwater.com","tier":3,"message":"Expensive","currency":"$","rating":9.2},{"name":"Buena Vista Cafe","phone":"4154745044","twitter":"thebuenavista","address":"2765 Hyde St","lat":37.80673107090414,"lng":-122.42077508329314,"city_fetched":"San Francisco","state":"CA","country":"United States","canonicalUrl":"https://foursquare.com/v/buena-vista-cafe/45487bc1f964a520833c1fe3","category":"Bar","checkinsCount":22093,"usersCount":18972,"tipCount":348,"visitsCount":25134,"url":"http://www.thebuenavista.com","tier":2,"message":"Moderate","currency":"$","rating":9.2},{"name":"Fig & Thistle Wine Bar","phone":"4156179825","address":"313 Ivy St","lat":37.77736193076336,"lng":-122.42320295149739,"neighborhood":"Hayes Valley","city_fetched":"San Francisco","state":"CA","country":"United States","canonicalUrl":"https://foursquare.com/v/fig--thistle-wine-bar/51aad1ee498e9bb839540dc7","category":"Wine Bar","checkinsCount":2582,"usersCount":1863,"tipCount":36,"visitsCount":2733,"url":"http://figandthistlesf.com","tier":2,"message":"Moderate","currency":"$","rating":9.2},{"name":"Cellarmaker Brewing Company","phone":"4158633940","twitter":"cellarmakerbeer","address":"1150 Howard St","lat":37.777147945098015,"lng":-122.41065375236074,"neighborhood":"SoMa","city_fetched":"San Francisco","state":"CA","country":"United States","canonicalUrl":"https://foursquare.com/v/cellarmaker-brewing-company/52549d8811d23325d32b5b9e","category":"Brewery","checkinsCount":6797,"usersCount":4518,"tipCount":76,"visitsCount":9258,"url":"http://www.cellarmakerbrewing.com","tier":2,"message":"Moderate","currency":"$","rating":9.2},{"name":"Mikkeller Bar","phone":"4159840279","twitter":"mikkellerbarsf","address":"34 Mason St","lat":37.78393284061272,"lng":-122.40924332556641,"neighborhood":"Downtown San Francisco-Union Square","city_fetched":"San Francisco","state":"CA","country":"United States","canonicalUrl":"https://foursquare.com/v/mikkeller-bar/511c234119a980d7108a70b9","category":"Gastropub","checkinsCount":19208,"usersCount":14178,"tipCount":311,"visitsCount":24016,"url":"http://www.mikkellerbar.com","tier":2,"message":"Moderate","currency":"$","rating":9.2},{"name":"The Alembic","phone":"4156660822","twitter":"alembicbar","address":"1725 Haight St","lat":37.76943423455803,"lng":-122.45114980625286,"neighborhood":"Haight Ashbury","city_fetched":"San Francisco","state":"CA","country":"United States","canonicalUrl":"https://foursquare.com/v/the-alembic/452d6647f964a520483b1fe3","category":"Cocktail Bar","checkinsCount":11905,"usersCount":7970,"tipCount":221,"visitsCount":13269,"url":"http://www.alembicbar.com","tier":2,"message":"Moderate","currency":"$","rating":9.2},{"name":"Trou Normand","phone":"4159750876","address":"140 New Montgomery St","lat":37.786638,"lng":-122.399754,"neighborhood":"SoMa","city_fetched":"San Francisco","state":"CA","country":"United States","canonicalUrl":"https://foursquare.com/v/trou-normand/53192adc498e20ab5bf6d887","category":"French Restaurant","checkinsCount":4181,"usersCount":3559,"tipCount":93,"visitsCount":5325,"url":"http://trounormandsf.com","tier":2,"message":"Moderate","currency":"$","rating":9.2},{"name":"20 Spot","phone":"4156243140","twitter":"20spot","address":"3565 20th St","lat":37.75852164768019,"lng":-122.42052620980341,"neighborhood":"Mission District","city_fetched":"San Francisco","state":"CA","country":"United States","canonicalUrl":"https://foursquare.com/v/20-spot/512d4202e4b0d6985cec4f7e","category":"Wine Bar","checkinsCount":2221,"usersCount":2083,"tipCount":44,"visitsCount":3111,"url":"http://www.20spot.com","tier":2,"message":"Moderate","currency":"$","rating":9.2},{"name":"Wayfare Tavern","phone":"4157729060","twitter":"wayfaretavern","address":"558 Sacramento St","lat":37.794016313675044,"lng":-122.40235090255737,"neighborhood":"Financial District","city_fetched":"San Francisco","state":"CA","country":"United States","canonicalUrl":"https://foursquare.com/v/wayfare-tavern/4c05a764191f20a11473e314","category":"Cocktail Bar","checkinsCount":16513,"usersCount":11889,"tipCount":268,"visitsCount":17692,"url":"http://www.wayfaretavern.com","tier":3,"message":"Expensive","currency":"$","rating":9.2},{"name":"Ryoko's Japanese Restaurant & Bar","phone":"4157751028","address":"619 Taylor St","lat":37.788117565225306,"lng":-122.41182079708322,"neighborhood":"Lower Nob Hill","city_fetched":"San Francisco","state":"CA","country":"United States","canonicalUrl":"https://foursquare.com/v/ryokos-japanese-restaurant--bar/433c8000f964a52043281fe3","category":"Sushi Restaurant","checkinsCount":12603,"usersCount":9557,"tipCount":327,"visitsCount":14465,"url":"http://ryokos.com","tier":2,"message":"Moderate","currency":"$","rating":9.2},{"name":"Ferry Plaza Wine Merchant","phone":"4153919400","twitter":"fpwm","address":"1 Ferry Building Ste 23","lat":37.795391877507974,"lng":-122.39330381155014,"neighborhood":"Financial District","city_fetched":"San Francisco","state":"CA","country":"United States","canonicalUrl":"https://foursquare.com/v/ferry-plaza-wine-merchant/45576dc5f964a520383d1fe3","category":"Wine Bar","checkinsCount":4776,"usersCount":3149,"tipCount":48,"visitsCount":4793,"url":"http://www.ferryplazawinemerchant.com","tier":3,"message":"Expensive","currency":"$","rating":9.1},{"name":"SPARK Social SF","twitter":"sparksocialsf","address":"601 Mission Bay Blvd N","lat":37.77075502230185,"lng":-122.39148527383804,"neighborhood":"Mission Bay","city_fetched":"San Francisco","state":"CA","country":"United States","canonicalUrl":"https://foursquare.com/v/spark-social-sf/570fbb58498ef98443cf26fb","category":"Street Food Gathering","checkinsCount":1196,"usersCount":1133,"tipCount":13,"visitsCount":2056,"url":"http://sparksocialsf.com","tier":"","message":"","currency":"","rating":9.1},{"name":"Jardinière","phone":"4158615555","twitter":"jardinieresf","address":"300 Grove St","lat":37.778127794889976,"lng":-122.42173738856943,"neighborhood":"Civic Center","city_fetched":"San Francisco","state":"CA","country":"United States","canonicalUrl":"https://foursquare.com/v/jardini%C3%A8re/49d3e017f964a5201e5c1fe3","category":"French Restaurant","checkinsCount":4500,"usersCount":3647,"tipCount":60,"visitsCount":4869,"url":"http://www.jardiniere.com","tier":4,"message":"Very Expensive","currency":"$","rating":9.1},{"name":"Coffee Bar","phone":"4155518100","twitter":"coffeebarsf","address":"1890 Bryant St","lat":37.76312402977745,"lng":-122.41099834442139,"neighborhood":"Mission District","city_fetched":"San Francisco","state":"CA","country":"United States","canonicalUrl":"https://foursquare.com/v/coffee-bar/47fde9f4f964a520df4e1fe3","category":"Coffee Shop","checkinsCount":25702,"usersCount":9626,"tipCount":253,"visitsCount":32627,"url":"http://www.coffeebarsf.com","tier":1,"message":"Cheap","currency":"$","rating":9.1},{"name":"Locanda","phone":"4158636800","twitter":"locandasf","address":"557 Valencia St","lat":37.76404834969409,"lng":-122.42180928458654,"neighborhood":"Mission District","city_fetched":"San Francisco","state":"CA","country":"United States","canonicalUrl":"https://foursquare.com/v/locanda/4db22d538154f5a745d9c093","category":"Italian Restaurant","checkinsCount":9091,"usersCount":5758,"tipCount":153,"visitsCount":9299,"url":"http://www.locandasf.com","tier":2,"message":"Moderate","currency":"$","rating":9.1},{"name":"SPQR","phone":"4157717779","twitter":"spqrfillmore","address":"1911 Fillmore St","lat":37.78737017042157,"lng":-122.43370463191788,"neighborhood":"Lower Pacific Heights","city_fetched":"San Francisco","state":"CA","country":"United States","canonicalUrl":"https://foursquare.com/v/spqr/4744d11ff964a520854c1fe3","category":"Italian Restaurant","checkinsCount":6331,"usersCount":4479,"tipCount":149,"visitsCount":6504,"url":"http://www.spqrsf.com","tier":3,"message":"Expensive","currency":"$","rating":9.1},{"name":"Biergarten","phone":"4152529289","twitter":"biergartensf","address":"424 Octavia St","lat":37.776024551172064,"lng":-122.42416523451804,"neighborhood":"Hayes Valley","city_fetched":"San Francisco","state":"CA","country":"United States","canonicalUrl":"https://foursquare.com/v/biergarten/4dd7e48fd22d38ef42f35bd8","category":"Beer Garden","checkinsCount":14721,"usersCount":9261,"tipCount":139,"visitsCount":15759,"url":"http://www.biergartensf.com","tier":2,"message":"Moderate","currency":"$","rating":9.1},{"name":"Little Star Pizza","phone":"4155517827","twitter":"lilstarvalencia","address":"400 Valencia St","lat":37.76646989403105,"lng":-122.42209686816254,"neighborhood":"Mission Dolores","city_fetched":"San Francisco","state":"CA","country":"United States","canonicalUrl":"https://foursquare.com/v/little-star-pizza/4537f9daf964a520c73b1fe3","category":"Pizza Place","checkinsCount":10952,"usersCount":6683,"tipCount":133,"visitsCount":11327,"url":"http://littlestarpizza.com","tier":2,"message":"Moderate","currency":"$","rating":9.1},{"name":"Arlequin Cafe & Food To Go","phone":"4156261211","address":"384 Hayes St","lat":37.77705874785067,"lng":-122.4226830937816,"neighborhood":"Civic Center","city_fetched":"San Francisco","state":"CA","country":"United States","canonicalUrl":"https://foursquare.com/v/arlequin-cafe--food-to-go/49eb8289f964a520ea661fe3","category":"Café","checkinsCount":14236,"usersCount":6633,"tipCount":158,"visitsCount":15479,"url":"http://www.arlequincafe.com","tier":2,"message":"Moderate","currency":"$","rating":9.1},{"name":"Tacolicious","phone":"4156261344","twitter":"tacolicioussf","address":"741 Valencia St","lat":37.76099200522096,"lng":-122.42143874304828,"neighborhood":"Mission District","city_fetched":"San Francisco","state":"CA","country":"United States","canonicalUrl":"https://foursquare.com/v/tacolicious/4ec598ffb634b2fd723d8c01","category":"Taco Place","checkinsCount":17464,"usersCount":10158,"tipCount":249,"visitsCount":18211,"url":"http://tacolicious.com","tier":2,"message":"Moderate","currency":"$","rating":9.1},{"name":"Magnolia Gastropub & Brewery","phone":"4158647468","twitter":"magnoliapub","address":"1398 Haight St","lat":37.770223,"lng":-122.445354,"neighborhood":"Haight Ashbury","city_fetched":"San Francisco","state":"CA","country":"United States","canonicalUrl":"https://foursquare.com/v/magnolia-gastropub--brewery/3fd66200f964a52066ed1ee3","category":"Gastropub","checkinsCount":21441,"usersCount":15269,"tipCount":289,"visitsCount":26128,"url":"http://www.magnoliapub.com","tier":2,"message":"Moderate","currency":"$","rating":9.1},{"name":"Zeitgeist","phone":"4152557505","twitter":"zeitgeistsf","address":"199 Valencia St","lat":37.770116839430536,"lng":-122.42210805416107,"neighborhood":"Mission District","city_fetched":"San Francisco","state":"CA","country":"United States","canonicalUrl":"https://foursquare.com/v/zeitgeist/3fd66200f964a52041ee1ee3","category":"Beer Garden","checkinsCount":51724,"usersCount":26197,"tipCount":352,"visitsCount":60509,"url":"http://www.zeitgeistsf.com","tier":2,"message":"Moderate","currency":"$","rating":9.1},{"name":"ABV","phone":"4154004748","address":"3174 16th St","lat":37.764944957552245,"lng":-122.423645381568,"neighborhood":"Mission Dolores","city_fetched":"San Francisco","state":"CA","country":"United States","canonicalUrl":"https://foursquare.com/v/abv/53bb6967498e740fe2ec711e","category":"Cocktail Bar","checkinsCount":6259,"usersCount":4442,"tipCount":110,"visitsCount":7772,"url":"http://www.abvsf.com","tier":2,"message":"Moderate","currency":"$","rating":9.1},{"name":"The Social Study","phone":"4152927417","twitter":"socialstudysf","address":"1795 Geary Blvd","lat":37.78423652944775,"lng":-122.43253230055683,"neighborhood":"Fillmore District","city_fetched":"San Francisco","state":"CA","country":"United States","canonicalUrl":"https://foursquare.com/v/the-social-study/4eb60fc8f5b94bd85c1c84bf","category":"Lounge","checkinsCount":7206,"usersCount":4242,"tipCount":67,"visitsCount":7787,"url":"http://www.thesocialstudysf.com","tier":2,"message":"Moderate","currency":"$","rating":9.1},{"name":"Fat Angel Food & Libation","phone":"4155253013","twitter":"fatangelsf","address":"1740 Ofarrell St","lat":37.78317231,"lng":-122.433099,"neighborhood":"Fillmore District","city_fetched":"San Francisco","state":"CA","country":"United States","canonicalUrl":"https://foursquare.com/v/fat-angel-food--libation/4b70fb2bf964a52074362de3","category":"Gastropub","checkinsCount":8888,"usersCount":4643,"tipCount":115,"visitsCount":9223,"url":"http://fatangelsf.com","tier":2,"message":"Moderate","currency":"$","rating":9.1},{"name":"21st Amendment Brewery & Restaurant","phone":"4153690900","twitter":"21stamendment","address":"563 2nd St","lat":37.78237800515974,"lng":-122.39258779659154,"neighborhood":"South Beach","city_fetched":"San Francisco","state":"CA","country":"United States","canonicalUrl":"https://foursquare.com/v/21st-amendment-brewery--restaurant/42af6f80f964a5205e251fe3","category":"Brewery","checkinsCount":45295,"usersCount":25729,"tipCount":350,"visitsCount":49186,"url":"http://21st-amendment.com","tier":2,"message":"Moderate","currency":"$","rating":9.1},{"name":"Barebottle Brewing Company","twitter":"barebottlebeer","address":"1525 Cortland Ave","lat":37.739757,"lng":-122.40915,"neighborhood":"Bernal Heights","city_fetched":"San Francisco","state":"CA","country":"United States","canonicalUrl":"https://foursquare.com/v/barebottle-brewing-company/56eb4e0a498e5769545c1843","category":"Brewery","checkinsCount":282,"usersCount":348,"tipCount":7,"visitsCount":403,"url":"http://www.barebottlebeer.com","tier":"","message":"","currency":"","rating":9.1},{"name":"Wilson & Wilson Private Detective Agency","address":"501 Jones St","lat":37.785899398327935,"lng":-122.412932519575,"neighborhood":"Tenderloin","city_fetched":"San Francisco","state":"CA","country":"United States","canonicalUrl":"https://foursquare.com/v/wilson--wilson-private-detective-agency/4d7b1c3e7a1c6dcb57d2ca61","category":"Speakeasy","checkinsCount":2142,"usersCount":1816,"tipCount":43,"visitsCount":2150,"url":"http://www.thewilsonbar.com","tier":3,"message":"Expensive","currency":"$","rating":9.1},{"name":"Two Sisters Bar & Books","phone":"4158633655","twitter":"2sistersbar","address":"579 Hayes St","lat":37.77651962063035,"lng":-122.42587387561798,"neighborhood":"Hayes Valley","city_fetched":"San Francisco","state":"CA","country":"United States","canonicalUrl":"https://foursquare.com/v/two-sisters-bar--books/4e937514f9f44dd023514f2b","category":"Cocktail Bar","checkinsCount":6113,"usersCount":3893,"tipCount":98,"visitsCount":6291,"url":"http://2sistersbarandbooks.com","tier":2,"message":"Moderate","currency":"$","rating":9.1},{"name":"La Mar","phone":"4153978880","twitter":"lamarsf","address":"Pier 1½","lat":37.79729727723978,"lng":-122.39536643028259,"neighborhood":"Northern Waterfront","city_fetched":"San Francisco","state":"CA","country":"United States","canonicalUrl":"https://foursquare.com/lamarsf","category":"Peruvian Restaurant","checkinsCount":15774,"usersCount":12685,"tipCount":188,"visitsCount":17532,"url":"http://www.lamarsf.com","tier":3,"message":"Expensive","currency":"$","rating":9.1},{"name":"Ozumo","phone":"4158821333","twitter":"ozumo_sf","address":"161 Steuart St","lat":37.792754827304414,"lng":-122.39217842791084,"neighborhood":"Financial District","city_fetched":"San Francisco","state":"CA","country":"United States","canonicalUrl":"https://foursquare.com/v/ozumo/4aebd409f964a520e9c421e3","category":"Japanese Restaurant","checkinsCount":11905,"usersCount":7915,"tipCount":132,"visitsCount":12099,"url":"http://ozumosanfrancisco.com","tier":4,"message":"Very Expensive","currency":"$","rating":9.1},{"name":"The Sycamore","phone":"4152527704","twitter":"thesycamoresf","address":"2140 Mission St","lat":37.76271582791934,"lng":-122.41963579093161,"neighborhood":"Mission District","city_fetched":"San Francisco","state":"CA","country":"United States","canonicalUrl":"https://foursquare.com/v/the-sycamore/4c253819c11dc9b634d82624","category":"Gastropub","checkinsCount":16523,"usersCount":8535,"tipCount":184,"visitsCount":19847,"url":"http://www.thesycamoresf.com","tier":2,"message":"Moderate","currency":"$","rating":9.1},{"name":"Absinthe Brasserie & Bar","phone":"4155511590","twitter":"absinthesf","address":"398 Hayes St","lat":37.77732946934459,"lng":-122.42300391197205,"neighborhood":"Civic Center","city_fetched":"San Francisco","state":"CA","country":"United States","canonicalUrl":"https://foursquare.com/v/absinthe-brasserie--bar/43dc103ef964a520992e1fe3","category":"French Restaurant","checkinsCount":18625,"usersCount":11658,"tipCount":235,"visitsCount":19067,"url":"http://www.absinthe.com","tier":3,"message":"Expensive","currency":"$","rating":9},{"name":"Birba","address":"458 Grove St","lat":37.77778204085111,"lng":-122.42419288619857,"neighborhood":"Hayes Valley","city_fetched":"San Francisco","state":"CA","country":"United States","canonicalUrl":"https://foursquare.com/v/birba/551b7760498e1612b67f33f9","category":"Wine Bar","checkinsCount":350,"usersCount":243,"tipCount":10,"visitsCount":401,"url":"http://birbawine.com","tier":"","message":"","currency":"","rating":9},{"name":"15 Romolo","phone":"4153981359","twitter":"15romolo","address":"15 Romolo Pl","lat":37.798102414626555,"lng":-122.40637816502203,"neighborhood":"North Beach","city_fetched":"San Francisco","state":"CA","country":"United States","canonicalUrl":"https://foursquare.com/v/15-romolo/3fd66200f964a5202bed1ee3","category":"Cocktail Bar","checkinsCount":17637,"usersCount":10185,"tipCount":193,"visitsCount":18922,"url":"http://www.15romolo.com","tier":2,"message":"Moderate","currency":"$","rating":9},{"name":"Great American Music Hall","phone":"4158850750","twitter":"gamh","address":"859 Ofarrell St","lat":37.784919196285855,"lng":-122.41892787488793,"neighborhood":"Tenderloin","city_fetched":"San Francisco","state":"CA","country":"United States","canonicalUrl":"https://foursquare.com/v/great-american-music-hall/40e4a580f964a520f5091fe3","category":"Rock Club","checkinsCount":13177,"usersCount":8699,"tipCount":74,"visitsCount":14488,"url":"http://www.gamh.com","tier":"","message":"","currency":"","rating":9},{"name":"Comstock Saloon","phone":"4156170073","twitter":"grouper","address":"155 Columbus Ave","lat":37.797068377533414,"lng":-122.40559101104736,"neighborhood":"Chinatown","city_fetched":"San Francisco","state":"CA","country":"United States","canonicalUrl":"https://foursquare.com/v/comstock-saloon/4bf5b259bfeac92873029336","category":"Cocktail Bar","checkinsCount":15225,"usersCount":9894,"tipCount":194,"visitsCount":15968,"url":"http://www.comstocksaloon.com","tier":2,"message":"Moderate","currency":"$","rating":9},{"name":"Public Works","phone":"4159320955","twitter":"publicworkssf","address":"161 Erie St","lat":37.7688828622445,"lng":-122.41947412490845,"neighborhood":"Mission District","city_fetched":"San Francisco","state":"CA","country":"United States","canonicalUrl":"https://foursquare.com/v/public-works/4c6c6689f2846dcb43de62e9","category":"Event Space","checkinsCount":17490,"usersCount":10997,"tipCount":50,"visitsCount":21177,"tier":"","message":"","currency":"","rating":9},{"name":"Mission Bowling Club","phone":"4158632695","twitter":"missionbowling","address":"3176 17th St","lat":37.7637144274917,"lng":-122.4167875059488,"neighborhood":"Mission District","city_fetched":"San Francisco","state":"CA","country":"United States","canonicalUrl":"https://foursquare.com/v/mission-bowling-club/4d4dff6f9aaab60c78ae3e29","category":"Bowling Alley","checkinsCount":9902,"usersCount":7632,"tipCount":116,"visitsCount":11975,"url":"http://www.missionbowlingclub.com","tier":"","message":"","currency":"","rating":9},{"name":"Les Clos","phone":"4157951422","address":"234 Townsend St","lat":37.77814103111979,"lng":-122.39379376534403,"neighborhood":"SoMa","city_fetched":"San Francisco","state":"CA","country":"United States","canonicalUrl":"https://foursquare.com/v/les-clos/53c05091498e2ae1e949608a","category":"Wine Bar","checkinsCount":1781,"usersCount":1214,"tipCount":39,"visitsCount":2272,"url":"http://www.lesclossf.com","tier":3,"message":"Expensive","currency":"$","rating":9},{"name":"Benjamin Cooper","phone":"4156545061","address":"398 Geary St","lat":37.78731192798962,"lng":-122.40974843502043,"neighborhood":"Downtown San Francisco-Union Square","city_fetched":"San Francisco","state":"CA","country":"United States","canonicalUrl":"https://foursquare.com/v/benjamin-cooper/54f132e7498e5d065370a6b1","category":"Cocktail Bar","checkinsCount":2051,"usersCount":1346,"tipCount":28,"visitsCount":2279,"url":"http://benjamincoopersf.com","tier":3,"message":"Expensive","currency":"$","rating":9},{"name":"Dogpatch Saloon","phone":"4156438592","address":"2496 3rd St","lat":37.75805811,"lng":-122.388467,"neighborhood":"Dogpatch","city_fetched":"San Francisco","state":"CA","country":"United States","canonicalUrl":"https://foursquare.com/v/dogpatch-saloon/47970b1ff964a5205d4d1fe3","category":"Cocktail Bar","checkinsCount":4109,"usersCount":2208,"tipCount":33,"visitsCount":4273,"url":"http://dogpatchsaloon.com","tier":2,"message":"Moderate","currency":"$","rating":9},{"name":"Cervecería de MateVeza","phone":"4152739295","twitter":"woodsbeer","address":"3801 18th St","lat":37.76127745659216,"lng":-122.42844562793668,"neighborhood":"Dolores Heights","city_fetched":"San Francisco","state":"CA","country":"United States","canonicalUrl":"https://foursquare.com/v/cervecer%C3%ADa-de-mateveza/4f7ba94ce4b06978a72ee52c","category":"Brewery","checkinsCount":4053,"usersCount":3459,"tipCount":69,"visitsCount":5951,"url":"http://woodsbeer.com","tier":2,"message":"Moderate","currency":"$","rating":9},{"name":"Nectar Wine Lounge","phone":"4153451377","twitter":"nectarwinesf","address":"3330 Steiner","lat":37.800207,"lng":-122.437696,"neighborhood":"Marina District","city_fetched":"San Francisco","state":"CA","country":"United States","canonicalUrl":"https://foursquare.com/v/nectar-wine-lounge/435c2400f964a52014291fe3","category":"Wine Bar","checkinsCount":2487,"usersCount":1662,"tipCount":22,"visitsCount":2518,"url":"http://www.nectarwinelounge.com","tier":2,"message":"Moderate","currency":"$","rating":9},{"name":"Blackbird Bar","phone":"4155030630","address":"2124 Market St","lat":37.767305376885574,"lng":-122.42940902709961,"neighborhood":"Duboce Triangle","city_fetched":"San Francisco","state":"CA","country":"United States","canonicalUrl":"https://foursquare.com/v/blackbird-bar/4a692f3df964a520bdcb1fe3","category":"Cocktail Bar","checkinsCount":25445,"usersCount":11273,"tipCount":174,"visitsCount":27543,"url":"http://blackbirdbar.com","tier":2,"message":"Moderate","currency":"$","rating":9},{"name":"Liquid Gold","phone":"4156605142","twitter":"liquidgold_sf","address":"1040 Hyde St","lat":37.790533309083806,"lng":-122.41725761655998,"neighborhood":"Nob Hill","city_fetched":"San Francisco","state":"CA","country":"United States","canonicalUrl":"https://foursquare.com/v/liquid-gold/535445c711d2e8996ac58181","category":"Beer Bar","checkinsCount":1322,"usersCount":699,"tipCount":21,"visitsCount":1427,"url":"http://liquidgoldsf.com","tier":"","message":"","currency":"","rating":9},{"name":"Tosca Cafe","phone":"4159869651","address":"242 Columbus Ave","lat":37.797513181613,"lng":-122.40601863164032,"neighborhood":"North Beach","city_fetched":"San Francisco","state":"CA","country":"United States","canonicalUrl":"https://foursquare.com/v/tosca-cafe/3fd66200f964a52042ed1ee3","category":"Italian Restaurant","checkinsCount":6468,"usersCount":4430,"tipCount":92,"visitsCount":6749,"url":"http://toscacafesf.com","tier":3,"message":"Expensive","currency":"$","rating":9},{"name":"Union Larder","phone":"4152727567","address":"1945 Hyde St","lat":37.79892387881628,"lng":-122.41904954829758,"neighborhood":"Russian Hill","city_fetched":"San Francisco","state":"CA","country":"United States","canonicalUrl":"https://foursquare.com/v/union-larder/53ec8516498e7fd89bd29ade","category":"Wine Bar","checkinsCount":1065,"usersCount":841,"tipCount":9,"visitsCount":1202,"url":"http://www.unionlarder.com","tier":"","message":"","currency":"","rating":9},{"name":"Toronado","phone":"4158632276","address":"547 Haight St","lat":37.77192748345444,"lng":-122.4310290813446,"neighborhood":"Lower Haight","city_fetched":"San Francisco","state":"CA","country":"United States","canonicalUrl":"https://foursquare.com/v/toronado/3fd66200f964a5205ded1ee3","category":"Beer Bar","checkinsCount":29054,"usersCount":13521,"tipCount":271,"visitsCount":30021,"url":"http://toronado.com","tier":1,"message":"Cheap","currency":"$","rating":8.9},{"name":"Iron & Gold","phone":"4158241447","twitter":"ironandgoldfs","address":"3187 Mission St","lat":37.74585332560316,"lng":-122.41952776908875,"neighborhood":"Bernal Heights","city_fetched":"San Francisco","state":"CA","country":"United States","canonicalUrl":"https://foursquare.com/v/iron--gold/4eb19c02f790aae216c49e6a","category":"Cocktail Bar","checkinsCount":3824,"usersCount":1801,"tipCount":23,"visitsCount":4095,"url":"http://www.ironandgoldsf.com","tier":2,"message":"Moderate","currency":"$","rating":8.9},{"name":"The Taco Shop at Underdog's","phone":"4155668700","twitter":"tacoshopatuds","address":"1824 Irving St","lat":37.763664,"lng":-122.477546,"neighborhood":"Outer Sunset","city_fetched":"San Francisco","state":"CA","country":"United States","canonicalUrl":"https://foursquare.com/tacoshopatuds","category":"Taco Place","checkinsCount":13734,"usersCount":5131,"tipCount":130,"visitsCount":14276,"url":"http://www.tacoshopsf.com","tier":2,"message":"Moderate","currency":"$","rating":8.9},{"name":"Old Bus Tavern","phone":"4158431938","address":"3193 Mission St","lat":37.745772553085224,"lng":-122.41985148315258,"neighborhood":"Bernal Heights","city_fetched":"San Francisco","state":"CA","country":"United States","canonicalUrl":"https://foursquare.com/v/old-bus-tavern/55a33e80498ebb1b4a0d45df","category":"American Restaurant","checkinsCount":788,"usersCount":755,"tipCount":23,"visitsCount":962,"url":"http://www.oldbustavern.com","tier":3,"message":"Expensive","currency":"$","rating":8.9},{"name":"Club Deluxe","phone":"4155526949","address":"1511 Haight St","lat":37.769963559280306,"lng":-122.44726843711075,"neighborhood":"Haight Ashbury","city_fetched":"San Francisco","state":"CA","country":"United States","canonicalUrl":"https://foursquare.com/v/club-deluxe/3fd66200f964a52060ed1ee3","category":"Jazz Club","checkinsCount":4312,"usersCount":2700,"tipCount":57,"visitsCount":4525,"url":"http://www.clubdeluxe.co","tier":"","message":"","currency":"","rating":8.9},{"name":"West Coast Wine and Cheese","phone":"4153769720","address":"2165 Union","lat":37.79719549356882,"lng":-122.43478847378094,"neighborhood":"Union Street","city_fetched":"San Francisco","state":"CA","country":"United States","canonicalUrl":"https://foursquare.com/v/west-coast-wine-and-cheese/54486819498eb70df470216e","category":"Wine Bar","checkinsCount":478,"usersCount":350,"tipCount":8,"visitsCount":509,"url":"http://westcoastsf.com","tier":"","message":"","currency":"","rating":8.9},{"name":"Whitechapel","phone":"4152925800","twitter":"whitechapelsf","address":"600 Polk St","lat":37.782167615655155,"lng":-122.41887809936154,"neighborhood":"Civic Center","city_fetched":"San Francisco","state":"CA","country":"United States","canonicalUrl":"https://foursquare.com/v/whitechapel/55df9e27498ef4c72ac83a77","category":"Cocktail Bar","checkinsCount":3012,"usersCount":3184,"tipCount":66,"visitsCount":4503,"url":"http://www.whitechapelsf.com","tier":3,"message":"Expensive","currency":"$","rating":8.9},{"name":"Cafe Meuse","phone":"4159286674","address":"1400 Pacific Ave","lat":37.79548872486143,"lng":-122.4183803427999,"neighborhood":"Nob Hill","city_fetched":"San Francisco","state":"CA","country":"United States","canonicalUrl":"https://foursquare.com/v/cafe-meuse/4a101d92f964a52090761fe3","category":"Wine Bar","checkinsCount":2139,"usersCount":1489,"tipCount":17,"visitsCount":2450,"url":"http://cafemeuse.com","tier":2,"message":"Moderate","currency":"$","rating":8.9},{"name":"The Royal Cuckoo","phone":"4155508607","address":"3202 Mission St","lat":37.7453256,"lng":-122.4201309,"neighborhood":"Bernal Heights","city_fetched":"San Francisco","state":"CA","country":"United States","canonicalUrl":"https://foursquare.com/v/the-royal-cuckoo/4d1c224a7e10a35d580bfd82","category":"Cocktail Bar","checkinsCount":6007,"usersCount":3193,"tipCount":61,"visitsCount":6316,"url":"http://royalcuckoo.com","tier":1,"message":"Cheap","currency":"$","rating":8.9},{"name":"Speakeasy Ales & Lagers","phone":"4156423371","twitter":"speakeasybeer","address":"1195 Evans Ave","lat":37.7383869560756,"lng":-122.3809035677186,"neighborhood":"Bayview","city_fetched":"San Francisco","state":"CA","country":"United States","canonicalUrl":"https://foursquare.com/v/speakeasy-ales--lagers/43c4e03ff964a5205d2d1fe3","category":"Brewery","checkinsCount":4604,"usersCount":2919,"tipCount":49,"visitsCount":5325,"url":"http://speakeasybeer","tier":1,"message":"Cheap","currency":"$","rating":8.9},{"name":"SF Eagle","phone":"4156260880","twitter":"sfeaglebar","address":"398 12th St","lat":37.77003627110171,"lng":-122.41329699754716,"neighborhood":"SoMa","city_fetched":"San Francisco","state":"CA","country":"United States","canonicalUrl":"https://foursquare.com/v/sf-eagle/50427be8e4b09c6ce4ee30b4","category":"Gay Bar","checkinsCount":6183,"usersCount":3129,"tipCount":29,"visitsCount":10150,"url":"http://www.sf-eagle.com","tier":1,"message":"Cheap","currency":"$","rating":8.9},{"name":"Holy Water","phone":"4155555555","address":"309 Cortland Ave","lat":37.73931106981208,"lng":-122.4182199540719,"neighborhood":"Bernal Heights","city_fetched":"San Francisco","state":"CA","country":"United States","canonicalUrl":"https://foursquare.com/v/holy-water/520d0b3611d2200c477520fb","category":"Cocktail Bar","checkinsCount":2011,"usersCount":1548,"tipCount":37,"visitsCount":2768,"url":"http://holywatersf.com","tier":1,"message":"Cheap","currency":"$","rating":8.9},{"name":"Terroir","phone":"4155589946","address":"1116 Folsom St","lat":37.776508474178094,"lng":-122.40824771878671,"neighborhood":"SoMa","city_fetched":"San Francisco","state":"CA","country":"United States","canonicalUrl":"https://foursquare.com/v/terroir/49b06161f964a520ba521fe3","category":"Wine Bar","checkinsCount":4334,"usersCount":2521,"tipCount":52,"visitsCount":4513,"url":"http://www.terroirsf.com","tier":3,"message":"Expensive","currency":"$","rating":8.9},{"name":"Bix","phone":"4154336300","twitter":"bixrestaurant","address":"56 Gold St","lat":37.79669153492159,"lng":-122.40292106235334,"neighborhood":"Jackson Square","city_fetched":"San Francisco","state":"CA","country":"United States","canonicalUrl":"https://foursquare.com/v/bix/3fd66200f964a5205af11ee3","category":"New American Restaurant","checkinsCount":5049,"usersCount":4471,"tipCount":97,"visitsCount":5649,"url":"http://www.bixrestaurant.com","tier":3,"message":"Expensive","currency":"$","rating":8.9},{"name":"Anchor & Hope","phone":"4155019100","twitter":"anchorandhopesf","address":"83 Minna St","lat":37.787895803434054,"lng":-122.39874473077168,"neighborhood":"SoMa","city_fetched":"San Francisco","state":"CA","country":"United States","canonicalUrl":"https://foursquare.com/v/anchor--hope/49d111f5f964a520575b1fe3","category":"Seafood Restaurant","checkinsCount":9599,"usersCount":6986,"tipCount":162,"visitsCount":9838,"url":"http://www.anchorandhopesf.com","tier":3,"message":"Expensive","currency":"$","rating":8.9},{"name":"Smuggler's Cove","phone":"4158691900","twitter":"smugglerscovesf","address":"650 Gough St","lat":37.779389802632586,"lng":-122.42344628826702,"neighborhood":"Civic Center","city_fetched":"San Francisco","state":"CA","country":"United States","canonicalUrl":"https://foursquare.com/v/smugglers-cove/4afe6db4f964a520682f22e3","category":"Tiki Bar","checkinsCount":23780,"usersCount":14880,"tipCount":295,"visitsCount":27655,"url":"http://smugglerscovesf.com","tier":2,"message":"Moderate","currency":"$","rating":8.9},{"name":"The Hidden Vine","phone":"4156743567","twitter":"hiddenvinesf","address":"408 Merchant St","lat":37.795486891620904,"lng":-122.40055357288502,"neighborhood":"Financial District","city_fetched":"San Francisco","state":"CA","country":"United States","canonicalUrl":"https://foursquare.com/v/the-hidden-vine/42926e80f964a52021241fe3","category":"Wine Bar","checkinsCount":4606,"usersCount":3752,"tipCount":56,"visitsCount":5260,"url":"http://www.thehiddenvine.com","tier":2,"message":"Moderate","currency":"$","rating":8.9},{"name":"Vesuvio Cafe","phone":"4153623370","address":"255 Columbus Ave","lat":37.79762925969812,"lng":-122.40637263374855,"neighborhood":"North Beach","city_fetched":"San Francisco","state":"CA","country":"United States","canonicalUrl":"https://foursquare.com/v/vesuvio-cafe/3fd66200f964a52044ed1ee3","category":"Dive Bar","checkinsCount":13795,"usersCount":9346,"tipCount":108,"visitsCount":13982,"url":"http://www.vesuvio.com","tier":2,"message":"Moderate","currency":"$","rating":8.9},{"name":"Local Edition","phone":"4157951375","twitter":"localeditionsf","address":"691 Market St","lat":37.78766655851561,"lng":-122.40343548642822,"neighborhood":"SoMa","city_fetched":"San Francisco","state":"CA","country":"United States","canonicalUrl":"https://foursquare.com/v/local-edition/4f7e77bfe4b0b58904177146","category":"Cocktail Bar","checkinsCount":27503,"usersCount":18063,"tipCount":236,"visitsCount":32024,"url":"http://localeditionsf.com","tier":2,"message":"Moderate","currency":"$","rating":8.9},{"name":"Rye","phone":"4154744448","twitter":"ryesf","address":"688 Geary St","lat":37.786556,"lng":-122.414502,"neighborhood":"Tenderloin","city_fetched":"San Francisco","state":"CA","country":"United States","canonicalUrl":"https://foursquare.com/v/rye/4410b832f964a520c0301fe3","category":"Cocktail Bar","checkinsCount":15230,"usersCount":9402,"tipCount":135,"visitsCount":16119,"url":"http://www.ryesf.com","tier":2,"message":"Moderate","currency":"$","rating":8.9},{"name":"Tank 18","phone":"4158571345","twitter":"tank18sf","address":"1345 Howard St","lat":37.7742870489023,"lng":-122.41362941424353,"neighborhood":"SoMa","city_fetched":"San Francisco","state":"CA","country":"United States","canonicalUrl":"https://foursquare.com/v/tank-18/4fe0806ce4b0c441c2af310b","category":"Wine Bar","checkinsCount":2117,"usersCount":2314,"tipCount":19,"visitsCount":2981,"url":"http://tank18.com","tier":2,"message":"Moderate","currency":"$","rating":8.9},{"name":"District","phone":"4158962120","twitter":"districtsf","address":"216 Townsend St","lat":37.778584505321376,"lng":-122.39323139190674,"neighborhood":"SoMa","city_fetched":"San Francisco","state":"CA","country":"United States","canonicalUrl":"https://foursquare.com/v/district/461604b8f964a52045451fe3","category":"Wine Bar","checkinsCount":14006,"usersCount":7377,"tipCount":95,"visitsCount":14713,"url":"http://www.districtsf.com","tier":2,"message":"Moderate","currency":"$","rating":8.9},{"name":"Tender","phone":"4155897879","twitter":"freyatendersf","address":"854 Geary St","lat":37.786286,"lng":-122.417309,"neighborhood":"Lower Nob Hill","city_fetched":"San Francisco","state":"CA","country":"United States","canonicalUrl":"https://foursquare.com/v/tender/54558b9f498e05a0fd4bb6ea","category":"Wine Bar","checkinsCount":320,"usersCount":260,"tipCount":6,"visitsCount":326,"url":"http://tendersf.com","tier":"","message":"","currency":"","rating":8.8},{"name":"Wattle Creek Tasting Room","phone":"4153591206","twitter":"wattlecreek","address":"900 N Point St Ste E211","lat":37.80589423377685,"lng":-122.42271074585258,"city_fetched":"San Francisco","state":"CA","country":"United States","canonicalUrl":"https://foursquare.com/v/wattle-creek-tasting-room/4b2c027bf964a52083bf24e3","category":"Winery","checkinsCount":2909,"usersCount":1190,"tipCount":18,"visitsCount":2960,"url":"http://www.wattlecreek.com","tier":"","message":"","currency":"","rating":8.8},{"name":"Tradition","phone":"4154742284","twitter":"tradbar","address":"441 Jones St","lat":37.785433,"lng":-122.412911,"neighborhood":"Tenderloin","city_fetched":"San Francisco","state":"CA","country":"United States","canonicalUrl":"https://foursquare.com/v/tradition/4fd95f5ee4b0a2110cfd11a8","category":"Cocktail Bar","checkinsCount":8952,"usersCount":6767,"tipCount":79,"visitsCount":10150,"url":"http://www.tradbar.com","tier":2,"message":"Moderate","currency":"$","rating":8.8},{"name":"Woodhouse Fish Co.","phone":"4154372722","twitter":"woodhousefish","address":"1914 Fillmore St","lat":37.787479645903915,"lng":-122.43354426660919,"neighborhood":"Lower Pacific Heights","city_fetched":"San Francisco","state":"CA","country":"United States","canonicalUrl":"https://foursquare.com/v/woodhouse-fish-co/4a73b153f964a52035dd1fe3","category":"Seafood Restaurant","checkinsCount":7044,"usersCount":4825,"tipCount":118,"visitsCount":7209,"url":"http://woodhousefish.com","tier":2,"message":"Moderate","currency":"$","rating":8.8},{"name":"Cha Cha Cha","phone":"4153867670","address":"1801 Haight St","lat":37.769228462742,"lng":-122.45200395584106,"neighborhood":"Haight Ashbury","city_fetched":"San Francisco","state":"CA","country":"United States","canonicalUrl":"https://foursquare.com/v/cha-cha-cha/417c4200f964a520c71d1fe3","category":"Tapas Restaurant","checkinsCount":9699,"usersCount":7571,"tipCount":140,"visitsCount":9888,"url":"http://www.cha3.com/cha-cha-cha---haight---about.html","tier":3,"message":"Expensive","currency":"$","rating":8.8},{"name":"Capo's","phone":"4159868998","twitter":"capossf","address":"641 Vallejo St","lat":37.79862984111281,"lng":-122.4084855590414,"neighborhood":"North Beach","city_fetched":"San Francisco","state":"CA","country":"United States","canonicalUrl":"https://foursquare.com/capossf","category":"Pizza Place","checkinsCount":2121,"usersCount":1506,"tipCount":45,"visitsCount":2254,"url":"http://www.sfcapos.com","tier":2,"message":"Moderate","currency":"$","rating":8.8},{"name":"Bar Agricole","phone":"4153559400","twitter":"baragricole","address":"355 11th St","lat":37.771362,"lng":-122.412966,"neighborhood":"SoMa","city_fetched":"San Francisco","state":"CA","country":"United States","canonicalUrl":"https://foursquare.com/v/bar-agricole/4b4a4e86f964a5203d8326e3","category":"Cocktail Bar","checkinsCount":12797,"usersCount":7943,"tipCount":204,"visitsCount":13229,"url":"http://baragricole.com","tier":3,"message":"Expensive","currency":"$","rating":8.8},{"name":"Perbacco","phone":"4159550663","twitter":"perbaccosf","address":"230 California St","lat":37.79337621206568,"lng":-122.39930391311644,"neighborhood":"Financial District","city_fetched":"San Francisco","state":"CA","country":"United States","canonicalUrl":"https://foursquare.com/v/perbacco/459b7818f964a52089401fe3","category":"Italian Restaurant","checkinsCount":6635,"usersCount":5218,"tipCount":125,"visitsCount":6698,"url":"http://perbaccosf.com","tier":3,"message":"Expensive","currency":"$","rating":8.8},{"name":"A16","phone":"4157712216","twitter":"a16sf","address":"2355 Chestnut St","lat":37.799783258903894,"lng":-122.44202670177839,"neighborhood":"Marina District","city_fetched":"San Francisco","state":"CA","country":"United States","canonicalUrl":"https://foursquare.com/v/a16/4587a2b6f964a520c63f1fe3","category":"Italian Restaurant","checkinsCount":7730,"usersCount":5350,"tipCount":144,"visitsCount":8133,"url":"http://www.a16sf.com","tier":3,"message":"Expensive","currency":"$","rating":8.8},{"name":"Naked Lunch","phone":"4155774951","twitter":"nakedlunchsf","address":"504 Broadway","lat":37.798014281182155,"lng":-122.40578078580441,"neighborhood":"North Beach","city_fetched":"San Francisco","state":"CA","country":"United States","canonicalUrl":"https://foursquare.com/v/naked-lunch/4a8c5c11f964a520c40d20e3","category":"Sandwich Place","checkinsCount":6814,"usersCount":3410,"tipCount":104,"visitsCount":7625,"url":"http://www.nakedlunchsf.com","tier":2,"message":"Moderate","currency":"$","rating":8.8},{"name":"Hillstone","phone":"4153929280","twitter":"hillstonesf","address":"1800 Montgomery St","lat":37.805918649667305,"lng":-122.40514039993286,"neighborhood":"Northern Waterfront","city_fetched":"San Francisco","state":"CA","country":"United States","canonicalUrl":"https://foursquare.com/v/hillstone/41044980f964a520700b1fe3","category":"American Restaurant","checkinsCount":11546,"usersCount":6313,"tipCount":142,"visitsCount":13156,"url":"http://www.hillstone.com/hillstone","tier":4,"message":"Very Expensive","currency":"$","rating":8.8},{"name":"Urban Putt","phone":"4153411080","twitter":"urbanputt","address":"1096 S Van Ness Ave","lat":37.75570695048126,"lng":-122.41671560649337,"neighborhood":"Mission District","city_fetched":"San Francisco","state":"CA","country":"United States","canonicalUrl":"https://foursquare.com/v/urban-putt/5345d88b498ed7da2bcf501f","category":"Mini Golf","checkinsCount":6331,"usersCount":7937,"tipCount":86,"visitsCount":10221,"url":"http://urbanputt.com","tier":"","message":"","currency":"","rating":8.8},{"name":"Folsom Street Foundry","phone":"4157953644","twitter":"fsfoundry","address":"1425 Folsom St","lat":37.77244186401367,"lng":-122.41297912597656,"neighborhood":"SoMa","city_fetched":"San Francisco","state":"CA","country":"United States","canonicalUrl":"https://foursquare.com/fsfoundry","category":"Event Space","checkinsCount":3570,"usersCount":2752,"tipCount":14,"visitsCount":4481,"url":"http://www.folsomstreetfoundry.com","tier":"","message":"","currency":"","rating":8.8},{"name":"The Devil's Acre","phone":"4157664363","twitter":"devilsacre","address":"256 Columbus Ave","lat":37.797679,"lng":-122.406294,"neighborhood":"North Beach","city_fetched":"San Francisco","state":"CA","country":"United States","canonicalUrl":"https://foursquare.com/v/the-devils-acre/5487a2cb498ea3c43c7cd3f4","category":"Cocktail Bar","checkinsCount":2456,"usersCount":1920,"tipCount":45,"visitsCount":2670,"url":"http://thedevilsacre.com","tier":"","message":"","currency":"","rating":8.8},{"name":"The Beer Hall","phone":"4158007416","twitter":"beerhallsf","address":"1 Polk St","lat":37.77682066490566,"lng":-122.41803646087645,"neighborhood":"Civic Center","city_fetched":"San Francisco","state":"CA","country":"United States","canonicalUrl":"https://foursquare.com/v/the-beer-hall/519fcb37498e91a13cb23d6b","category":"Bar","checkinsCount":4815,"usersCount":2525,"tipCount":30,"visitsCount":5402,"url":"http://www.thebeerhallsf.com","tier":2,"message":"Moderate","currency":"$","rating":8.8},{"name":"SF Oasis","phone":"4159854442","twitter":"theoasissf","address":"298 11th St","lat":37.7719494563864,"lng":-122.41438714367735,"neighborhood":"SoMa","city_fetched":"San Francisco","state":"CA","country":"United States","canonicalUrl":"https://foursquare.com/v/sf-oasis/548a063b498ebda5deae4f7a","category":"Gay Bar","checkinsCount":2042,"usersCount":1594,"tipCount":13,"visitsCount":3280,"url":"http://www.sfoasis.com","tier":2,"message":"Moderate","currency":"$","rating":8.8},{"name":"Crafty Fox","phone":"4154166602","twitter":"craftyfoxsf","address":"1700 Mission St","lat":37.76985168457031,"lng":-122.42019653320312,"neighborhood":"Mission District","city_fetched":"San Francisco","state":"CA","country":"United States","canonicalUrl":"https://foursquare.com/v/crafty-fox/559df0ca498e9eb72ffbd804","category":"Beer Bar","checkinsCount":1749,"usersCount":1797,"tipCount":24,"visitsCount":2697,"url":"http://craftyfoxsf.com","tier":2,"message":"Moderate","currency":"$","rating":8.8},{"name":"Forgery","twitter":"forgerysf","address":"1525 Mission St","lat":37.77382719985254,"lng":-122.41742906814159,"neighborhood":"SoMa","city_fetched":"San Francisco","state":"CA","country":"United States","canonicalUrl":"https://foursquare.com/v/forgery/5550e0df498e2bb2099b97ee","category":"Cocktail Bar","checkinsCount":1758,"usersCount":1860,"tipCount":15,"visitsCount":2928,"url":"http://www.forgerysf.com","tier":"","message":"","currency":"","rating":8.8},{"name":"Southern Pacific Brewing","phone":"4158919775","twitter":"sopacbrewing","address":"620 Treat Ave","lat":37.760160514428925,"lng":-122.41402763769301,"neighborhood":"Mission District","city_fetched":"San Francisco","state":"CA","country":"United States","canonicalUrl":"https://foursquare.com/v/southern-pacific-brewing/4e8694e50aafe7a08166f7a3","category":"Brewery","checkinsCount":29585,"usersCount":17661,"tipCount":255,"visitsCount":36592,"url":"http://www.southernpacificbrewing.com","tier":2,"message":"Moderate","currency":"$","rating":8.8},{"name":"Presidio Social Club","phone":"4158851888","twitter":"pscsf","address":"563 Ruger St","lat":37.797417,"lng":-122.448344,"neighborhood":"Presidio National Park","city_fetched":"San Francisco","state":"CA","country":"United States","canonicalUrl":"https://foursquare.com/v/presidio-social-club/49e37998f964a52086621fe3","category":"Bar","checkinsCount":6970,"usersCount":5473,"tipCount":78,"visitsCount":8726,"url":"http://www.presidiosocialclub.com","tier":3,"message":"Expensive","currency":"$","rating":8.7},{"name":"Nihon Whisky Lounge","phone":"4155524400","twitter":"nihonwhisky","address":"1779 Folsom St","lat":37.76854362092148,"lng":-122.41528987884521,"neighborhood":"Mission District","city_fetched":"San Francisco","state":"CA","country":"United States","canonicalUrl":"https://foursquare.com/v/nihon-whisky-lounge/44386771f964a52016321fe3","category":"Whisky Bar","checkinsCount":8068,"usersCount":5993,"tipCount":108,"visitsCount":8843,"url":"http://www.dajanigroup.net/establishments/nihon-whisky-lounge","tier":3,"message":"Expensive","currency":"$","rating":8.7},{"name":"Maven","phone":"4158297982","twitter":"mavensf","address":"598 Haight St","lat":37.7719540081597,"lng":-122.43208990795827,"neighborhood":"Lower Haight","city_fetched":"San Francisco","state":"CA","country":"United States","canonicalUrl":"https://foursquare.com/v/maven/4e87adb55c5c9a0ba0e01c10","category":"Cocktail Bar","checkinsCount":8027,"usersCount":5510,"tipCount":108,"visitsCount":9084,"url":"http://www.maven-sf.com","tier":3,"message":"Expensive","currency":"$","rating":8.7},{"name":"Rickhouse","phone":"4153982827","address":"246 Kearny St","lat":37.79054655738382,"lng":-122.40394681692123,"neighborhood":"Downtown San Francisco-Union Square","city_fetched":"San Francisco","state":"CA","country":"United States","canonicalUrl":"https://foursquare.com/v/rickhouse/4a4ac040f964a52026ac1fe3","category":"Cocktail Bar","checkinsCount":26843,"usersCount":15803,"tipCount":248,"visitsCount":27507,"url":"http://www.rickhousebar.com","tier":2,"message":"Moderate","currency":"$","rating":8.7},{"name":"Lucky 13","phone":"4154871313","twitter":"lucky","address":"2140 Market St","lat":37.767118790370326,"lng":-122.42983818054199,"neighborhood":"Duboce Triangle","city_fetched":"San Francisco","state":"CA","country":"United States","canonicalUrl":"https://foursquare.com/v/lucky-13/3fd66200f964a5203df11ee3","category":"Dive Bar","checkinsCount":14753,"usersCount":5513,"tipCount":81,"visitsCount":15301,"tier":1,"message":"Cheap","currency":"$","rating":8.7},{"name":"Marengo","phone":"4154412575","twitter":"marengo_onunion","address":"1980 Union St","lat":37.797744,"lng":-122.43195,"neighborhood":"Union Street","city_fetched":"San Francisco","state":"CA","country":"United States","canonicalUrl":"https://foursquare.com/v/marengo/4c1cebadc09ed13aa5be828e","category":"Wine Bar","checkinsCount":8616,"usersCount":3911,"tipCount":50,"visitsCount":8831,"url":"http://marengosf.com","tier":2,"message":"Moderate","currency":"$","rating":8.7},{"name":"Lone Palm","phone":"4156480109","address":"3394 22nd St","lat":37.755183766399576,"lng":-122.42305363092768,"neighborhood":"Dolores Heights","city_fetched":"San Francisco","state":"CA","country":"United States","canonicalUrl":"https://foursquare.com/v/lone-palm/439c07e9f964a520ec2b1fe3","category":"Bar","checkinsCount":8196,"usersCount":4355,"tipCount":53,"visitsCount":8937,"tier":1,"message":"Cheap","currency":"$","rating":8.7},{"name":"Hi Tops","phone":"4155512500","twitter":"hitopssf","address":"2247 Market St","lat":37.7649319245537,"lng":-122.43180788170272,"neighborhood":"Castro","city_fetched":"San Francisco","state":"CA","country":"United States","canonicalUrl":"https://foursquare.com/v/hi-tops/50baba7fe4b0cdd4bc1cf0ba","category":"Gay Bar","checkinsCount":15586,"usersCount":5648,"tipCount":92,"visitsCount":19035,"url":"http://hitopssf.com","tier":1,"message":"Cheap","currency":"$","rating":8.7},{"name":"High Treason","phone":"4157425256","address":"443 Clement","lat":37.782727,"lng":-122.464107,"neighborhood":"Inner Richmond","city_fetched":"San Francisco","state":"CA","country":"United States","canonicalUrl":"https://foursquare.com/v/high-treason/569b2620498ef437b62ecd5e","category":"Wine Bar","checkinsCount":431,"usersCount":301,"tipCount":10,"visitsCount":436,"url":"http://www.hightreasonsf.com","tier":2,"message":"Moderate","currency":"$","rating":8.7},{"name":"Black Sands Brewery","phone":"4155345194","twitter":"blacksandsbeer","address":"701 Haight St","lat":37.77147309821702,"lng":-122.43378757939509,"neighborhood":"Lower Haight","city_fetched":"San Francisco","state":"CA","country":"United States","canonicalUrl":"https://foursquare.com/v/black-sands-brewery/540c94b2498e05abd2f6acde","category":"Brewery","checkinsCount":3021,"usersCount":2358,"tipCount":43,"visitsCount":4628,"url":"http://www.blacksandsbeer.com","tier":2,"message":"Moderate","currency":"$","rating":8.7},{"name":"Chomp N' Swig","phone":"4156835946","twitter":"chompandswig","address":"1541 Clement St","lat":37.782337,"lng":-122.475886,"neighborhood":"Inner Richmond","city_fetched":"San Francisco","state":"CA","country":"United States","canonicalUrl":"https://foursquare.com/chompandswig","category":"Sandwich Place","checkinsCount":2117,"usersCount":1068,"tipCount":33,"visitsCount":2278,"url":"http://www.chompandswig.com","tier":1,"message":"Cheap","currency":"$","rating":8.7},{"name":"Press Club","phone":"4157445000","twitter":"pressclubsf","address":"20 Yerba Buena Ln","lat":37.786148189859496,"lng":-122.40511894226074,"neighborhood":"SoMa","city_fetched":"San Francisco","state":"CA","country":"United States","canonicalUrl":"https://foursquare.com/v/press-club/49d2c77af964a520d75b1fe3","category":"Wine Bar","checkinsCount":15141,"usersCount":9842,"tipCount":101,"visitsCount":15370,"url":"http://www.pressclubsf.com","tier":3,"message":"Expensive","currency":"$","rating":8.7},{"name":"Asiento","phone":"4158293375","twitter":"asientosf","address":"2730 21st St","lat":37.75770404149008,"lng":-122.40943193435669,"neighborhood":"Mission District","city_fetched":"San Francisco","state":"CA","country":"United States","canonicalUrl":"https://foursquare.com/v/asiento/4cf8b915e8e2548187f5d862","category":"Bar","checkinsCount":5647,"usersCount":3431,"tipCount":55,"visitsCount":6936,"url":"http://www.asientosf.com","tier":2,"message":"Moderate","currency":"$","rating":8.7},{"name":"The Willows","phone":"4155292039","twitter":"thewillowssf","address":"1582 Folsom St","lat":37.77098940991456,"lng":-122.41499000479747,"neighborhood":"SoMa","city_fetched":"San Francisco","state":"CA","country":"United States","canonicalUrl":"https://foursquare.com/v/the-willows/5190201d498e12df2d433aff","category":"Bar","checkinsCount":7033,"usersCount":4499,"tipCount":52,"visitsCount":9708,"url":"http://www.thewillowssf.com","tier":2,"message":"Moderate","currency":"$","rating":8.7},{"name":"Amelie","phone":"4152926916","address":"1754 Polk St","lat":37.793094191997234,"lng":-122.42118434063798,"neighborhood":"Polk Gulch","city_fetched":"San Francisco","state":"CA","country":"United States","canonicalUrl":"https://foursquare.com/v/amelie/46aca347f964a52075491fe3","category":"Wine Bar","checkinsCount":8386,"usersCount":4681,"tipCount":56,"visitsCount":8557,"url":"http://ameliewinebar.com/ameliesf/","tier":2,"message":"Moderate","currency":"$","rating":8.7},{"name":"Rickshaw Stop","twitter":"rickshawstopsf","address":"155 Fell St","lat":37.776265974104206,"lng":-122.42053727085994,"neighborhood":"Civic Center","city_fetched":"San Francisco","state":"CA","country":"United States","canonicalUrl":"https://foursquare.com/v/rickshaw-stop/424c8f00f964a520a1201fe3","category":"Rock Club","checkinsCount":13408,"usersCount":7446,"tipCount":68,"visitsCount":14275,"url":"http://www.rickshawstop.com","tier":"","message":"","currency":"","rating":8.7},{"name":"Picnic on Third","phone":"4155907121","twitter":"picniconthird","address":"493 3rd St","lat":37.78152070705427,"lng":-122.39579630678755,"neighborhood":"SoMa","city_fetched":"San Francisco","state":"CA","country":"United States","canonicalUrl":"https://foursquare.com/v/picnic-on-third/545d3e1b498e79ff76b2ae47","category":"Bistro","checkinsCount":1671,"usersCount":1128,"tipCount":24,"visitsCount":2343,"url":"http://picniconthird.com","tier":2,"message":"Moderate","currency":"$","rating":8.7},{"name":"Tommy's Joynt","phone":"4157754216","twitter":"tommysjoyntsf","address":"1101 Geary Blvd","lat":37.785552535383744,"lng":-122.42160379886627,"neighborhood":"Cathedral Hill","city_fetched":"San Francisco","state":"CA","country":"United States","canonicalUrl":"https://foursquare.com/v/tommys-joynt/3fd66200f964a520b7ed1ee3","category":"BBQ Joint","checkinsCount":14753,"usersCount":9275,"tipCount":187,"visitsCount":15768,"url":"http://www.tommysjoynt.com","tier":1,"message":"Cheap","currency":"$","rating":8.7},{"name":"Hideout","phone":"4152527740","address":"3121 16th St","lat":37.764653,"lng":-122.4224191904068,"neighborhood":"Mission Dolores","city_fetched":"San Francisco","state":"CA","country":"United States","canonicalUrl":"https://foursquare.com/v/hideout/4b2c520df964a520cdc524e3","category":"Speakeasy","checkinsCount":5458,"usersCount":2990,"tipCount":49,"visitsCount":5516,"url":"http://dalvasf.com","tier":3,"message":"Expensive","currency":"$","rating":8.7},{"name":"La Folie","phone":"4157765577","address":"2316 Polk St","lat":37.79805635393336,"lng":-122.42219641613993,"neighborhood":"Polk Gulch","city_fetched":"San Francisco","state":"CA","country":"United States","canonicalUrl":"https://foursquare.com/v/la-folie/49e04b9af964a5204f611fe3","category":"French Restaurant","checkinsCount":4411,"usersCount":2639,"tipCount":63,"visitsCount":4430,"url":"http://www.lafolie.com","tier":4,"message":"Very Expensive","currency":"$","rating":8.7},{"name":"The Cavalier","phone":"4153216000","twitter":"thecavaliersf","address":"360 Jessie St","lat":37.783265262376574,"lng":-122.40679264068604,"neighborhood":"SoMa","city_fetched":"San Francisco","state":"CA","country":"United States","canonicalUrl":"https://foursquare.com/v/the-cavalier/51fd7b3b498eeb50fe51d9a8","category":"English Restaurant","checkinsCount":7504,"usersCount":5093,"tipCount":154,"visitsCount":8017,"url":"http://www.thecavaliersf.com","tier":3,"message":"Expensive","currency":"$","rating":8.6},{"name":"Montesacro","phone":"4157953040","twitter":"montesacro_sf","address":"510 Stevenson St","lat":37.78169971416486,"lng":-122.4098904649161,"neighborhood":"SoMa","city_fetched":"San Francisco","state":"CA","country":"United States","canonicalUrl":"https://foursquare.com/v/montesacro/5528570a498eab857713a307","category":"Italian Restaurant","checkinsCount":1012,"usersCount":786,"tipCount":27,"visitsCount":1068,"url":"http://montesacrosf.com","tier":2,"message":"Moderate","currency":"$","rating":8.6},{"name":"Le Colonial","phone":"4159313600","twitter":"lecolonialsf","address":"20 Cosmo Pl","lat":37.788349000038764,"lng":-122.4124126110181,"neighborhood":"Lower Nob Hill","city_fetched":"San Francisco","state":"CA","country":"United States","canonicalUrl":"https://foursquare.com/v/le-colonial/40dcbc80f964a52085011fe3","category":"Vietnamese Restaurant","checkinsCount":6286,"usersCount":4976,"tipCount":85,"visitsCount":6611,"url":"http://www.lecolonialsf.com","tier":3,"message":"Expensive","currency":"$","rating":8.6},{"name":"Co Nam","phone":"4152926161","twitter":"conamsf","address":"1653 Polk St","lat":37.79200347188055,"lng":-122.4211290356846,"neighborhood":"Polk Gulch","city_fetched":"San Francisco","state":"CA","country":"United States","canonicalUrl":"https://foursquare.com/conamsf","category":"Vietnamese Restaurant","checkinsCount":1601,"usersCount":1168,"tipCount":41,"visitsCount":1711,"url":"http://www.conamsf.com","tier":2,"message":"Moderate","currency":"$","rating":8.6},{"name":"Southpaw BBQ","phone":"4159349300","twitter":"southpawbbqsf","address":"2170 Mission St","lat":37.762309962225096,"lng":-122.41963026035602,"neighborhood":"Mission District","city_fetched":"San Francisco","state":"CA","country":"United States","canonicalUrl":"https://foursquare.com/southpawbbqsf","category":"BBQ Joint","checkinsCount":5708,"usersCount":4071,"tipCount":97,"visitsCount":6391,"url":"http://www.southpawbbqsf.com","tier":2,"message":"Moderate","currency":"$","rating":8.6},{"name":"111 Minna Gallery","phone":"4159741719","twitter":"111minnagallery","address":"111 Minna St","lat":37.787420033880174,"lng":-122.39935755729675,"neighborhood":"SoMa","city_fetched":"San Francisco","state":"CA","country":"United States","canonicalUrl":"https://foursquare.com/v/111-minna-gallery/3fd66200f964a5207bec1ee3","category":"Art Gallery","checkinsCount":14945,"usersCount":9457,"tipCount":64,"visitsCount":15151,"url":"http://www.111minnagallery.com","tier":"","message":"","currency":"","rating":8.6},{"name":"Cafe Du Nord","phone":"4158615016","twitter":"cafedunordsf","address":"2174 Market St","lat":37.7665077491252,"lng":-122.43039773905001,"neighborhood":"Duboce Triangle","city_fetched":"San Francisco","state":"CA","country":"United States","canonicalUrl":"https://foursquare.com/v/cafe-du-nord/3fd66200f964a5201bf11ee3","category":"Cocktail Bar","checkinsCount":6777,"usersCount":4675,"tipCount":47,"visitsCount":6789,"url":"http://www.cafedunord.com","tier":"","message":"","currency":"","rating":8.6},{"name":"Fort Point Beer Company","phone":"4158183993","twitter":"fortpointbeer","address":"1 Sausalito","lat":37.79550859604451,"lng":-122.3942418511306,"neighborhood":"Financial District","city_fetched":"San Francisco","state":"CA","country":"United States","canonicalUrl":"https://foursquare.com/v/fort-point-beer-company/569706a6498ef01aa423a6b2","category":"Brewery","checkinsCount":566,"usersCount":343,"tipCount":6,"visitsCount":569,"url":"http://fortpointbeer.com","tier":"","message":"","currency":"","rating":8.6},{"name":"Rogue Ales Public House","phone":"4153627880","twitter":"rogueales","address":"673 Union St","lat":37.800208623991864,"lng":-122.41065375236074,"neighborhood":"North Beach","city_fetched":"San Francisco","state":"CA","country":"United States","canonicalUrl":"https://foursquare.com/v/rogue-ales-public-house/43c453c6f964a520582d1fe3","category":"Beer Bar","checkinsCount":16886,"usersCount":11318,"tipCount":150,"visitsCount":18161,"url":"http://www.rogue.com","tier":2,"message":"Moderate","currency":"$","rating":8.6},{"name":"robberbaron","phone":"4155166945","address":"2032 Polk St","lat":37.79552540545307,"lng":-122.42170572280882,"neighborhood":"Polk Gulch","city_fetched":"San Francisco","state":"CA","country":"United States","canonicalUrl":"https://foursquare.com/v/robberbaron/51f143a3011cc83cc42108eb","category":"Bar","checkinsCount":1497,"usersCount":1055,"tipCount":24,"visitsCount":1676,"url":"http://www.robberbaronsf.com","tier":2,"message":"Moderate","currency":"$","rating":8.6},{"name":"Martuni's","phone":"4152410205","address":"4 Valencia St","lat":37.772050452986356,"lng":-122.42278397083282,"neighborhood":"SoMa","city_fetched":"San Francisco","state":"CA","country":"United States","canonicalUrl":"https://foursquare.com/v/martunis/3fd66200f964a5204eed1ee3","category":"Cocktail Bar","checkinsCount":9546,"usersCount":5440,"tipCount":71,"visitsCount":10612,"url":"http://martunis.ypguides.net","tier":2,"message":"Moderate","currency":"$","rating":8.6},{"name":"Epic Steak","phone":"4153699955","twitter":"epicsteak","address":"369 The Embarcadero","lat":37.790831590951214,"lng":-122.38938472076909,"neighborhood":"Rincon Hill","city_fetched":"San Francisco","state":"CA","country":"United States","canonicalUrl":"https://foursquare.com/epicsteak","category":"Steakhouse","checkinsCount":10562,"usersCount":7645,"tipCount":94,"visitsCount":11077,"url":"http://www.epicsteak.com","tier":3,"message":"Expensive","currency":"$","rating":8.6},{"name":"RN74","phone":"4155437474","twitter":"rn74","address":"301 Mission St","lat":37.79091132641054,"lng":-122.39616693873235,"neighborhood":"SoMa","city_fetched":"San Francisco","state":"CA","country":"United States","canonicalUrl":"https://foursquare.com/v/rn74/4bbe7a6f30c99c7471e55311","category":"French Restaurant","checkinsCount":11684,"usersCount":8175,"tipCount":149,"visitsCount":12989,"url":"http://www.rn74.com","tier":3,"message":"Expensive","currency":"$","rating":8.6},{"name":"Hopwater Distribution","twitter":"hopwatersf","address":"850 Bush St","lat":37.789966,"lng":-122.411336,"neighborhood":"Lower Nob Hill","city_fetched":"San Francisco","state":"CA","country":"United States","canonicalUrl":"https://foursquare.com/v/hopwater-distribution/52faed3c11d2a28ddfef150f","category":"Beer Bar","checkinsCount":5253,"usersCount":4677,"tipCount":81,"visitsCount":6826,"url":"http://hopwaterdistribution.com","tier":1,"message":"Cheap","currency":"$","rating":8.6},{"name":"Bloodhound","phone":"4158632840","twitter":"bloodhoundsf","address":"1145 Folsom St","lat":37.775921768505334,"lng":-122.40889549255371,"neighborhood":"SoMa","city_fetched":"San Francisco","state":"CA","country":"United States","canonicalUrl":"https://foursquare.com/v/bloodhound/49c42f96f964a520a6561fe3","category":"Cocktail Bar","checkinsCount":23915,"usersCount":10779,"tipCount":181,"visitsCount":25097,"url":"http://www.bloodhoundsf.com","tier":2,"message":"Moderate","currency":"$","rating":8.6},{"name":"Mojo Bicycle Cafe","phone":"4154402338","address":"639A Divisadero St","lat":37.77554512023926,"lng":-122.437944,"neighborhood":"Panhandle","city_fetched":"San Francisco","state":"CA","country":"United States","canonicalUrl":"https://foursquare.com/v/mojo-bicycle-cafe/49c29489f964a52004561fe3","category":"Coffee Shop","checkinsCount":9928,"usersCount":3930,"tipCount":102,"visitsCount":10164,"url":"http://mojobicyclecafe.com","tier":1,"message":"Cheap","currency":"$","rating":8.6},{"name":"Woods Polk Station","twitter":"woodsbeer","address":"2255 Polk St","lat":37.797689,"lng":-122.422321,"neighborhood":"Polk Gulch","city_fetched":"San Francisco","state":"CA","country":"United States","canonicalUrl":"https://foursquare.com/v/woods-polk-station/52e5b3ec498e1901518fcb89","category":"Bar","checkinsCount":1083,"usersCount":676,"tipCount":21,"visitsCount":1119,"url":"http://woodsbeer.com","tier":2,"message":"Moderate","currency":"$","rating":8.6},{"name":"Evil Eye","phone":"4158143779","twitter":"evileyesf","address":"2937 Mission St","lat":37.75005648358791,"lng":-122.41818677016656,"neighborhood":"Mission District","city_fetched":"San Francisco","state":"CA","country":"United States","canonicalUrl":"https://foursquare.com/v/evil-eye/57488d8b498e2cca0df896d1","category":"Cocktail Bar","checkinsCount":373,"usersCount":447,"tipCount":9,"visitsCount":546,"url":"http://www.evileyesf.com","tier":"","message":"","currency":"","rating":8.6},{"name":"The Chapel","address":"777 Valencia St","lat":37.760542997346455,"lng":-122.42136131629302,"neighborhood":"Mission District","city_fetched":"San Francisco","state":"CA","country":"United States","canonicalUrl":"https://foursquare.com/v/the-chapel/506e49fde4b0c21f07d2cb23","category":"Music Venue","checkinsCount":8468,"usersCount":5498,"tipCount":52,"visitsCount":9166,"url":"http://www.thechapelsf.com","tier":"","message":"","currency":"","rating":8.6},{"name":"The Ramp","phone":"4156212378","twitter":"therampsf","address":"855 Terry a Francois Blvd","lat":37.764195715609915,"lng":-122.38682329641854,"city_fetched":"San Francisco","state":"CA","country":"United States","canonicalUrl":"https://foursquare.com/v/the-ramp/44ecd649f964a520d5371fe3","category":"Bar","checkinsCount":10502,"usersCount":7741,"tipCount":97,"visitsCount":13026,"url":"http://theramprestaurant.com","tier":2,"message":"Moderate","currency":"$","rating":8.6},{"name":"Pi Bar","phone":"4159709670","address":"1432 Valencia St","lat":37.74995410171507,"lng":-122.42054833191528,"neighborhood":"Mission District","city_fetched":"San Francisco","state":"CA","country":"United States","canonicalUrl":"https://foursquare.com/v/pi-bar/4a94231ef964a5207f2020e3","category":"Pizza Place","checkinsCount":10869,"usersCount":4087,"tipCount":74,"visitsCount":12081,"url":"http://pibarsf.com","tier":2,"message":"Moderate","currency":"$","rating":8.6},{"name":"Bluxome Street Winery","phone":"4155435353","twitter":"bluxomewinery","address":"53 Bluxome St","lat":37.776677,"lng":-122.396715,"neighborhood":"SoMa","city_fetched":"San Francisco","state":"CA","country":"United States","canonicalUrl":"https://foursquare.com/v/bluxome-street-winery/4c7055c39c6d6dcbab64d27a","category":"Winery","checkinsCount":2952,"usersCount":2281,"tipCount":22,"visitsCount":3298,"url":"http://www.bluxomestreetwinery.com","tier":"","message":"","currency":"","rating":8.6},{"name":"PABU","phone":"4156687228","twitter":"pabusf","address":"101 California St","lat":37.79328711692925,"lng":-122.39830772755396,"neighborhood":"Financial District","city_fetched":"San Francisco","state":"CA","country":"United States","canonicalUrl":"https://foursquare.com/v/pabu/53221a72498e79092136b979","category":"Japanese Restaurant","checkinsCount":2758,"usersCount":2276,"tipCount":47,"visitsCount":3114,"url":"http://pabuizakaya.com","tier":3,"message":"Expensive","currency":"$","rating":8.6},{"name":"Hard Water","phone":"4153923021","twitter":"hardwater_sf","address":"Pier 3","lat":37.79730214998083,"lng":-122.39564141543877,"neighborhood":"Northern Waterfront","city_fetched":"San Francisco","state":"CA","country":"United States","canonicalUrl":"https://foursquare.com/v/hard-water/5114706be4b0d82aa86ea8aa","category":"Whisky Bar","checkinsCount":5308,"usersCount":4225,"tipCount":103,"visitsCount":5727,"url":"http://hardwaterbar.com","tier":2,"message":"Moderate","currency":"$","rating":8.6},{"name":"Magnolia Brewing Company","phone":"4158647468","twitter":"magnoliapub","address":"665 22nd St","lat":37.75783294982999,"lng":-122.38823955602722,"neighborhood":"Dogpatch","city_fetched":"San Francisco","state":"CA","country":"United States","canonicalUrl":"https://foursquare.com/v/magnolia-brewing-company/535c5ea0498e8eb351bb4e8c","category":"Brewery","checkinsCount":3962,"usersCount":2497,"tipCount":71,"visitsCount":4207,"url":"http://magnoliapub.com/dogpatch.html","tier":2,"message":"Moderate","currency":"$","rating":8.6},{"name":"Tsunami","phone":"4155677664","twitter":"tsunamipanhand","address":"1306 Fulton St","lat":37.776889,"lng":-122.438401,"neighborhood":"Western Addition","city_fetched":"San Francisco","state":"CA","country":"United States","canonicalUrl":"https://foursquare.com/v/tsunami/43bc75f6f964a520f92c1fe3","category":"Sushi Restaurant","checkinsCount":4172,"usersCount":2515,"tipCount":44,"visitsCount":4354,"url":"http://tsunamipanhandle-hub.com","tier":3,"message":"Expensive","currency":"$","rating":8.6},{"name":"Bender's Bar & Grill","phone":"4158241800","twitter":"bendersbar","address":"806 S Van Ness Ave","lat":37.760344,"lng":-122.417205,"neighborhood":"Mission District","city_fetched":"San Francisco","state":"CA","country":"United States","canonicalUrl":"https://foursquare.com/v/benders-bar--grill/40a2ba80f964a52006f31ee3","category":"Bar","checkinsCount":12769,"usersCount":6086,"tipCount":92,"visitsCount":15287,"url":"http://www.bendersbar.com","tier":1,"message":"Cheap","currency":"$","rating":8.6},{"name":"CHAMBERS eat + drink","phone":"4154695178","address":"601 Eddy St","lat":37.78314655118724,"lng":-122.41819739341734,"neighborhood":"Tenderloin","city_fetched":"San Francisco","state":"CA","country":"United States","canonicalUrl":"https://foursquare.com/v/chambers-eat--drink/50e63342b0ed7e4688ddb834","category":"Lounge","checkinsCount":11402,"usersCount":8558,"tipCount":104,"visitsCount":13194,"url":"http://www.chambers-sf.com","tier":2,"message":"Moderate","currency":"$","rating":8.6},{"name":"Noeteca","phone":"4158245524","twitter":"noeteca","address":"1551 Dolores St","lat":37.744704,"lng":-122.42431973,"neighborhood":"Noe Valley","city_fetched":"San Francisco","state":"CA","country":"United States","canonicalUrl":"https://foursquare.com/v/noeteca/4ad3cd2bf964a52064e620e3","category":"Café","checkinsCount":2724,"usersCount":1788,"tipCount":37,"visitsCount":3512,"url":"http://www.noeteca.com","tier":3,"message":"Expensive","currency":"$","rating":8.6},{"name":"The View","phone":"4158961600","address":"55 4th St","lat":37.785377917189635,"lng":-122.40434816811023,"neighborhood":"SoMa","city_fetched":"San Francisco","state":"CA","country":"United States","canonicalUrl":"https://foursquare.com/v/the-view/42c1e480f964a520c4251fe3","category":"Hotel Bar","checkinsCount":15077,"usersCount":11339,"tipCount":146,"visitsCount":15275,"url":"http://www.sfviewlounge.com","tier":3,"message":"Expensive","currency":"$","rating":8.6},{"name":"Swirl on Castro","phone":"4158642262","twitter":"swirloncastro","address":"572 Castro St","lat":37.759867,"lng":-122.434998,"neighborhood":"Castro","city_fetched":"San Francisco","state":"CA","country":"United States","canonicalUrl":"https://foursquare.com/swirloncastro","category":"Wine Bar","checkinsCount":2363,"usersCount":700,"tipCount":18,"visitsCount":2415,"url":"http://www.swirloncastro.com","tier":"","message":"","currency":"","rating":8.6},{"name":"SRO","twitter":"1337oddjob","address":"9 Washburn St","lat":37.77583947045434,"lng":-122.4149457582274,"neighborhood":"SoMa","city_fetched":"San Francisco","state":"CA","country":"United States","canonicalUrl":"https://foursquare.com/v/sro/5316a2b8498eb6084b6a0f82","category":"Cocktail Bar","checkinsCount":1326,"usersCount":401,"tipCount":15,"visitsCount":1430,"url":"http://oddjobsf.com","tier":3,"message":"Expensive","currency":"$","rating":8.6},{"name":"Third Rail","address":"628 20th St","lat":37.76054111177345,"lng":-122.38823955602722,"neighborhood":"Dogpatch","city_fetched":"San Francisco","state":"CA","country":"United States","canonicalUrl":"https://foursquare.com/v/third-rail/52a67af3498ef4359edd85f4","category":"Cocktail Bar","checkinsCount":3007,"usersCount":2178,"tipCount":29,"visitsCount":3809,"url":"http://www.thirdrailbarsf.com","tier":2,"message":"Moderate","currency":"$","rating":8.6},{"name":"Thee Parkside","phone":"4152521330","twitter":"theeparkside","address":"1600 17th St","lat":37.765108,"lng":-122.399782,"neighborhood":"Potrero Hill","city_fetched":"San Francisco","state":"CA","country":"United States","canonicalUrl":"https://foursquare.com/v/thee-parkside/4085b980f964a52093f21ee3","category":"Dive Bar","checkinsCount":8335,"usersCount":4829,"tipCount":77,"visitsCount":10127,"url":"http://www.theeparkside.com","tier":1,"message":"Cheap","currency":"$","rating":8.5},{"name":"Burritt Room Tavern","phone":"4154000561","twitter":"burrittroom","address":"417 Stockton Street","lat":37.78966626514277,"lng":-122.40708063438913,"neighborhood":"Downtown San Francisco-Union Square","city_fetched":"San Francisco","state":"CA","country":"United States","canonicalUrl":"https://foursquare.com/v/burritt-room-tavern/4bf5e7eb9abec9b6110125e8","category":"American Restaurant","checkinsCount":10523,"usersCount":7072,"tipCount":125,"visitsCount":10683,"url":"http://www.mystichotel.com/Eat-Drink/Burritt-Room-Tavern","tier":2,"message":"Moderate","currency":"$","rating":8.5},{"name":"Patxi's Chicago Pizza","phone":"4155589991","twitter":"patxispizza","address":"511 Hayes St","lat":37.7766077,"lng":-122.4250379,"neighborhood":"Hayes Valley","city_fetched":"San Francisco","state":"CA","country":"United States","canonicalUrl":"https://foursquare.com/v/patxis-chicago-pizza/43d7e5dff964a5205d2e1fe3","category":"Pizza Place","checkinsCount":11558,"usersCount":6466,"tipCount":113,"visitsCount":11731,"url":"http://patxispizza.com/sf-hayes-street.html","tier":2,"message":"Moderate","currency":"$","rating":8.5},{"name":"The Corner Store","phone":"4153591800","twitter":"tcssf","address":"5 Masonic Ave","lat":37.782190938270716,"lng":-122.4478434638393,"neighborhood":"Lone Mountain","city_fetched":"San Francisco","state":"CA","country":"United States","canonicalUrl":"https://foursquare.com/v/the-corner-store/502ec364e4b07730f4305a9d","category":"American Restaurant","checkinsCount":4954,"usersCount":2814,"tipCount":79,"visitsCount":5592,"url":"http://thecornerstore-sf.com","tier":2,"message":"Moderate","currency":"$","rating":8.5},{"name":"Broken Record","phone":"4159631713","twitter":"brokenrecordbar","address":"1166 Geneva Ave","lat":37.714375785071,"lng":-122.43705012811753,"neighborhood":"Crocker Amazon","city_fetched":"San Francisco","state":"CA","country":"United States","canonicalUrl":"https://foursquare.com/v/broken-record/47224f85f964a520cd4b1fe3","category":"Bar","checkinsCount":5665,"usersCount":3215,"tipCount":91,"visitsCount":6193,"url":"http://www.brokenrecordbar.com","tier":1,"message":"Cheap","currency":"$","rating":8.5},{"name":"Mission Rock Resort","phone":"4157017625","twitter":"missionrockers","address":"817 Terry a Francois Blvd","lat":37.76545270557222,"lng":-122.38659647182133,"neighborhood":"Mission Bay","city_fetched":"San Francisco","state":"CA","country":"United States","canonicalUrl":"https://foursquare.com/v/mission-rock-resort/5089d734e4b032d8bd35f664","category":"Seafood Restaurant","checkinsCount":5995,"usersCount":5218,"tipCount":60,"visitsCount":8865,"url":"http://missionrockresort.com","tier":2,"message":"Moderate","currency":"$","rating":8.5},{"name":"Barbacco","phone":"4159551919","twitter":"barbaccosf","address":"220 California St","lat":37.793219566913685,"lng":-122.39901025082763,"neighborhood":"Financial District","city_fetched":"San Francisco","state":"CA","country":"United States","canonicalUrl":"https://foursquare.com/v/barbacco/4b47a128f964a520203826e3","category":"Italian Restaurant","checkinsCount":7327,"usersCount":5095,"tipCount":123,"visitsCount":7431,"url":"http://www.barbaccosf.com","tier":3,"message":"Expensive","currency":"$","rating":8.5},{"name":"Pagan Idol","address":"375 Bush St","lat":37.79077522265904,"lng":-122.40372312029795,"neighborhood":"Downtown San Francisco-Union Square","city_fetched":"San Francisco","state":"CA","country":"United States","canonicalUrl":"https://foursquare.com/v/pagan-idol/56cd0ca5cd10e72e2685c28c","category":"Tiki Bar","checkinsCount":2685,"usersCount":2335,"tipCount":48,"visitsCount":3074,"url":"http://www.paganidol.com","tier":3,"message":"Expensive","currency":"$","rating":8.5},{"name":"ENO Wine Bar","phone":"4156785321","twitter":"eno_sf","address":"320 Geary St","lat":37.7873891069371,"lng":-122.40865702493767,"neighborhood":"Downtown San Francisco-Union Square","city_fetched":"San Francisco","state":"CA","country":"United States","canonicalUrl":"https://foursquare.com/v/eno-wine-bar/50ec753be4b02d8f19bea0ef","category":"Wine Bar","checkinsCount":1733,"usersCount":1375,"tipCount":33,"visitsCount":1765,"url":"http://www.enowinerooms.com","tier":4,"message":"Very Expensive","currency":"$","rating":8.5},{"name":"Etcetera Wine Bar","phone":"4159265477","twitter":"etceterawinebar","address":"795 Valencia St","lat":37.76021542930364,"lng":-122.42141109064225,"neighborhood":"Mission District","city_fetched":"San Francisco","state":"CA","country":"United States","canonicalUrl":"https://foursquare.com/v/etcetera-wine-bar/4ec1fff4b803bca7df3acb3f","category":"Wine Bar","checkinsCount":3438,"usersCount":2362,"tipCount":46,"visitsCount":3529,"url":"http://etceterawinebar.com","tier":2,"message":"Moderate","currency":"$","rating":8.5},{"name":"Hog & Rocks","phone":"4155508627","twitter":"hogandrocks","address":"3431 19th St","lat":37.76026140939149,"lng":-122.41994619369507,"neighborhood":"Mission District","city_fetched":"San Francisco","state":"CA","country":"United States","canonicalUrl":"https://foursquare.com/v/hog--rocks/4c2c116b77cfe21ec298b5f1","category":"Gastropub","checkinsCount":11994,"usersCount":7714,"tipCount":161,"visitsCount":13127,"url":"http://www.hogandrocks.com","tier":3,"message":"Expensive","currency":"$","rating":8.5},{"name":"Lark","phone":"4154004623","address":"4068 18th St","lat":37.76106056241625,"lng":-122.43430738209176,"neighborhood":"Castro","city_fetched":"San Francisco","state":"CA","country":"United States","canonicalUrl":"https://foursquare.com/v/lark/552d9a9a498ef6abfdae677a","category":"Mediterranean Restaurant","checkinsCount":740,"usersCount":582,"tipCount":20,"visitsCount":782,"url":"http://larksf.com","tier":2,"message":"Moderate","currency":"$","rating":8.5},{"name":"Madrone Art Bar","phone":"4152410202","twitter":"madroneartbar","address":"500 Divisadero St","lat":37.774206626891306,"lng":-122.43744224309921,"neighborhood":"Alamo Square","city_fetched":"San Francisco","state":"CA","country":"United States","canonicalUrl":"https://foursquare.com/madroneartbar","category":"Bar","checkinsCount":13232,"usersCount":8716,"tipCount":93,"visitsCount":16346,"url":"http://www.madroneartbar.com","tier":2,"message":"Moderate","currency":"$","rating":8.5},{"name":"Harmonic Brewing","phone":"4159526258","twitter":"harmonicbrewing","address":"1050 26th St","lat":37.75154563861869,"lng":-122.39009857177734,"city_fetched":"San Francisco","state":"CA","country":"United States","canonicalUrl":"https://foursquare.com/v/harmonic-brewing/55691fdc498e0b3c1676862b","category":"Brewery","checkinsCount":568,"usersCount":659,"tipCount":6,"visitsCount":904,"url":"http://harmonicbrewing.com","tier":"","message":"","currency":"","rating":8.5},{"name":"Cigar Bar & Grill","phone":"4152910850","twitter":"850cigarbar","address":"850 Montgomery St","lat":37.79709381086916,"lng":-122.4034908413887,"neighborhood":"Jackson Square","city_fetched":"San Francisco","state":"CA","country":"United States","canonicalUrl":"https://foursquare.com/v/cigar-bar--grill/4388f700f964a5201d2b1fe3","category":"Smoke Shop","checkinsCount":8591,"usersCount":6034,"tipCount":36,"visitsCount":9333,"url":"http://www.cigarbarandgrill.com","tier":"","message":"","currency":"","rating":8.4},{"name":"Jamber Wine Pub","phone":"4152739192","twitter":"jambersf","address":"858 Folsom St","lat":37.78102318967415,"lng":-122.40255598567691,"neighborhood":"SoMa","city_fetched":"San Francisco","state":"CA","country":"United States","canonicalUrl":"https://foursquare.com/v/jamber-wine-pub/504d77c2e4b0f228d92d1b45","category":"Wine Bar","checkinsCount":7088,"usersCount":5121,"tipCount":80,"visitsCount":8120,"url":"http://www.jambersf.com","tier":2,"message":"Moderate","currency":"$","rating":8.4},{"name":"The Tipsy Pig","phone":"4152922300","twitter":"tipsypig","address":"2231 Chestnut St","lat":37.80020932826012,"lng":-122.44014322757721,"neighborhood":"Marina District","city_fetched":"San Francisco","state":"CA","country":"United States","canonicalUrl":"https://foursquare.com/v/the-tipsy-pig/49dba3b4f964a520e25e1fe3","category":"Gastropub","checkinsCount":26934,"usersCount":15282,"tipCount":202,"visitsCount":29408,"url":"http://www.thetipsypigsf.com","tier":2,"message":"Moderate","currency":"$","rating":8.4},{"name":"Specs' Twelve Adler Museum Cafe","phone":"4154214112","address":"12 William Saroyan Pl","lat":37.7976787751743,"lng":-122.40666389465332,"neighborhood":"North Beach","city_fetched":"San Francisco","state":"CA","country":"United States","canonicalUrl":"https://foursquare.com/v/specs-twelve-adler-museum-cafe/3fd66200f964a520a2ed1ee3","category":"Dive Bar","checkinsCount":4574,"usersCount":2746,"tipCount":57,"visitsCount":4625,"tier":1,"message":"Cheap","currency":"$","rating":8.4},{"name":"Cafe Royale","phone":"4154414099","twitter":"caferoyalesf","address":"800 Post St","lat":37.78747685671142,"lng":-122.41503978216653,"neighborhood":"Lower Nob Hill","city_fetched":"San Francisco","state":"CA","country":"United States","canonicalUrl":"https://foursquare.com/v/cafe-royale/4328b980f964a520c4271fe3","category":"Bar","checkinsCount":3925,"usersCount":2350,"tipCount":32,"visitsCount":4627,"url":"http://caferoyale-sf.com ","tier":2,"message":"Moderate","currency":"$","rating":8.4},{"name":"Valley Tavern","phone":"4152850674","twitter":"thevalleytavern","address":"4054 24th St","lat":37.751466,"lng":-122.433093,"neighborhood":"Noe Valley","city_fetched":"San Francisco","state":"CA","country":"United States","canonicalUrl":"https://foursquare.com/v/valley-tavern/42474900f964a52087201fe3","category":"Pub","checkinsCount":8316,"usersCount":3036,"tipCount":43,"visitsCount":8837,"url":"http://valleytavern.com","tier":2,"message":"Moderate","currency":"$","rating":8.4},{"name":"La Stazione Coffee & Wine Bar","phone":"4159449613","twitter":"lastazione_sf","address":"701 Pennsylvania Ave","lat":37.757542877699194,"lng":-122.39293098449707,"neighborhood":"Potrero Hill","city_fetched":"San Francisco","state":"CA","country":"United States","canonicalUrl":"https://foursquare.com/lastazione_sf","category":"Wine Bar","checkinsCount":5598,"usersCount":1902,"tipCount":65,"visitsCount":7499,"url":"http://www.lastazionesf.com","tier":2,"message":"Moderate","currency":"$","rating":8.4},{"name":"Bissap Baobab","phone":"4156433558","address":"3372 19th St","lat":37.76036667834444,"lng":-122.41878960947857,"neighborhood":"Mission District","city_fetched":"San Francisco","state":"CA","country":"United States","canonicalUrl":"https://foursquare.com/v/bissap-baobab/40d8c800f964a52066011fe3","category":"African Restaurant","checkinsCount":4970,"usersCount":3936,"tipCount":58,"visitsCount":5303,"url":"http://www.bissapbaobab.com","tier":2,"message":"Moderate","currency":"$","rating":8.4},{"name":"Twenty Five Lusk","phone":"4154955875","twitter":"twentyfivelusk","address":"25 Lusk St","lat":37.778468865117084,"lng":-122.39437461692324,"neighborhood":"SoMa","city_fetched":"San Francisco","state":"CA","country":"United States","canonicalUrl":"https://foursquare.com/v/twenty-five-lusk/4c72eddd0e23b1f784201fdc","category":"New American Restaurant","checkinsCount":14712,"usersCount":10058,"tipCount":143,"visitsCount":16372,"url":"http://www.twentyfivelusk.com","tier":3,"message":"Expensive","currency":"$","rating":8.4},{"name":"The Yard at Mission Rock","address":"3rd St & Terry A Francois Blvd","lat":37.77620301365765,"lng":-122.38934599559478,"neighborhood":"Mission Bay","city_fetched":"San Francisco","state":"CA","country":"United States","canonicalUrl":"https://foursquare.com/v/the-yard-at-mission-rock/5508854d498e379a897b2857","category":"Pop-Up Shop","checkinsCount":3218,"usersCount":2874,"tipCount":20,"visitsCount":4727,"url":"http://theyardsf.com","tier":"","message":"","currency":"","rating":8.4},{"name":"Dogpatch WineWorks","phone":"4155254440","twitter":"dpwineworks","address":"2455 3rd St","lat":37.75843756962843,"lng":-122.38818423374371,"neighborhood":"Dogpatch","city_fetched":"San Francisco","state":"CA","country":"United States","canonicalUrl":"https://foursquare.com/v/dogpatch-wineworks/4e3dad67c65b4ec275e64620","category":"Winery","checkinsCount":828,"usersCount":722,"tipCount":2,"visitsCount":891,"url":"http://dogpatchwineworks.com","tier":"","message":"","currency":"","rating":8.4},{"name":"Blush! Wine Bar","phone":"4155580893","twitter":"blushwinebar","address":"476 Castro St","lat":37.76132,"lng":-122.4351317,"neighborhood":"Castro","city_fetched":"San Francisco","state":"CA","country":"United States","canonicalUrl":"https://foursquare.com/v/blush-wine-bar/49e55498f964a520bf631fe3","category":"Wine Bar","checkinsCount":5980,"usersCount":3111,"tipCount":57,"visitsCount":6145,"url":"http://www.blushwinebar.com","tier":2,"message":"Moderate","currency":"$","rating":8.4},{"name":"Redwood Room","phone":"4157754700","twitter":"morganshotels","address":"495 Geary St","lat":37.78676743395702,"lng":-122.41129098769498,"neighborhood":"Tenderloin","city_fetched":"San Francisco","state":"CA","country":"United States","canonicalUrl":"https://foursquare.com/v/redwood-room/42911d00f964a52000241fe3","category":"Hotel Bar","checkinsCount":14352,"usersCount":10865,"tipCount":88,"visitsCount":14398,"url":"http://backofhouse.morganshotelgroup.com","tier":3,"message":"Expensive","currency":"$","rating":8.4},{"name":"Internos Wine Cafe","phone":"4157512661","twitter":"internoswine","address":"3240 Geary Blvd","lat":37.781751,"lng":-122.453771,"neighborhood":"Laurel Heights-Jordan Park","city_fetched":"San Francisco","state":"CA","country":"United States","canonicalUrl":"https://foursquare.com/v/internos-wine-cafe/4a723f79f964a520b9da1fe3","category":"Wine Bar","checkinsCount":1359,"usersCount":714,"tipCount":26,"visitsCount":1376,"url":"http://internoswinecafe.com","tier":"","message":"","currency":"","rating":8.4},{"name":"AsiaSF","phone":"4152552742","twitter":"officialasiasf","address":"201 9th St","lat":37.77508250311583,"lng":-122.41307079269427,"neighborhood":"SoMa","city_fetched":"San Francisco","state":"CA","country":"United States","canonicalUrl":"https://foursquare.com/v/asiasf/412fcb00f964a520160d1fe3","category":"Restaurant","checkinsCount":4530,"usersCount":4259,"tipCount":25,"visitsCount":4994,"url":"http://www.asiasf.com","tier":4,"message":"Very Expensive","currency":"$","rating":8.4},{"name":"Vinyl Coffee & Wine Bar","phone":"4156214132","twitter":"vinylsf","address":"359 Divisadero St","lat":37.773111,"lng":-122.437473,"neighborhood":"Buena Vista","city_fetched":"San Francisco","state":"CA","country":"United States","canonicalUrl":"https://foursquare.com/v/vinyl-coffee--wine-bar/4d3bc1a93ec9a35dfe904281","category":"Café","checkinsCount":8792,"usersCount":4631,"tipCount":79,"visitsCount":10690,"url":"http://www.vinylsf.com","tier":2,"message":"Moderate","currency":"$","rating":8.4},{"name":"Tempest","phone":"4154951863","twitter":"tempestbarsf","address":"431 Natoma St","lat":37.78134828678804,"lng":-122.40622882053584,"neighborhood":"SoMa","city_fetched":"San Francisco","state":"CA","country":"United States","canonicalUrl":"https://foursquare.com/v/tempest/40919700f964a520e1f21ee3","category":"Dive Bar","checkinsCount":16635,"usersCount":8247,"tipCount":126,"visitsCount":18951,"url":"http://pourguys.com","tier":1,"message":"Cheap","currency":"$","rating":8.4},{"name":"Local Brewing Co.","phone":"4359126702","twitter":"localbrewingco","address":"69 Bluxome St","lat":37.77643820245092,"lng":-122.39707415171603,"neighborhood":"SoMa","city_fetched":"San Francisco","state":"CA","country":"United States","canonicalUrl":"https://foursquare.com/v/local-brewing-co/55691e83498ead1a6c5dbb06","category":"Brewery","checkinsCount":885,"usersCount":1031,"tipCount":23,"visitsCount":1398,"url":"http://localbrewingco.com","tier":"","message":"","currency":"","rating":8.4},{"name":"Pop's Bar","address":"2800 24th St","lat":37.75290350998305,"lng":-122.40830856169379,"neighborhood":"Mission District","city_fetched":"San Francisco","state":"CA","country":"United States","canonicalUrl":"https://foursquare.com/v/pops-bar/541a3e22498e11a99fff5332","category":"Bar","checkinsCount":1383,"usersCount":775,"tipCount":7,"visitsCount":1659,"tier":"","message":"","currency":"","rating":8.4},{"name":"Virgil's Sea Room","phone":"4158292233","twitter":"virgilssf","address":"3152 Mission St","lat":37.746907780933554,"lng":-122.41938138415277,"neighborhood":"Bernal Heights","city_fetched":"San Francisco","state":"CA","country":"United States","canonicalUrl":"https://foursquare.com/v/virgils-sea-room/51afe206498e4507322b2165","category":"Dive Bar","checkinsCount":3866,"usersCount":2304,"tipCount":24,"visitsCount":4197,"url":"http://virgilssf.com","tier":1,"message":"Cheap","currency":"$","rating":8.4},{"name":"Fairmont Hotel Crown Room","phone":"4157725000","address":"950 Mason St","lat":37.79265560364946,"lng":-122.40964156563778,"neighborhood":"Nob Hill","city_fetched":"San Francisco","state":"CA","country":"United States","canonicalUrl":"https://foursquare.com/v/fairmont-hotel-crown-room/4c315a1116adc9285296c09c","category":"Hotel Bar","checkinsCount":524,"usersCount":442,"tipCount":8,"visitsCount":524,"url":"http://fairmont.com/san-francisco/","tier":"","message":"","currency":"","rating":8.4},{"name":"Black Hammer Brewing","phone":"4159979253","address":"544 Bryant St","lat":37.78056480074248,"lng":-122.39691373047718,"neighborhood":"SoMa","city_fetched":"San Francisco","state":"CA","country":"United States","canonicalUrl":"https://foursquare.com/v/black-hammer-brewing/5569220c498e608f2158be8d","category":"Brewery","checkinsCount":1471,"usersCount":1581,"tipCount":24,"visitsCount":2208,"url":"http://blackhammerbrewing.com","tier":2,"message":"Moderate","currency":"$","rating":8.4},{"name":"Shotwell’s","phone":"4156484104","twitter":"shotwellsbar","address":"3349 20th St","lat":37.75879187206279,"lng":-122.41579750142769,"neighborhood":"Mission District","city_fetched":"San Francisco","state":"CA","country":"United States","canonicalUrl":"https://foursquare.com/v/shotwells/49c83762f964a52003581fe3","category":"Beer Bar","checkinsCount":12562,"usersCount":6409,"tipCount":94,"visitsCount":14615,"url":"http://www.shotwellsbar.com","tier":2,"message":"Moderate","currency":"$","rating":8.4},{"name":"Bear Vs Bull","address":"2550 Mission St","lat":37.756380810119694,"lng":-122.41949199587148,"neighborhood":"Mission District","city_fetched":"San Francisco","state":"CA","country":"United States","canonicalUrl":"https://foursquare.com/v/bear-vs-bull/56711cc1498ef028792a1882","category":"Bar","checkinsCount":1070,"usersCount":655,"tipCount":12,"visitsCount":1073,"url":"http://www.bearvsbullbar.com","tier":"","message":"","currency":"","rating":8.4},{"name":"Churchill","phone":"4157540194","twitter":"churchillsf","address":"198 Church St","lat":37.7678448526381,"lng":-122.42902075793148,"neighborhood":"Duboce Triangle","city_fetched":"San Francisco","state":"CA","country":"United States","canonicalUrl":"https://foursquare.com/v/churchill/4dcadbd6814d4ffbdab77b51","category":"Cocktail Bar","checkinsCount":19255,"usersCount":9706,"tipCount":118,"visitsCount":21403,"url":"http://churchillsf.com","tier":2,"message":"Moderate","currency":"$","rating":8.3},{"name":"Richmond Republic Draught House","phone":"4157026069","twitter":"rrdraughthouse","address":"642 Clement St","lat":37.783113,"lng":-122.466243,"neighborhood":"Inner Richmond","city_fetched":"San Francisco","state":"CA","country":"United States","canonicalUrl":"https://foursquare.com/v/richmond-republic-draught-house/541d01ab498e451a8ed168b3","category":"Beer Bar","checkinsCount":2039,"usersCount":1419,"tipCount":21,"visitsCount":2662,"url":"http://richmondrepublicsf.com","tier":"","message":"","currency":"","rating":8.3},{"name":"Tunnel Top","phone":"4159868900","address":"601 Bush St","lat":37.79028080212431,"lng":-122.40730188361148,"neighborhood":"Downtown San Francisco-Union Square","city_fetched":"San Francisco","state":"CA","country":"United States","canonicalUrl":"https://foursquare.com/v/tunnel-top/408aff80f964a520c1f21ee3","category":"Bar","checkinsCount":9203,"usersCount":5860,"tipCount":63,"visitsCount":9407,"tier":1,"message":"Cheap","currency":"$","rating":8.3},{"name":"Hi Dive Bar","phone":"4159770170","address":"501 The Embarcadero","lat":37.78754721707836,"lng":-122.38749146461487,"neighborhood":"Rincon Hill","city_fetched":"San Francisco","state":"CA","country":"United States","canonicalUrl":"https://foursquare.com/v/hi-dive-bar/49ed2ea4f964a520d0671fe3","category":"Dive Bar","checkinsCount":11483,"usersCount":6588,"tipCount":71,"visitsCount":12489,"url":"http://www.hidivesf.com","tier":2,"message":"Moderate","currency":"$","rating":8.3},{"name":"Noc Noc","phone":"4158615811","address":"557 Haight St","lat":37.77199075721805,"lng":-122.43135442613334,"neighborhood":"Lower Haight","city_fetched":"San Francisco","state":"CA","country":"United States","canonicalUrl":"https://foursquare.com/v/noc-noc/3fd66200f964a52058ed1ee3","category":"Bar","checkinsCount":8962,"usersCount":4630,"tipCount":79,"visitsCount":9104,"url":"http://nocnocs.com","tier":1,"message":"Cheap","currency":"$","rating":8.3},{"name":"Cat Club","phone":"4157038965","twitter":"sfcatclub","address":"1190 Folsom St","lat":37.775370050020406,"lng":-122.40987387164922,"neighborhood":"SoMa","city_fetched":"San Francisco","state":"CA","country":"United States","canonicalUrl":"https://foursquare.com/v/cat-club/413ba880f964a520e91a1fe3","category":"Nightclub","checkinsCount":7420,"usersCount":2866,"tipCount":33,"visitsCount":7710,"url":"http://www.sfcatclub.com","tier":1,"message":"Cheap","currency":"$","rating":8.3},{"name":"F8 | 1192 Folsom","phone":"4158571192","address":"1192 Folsom St","lat":37.77521353572925,"lng":-122.40998449337894,"neighborhood":"SoMa","city_fetched":"San Francisco","state":"CA","country":"United States","canonicalUrl":"https://foursquare.com/v/f8--1192-folsom/4b1ee998f964a5207b2124e3","category":"Nightclub","checkinsCount":4157,"usersCount":2121,"tipCount":14,"visitsCount":4308,"url":"http://feightsf.com","tier":1,"message":"Cheap","currency":"$","rating":8.3},{"name":"BuzzWorks","phone":"4155581533","twitter":"sfbuzzworks","address":"365 11th St","lat":37.771206623464316,"lng":-122.41302609443665,"neighborhood":"SoMa","city_fetched":"San Francisco","state":"CA","country":"United States","canonicalUrl":"https://foursquare.com/v/buzzworks/57587782498e1367ff5c38ec","category":"Sports Bar","checkinsCount":133,"usersCount":100,"tipCount":5,"visitsCount":134,"url":"http://www.sfbuzzworks.com","tier":"","message":"","currency":"","rating":8.3},{"name":"Black Horse London Pub","phone":"4156785697","address":"1514 Union St","lat":37.79849913971545,"lng":-122.42446387228237,"neighborhood":"Union Street","city_fetched":"San Francisco","state":"CA","country":"United States","canonicalUrl":"https://foursquare.com/v/black-horse-london-pub/43164480f964a52063271fe3","category":"Bar","checkinsCount":3209,"usersCount":1713,"tipCount":44,"visitsCount":3663,"url":"http://www.blackhorselondon.com","tier":1,"message":"Cheap","currency":"$","rating":8.3},{"name":"Boom Boom Room","phone":"4156738000","twitter":"boomboomroomsf","address":"1601 Fillmore St","lat":37.784547200107355,"lng":-122.43315717692272,"neighborhood":"Lower Pacific Heights","city_fetched":"San Francisco","state":"CA","country":"United States","canonicalUrl":"https://foursquare.com/v/boom-boom-room/3fd66200f964a520a2eb1ee3","category":"Jazz Club","checkinsCount":6564,"usersCount":3715,"tipCount":37,"visitsCount":6689,"url":"http://www.boomboomblues.com","tier":"","message":"","currency":"","rating":8.3},{"name":"Pier 23 Cafe","phone":"4153625125","twitter":"pier23cafe","address":"Pier 23","lat":37.8034,"lng":-122.400815,"neighborhood":"Northern Waterfront","city_fetched":"San Francisco","state":"CA","country":"United States","canonicalUrl":"https://foursquare.com/v/pier-23-cafe/3fd66200f964a5205bec1ee3","category":"Gastropub","checkinsCount":12202,"usersCount":10633,"tipCount":136,"visitsCount":14453,"url":"http://www.pier23cafe.com","tier":2,"message":"Moderate","currency":"$","rating":8.3},{"name":"Wish Bar & Lounge","phone":"4154311661","address":"1539 Folsom St","lat":37.771333,"lng":-122.414319,"neighborhood":"SoMa","city_fetched":"San Francisco","state":"CA","country":"United States","canonicalUrl":"https://foursquare.com/v/wish-bar--lounge/40a2ba80f964a52004f31ee3","category":"Lounge","checkinsCount":6203,"usersCount":3730,"tipCount":35,"visitsCount":6557,"url":"http://wishsf.com","tier":2,"message":"Moderate","currency":"$","rating":8.3},{"name":"The Fly Trap","phone":"4152430580","twitter":"zareflytrap","address":"606 Folsom St","lat":37.78541349004772,"lng":-122.39690266693444,"neighborhood":"SoMa","city_fetched":"San Francisco","state":"CA","country":"United States","canonicalUrl":"https://foursquare.com/v/the-fly-trap/49d17c67f964a5208a5b1fe3","category":"Persian Restaurant","checkinsCount":5070,"usersCount":3381,"tipCount":68,"visitsCount":5462,"url":"http://flytrapsf.com","tier":3,"message":"Expensive","currency":"$","rating":8.3},{"name":"One Market Restaurant","phone":"4157775577","twitter":"onemarket_rest","address":"1 Market St","lat":37.79433000382966,"lng":-122.39476025104523,"neighborhood":"Financial District","city_fetched":"San Francisco","state":"CA","country":"United States","canonicalUrl":"https://foursquare.com/v/one-market-restaurant/44b2a62df964a52042351fe3","category":"New American Restaurant","checkinsCount":6010,"usersCount":4442,"tipCount":43,"visitsCount":6069,"url":"http://www.onemarket.com","tier":4,"message":"Very Expensive","currency":"$","rating":8.3},{"name":"Social Kitchen & Brewery","phone":"4156810330","twitter":"socialbrewery","address":"1326 9th Ave","lat":37.76359345829258,"lng":-122.46615972958666,"neighborhood":"Inner Sunset","city_fetched":"San Francisco","state":"CA","country":"United States","canonicalUrl":"https://foursquare.com/v/social-kitchen--brewery/4bcca8390687ef3bc0a6dfcc","category":"Brewery","checkinsCount":8958,"usersCount":4739,"tipCount":90,"visitsCount":9300,"url":"http://www.socialkitchenandbrewery.com","tier":2,"message":"Moderate","currency":"$","rating":8.3},{"name":"The Liberties Bar","phone":"4152826789","twitter":"thelibertiesbar","address":"998 Guerrero St","lat":37.75523648445705,"lng":-122.4232582553582,"neighborhood":"Dolores Heights","city_fetched":"San Francisco","state":"CA","country":"United States","canonicalUrl":"https://foursquare.com/v/the-liberties-bar/40870b00f964a520aaf21ee3","category":"Bar","checkinsCount":6100,"usersCount":3168,"tipCount":49,"visitsCount":6662,"url":"http://www.theliberties.com","tier":2,"message":"Moderate","currency":"$","rating":8.3},{"name":"Punch Line Comedy Club","phone":"4153977573","twitter":"punchlinesf","address":"444 Battery St","lat":37.795338890161254,"lng":-122.39981889724731,"neighborhood":"Financial District","city_fetched":"San Francisco","state":"CA","country":"United States","canonicalUrl":"https://foursquare.com/v/punch-line-comedy-club/49f168eef964a520aa691fe3","category":"Comedy Club","checkinsCount":5846,"usersCount":4119,"tipCount":42,"visitsCount":6024,"url":"http://www.punchlinecomedyclub.com","tier":"","message":"","currency":"","rating":8.3},{"name":"Esperpento","phone":"4152828867","twitter":"vikramseshadri","address":"3295 22nd St","lat":37.75537985600265,"lng":-122.42063283920288,"neighborhood":"Mission District","city_fetched":"San Francisco","state":"CA","country":"United States","canonicalUrl":"https://foursquare.com/v/esperpento/49e240bdf964a520ff611fe3","category":"Tapas Restaurant","checkinsCount":3956,"usersCount":2899,"tipCount":59,"visitsCount":3991,"url":"http://www.esperpentorestaurant.com","tier":2,"message":"Moderate","currency":"$","rating":8.2},{"name":"Wildhawk","phone":"4158297860","address":"3464 19th St","lat":37.760258,"lng":-122.420876,"neighborhood":"Mission District","city_fetched":"San Francisco","state":"CA","country":"United States","canonicalUrl":"https://foursquare.com/v/wildhawk/56ff2507498eaccaf951ebae","category":"Cocktail Bar","checkinsCount":523,"usersCount":446,"tipCount":5,"visitsCount":607,"url":"http://www.wildhawksf.com","tier":2,"message":"Moderate","currency":"$","rating":8.2},{"name":"Amnesia","phone":"4159708336","address":"853 Valencia St","lat":37.75904423204625,"lng":-122.42125511169434,"neighborhood":"Mission District","city_fetched":"San Francisco","state":"CA","country":"United States","canonicalUrl":"https://foursquare.com/v/amnesia/40870b00f964a520b0f21ee3","category":"Bar","checkinsCount":6306,"usersCount":4258,"tipCount":39,"visitsCount":6611,"url":"http://amnesiathebar.com/newp/","tier":2,"message":"Moderate","currency":"$","rating":8.2},{"name":"The Residence","phone":"4157978866","address":"718 14th St","lat":37.767702,"lng":-122.429301,"neighborhood":"Duboce Triangle","city_fetched":"San Francisco","state":"CA","country":"United States","canonicalUrl":"https://foursquare.com/v/the-residence/4b50f82af964a520253b27e3","category":"Bar","checkinsCount":7424,"usersCount":3503,"tipCount":56,"visitsCount":7648,"tier":2,"message":"Moderate","currency":"$","rating":8.2},{"name":"Last Call","phone":"4158611310","address":"3988 18th St","lat":37.76108463980286,"lng":-122.43249912117665,"neighborhood":"Castro","city_fetched":"San Francisco","state":"CA","country":"United States","canonicalUrl":"https://foursquare.com/v/last-call/4b204910f964a520083024e3","category":"Gay Bar","checkinsCount":2929,"usersCount":1527,"tipCount":16,"visitsCount":3746,"url":"http://thelastcallbar.com","tier":2,"message":"Moderate","currency":"$","rating":8.2},{"name":"Elixir","phone":"4155521633","twitter":"elixirsf","address":"3200 16th St","lat":37.76484578956936,"lng":-122.42438793182373,"neighborhood":"Mission Dolores","city_fetched":"San Francisco","state":"CA","country":"United States","canonicalUrl":"https://foursquare.com/v/elixir/50ec77bb19a92ef6c74490a2","category":"Bar","checkinsCount":11402,"usersCount":6714,"tipCount":89,"visitsCount":11957,"url":"http://www.elixirsf.com","tier":2,"message":"Moderate","currency":"$","rating":8.2},{"name":"The Phone Booth","phone":"4156484863","address":"1398 S Van Ness Ave","lat":37.75074419389102,"lng":-122.41630633173251,"neighborhood":"Mission District","city_fetched":"San Francisco","state":"CA","country":"United States","canonicalUrl":"https://foursquare.com/v/the-phone-booth/412d2800f964a520f10c1fe3","category":"Dive Bar","checkinsCount":4134,"usersCount":2539,"tipCount":34,"visitsCount":5520,"tier":1,"message":"Cheap","currency":"$","rating":8.2},{"name":"The Tradesman","phone":"4158142276","address":"753 Alabama St","lat":37.75943374633789,"lng":-122.41165924072266,"neighborhood":"Mission District","city_fetched":"San Francisco","state":"CA","country":"United States","canonicalUrl":"https://foursquare.com/v/the-tradesman/53d06ecc498e3d017216a1aa","category":"Wine Bar","checkinsCount":1662,"usersCount":1436,"tipCount":32,"visitsCount":2094,"url":"http://www.thetradesmansf.com","tier":"","message":"","currency":"","rating":8.2},{"name":"Fly Bar","phone":"4159314359","address":"762 Divisadero St","lat":37.77682838971973,"lng":-122.43815605379588,"neighborhood":"Alamo Square","city_fetched":"San Francisco","state":"CA","country":"United States","canonicalUrl":"https://foursquare.com/v/fly-bar/408da280f964a520d7f21ee3","category":"Bar","checkinsCount":11099,"usersCount":5402,"tipCount":66,"visitsCount":11487,"url":"http://flybarandrestaurant.com","tier":2,"message":"Moderate","currency":"$","rating":8.2},{"name":"Homestead","phone":"4152824663","address":"2301 Folsom St","lat":37.760402,"lng":-122.414771,"neighborhood":"Mission District","city_fetched":"San Francisco","state":"CA","country":"United States","canonicalUrl":"https://foursquare.com/v/homestead/4418754df964a5201e311fe3","category":"Bar","checkinsCount":12755,"usersCount":6859,"tipCount":83,"visitsCount":14790,"url":"http://www.homesteadsf.com","tier":2,"message":"Moderate","currency":"$","rating":8.2},{"name":"Horsefeather","phone":"4155220800","address":"528 Divisadero St","lat":37.774485356911775,"lng":-122.43768050718406,"neighborhood":"Alamo Square","city_fetched":"San Francisco","state":"CA","country":"United States","canonicalUrl":"https://foursquare.com/v/horsefeather/5705d56b498ec5d32113620c","category":"Lounge","checkinsCount":941,"usersCount":817,"tipCount":11,"visitsCount":1073,"url":"http://horsefeatherbar.com","tier":3,"message":"Expensive","currency":"$","rating":8.2},{"name":"Tofino Wines","address":"2696 Geary Blvd","lat":37.782573266614214,"lng":-122.44915384949213,"neighborhood":"Laurel Heights-Jordan Park","city_fetched":"San Francisco","state":"CA","country":"United States","canonicalUrl":"https://foursquare.com/v/tofino-wines/5531900b498eca93a63d896c","category":"Wine Bar","checkinsCount":443,"usersCount":143,"tipCount":4,"visitsCount":450,"url":"http://tofinowines.com","tier":"","message":"","currency":"","rating":8.2},{"name":"Simple Pleasures Cafe","phone":"4153874022","address":"3434 Balboa St","lat":37.77590820018698,"lng":-122.49580979347229,"neighborhood":"Outer Richmond","city_fetched":"San Francisco","state":"CA","country":"United States","canonicalUrl":"https://foursquare.com/v/simple-pleasures-cafe/3fd66200f964a520d3ec1ee3","category":"Coffee Shop","checkinsCount":5081,"usersCount":1610,"tipCount":45,"visitsCount":5961,"url":"http://simplepleasures.com","tier":1,"message":"Cheap","currency":"$","rating":8.2},{"name":"Hogwash","phone":"4153615500","address":"582 Sutter St","lat":37.789246,"lng":-122.410005,"neighborhood":"Downtown San Francisco-Union Square","city_fetched":"San Francisco","state":"CA","country":"United States","canonicalUrl":"https://foursquare.com/v/hogwash/54893ed3498e81f689e569fa","category":"Beer Bar","checkinsCount":1816,"usersCount":1660,"tipCount":37,"visitsCount":2066,"url":"http://hogwashsf.com","tier":"","message":"","currency":"","rating":8.2},{"name":"Mezes Kitchen & Wine Bar","phone":"4154097111","twitter":"mezessf","address":"2373 Chestnut St","lat":37.79995503586211,"lng":-122.44233081806225,"neighborhood":"Marina District","city_fetched":"San Francisco","state":"CA","country":"United States","canonicalUrl":"https://foursquare.com/v/mezes-kitchen--wine-bar/4a4f05b1f964a5203eaf1fe3","category":"Meze Restaurant","checkinsCount":1254,"usersCount":823,"tipCount":36,"visitsCount":1272,"url":"http://www.mezessf.com","tier":2,"message":"Moderate","currency":"$","rating":8.2},{"name":"The Page","phone":"4152556101","twitter":"thepagebar","address":"298 Divisadero St","lat":37.7720928562258,"lng":-122.43705332279204,"neighborhood":"Lower Haight","city_fetched":"San Francisco","state":"CA","country":"United States","canonicalUrl":"https://foursquare.com/v/the-page/43eb859cf964a5203a2f1fe3","category":"Dive Bar","checkinsCount":13561,"usersCount":6151,"tipCount":82,"visitsCount":14293,"url":"http://www.thepagebar.com","tier":1,"message":"Cheap","currency":"$","rating":8.2},{"name":"The Brazen Head","phone":"4159217600","twitter":"brazenheadrest","address":"3166 Buchanan St","lat":37.7994205600255,"lng":-122.4326152489613,"neighborhood":"Union Street","city_fetched":"San Francisco","state":"CA","country":"United States","canonicalUrl":"https://foursquare.com/v/the-brazen-head/49cf2129f964a520a15a1fe3","category":"Steakhouse","checkinsCount":3122,"usersCount":2015,"tipCount":40,"visitsCount":3870,"url":"http://www.brazenheadsf-hub.com","tier":2,"message":"Moderate","currency":"$","rating":8.2},{"name":"Zeki's Bar","phone":"4159280677","address":"1319 California St","lat":37.79108831177188,"lng":-122.41612934755825,"neighborhood":"Nob Hill","city_fetched":"San Francisco","state":"CA","country":"United States","canonicalUrl":"https://foursquare.com/v/zekis-bar/43680180f964a52077291fe3","category":"Bar","checkinsCount":5852,"usersCount":3774,"tipCount":46,"visitsCount":7175,"url":"http://www.zekisbar.com","tier":2,"message":"Moderate","currency":"$","rating":8.2},{"name":"Upcider","phone":"4159311797","address":"1160 Polk St Fl 2","lat":37.78768241605951,"lng":-122.41990125821756,"neighborhood":"Lower Nob Hill","city_fetched":"San Francisco","state":"CA","country":"United States","canonicalUrl":"https://foursquare.com/v/upcider/5008cbabe4b0b2967fa74bd6","category":"Gastropub","checkinsCount":6054,"usersCount":3971,"tipCount":65,"visitsCount":6798,"url":"http://www.upcidersf.com","tier":2,"message":"Moderate","currency":"$","rating":8.2},{"name":"YamaSho","phone":"4153462222","twitter":"yamashosf","address":"1161 Post St","lat":37.78658562523177,"lng":-122.42099630367764,"neighborhood":"Lower Nob Hill","city_fetched":"San Francisco","state":"CA","country":"United States","canonicalUrl":"https://foursquare.com/v/yamasho/4b0f4e14f964a5205a6123e3","category":"Karaoke Bar","checkinsCount":8013,"usersCount":5074,"tipCount":54,"visitsCount":8729,"url":"http://www.yamasho-sf.com","tier":2,"message":"Moderate","currency":"$","rating":8.2},{"name":"Farmer Brown","phone":"4154093276","address":"25 Mason St","lat":37.78353144745567,"lng":-122.40917695207449,"neighborhood":"Tenderloin","city_fetched":"San Francisco","state":"CA","country":"United States","canonicalUrl":"https://foursquare.com/v/farmer-brown/44f97a46f964a5205e381fe3","category":"Southern / Soul Food Restaurant","checkinsCount":11967,"usersCount":8979,"tipCount":198,"visitsCount":12341,"url":"http://www.farmerbrownsf.com","tier":3,"message":"Expensive","currency":"$","rating":8.2},{"name":"Rock Bar","phone":"4155506664","twitter":"rockbarsf","address":"80 29th St","lat":37.744029317482024,"lng":-122.4220597743988,"neighborhood":"Bernal Heights","city_fetched":"San Francisco","state":"CA","country":"United States","canonicalUrl":"https://foursquare.com/v/rock-bar/4f2d63cd4fc63140dabcf33d","category":"Cocktail Bar","checkinsCount":3841,"usersCount":1724,"tipCount":29,"visitsCount":3992,"url":"http://rockbarsf.com","tier":1,"message":"Cheap","currency":"$","rating":8.1},{"name":"Resolute","phone":"4158250741","twitter":"resolutesf","address":"678 Geary St","lat":37.78668,"lng":-122.41421,"neighborhood":"Tenderloin","city_fetched":"San Francisco","state":"CA","country":"United States","canonicalUrl":"https://foursquare.com/v/resolute/552f3e8c498e944a9e689bb1","category":"Bar","checkinsCount":498,"usersCount":308,"tipCount":2,"visitsCount":501,"url":"http://www.resolutesf.com/#g2R5v2","tier":"","message":"","currency":"","rating":8.1},{"name":"Takoba","address":"138 Minna St","lat":37.78673442569946,"lng":-122.40024933556151,"neighborhood":"SoMa","city_fetched":"San Francisco","state":"CA","country":"United States","canonicalUrl":"https://foursquare.com/v/takoba/5531cce7498e133766923a47","category":"Bar","checkinsCount":302,"usersCount":280,"tipCount":5,"visitsCount":302,"tier":"","message":"","currency":"","rating":8}]