[{"name":"Small City Taphouse","address":"Columbus Ave","lat":41.456086215364984,"lng":-82.71152729162209,"city_fetched":"Sandusky","state":"OH","country":"United States","canonicalUrl":"https://foursquare.com/v/small-city-taphouse/531883b1498ea1f33c8d7e78","category":"Beer Garden","checkinsCount":1145,"usersCount":394,"tipCount":18,"visitsCount":1501,"url":"http://smallcitytaphouse.com","tier":"","message":"","currency":"","rating":9.1},{"name":"Firelands Winery","phone":"4196255474","address":"917 Bardshar Rd","lat":41.43576851666667,"lng":-82.772639,"city_fetched":"Sandusky","state":"OH","country":"United States","canonicalUrl":"https://foursquare.com/v/firelands-winery/4bc0a37f461576b0336d7a32","category":"Winery","checkinsCount":452,"usersCount":406,"tipCount":12,"visitsCount":541,"url":"http://www.firelandswinery.com","tier":"","message":"","currency":"","rating":8.2},{"name":"Crush Wine Bar","address":"145 Columbus Ave","lat":41.456522,"lng":-82.71217808333333,"city_fetched":"Sandusky","state":"OH","country":"United States","canonicalUrl":"https://foursquare.com/v/crush-wine-bar/4bf6fca0b182c9b687e4745a","category":"Wine Bar","checkinsCount":1040,"usersCount":304,"tipCount":8,"visitsCount":1075,"url":"http://sanduskywinebar.com","tier":"","message":"","currency":"","rating":8},{"name":"Famous Dave's Bar-B-Que","phone":"4196092054","twitter":"famous_daves","address":"1 Cedar Point Dr","lat":41.479876226217314,"lng":-82.68521904945374,"city_fetched":"Sandusky","state":"OH","country":"United States","canonicalUrl":"https://foursquare.com/v/famous-daves-barbque/4bdc6032afe8c9b6da1f4f85","category":"BBQ Joint","checkinsCount":1907,"usersCount":1514,"tipCount":22,"visitsCount":2207,"url":"http://www.famousdaves.com","tier":2,"message":"Moderate","currency":"$","rating":7.7},{"name":"Thirsty Pony","phone":"4196266761","address":"1935 Cleveland Rd","lat":41.44216061085015,"lng":-82.68134424772357,"city_fetched":"Sandusky","state":"OH","country":"United States","canonicalUrl":"https://foursquare.com/v/thirsty-pony/4bbd1f544e069c74fc689ee3","category":"Sports Bar","checkinsCount":2457,"usersCount":1903,"tipCount":39,"visitsCount":2869,"tier":2,"message":"Moderate","currency":"$","rating":7.7},{"name":"Brass Pelican","phone":"4196240769","address":"414 W Perkins Ave","lat":41.43267156218429,"lng":-82.70614108304123,"city_fetched":"Sandusky","state":"OH","country":"United States","canonicalUrl":"https://foursquare.com/v/brass-pelican/4c7d29add65437043c78bfa2","category":"American Restaurant","checkinsCount":937,"usersCount":350,"tipCount":14,"visitsCount":1005,"tier":"","message":"","currency":"","rating":7.5},{"name":"Old Dutch Tavern","phone":"4196270877","address":"2219 E Perkins Ave","lat":41.427604668235794,"lng":-82.66397595405579,"city_fetched":"Sandusky","state":"OH","country":"United States","canonicalUrl":"https://foursquare.com/v/old-dutch-tavern/4bbe72b7ba9776b0e4c1fdc8","category":"Bar","checkinsCount":741,"usersCount":282,"tipCount":4,"visitsCount":879,"tier":"","message":"","currency":"","rating":7.4},{"name":"Volstead Bar","twitter":"volsteadbar","address":"316 E Water St","lat":41.45851570571623,"lng":-82.7084389700007,"city_fetched":"Sandusky","state":"OH","country":"United States","canonicalUrl":"https://foursquare.com/v/volstead-bar/52b06a2111d296f46b9564f6","category":"Speakeasy","checkinsCount":541,"usersCount":141,"tipCount":1,"visitsCount":719,"url":"http://www.volsteadbar.com","tier":"","message":"","currency":"","rating":7.4},{"name":"The Cove at Louie's","phone":"4196275405","address":"2331 River Ave","lat":41.44857518719444,"lng":-82.6718058074885,"city_fetched":"Sandusky","state":"OH","country":"United States","canonicalUrl":"https://foursquare.com/v/the-cove-at-louies/4dbf61271e72dd48b1f1d24c","category":"Bar","checkinsCount":759,"usersCount":345,"tipCount":8,"visitsCount":998,"url":"http://www.thecoveatlouies.com","tier":"","message":"","currency":"","rating":7.4},{"name":"Daly's Irish Pub","phone":"4195020241","address":"104 Columbus Ave","lat":41.457129253411395,"lng":-82.71225982506466,"city_fetched":"Sandusky","state":"OH","country":"United States","canonicalUrl":"https://foursquare.com/v/dalys-irish-pub/4b77274ff964a520e8822ee3","category":"Pub","checkinsCount":1746,"usersCount":670,"tipCount":9,"visitsCount":1910,"url":"http://www.dalyspubsandusky.com","tier":1,"message":"Cheap","currency":"$","rating":7},{"name":"Crowbar","address":"206 W Market St","lat":41.455573599515766,"lng":-82.71255494421247,"city_fetched":"Sandusky","state":"OH","country":"United States","canonicalUrl":"https://foursquare.com/v/crowbar/4d4a05375129a35dbfb73fac","category":"Gay Bar","checkinsCount":861,"usersCount":354,"tipCount":8,"visitsCount":905,"url":"http://sanduskycrowbar.com","tier":"","message":"","currency":"","rating":6.7},{"name":"Cheers Sports Bar & Grill","phone":"4196264713","address":"4314 Milan Rd","lat":41.417777818894,"lng":-82.66994436365898,"city_fetched":"Sandusky","state":"OH","country":"United States","canonicalUrl":"https://foursquare.com/v/cheers-sports-bar--grill/4b771914f964a520277d2ee3","category":"Bar","checkinsCount":1171,"usersCount":321,"tipCount":11,"visitsCount":1190,"url":"http://cheerssandusky.com","tier":2,"message":"Moderate","currency":"$","rating":6.7},{"name":"Fridays","phone":"4196095907","twitter":"tgifridays","address":"1 Cedar Point Dr","lat":41.48524005546694,"lng":-82.68355861936145,"city_fetched":"Sandusky","state":"OH","country":"United States","canonicalUrl":"https://foursquare.com/v/fridays/4bedc949e24d20a11ffe7114","category":"American Restaurant","checkinsCount":2331,"usersCount":1649,"tipCount":30,"visitsCount":2491,"url":"http://tgifridays.com","tier":2,"message":"Moderate","currency":"$","rating":6.1},{"name":"Game Day Grille","phone":"4196272350","twitter":"cedarpoint","address":"Cedar Point","lat":41.47991641580268,"lng":-82.6818260550499,"city_fetched":"Sandusky","state":"OH","country":"United States","canonicalUrl":"https://foursquare.com/v/game-day-grille/4bd84e2fdc4b9521d0c77888","category":"American Restaurant","checkinsCount":592,"usersCount":502,"tipCount":9,"visitsCount":592,"url":"http://www.cedarpoint.com","tier":"","message":"","currency":"","rating":5.9},{"name":"Nancy's East Side Cafe","phone":"4196271964","address":"1319 1st St","lat":41.452307,"lng":-82.68978953361511,"city_fetched":"Sandusky","state":"OH","country":"United States","canonicalUrl":"https://foursquare.com/v/nancys-east-side-cafe/4b607116f964a52022e629e3","category":"Bar","checkinsCount":91,"usersCount":65,"tipCount":3,"visitsCount":95,"tier":"","message":"","currency":"","rating":5.9},{"name":"Last Chance Saloon","phone":"4196272350","twitter":"cedarpoint","address":"Cedar Point","lat":41.485791743774236,"lng":-82.69211490516939,"city_fetched":"Sandusky","state":"OH","country":"United States","canonicalUrl":"https://foursquare.com/v/last-chance-saloon/4bed9238e3562d7fce37fff8","category":"Bar","checkinsCount":562,"usersCount":478,"tipCount":11,"visitsCount":562,"url":"http://www.cedarpoint.com/things-to-do/dining","tier":"","message":"","currency":"","rating":5.7},{"name":"Chickie's & Pete's","lat":41.479998503199766,"lng":-82.68188203033247,"city_fetched":"Sandusky","state":"OH","country":"United States","canonicalUrl":"https://foursquare.com/v/chickies--petes/536c0881498e0de2db1099b9","category":"Wings Joint","checkinsCount":207,"usersCount":187,"tipCount":8,"visitsCount":207,"tier":"","message":"","currency":"","rating":5.4},{"name":"Lyman Harbor Pub","phone":"4196259626","twitter":"lyman_harbor","address":"1615 1st St","lat":41.452603333333336,"lng":-82.6843910217285,"city_fetched":"Sandusky","state":"OH","country":"United States","canonicalUrl":"https://foursquare.com/v/lyman-harbor-pub/4ad4bff1f964a5205fe920e3","category":"Pub","checkinsCount":350,"usersCount":222,"tipCount":1,"visitsCount":350,"url":"http://www.lymanharbor.com","tier":"","message":"","currency":"","rating":5.3},{"name":"Joe Cool Cafe","phone":"4196272350","twitter":"cedarpoint","address":"Cedar Point","lat":41.482263444358686,"lng":-82.6816838979721,"city_fetched":"Sandusky","state":"OH","country":"United States","canonicalUrl":"https://foursquare.com/v/joe-cool-cafe/4c098980009a0f47aaf7e7bf","category":"Pizza Place","checkinsCount":538,"usersCount":484,"tipCount":16,"visitsCount":541,"url":"http://www.cedarpoint.com","tier":"","message":"","currency":"","rating":5.1}]