[{"name":"Mickduff's Brewing Company","phone":"2082554351","address":"312 N 1st Ave","lat":48.275349502907595,"lng":-116.54762223539427,"city_fetched":"Sandpoint,US","state":"ID","country":"United States","canonicalUrl":"https://foursquare.com/v/mickduffs-brewing-company/4b6f2abbf964a5206fe12ce3","categoryId":"50327c8591d4c4b30a586d5d","category":"Brewery","checkinsCount":1202,"usersCount":656,"tipCount":32,"visitsCount":1365,"url":"http://www.mickduffs.com","tier":"","message":"","currency":"","rating":8.7},{"name":"Laughing Dog Brewing","phone":"2082639222","twitter":"laughingdogbrew","address":"1109 Fontaine Dr","lat":48.29859718824523,"lng":-116.54663923639319,"city_fetched":"Sandpoint,US","state":"ID","country":"United States","canonicalUrl":"https://foursquare.com/v/laughing-dog-brewing/4d814da46bd8b60c17065a7c","categoryId":"50327c8591d4c4b30a586d5d","category":"Brewery","checkinsCount":345,"usersCount":237,"tipCount":2,"visitsCount":471,"url":"http://www.laughingdogbrewing.com","tier":"","message":"","currency":"","rating":8.4},{"name":"Eichardt's Pub Grill & Coffee","phone":"2082634005","address":"212 Cedar St","lat":48.27622118623996,"lng":-116.54940213250369,"city_fetched":"Sandpoint,US","state":"ID","country":"United States","canonicalUrl":"https://foursquare.com/v/eichardts-pub-grill--coffee/4b6f2fdff964a520f2e22ce3","categoryId":"4bf58dd8d48988d11b941735","category":"Pub","checkinsCount":540,"usersCount":260,"tipCount":6,"visitsCount":562,"url":"http://www.eichardts.com","tier":"","message":"","currency":"","rating":8.3},{"name":"Idaho Pour Authority","phone":"2085977096","address":"203 Cedar St","lat":48.276053,"lng":-116.549216,"city_fetched":"Sandpoint,US","state":"ID","country":"United States","canonicalUrl":"https://foursquare.com/v/idaho-pour-authority/51d38724498e15ad78023c97","categoryId":"4bf58dd8d48988d11b941735","category":"Pub","checkinsCount":127,"usersCount":57,"tipCount":6,"visitsCount":143,"url":"http://www.idahopourauthority.com","tier":"","message":"","currency":"","rating":8.2},{"name":"Pucci's Pub Schweitzer Mountain","lat":48.36669562661862,"lng":-116.62285483716984,"city_fetched":"Sandpoint,US","state":"ID","country":"United States","canonicalUrl":"https://foursquare.com/v/puccis-pub-schweitzer-mountain/4ee2c79ab8f790fe3e2bf84a","categoryId":"4bf58dd8d48988d11b941735","category":"Pub","checkinsCount":197,"usersCount":102,"tipCount":10,"visitsCount":197,"tier":"","message":"","currency":"","rating":6.9}]