[{"name":"Celery City Craft","phone":"4074747140","twitter":"celerycitycraft","address":"114 S Palmetto Ave","lat":28.811302415498826,"lng":-81.26616250082222,"city_fetched":"Sanford,US","state":"FL","country":"United States","canonicalUrl":"https://foursquare.com/v/celery-city-craft/538529ed498ee4b654aed6ad","categoryId":"4bf58dd8d48988d11b941735","category":"Pub","checkinsCount":736,"usersCount":227,"tipCount":7,"visitsCount":857,"url":"http://celerycitycraft.com","tier":2,"message":"Moderate","currency":"$","rating":8.9},{"name":"Red Cypress Brewery","phone":"4075420341","twitter":"redcypressbeer","address":"855 E State Road 434","lat":28.70343411212866,"lng":-81.28601080763859,"city_fetched":"Sanford,US","state":"FL","country":"United States","canonicalUrl":"https://foursquare.com/v/red-cypress-brewery/56171419498e0e4ac544f677","categoryId":"50327c8591d4c4b30a586d5d","category":"Brewery","checkinsCount":319,"usersCount":160,"tipCount":4,"visitsCount":394,"url":"http://www.redcypressbrewery.com","tier":"","message":"","currency":"","rating":8.8},{"name":"Bowigens Beer Company","twitter":"bowigensbeerco","address":"1014 State Road 436","lat":28.646667485399497,"lng":-81.32130791457985,"city_fetched":"Sanford,US","state":"FL","country":"United States","canonicalUrl":"https://foursquare.com/v/bowigens-beer-company/54305f23498e8015a95a6852","categoryId":"50327c8591d4c4b30a586d5d","category":"Brewery","checkinsCount":322,"usersCount":135,"tipCount":6,"visitsCount":373,"url":"http://bowigens.com","tier":"","message":"","currency":"","rating":8.7},{"name":"World of Beer","phone":"4078342337","address":"155 Cranes Roost Blvd","lat":28.66312283831174,"lng":-81.38380105985422,"city_fetched":"Sanford,US","state":"FL","country":"United States","canonicalUrl":"https://foursquare.com/v/world-of-beer/4f49a75be4b037cdb6ce97b8","categoryId":"4bf58dd8d48988d116941735","category":"Bar","checkinsCount":4602,"usersCount":1881,"tipCount":41,"visitsCount":4917,"url":"http://worldofbeer.com/Locations/Altamonte","tier":2,"message":"Moderate","currency":"$","rating":8.7},{"name":"The Hourglass Brewery","phone":"4077199874","address":"280 S Ronald Reagan Blvd","lat":28.692389225837182,"lng":-81.34638435108704,"city_fetched":"Sanford,US","state":"FL","country":"United States","canonicalUrl":"https://foursquare.com/v/the-hourglass-brewery/4f0f0c9fe4b03684a5f684bb","categoryId":"50327c8591d4c4b30a586d5d","category":"Brewery","checkinsCount":2075,"usersCount":939,"tipCount":22,"visitsCount":2651,"url":"http://thehourglassbrewery.com","tier":2,"message":"Moderate","currency":"$","rating":8.5},{"name":"nice n easy oyster bar","phone":"3867756858","address":"2109 N Volusia Ave","lat":28.96675,"lng":-81.299194,"city_fetched":"Sanford,US","state":"FL","country":"United States","canonicalUrl":"https://foursquare.com/v/nice-n-easy-oyster-bar/4b847027f964a5205f3531e3","categoryId":"4bf58dd8d48988d11b941735","category":"Pub","checkinsCount":473,"usersCount":200,"tipCount":9,"visitsCount":544,"tier":"","message":"","currency":"","rating":8.4},{"name":"Buster's Bistro","phone":"4077326880","address":"412 Sanford Ave","lat":28.80982156358688,"lng":-81.26517855401828,"city_fetched":"Sanford,US","state":"FL","country":"United States","canonicalUrl":"https://foursquare.com/v/busters-bistro/50ef530de4b0da28242ba43a","categoryId":"4bf58dd8d48988d117941735","category":"Beer Garden","checkinsCount":828,"usersCount":303,"tipCount":6,"visitsCount":1035,"url":"http://bustersbistro.com","tier":2,"message":"Moderate","currency":"$","rating":8.4},{"name":"Little Fish Huge Pond","phone":"4072211499","twitter":"littlefishhuge","address":"401 Sanford Ave","lat":28.808843413668356,"lng":-81.26481771469116,"city_fetched":"Sanford,US","state":"FL","country":"United States","canonicalUrl":"https://foursquare.com/v/little-fish-huge-pond/4b05868ff964a520fa6522e3","categoryId":"4bf58dd8d48988d116941735","category":"Bar","checkinsCount":2228,"usersCount":469,"tipCount":21,"visitsCount":2287,"url":"http://www.littlefish-hugepond.com","tier":"","message":"","currency":"","rating":8.3},{"name":"Imperial Wine Bar & Beer Garden","lat":28.81180185811264,"lng":-81.26736687761786,"city_fetched":"Sanford,US","state":"FL","country":"United States","canonicalUrl":"https://foursquare.com/v/imperial-wine-bar--beer-garden/507754d5e4b065f1dc1a8bb6","categoryId":"4bf58dd8d48988d123941735","category":"Wine Bar","checkinsCount":666,"usersCount":322,"tipCount":14,"visitsCount":691,"tier":"","message":"","currency":"","rating":8.2},{"name":"World of Beer","phone":"4078786693","address":"1125 Townpark Ave","lat":28.78824856094933,"lng":-81.35648673617041,"neighborhood":"Colonial Townpark","city_fetched":"Sanford,US","state":"FL","country":"United States","canonicalUrl":"https://foursquare.com/v/world-of-beer/519b3fcf8bbdfcdd16e7eca0","categoryId":"4bf58dd8d48988d116941735","category":"Bar","checkinsCount":1560,"usersCount":783,"tipCount":7,"visitsCount":1781,"url":"http://wobusa.com/locations/lake-mary","tier":2,"message":"Moderate","currency":"$","rating":8.2},{"name":"Sanford Homebrew Shop","phone":"4077326931","twitter":"sanfordhbs","address":"115 S Magnolia Ave","lat":28.81122745809836,"lng":-81.26676469157384,"city_fetched":"Sanford,US","state":"FL","country":"United States","canonicalUrl":"https://foursquare.com/v/sanford-homebrew-shop/5050afb9e4b06e59386471e5","categoryId":"50327c8591d4c4b30a586d5d","category":"Brewery","checkinsCount":444,"usersCount":45,"tipCount":5,"visitsCount":452,"url":"http://sanfordhomebrewshop.com","tier":"","message":"","currency":"","rating":8.1},{"name":"Gator's Dockside","phone":"4076956622","twitter":"gatorsdkside","address":"5257 Red Bug Lake Rd.","lat":28.64724766691507,"lng":-81.27685546875,"city_fetched":"Sanford,US","state":"FL","country":"United States","canonicalUrl":"https://foursquare.com/v/gators-dockside/4b7ddee9f964a5203bd82fe3","categoryId":"4bf58dd8d48988d11d941735","category":"Sports Bar","checkinsCount":6182,"usersCount":2212,"tipCount":38,"visitsCount":7143,"url":"http://www.gatorsdockside.com","tier":2,"message":"Moderate","currency":"$","rating":8.1},{"name":"Miller's Orlando Ale House","phone":"4073316611","twitter":"millersalehouse","address":"477 E Altamonte Dr","lat":28.664380118023605,"lng":-81.37545615434647,"city_fetched":"Sanford,US","state":"FL","country":"United States","canonicalUrl":"https://foursquare.com/v/millers-orlando-ale-house/4b06f70ff964a52068f422e3","categoryId":"4bf58dd8d48988d11d941735","category":"Sports Bar","checkinsCount":10570,"usersCount":4766,"tipCount":73,"visitsCount":11797,"url":"http://www.millersalehouse.com","tier":2,"message":"Moderate","currency":"$","rating":8.1},{"name":"Twin Peaks","address":"227 W State Road 436","lat":28.66243921688287,"lng":-81.39239550383341,"city_fetched":"Sanford,US","state":"FL","country":"United States","canonicalUrl":"https://foursquare.com/v/twin-peaks/56071b57498e965f89b15ea8","categoryId":"4bf58dd8d48988d11d941735","category":"Sports Bar","checkinsCount":842,"usersCount":396,"tipCount":10,"visitsCount":1133,"tier":2,"message":"Moderate","currency":"$","rating":8.1},{"name":"Miller's Sanford Ale House","phone":"4073287037","address":"50 Towne Center Cir","lat":28.807376854704703,"lng":-81.3383960723877,"neighborhood":"Seminole Towne Center","city_fetched":"Sanford,US","state":"FL","country":"United States","canonicalUrl":"https://foursquare.com/v/millers-sanford-ale-house/4b27e44df964a520cd8b24e3","categoryId":"4bf58dd8d48988d11d941735","category":"Sports Bar","checkinsCount":4579,"usersCount":2292,"tipCount":36,"visitsCount":5235,"url":"http://www.millersalehouse.com","tier":2,"message":"Moderate","currency":"$","rating":8},{"name":"The Draft House","phone":"3867751400","address":"2631 Enterprise Rd Ste 400","lat":28.912634546844767,"lng":-81.29155397415161,"city_fetched":"Sanford,US","state":"FL","country":"United States","canonicalUrl":"https://foursquare.com/v/the-draft-house/4eab58636d86a323a4a5c8cf","categoryId":"4bf58dd8d48988d116941735","category":"Bar","checkinsCount":1506,"usersCount":430,"tipCount":19,"visitsCount":1736,"url":"http://the-draft-house.com","tier":2,"message":"Moderate","currency":"$","rating":8},{"name":"Wop's Hops Brewing Company","address":"419 Sanford Ave","lat":28.808317316106706,"lng":-81.26479142396205,"city_fetched":"Sanford,US","state":"FL","country":"United States","canonicalUrl":"https://foursquare.com/v/wops-hops-brewing-company/5466957a498e40bd82d1b8fd","categoryId":"50327c8591d4c4b30a586d5d","category":"Brewery","checkinsCount":191,"usersCount":105,"tipCount":2,"visitsCount":215,"tier":"","message":"","currency":"","rating":7.9},{"name":"Ellens Wine Room","phone":"4079361705","twitter":"ellenswineroom","address":"440 S. Stanford Ave.","lat":28.80828324981668,"lng":-81.26507639488682,"city_fetched":"Sanford,US","state":"FL","country":"United States","canonicalUrl":"https://foursquare.com/v/ellens-wine-room/4cd5af9afb718eec10874b88","categoryId":"4bf58dd8d48988d11e941735","category":"Cocktail Bar","checkinsCount":469,"usersCount":43,"tipCount":5,"visitsCount":508,"url":"http://ellenswineroom.com","tier":"","message":"","currency":"","rating":7.8},{"name":"Tilted Kilt Pub And Eatery","phone":"4079420016","twitter":"tiltedkiltpub","address":"901 Currency Cir","lat":28.756666621747694,"lng":-81.35824820618588,"neighborhood":"Primera","city_fetched":"Sanford,US","state":"FL","country":"United States","canonicalUrl":"https://foursquare.com/v/tilted-kilt-pub-and-eatery/4cd21f1c7f56a14328f8d8a6","categoryId":"4bf58dd8d48988d11b941735","category":"Pub","checkinsCount":5965,"usersCount":2773,"tipCount":52,"visitsCount":6625,"url":"http://www.tiltedkilt.com","tier":2,"message":"Moderate","currency":"$","rating":7.6},{"name":"The Barn","phone":"4073242276","address":"1200 S French Ave","lat":28.80138990384168,"lng":-81.27340998397426,"city_fetched":"Sanford,US","state":"FL","country":"United States","canonicalUrl":"https://foursquare.com/v/the-barn/4b058691f964a520286622e3","categoryId":"4bf58dd8d48988d116941735","category":"Bar","checkinsCount":2020,"usersCount":1050,"tipCount":9,"visitsCount":2330,"url":"http://www.thebarninsanford.com","tier":"","message":"","currency":"","rating":7.5},{"name":"Cheers","phone":"4078346300","address":"157 Candace Dr","lat":28.64449294916932,"lng":-81.35414520705501,"city_fetched":"Sanford,US","state":"FL","country":"United States","canonicalUrl":"https://foursquare.com/v/cheers/4d114e803e33b60c4b6d35af","categoryId":"4bf58dd8d48988d116941735","category":"Bar","checkinsCount":1147,"usersCount":202,"tipCount":7,"visitsCount":1249,"url":"http://cheersofmaitland.com","tier":"","message":"","currency":"","rating":7.4},{"name":"Holly & Dolly's","phone":"4078340069","address":"500 State Road 436","lat":28.653856151064527,"lng":-81.33009742056633,"city_fetched":"Sanford,US","state":"FL","country":"United States","canonicalUrl":"https://foursquare.com/v/holly--dollys/4c620b5b86b6be9a6f5e8b34","categoryId":"4bf58dd8d48988d11d941735","category":"Sports Bar","checkinsCount":2226,"usersCount":474,"tipCount":22,"visitsCount":2416,"url":"http://hollydolly.com","tier":1,"message":"Cheap","currency":"$","rating":7.4},{"name":"Rockin' Rhonda's","phone":"4073303882","address":"2617 S Orlando Dr, Sanford, FL 32773","lat":28.7793878037371,"lng":-81.2741626508381,"city_fetched":"Sanford,US","state":"FL","country":"United States","canonicalUrl":"https://foursquare.com/v/rockin-rhondas/4ee431b44690f88940538fcd","categoryId":"4bf58dd8d48988d120941735","category":"Karaoke Bar","checkinsCount":164,"usersCount":80,"tipCount":6,"visitsCount":186,"url":"http://rockinrhonda.com","tier":1,"message":"Cheap","currency":"$","rating":7.4},{"name":"Twisted Vine","address":"307 E 1st St, Sanford, FL 32771","lat":28.811788312244797,"lng":-81.26573773844297,"city_fetched":"Sanford,US","state":"FL","country":"United States","canonicalUrl":"https://foursquare.com/v/twisted-vine/4f349f6fe4b0debe1e47906e","categoryId":"4bf58dd8d48988d123941735","category":"Wine Bar","checkinsCount":226,"usersCount":100,"tipCount":8,"visitsCount":226,"url":"http://www.twistedvinesanford.com","tier":"","message":"","currency":"","rating":7.3},{"name":"The Alley","phone":"4073284848","twitter":"thealleybluesfl","address":"114 S Park Ave","lat":28.81112782016029,"lng":-81.26818120479584,"city_fetched":"Sanford,US","state":"FL","country":"United States","canonicalUrl":"https://foursquare.com/v/the-alley/4bb7ec8998c7ef3bc0973002","categoryId":"4bf58dd8d48988d116941735","category":"Bar","checkinsCount":510,"usersCount":254,"tipCount":3,"visitsCount":520,"url":"http://www.thealleyblues.com","tier":"","message":"","currency":"","rating":7.3},{"name":"Fat Rats Lounge","lat":28.8087,"lng":-81.265088,"city_fetched":"Sanford,US","state":"FL","country":"United States","canonicalUrl":"https://foursquare.com/v/fat-rats-lounge/4bca7c970687ef3b6741dccc","categoryId":"4bf58dd8d48988d116941735","category":"Bar","checkinsCount":489,"usersCount":199,"tipCount":8,"visitsCount":492,"tier":"","message":"","currency":"","rating":7.3},{"name":"Jax 5th Ave Deli & Ale House","phone":"4073233354","address":"951 Greenwood Blvd","lat":28.748498616569528,"lng":-81.35793672968809,"city_fetched":"Sanford,US","state":"FL","country":"United States","canonicalUrl":"https://foursquare.com/v/jax-5th-ave-deli--ale-house/4b2c3626f964a520dbc324e3","categoryId":"4bf58dd8d48988d11d941735","category":"Sports Bar","checkinsCount":4115,"usersCount":1465,"tipCount":59,"visitsCount":4712,"url":"http://jaxalehouse.com","tier":2,"message":"Moderate","currency":"$","rating":7.2},{"name":"Casselberry's Patio Bar","twitter":"casselberrysbar","address":"2671 S US Highway 17/92","lat":28.68160128593445,"lng":-81.33446931838989,"city_fetched":"Sanford,US","state":"FL","country":"United States","canonicalUrl":"https://foursquare.com/v/casselberrys-patio-bar/4bbd1c54f57ba59301b9adb9","categoryId":"4bf58dd8d48988d1d4941735","category":"Speakeasy","checkinsCount":448,"usersCount":175,"tipCount":5,"visitsCount":501,"url":"http://casselberryspatiobar.com","tier":"","message":"","currency":"","rating":7.2},{"name":"The West End Trading Company","phone":"4073227475","address":"202 Sanford Ave","lat":28.810734,"lng":-81.2651465,"city_fetched":"Sanford,US","state":"FL","country":"United States","canonicalUrl":"https://foursquare.com/v/the-west-end-trading-company/4b91ab46f964a5208ece33e3","categoryId":"4bf58dd8d48988d118941735","category":"Dive Bar","checkinsCount":2884,"usersCount":950,"tipCount":25,"visitsCount":3210,"url":"http://drinkatwestend.com","tier":1,"message":"Cheap","currency":"$","rating":7.2},{"name":"The Pub & Grill","phone":"3867740257","address":"2438 S Volusia Ave","lat":28.92004,"lng":-81.298549,"city_fetched":"Sanford,US","state":"FL","country":"United States","canonicalUrl":"https://foursquare.com/v/the-pub--grill/4bce0f93937ca5935cdaad92","categoryId":"4bf58dd8d48988d118941735","category":"Dive Bar","checkinsCount":172,"usersCount":67,"tipCount":8,"visitsCount":172,"tier":"","message":"","currency":"","rating":7.1},{"name":"Duffy's Sports Grill","address":"525 E Altamonte Dr","lat":28.664295248346185,"lng":-81.37160827772544,"city_fetched":"Sanford,US","state":"FL","country":"United States","canonicalUrl":"https://foursquare.com/v/duffys-sports-grill/55b50b2c498e74c442ac0f74","categoryId":"4bf58dd8d48988d11d941735","category":"Sports Bar","checkinsCount":421,"usersCount":360,"tipCount":5,"visitsCount":800,"url":"https://duffysmvp.com","tier":"","message":"","currency":"","rating":7.1},{"name":"Graffiti Junktion","phone":"4073354717","address":"145 Wekiva Springs Rd","lat":28.68893720798552,"lng":-81.40500358506817,"city_fetched":"Sanford,US","state":"FL","country":"United States","canonicalUrl":"https://foursquare.com/v/graffiti-junktion/524ed7be498e2baba1c6e938","categoryId":"4bf58dd8d48988d11d941735","category":"Sports Bar","checkinsCount":1067,"usersCount":669,"tipCount":24,"visitsCount":1614,"url":"http://graffitijunktion.com","tier":2,"message":"Moderate","currency":"$","rating":7},{"name":"Meridian Hookah Lounge","phone":"4073668806","twitter":"meridianhookah","address":"3050 Alafaya Trl","lat":28.62508642408595,"lng":-81.20757698985481,"city_fetched":"Sanford,US","state":"FL","country":"United States","canonicalUrl":"https://foursquare.com/v/meridian-hookah-lounge/4c0348ab310fc9b6dac7c561","categoryId":"4bf58dd8d48988d119941735","category":"Hookah Bar","checkinsCount":1297,"usersCount":660,"tipCount":20,"visitsCount":1343,"url":"http://www.meridianhookah.com","tier":"","message":"","currency":"","rating":6.9},{"name":"FoxHead Lounge","phone":"4073212399","address":"280 N State Road 415","lat":28.84932111407437,"lng":-81.16246735900971,"city_fetched":"Sanford,US","state":"FL","country":"United States","canonicalUrl":"https://foursquare.com/v/foxhead-lounge/4c533c5e4623be9a56cac5f0","categoryId":"4bf58dd8d48988d116941735","category":"Bar","checkinsCount":957,"usersCount":256,"tipCount":6,"visitsCount":1135,"tier":"","message":"","currency":"","rating":6.9},{"name":"Green Parrot","phone":"4073321599","address":"280 Florida 436","lat":28.65833883373213,"lng":-81.33521163220772,"city_fetched":"Sanford,US","state":"FL","country":"United States","canonicalUrl":"https://foursquare.com/v/green-parrot/4b63bbc2f964a520cf8e2ae3","categoryId":"4bf58dd8d48988d116941735","category":"Bar","checkinsCount":1321,"usersCount":579,"tipCount":16,"visitsCount":1539,"url":"http://thegreenparrotofcasselberry.com","tier":"","message":"","currency":"","rating":6.8},{"name":"Connolly's Pub","phone":"4077670600","address":"323 N Ronald Reagan Blvd","lat":28.7007480168967,"lng":-81.34618561986237,"city_fetched":"Sanford,US","state":"FL","country":"United States","canonicalUrl":"https://foursquare.com/v/connollys-pub/4d489366ea3f37043d902c0a","categoryId":"4bf58dd8d48988d11b941735","category":"Pub","checkinsCount":821,"usersCount":304,"tipCount":10,"visitsCount":899,"tier":"","message":"","currency":"","rating":6.8},{"name":"Gator's Dockside","phone":"4073302557","address":"4349 W Lake Mary Blvd","lat":28.754863521599457,"lng":-81.35179823545963,"city_fetched":"Sanford,US","state":"FL","country":"United States","canonicalUrl":"https://foursquare.com/v/gators-dockside/4b305ba6f964a52025f924e3","categoryId":"4bf58dd8d48988d11d941735","category":"Sports Bar","checkinsCount":4659,"usersCount":1651,"tipCount":53,"visitsCount":5233,"url":"http://gatorsdockside.com","tier":2,"message":"Moderate","currency":"$","rating":6.7},{"name":"Shotski's food & drink","phone":"3217654956","address":"350 E State Road 434","lat":28.700110958294967,"lng":-81.30182879873362,"city_fetched":"Sanford,US","state":"FL","country":"United States","canonicalUrl":"https://foursquare.com/v/shotskis-food--drink/4d4c4599f5d8a090acb63b2f","categoryId":"4bf58dd8d48988d11b941735","category":"Pub","checkinsCount":316,"usersCount":115,"tipCount":5,"visitsCount":316,"tier":"","message":"","currency":"","rating":6.7},{"name":"Flanagan's Sports Pub","phone":"4073395525","address":"995 W State Road 434","lat":28.698909909843035,"lng":-81.36181398454808,"city_fetched":"Sanford,US","state":"FL","country":"United States","canonicalUrl":"https://foursquare.com/v/flanagans-sports-pub/4bd64ec129eb9c74a70295e1","categoryId":"4bf58dd8d48988d11d941735","category":"Sports Bar","checkinsCount":1438,"usersCount":254,"tipCount":4,"visitsCount":1476,"tier":"","message":"","currency":"","rating":6.6},{"name":"Rachel's","phone":"4077672977","address":"401 State Road 436","lat":28.656166638510165,"lng":-81.33504510338618,"city_fetched":"Sanford,US","state":"FL","country":"United States","canonicalUrl":"https://foursquare.com/v/rachels/4c80345851ada1cd3fc10710","categoryId":"4bf58dd8d48988d1d6941735","category":"Strip Club","checkinsCount":2063,"usersCount":761,"tipCount":15,"visitsCount":2118,"url":"http://www.rachels.com","tier":"","message":"","currency":"","rating":6.3},{"name":"Kerryman","phone":"4073315024","address":"988 W State Road 434","lat":28.697635275711487,"lng":-81.36218988521648,"city_fetched":"Sanford,US","state":"FL","country":"United States","canonicalUrl":"https://foursquare.com/v/kerryman/4ba10151f964a520278e37e3","categoryId":"4bf58dd8d48988d11b941735","category":"Pub","checkinsCount":900,"usersCount":259,"tipCount":10,"visitsCount":918,"tier":"","message":"","currency":"","rating":6.1},{"name":"La Sirena Gorda","phone":"4073913955","address":"118 S Palmetto Ave","lat":28.811139110207556,"lng":-81.26618938443832,"city_fetched":"Sanford,US","state":"FL","country":"United States","canonicalUrl":"https://foursquare.com/v/la-sirena-gorda/4f776fd7e4b06ff8363a9ba0","categoryId":"4bf58dd8d48988d11e941735","category":"Cocktail Bar","checkinsCount":549,"usersCount":214,"tipCount":10,"visitsCount":569,"tier":2,"message":"Moderate","currency":"$","rating":6.1},{"name":"Finnegan's Irish Pub","phone":"4073338031","address":"120 International Pkwy #188","lat":28.7581292224036,"lng":-81.36863897840408,"city_fetched":"Sanford,US","state":"FL","country":"United States","canonicalUrl":"https://foursquare.com/v/finnegans-irish-pub/4c94146282b56dcb5ffacbaa","categoryId":"4bf58dd8d48988d11b941735","category":"Pub","checkinsCount":681,"usersCount":303,"tipCount":10,"visitsCount":696,"tier":"","message":"","currency":"","rating":6},{"name":"Flanagan's Sports Pub Winter Springs","address":"5665 Red Bug Rd.","lat":28.646151333625216,"lng":-81.26942610324498,"city_fetched":"Sanford,US","state":"FL","country":"United States","canonicalUrl":"https://foursquare.com/v/flanagans-sports-pub-winter-springs/5237b47011d294de6cc21e4a","categoryId":"4bf58dd8d48988d11d941735","category":"Sports Bar","checkinsCount":333,"usersCount":151,"tipCount":6,"visitsCount":381,"tier":1,"message":"Cheap","currency":"$","rating":5.8},{"name":"Mickey Finns","phone":"3867741151","address":"816 Saxon Blvd","lat":28.9101729238382,"lng":-81.2955191920209,"city_fetched":"Sanford,US","state":"FL","country":"United States","canonicalUrl":"https://foursquare.com/v/mickey-finns/4bb696d42ea19521e5f4ab2f","categoryId":"4bf58dd8d48988d11d941735","category":"Sports Bar","checkinsCount":767,"usersCount":303,"tipCount":10,"visitsCount":774,"tier":2,"message":"Moderate","currency":"$","rating":5.7},{"name":"Suspenders Saloon","phone":"4073313010","address":"1033 State Road 436","lat":28.64355381925328,"lng":-81.3224738178128,"city_fetched":"Sanford,US","state":"FL","country":"United States","canonicalUrl":"https://foursquare.com/v/suspenders-saloon/4b5e5386f964a520bc8929e3","categoryId":"4bf58dd8d48988d11d941735","category":"Sports Bar","checkinsCount":564,"usersCount":230,"tipCount":5,"visitsCount":658,"tier":"","message":"","currency":"","rating":5.5},{"name":"Deltona/Deland","lat":28.952502786684477,"lng":-81.25841962902369,"city_fetched":"Sanford,US","state":"FL","country":"United States","canonicalUrl":"https://foursquare.com/v/deltonadeland/4e2363f6c65b2b5e355b0806","categoryId":"4bf58dd8d48988d118941735","category":"Dive Bar","checkinsCount":1251,"usersCount":893,"tipCount":1,"visitsCount":1504,"tier":"","message":"","currency":"","rating":5.5},{"name":"Budweiser Taproom","lat":28.775520858038902,"lng":-81.24310903768425,"city_fetched":"Sanford,US","state":"FL","country":"United States","canonicalUrl":"https://foursquare.com/v/budweiser-taproom/518ec270498efad5429b112a","categoryId":"4bf58dd8d48988d116941735","category":"Bar","checkinsCount":58,"usersCount":58,"tipCount":5,"visitsCount":58,"tier":"","message":"","currency":"","rating":5.2}]