[{"name":"Figueroa Mountain Brewing Taproom","address":"560 E Betteravia Rd","lat":34.92217640595519,"lng":-120.42654422770791,"city_fetched":"Santa Maria","state":"CA","country":"United States","canonicalUrl":"https://foursquare.com/v/figueroa-mountain-brewing-taproom/54659309498efbfc1ca9a633","category":"Brewery","checkinsCount":74,"usersCount":57,"tipCount":3,"visitsCount":87,"tier":"","message":"","currency":"","rating":8.3},{"name":"Cool Hand Luke's","phone":"8059286196","address":"1321 Nicholson Ave","lat":34.937844308522976,"lng":-120.41707431785929,"city_fetched":"Santa Maria","state":"CA","country":"United States","canonicalUrl":"https://foursquare.com/v/cool-hand-lukes/4cc626a782388cfa6c427a35","category":"Sports Bar","checkinsCount":602,"usersCount":502,"tipCount":8,"visitsCount":763,"url":"http://www.coolhandlukes.com","tier":"","message":"","currency":"","rating":7.8},{"name":"Santa Maria Elks Lodge","phone":"8059251538","address":"1309 N Bradley Rd","lat":34.9640682099688,"lng":-120.42232421111679,"city_fetched":"Santa Maria","state":"CA","country":"United States","canonicalUrl":"https://foursquare.com/v/santa-maria-elks-lodge/4bad7da1f964a52003563be3","category":"Bar","checkinsCount":229,"usersCount":204,"tipCount":3,"visitsCount":402,"url":"http://santamariaelks.com","tier":"","message":"","currency":"","rating":6.9},{"name":"Stinkys","address":"2430 S Broadway","lat":34.915581,"lng":-120.43555676937103,"city_fetched":"Santa Maria","state":"CA","country":"United States","canonicalUrl":"https://foursquare.com/v/stinkys/4b2e698ff964a520b7df24e3","category":"Sports Bar","checkinsCount":296,"usersCount":170,"tipCount":8,"visitsCount":296,"tier":"","message":"","currency":"","rating":6.2}]