[{"name":"Santa Fe Brewing Company","phone":"5054243333","twitter":"santafebrew","address":"35 Fire Place","lat":35.59650036615572,"lng":-106.05187414441887,"city_fetched":"Santa Fe,US","state":"NM","country":"United States","canonicalUrl":"https://foursquare.com/v/santa-fe-brewing-company/4b53e477f964a5201bae27e3","categoryId":"50327c8591d4c4b30a586d5d","category":"Brewery","checkinsCount":1280,"usersCount":910,"tipCount":16,"visitsCount":1637,"url":"http://santafebrewing.com","tier":1,"message":"Cheap","currency":"$","rating":8.8},{"name":"Duel Brewery","phone":"5054745301","address":"1228 Parkway Dr Ste D","lat":35.65523892113252,"lng":-105.9984165430069,"city_fetched":"Santa Fe,US","state":"NM","country":"United States","canonicalUrl":"https://foursquare.com/v/duel-brewery/51e9e4bf498ee5390fb23725","categoryId":"50327c8591d4c4b30a586d5d","category":"Brewery","checkinsCount":252,"usersCount":272,"tipCount":14,"visitsCount":460,"url":"http://duelbrewing.com","tier":"","message":"","currency":"","rating":8.6},{"name":"Del Charro","phone":"5059540320","twitter":"delcharrosf","address":"101 W. Alameda St","lat":35.68526977481621,"lng":-105.94038047042446,"neighborhood":"Downtown Santa Fe","city_fetched":"Santa Fe,US","state":"NM","country":"United States","canonicalUrl":"https://foursquare.com/v/del-charro/4bdb5d143904a59354074a9e","categoryId":"4bf58dd8d48988d116941735","category":"Bar","checkinsCount":2600,"usersCount":1667,"tipCount":54,"visitsCount":3378,"url":"http://www.delcharro.com","tier":2,"message":"Moderate","currency":"$","rating":8.4},{"name":"Secreto at Hotel St. Francis","phone":"5059835700","address":"210 Don Gaspar Ave","lat":35.68634406794087,"lng":-105.939836,"neighborhood":"Downtown Santa Fe","city_fetched":"Santa Fe,US","state":"NM","country":"United States","canonicalUrl":"https://foursquare.com/v/secreto-at-hotel-st-francis/4bc8f6350687ef3b880bd9cc","categoryId":"4bf58dd8d48988d11e941735","category":"Cocktail Bar","checkinsCount":1410,"usersCount":704,"tipCount":35,"visitsCount":1438,"url":"http://www.hotelstfrancis.com/dining-nightlife","tier":"","message":"","currency":"","rating":8.4},{"name":"Canyon Road","phone":"5059889511","address":"Canyon Road","lat":35.68050006986171,"lng":-105.92505798728706,"city_fetched":"Santa Fe,US","state":"NM","country":"United States","canonicalUrl":"https://foursquare.com/v/canyon-road/4f0b2b81e4b000dd783106ef","categoryId":"4bf58dd8d48988d11e941735","category":"Cocktail Bar","checkinsCount":408,"usersCount":221,"tipCount":0,"visitsCount":432,"url":"http://www.canyonroadfineart.com","tier":"","message":"","currency":"","rating":8.2},{"name":"Staab House Bar at La Posada","phone":"5059860000","address":"330 E Palace Ave","lat":35.6859187897682,"lng":-105.93257852683215,"city_fetched":"Santa Fe,US","state":"NM","country":"United States","canonicalUrl":"https://foursquare.com/v/staab-house-bar-at-la-posada/4b95aefbf964a52057af34e3","categoryId":"4bf58dd8d48988d1d5941735","category":"Hotel Bar","checkinsCount":374,"usersCount":162,"tipCount":4,"visitsCount":374,"url":"http://laposada.rockresorts.com/info/din.other.asp","tier":"","message":"","currency":"","rating":8.1},{"name":"Blue Corn Cafe And Brewery","phone":"5059841800","address":"133 E Water St","lat":35.6867788123745,"lng":-105.94048373359836,"neighborhood":"Downtown Santa Fe","city_fetched":"Santa Fe,US","state":"NM","country":"United States","canonicalUrl":"https://foursquare.com/v/blue-corn-cafe-and-brewery/4caf6301eb65b1f7305363cd","categoryId":"50327c8591d4c4b30a586d5d","category":"Brewery","checkinsCount":1749,"usersCount":1634,"tipCount":49,"visitsCount":1948,"url":"http://www.bluecorncafe.com","tier":2,"message":"Moderate","currency":"$","rating":7.9},{"name":"Blue Corn Cafe (southside)","phone":"5054381800","address":"4056 Cerrillos Rd","lat":35.63870341330743,"lng":-106.01558237124587,"city_fetched":"Santa Fe,US","state":"NM","country":"United States","canonicalUrl":"https://foursquare.com/v/blue-corn-cafe-southside/4bc0ffa0461576b02a3a7b32","categoryId":"50327c8591d4c4b30a586d5d","category":"Brewery","checkinsCount":1712,"usersCount":1167,"tipCount":24,"visitsCount":2107,"url":"http://bluecorncafe.com","tier":2,"message":"Moderate","currency":"$","rating":7.9},{"name":"Second Street Brewery on the Railyard","phone":"5059893278","address":"1607 Paseo de Peralta Ste 10","lat":35.6825274173857,"lng":-105.94884823754286,"neighborhood":"Historic Guadalupe","city_fetched":"Santa Fe,US","state":"NM","country":"United States","canonicalUrl":"https://foursquare.com/v/second-street-brewery-on-the-railyard/4bd3ab45462cb7137314df07","categoryId":"50327c8591d4c4b30a586d5d","category":"Brewery","checkinsCount":2210,"usersCount":1169,"tipCount":27,"visitsCount":2431,"url":"http://secondstreetbrewery.com","tier":"","message":"","currency":"","rating":7.7},{"name":"Draft Station","phone":"5059836443","address":"60 E San Francisco St","lat":35.68726067072623,"lng":-105.93903231748625,"neighborhood":"Downtown Santa Fe","city_fetched":"Santa Fe,US","state":"NM","country":"United States","canonicalUrl":"https://foursquare.com/v/draft-station/52f4611511d2ae3e9acdefe7","categoryId":"4bf58dd8d48988d11b941735","category":"Pub","checkinsCount":761,"usersCount":538,"tipCount":8,"visitsCount":806,"url":"http://draft-station.com","tier":"","message":"","currency":"","rating":7.6},{"name":"Santa Fe Spirits Tasting Room","address":"308 Read St","lat":35.683254684336106,"lng":-105.94503884292985,"neighborhood":"Downtown Santa Fe","city_fetched":"Santa Fe,US","state":"NM","country":"United States","canonicalUrl":"https://foursquare.com/v/santa-fe-spirits-tasting-room/526317e411d2e4e8b813f172","categoryId":"4bf58dd8d48988d11e941735","category":"Cocktail Bar","checkinsCount":85,"usersCount":99,"tipCount":1,"visitsCount":162,"tier":"","message":"","currency":"","rating":7.6},{"name":"AGAVE Lounge","phone":"5059954530","twitter":"agaveloungenm","address":"309 W San Francisco St","lat":35.6881941034748,"lng":-105.9424514815009,"neighborhood":"Downtown Santa Fe","city_fetched":"Santa Fe,US","state":"NM","country":"United States","canonicalUrl":"https://foursquare.com/agaveloungenm","categoryId":"4bf58dd8d48988d121941735","category":"Lounge","checkinsCount":801,"usersCount":432,"tipCount":11,"visitsCount":813,"url":"http://www.eldoradohotel.com/dining-nightlife","tier":"","message":"","currency":"","rating":7.5},{"name":"Second Street Brewery","phone":"5059823030","address":"1814 2nd St","lat":35.661946,"lng":-105.965309,"city_fetched":"Santa Fe,US","state":"NM","country":"United States","canonicalUrl":"https://foursquare.com/v/second-street-brewery/4b020b2af964a520664722e3","categoryId":"50327c8591d4c4b30a586d5d","category":"Brewery","checkinsCount":1032,"usersCount":741,"tipCount":21,"visitsCount":1434,"url":"http://www.secondstreetbrewery.com","tier":2,"message":"Moderate","currency":"$","rating":7.4},{"name":"Lobby Bar at Loretto","phone":"5059885531","address":"211 Old Santa Fe Trl","lat":35.685219168663025,"lng":-105.937229,"neighborhood":"Downtown Santa Fe","city_fetched":"Santa Fe,US","state":"NM","country":"United States","canonicalUrl":"https://foursquare.com/v/lobby-bar-at-loretto/4c4e17d7d667d13a2b9eda9f","categoryId":"4bf58dd8d48988d11e941735","category":"Cocktail Bar","checkinsCount":184,"usersCount":120,"tipCount":0,"visitsCount":193,"tier":"","message":"","currency":"","rating":7.4},{"name":"The Matador","address":"San Francisco St & Galisteo St","lat":35.68724670079808,"lng":-105.94067304956337,"neighborhood":"Downtown Santa Fe","city_fetched":"Santa Fe,US","state":"NM","country":"United States","canonicalUrl":"https://foursquare.com/v/the-matador/4b47f578f964a520244526e3","categoryId":"4bf58dd8d48988d118941735","category":"Dive Bar","checkinsCount":1076,"usersCount":585,"tipCount":18,"visitsCount":1176,"tier":1,"message":"Cheap","currency":"$","rating":7.3},{"name":"Evangelo's","phone":"5059829014","address":"200 W San Francisco St","lat":35.68741,"lng":-105.940645,"neighborhood":"Downtown Santa Fe","city_fetched":"Santa Fe,US","state":"NM","country":"United States","canonicalUrl":"https://foursquare.com/v/evangelos/4b47fb50f964a520ac4526e3","categoryId":"4bf58dd8d48988d116941735","category":"Bar","checkinsCount":366,"usersCount":240,"tipCount":6,"visitsCount":367,"tier":"","message":"","currency":"","rating":6.9},{"name":"El Paseo Bar and Grill","phone":"5059922848","address":"208 Galisteo St","lat":35.686448855667535,"lng":-105.94116068246575,"neighborhood":"Downtown Santa Fe","city_fetched":"Santa Fe,US","state":"NM","country":"United States","canonicalUrl":"https://foursquare.com/v/el-paseo-bar-and-grill/4bd2296941b9ef3bfb7ffde5","categoryId":"4bf58dd8d48988d116941735","category":"Bar","checkinsCount":1176,"usersCount":355,"tipCount":9,"visitsCount":1197,"url":"http://elpaseobar.com","tier":"","message":"","currency":"","rating":6.9},{"name":"Santa Fe Brewing Co. Taphouse","lat":35.53632232873261,"lng":-105.89017830781576,"city_fetched":"Santa Fe,US","state":"NM","country":"United States","canonicalUrl":"https://foursquare.com/v/santa-fe-brewing-co-taphouse/4d112ac199b78cfa1ccbc7d5","categoryId":"50327c8591d4c4b30a586d5d","category":"Brewery","checkinsCount":246,"usersCount":104,"tipCount":8,"visitsCount":293,"tier":"","message":"","currency":"","rating":6.9},{"name":"Boxcar Bar & Grill","address":"530 S Guadalupe St","lat":35.683042856845,"lng":-105.94773524385567,"neighborhood":"Historic Guadalupe","city_fetched":"Santa Fe,US","state":"NM","country":"United States","canonicalUrl":"https://foursquare.com/v/boxcar-bar--grill/4e22668f18a88345f057012a","categoryId":"4bf58dd8d48988d11d941735","category":"Sports Bar","checkinsCount":1024,"usersCount":599,"tipCount":14,"visitsCount":1439,"tier":"","message":"","currency":"","rating":6.8},{"name":"Low 'n Slow Lowrider Bar at Hotel Chimayo","phone":"5059984900","address":"125 Washington Ave","lat":35.68837107,"lng":-105.93728445,"neighborhood":"Downtown Santa Fe","city_fetched":"Santa Fe,US","state":"NM","country":"United States","canonicalUrl":"https://foursquare.com/v/low-n-slow-lowrider-bar-at-hotel-chimayo/4e4f19fee4cdc76dc9ad29fb","categoryId":"4bf58dd8d48988d11e941735","category":"Cocktail Bar","checkinsCount":285,"usersCount":188,"tipCount":12,"visitsCount":291,"url":"http://www.hotelchimayo.com/santa-fe-dining.aspx","tier":"","message":"","currency":"","rating":6.7},{"name":"The Palace Bar","lat":35.688205,"lng":-105.940298,"neighborhood":"Downtown Santa Fe","city_fetched":"Santa Fe,US","state":"NM","country":"United States","canonicalUrl":"https://foursquare.com/v/the-palace-bar/4ea1fd49775b5c3e82f5682c","categoryId":"4bf58dd8d48988d116941735","category":"Bar","checkinsCount":399,"usersCount":184,"tipCount":4,"visitsCount":414,"tier":"","message":"","currency":"","rating":6.3},{"name":"Loyal Hound","phone":"5054710440","address":"730 Saint Michaels Dr","lat":35.658715,"lng":-105.961517,"city_fetched":"Santa Fe,US","state":"NM","country":"United States","canonicalUrl":"https://foursquare.com/v/loyal-hound/53a3885b498ebd730daeaca1","categoryId":"4bf58dd8d48988d11b941735","category":"Pub","checkinsCount":53,"usersCount":50,"tipCount":1,"visitsCount":68,"url":"http://www.loyalhoundpub.com","tier":"","message":"","currency":"","rating":6.3}]