[{"name":"Russian River Brewing Company","phone":"7075452337","address":"725 4th St","lat":38.44165705021316,"lng":-122.71166324615479,"city_fetched":"Santa Rosa","state":"CA","country":"United States","canonicalUrl":"https://foursquare.com/v/russian-river-brewing-company/49fcf634f964a520f06e1fe3","category":"Brewery","checkinsCount":24811,"usersCount":16250,"tipCount":278,"visitsCount":29437,"url":"http://russianriverbrewing.com","tier":2,"message":"Moderate","currency":"$","rating":9.3},{"name":"Willi's Wine Bar","phone":"7075263096","address":"4404 Old Redwood Hwy","lat":38.492523735647644,"lng":-122.7422309404788,"city_fetched":"Santa Rosa","state":"CA","country":"United States","canonicalUrl":"https://foursquare.com/v/willis-wine-bar/4a874ec0f964a520c30320e3","category":"Wine Bar","checkinsCount":1647,"usersCount":1556,"tipCount":57,"visitsCount":2178,"url":"http://www.williswinebar.net","tier":3,"message":"Expensive","currency":"$","rating":9.2},{"name":"Peter Lowell's","phone":"7078291077","twitter":"peterlowells","address":"7385 Healdsburg Ave Ste 101","lat":38.405062816666664,"lng":-122.8304466,"city_fetched":"Santa Rosa","state":"CA","country":"United States","canonicalUrl":"https://foursquare.com/v/peter-lowells/4a8cadb5f964a520da0e20e3","category":"Wine Bar","checkinsCount":743,"usersCount":520,"tipCount":12,"visitsCount":1032,"url":"http://www.peterlowells.com","tier":"","message":"","currency":"","rating":9},{"name":"Stark's","phone":"7075465100","address":"521 Adams St","lat":38.438985816666666,"lng":-122.723096,"neighborhood":"West End","city_fetched":"Santa Rosa","state":"CA","country":"United States","canonicalUrl":"https://foursquare.com/v/starks/4a8727b4f964a520e90220e3","category":"Steakhouse","checkinsCount":1868,"usersCount":1478,"tipCount":34,"visitsCount":2536,"url":"http://www.starkssteakhouse.com","tier":3,"message":"Expensive","currency":"$","rating":8.7},{"name":"Bottle Barn","phone":"7075281161","twitter":"barninsider","address":"3331 Industrial Dr Ste A","lat":38.47616610253965,"lng":-122.7405603806527,"city_fetched":"Santa Rosa","state":"CA","country":"United States","canonicalUrl":"https://foursquare.com/v/bottle-barn/4a872835f964a520ee0220e3","category":"Wine Shop","checkinsCount":1195,"usersCount":908,"tipCount":10,"visitsCount":1961,"url":"http://bottlebarn.com","tier":"","message":"","currency":"","rating":8.5},{"name":"Matanzas Creek Winery","phone":"7075286464","address":"6097 Bennett Valley Rd","lat":38.40250358552047,"lng":-122.62784209171704,"city_fetched":"Santa Rosa","state":"CA","country":"United States","canonicalUrl":"https://foursquare.com/v/matanzas-creek-winery/4a874eacf964a520c00320e3","category":"Winery","checkinsCount":1351,"usersCount":1539,"tipCount":18,"visitsCount":1768,"url":"http://matanzascreek.com","tier":"","message":"","currency":"","rating":8.5},{"name":"Fogbelt Brewing Company","phone":"7079783400","twitter":"fogbeltbrewing","address":"1305 Cleveland Ave","lat":38.44903364677352,"lng":-122.72697434973,"city_fetched":"Santa Rosa","state":"CA","country":"United States","canonicalUrl":"https://foursquare.com/v/fogbelt-brewing-company/522a289111d2e01bdd5f0927","category":"Brewery","checkinsCount":533,"usersCount":559,"tipCount":16,"visitsCount":976,"url":"http://www.fogbeltbrewing.com","tier":1,"message":"Cheap","currency":"$","rating":8.4},{"name":"HopMonk Tavern","phone":"7078297300","twitter":"hopmonkseb","address":"230 Petaluma Ave","lat":38.40114686776746,"lng":-122.82280974098701,"city_fetched":"Santa Rosa","state":"CA","country":"United States","canonicalUrl":"https://foursquare.com/v/hopmonk-tavern/4a6a62e5f964a52052cd1fe3","category":"Bar","checkinsCount":3287,"usersCount":2309,"tipCount":34,"visitsCount":3940,"url":"http://www.hopmonk.com","tier":"","message":"","currency":"","rating":8.3},{"name":"Rosso Pizzeria and Wine Bar","phone":"7075443221","twitter":"rossofamily","address":"53 Montgomery Dr","lat":38.44197427300326,"lng":-122.70359247922897,"neighborhood":"Memorial Hospital Neighborhood","city_fetched":"Santa Rosa","state":"CA","country":"United States","canonicalUrl":"https://foursquare.com/v/rosso-pizzeria-and-wine-bar/4a874f17f964a520c80320e3","category":"Pizza Place","checkinsCount":1436,"usersCount":894,"tipCount":33,"visitsCount":1519,"url":"http://rossopizzeria.com","tier":2,"message":"Moderate","currency":"$","rating":8.3},{"name":"Cooperage Brewing Company","phone":"7072939787","address":"981 Airway Ct Ste G","lat":38.47522520511955,"lng":-122.73580216747999,"city_fetched":"Santa Rosa","state":"CA","country":"United States","canonicalUrl":"https://foursquare.com/v/cooperage-brewing-company/558df2d6498e701fe5de046c","category":"Brewery","checkinsCount":565,"usersCount":319,"tipCount":3,"visitsCount":912,"tier":"","message":"","currency":"","rating":8.2},{"name":"Jack and Tony's Restaurant & Whisky Bar","phone":"7075264347","twitter":"jackandtonys3","address":"115 4th St","lat":38.43766958790565,"lng":-122.72023022174835,"neighborhood":"Historic Railroad Square","city_fetched":"Santa Rosa","state":"CA","country":"United States","canonicalUrl":"https://foursquare.com/jackandtonys3","category":"Whisky Bar","checkinsCount":1514,"usersCount":831,"tipCount":28,"visitsCount":1562,"url":"http://www.jackandtonys.com","tier":3,"message":"Expensive","currency":"$","rating":8.2},{"name":"Rincon Valley Tap Room and Bottle Shop","phone":"7075955516","twitter":"rvcraftbeer","address":"4927 Sonoma Hwy","lat":38.464510328686636,"lng":-122.66486406326294,"city_fetched":"Santa Rosa","state":"CA","country":"United States","canonicalUrl":"https://foursquare.com/v/rincon-valley-tap-room-and-bottle-shop/51d1aa688bbd51c5fe5f103e","category":"Bar","checkinsCount":123,"usersCount":135,"tipCount":3,"visitsCount":299,"url":"http://www.rvwineandbeer.com","tier":"","message":"","currency":"","rating":8.2},{"name":"Tap Room","phone":"7075427411","twitter":"wholefoods","address":"Whole Foods Market","lat":38.45804433744717,"lng":-122.73157307091455,"city_fetched":"Santa Rosa","state":"CA","country":"United States","canonicalUrl":"https://foursquare.com/v/tap-room/4c9e522e54c8a1cdc4a08c4b","category":"Restaurant","checkinsCount":1243,"usersCount":460,"tipCount":11,"visitsCount":1643,"url":"http://www.wholefoodsmarket.com","tier":"","message":"","currency":"","rating":8.1},{"name":"Jackson's Bar and Oven","phone":"7075456900","address":"135 4th St","lat":38.43800993838619,"lng":-122.71959185600281,"neighborhood":"Historic Railroad Square","city_fetched":"Santa Rosa","state":"CA","country":"United States","canonicalUrl":"https://foursquare.com/v/jacksons-bar-and-oven/4b1d77bcf964a520f21024e3","category":"Pizza Place","checkinsCount":2308,"usersCount":1368,"tipCount":45,"visitsCount":2617,"url":"http://jacksonsbarandoven.com","tier":2,"message":"Moderate","currency":"$","rating":8.1},{"name":"Third Street Aleworks","phone":"7075233060","twitter":"3rstaleworks","address":"610 3rd St","lat":38.43998564160893,"lng":-122.7126419940657,"city_fetched":"Santa Rosa","state":"CA","country":"United States","canonicalUrl":"https://foursquare.com/v/third-street-aleworks/44721f17f964a5209f331fe3","category":"Brewery","checkinsCount":8421,"usersCount":2918,"tipCount":59,"visitsCount":9405,"url":"http://thirdstreetaleworks.com","tier":2,"message":"Moderate","currency":"$","rating":8.1},{"name":"Ausiello's 5th Street Grill","phone":"7075799408","address":"609 5th St","lat":38.44142496585846,"lng":-122.71427676666667,"city_fetched":"Santa Rosa","state":"CA","country":"United States","canonicalUrl":"https://foursquare.com/v/ausiellos-5th-street-grill/4a87500bf964a520d10320e3","category":"Sports Bar","checkinsCount":1158,"usersCount":515,"tipCount":18,"visitsCount":1203,"tier":"","message":"","currency":"","rating":8},{"name":"Baletto Vineyards","address":"5700 Occidental Rd","lat":38.419822692871094,"lng":-122.81390380859375,"city_fetched":"Santa Rosa","state":"CA","country":"United States","canonicalUrl":"https://foursquare.com/v/baletto-vineyards/5060bb05e4b06bd05427c282","category":"Wine Bar","checkinsCount":118,"usersCount":123,"tipCount":3,"visitsCount":134,"tier":"","message":"","currency":"","rating":8},{"name":"La Rosa Tequileria & Grille","phone":"7075233663","twitter":"larosagrille","address":"500 4th St","lat":38.44009432159955,"lng":-122.7145391200733,"city_fetched":"Santa Rosa","state":"CA","country":"United States","canonicalUrl":"https://foursquare.com/v/la-rosa-tequileria--grille/4d9fb168090da0932e15dda8","category":"Mexican Restaurant","checkinsCount":2846,"usersCount":1465,"tipCount":48,"visitsCount":3103,"url":"http://larosasantarosa.com","tier":2,"message":"Moderate","currency":"$","rating":7.8},{"name":"Sprenger's Tap Room","phone":"7075448277","twitter":"sprengerstaprm","address":"446 B St","lat":38.44163287319746,"lng":-122.71699319884252,"city_fetched":"Santa Rosa","state":"CA","country":"United States","canonicalUrl":"https://foursquare.com/sprengerstaprm","category":"Beer Garden","checkinsCount":1447,"usersCount":640,"tipCount":12,"visitsCount":1885,"url":"http://www.sprengerstaproom.com","tier":2,"message":"Moderate","currency":"$","rating":7.8},{"name":"Wind Gap Wines","phone":"7073311393","twitter":"windgapwines","address":"6780 McKinley Ave","lat":38.4038640177279,"lng":-122.82149308619249,"neighborhood":"The Barlow","city_fetched":"Santa Rosa","state":"CA","country":"United States","canonicalUrl":"https://foursquare.com/v/wind-gap-wines/4bb7ce5ab35776b05e36c801","category":"Winery","checkinsCount":167,"usersCount":133,"tipCount":4,"visitsCount":167,"url":"http://www.windgapwines.com","tier":"","message":"","currency":"","rating":7.8},{"name":"Belly â€“ Left Coast Kitchen & Taproom","phone":"7075265787","twitter":"belly_707","address":"523 4th St","lat":38.440182291954386,"lng":-122.71484243637236,"city_fetched":"Santa Rosa","state":"CA","country":"United States","canonicalUrl":"https://foursquare.com/v/belly--left-coast-kitchen--taproom/5143ea3ee4b0acadf32235be","category":"American Restaurant","checkinsCount":729,"usersCount":448,"tipCount":12,"visitsCount":773,"url":"http://www.belly707.com","tier":2,"message":"Moderate","currency":"$","rating":7.8},{"name":"Hook & Ladder Winery","phone":"7075262255","address":"2134 Olivet Rd","lat":38.4728322521449,"lng":-122.81352668386515,"city_fetched":"Santa Rosa","state":"CA","country":"United States","canonicalUrl":"https://foursquare.com/v/hook--ladder-winery/4a874cc9f964a520b60320e3","category":"Winery","checkinsCount":958,"usersCount":903,"tipCount":9,"visitsCount":1103,"url":"http://www.hookandladderwinery.com","tier":"","message":"","currency":"","rating":7.8},{"name":"Toad In The Hole","phone":"7075448623","address":"116 5th St","lat":38.438530965643004,"lng":-122.7204179763794,"neighborhood":"Historic Railroad Square","city_fetched":"Santa Rosa","state":"CA","country":"United States","canonicalUrl":"https://foursquare.com/v/toad-in-the-hole/4a874ff6f964a520ce0320e3","category":"Pub","checkinsCount":1829,"usersCount":774,"tipCount":25,"visitsCount":2030,"url":"http://www.thetoadpub.com","tier":"","message":"","currency":"","rating":7.8},{"name":"Woodfour Brewing Company","phone":"7078233144","twitter":"woodfourbrewing","address":"6780 Depot St","lat":38.40371297149191,"lng":-122.8212782329472,"city_fetched":"Santa Rosa","state":"CA","country":"United States","canonicalUrl":"https://foursquare.com/v/woodfour-brewing-company/5170412de4b01048f58fb41e","category":"Brewery","checkinsCount":803,"usersCount":694,"tipCount":15,"visitsCount":863,"url":"http://www.woodfourbrewing.com","tier":1,"message":"Cheap","currency":"$","rating":7.7},{"name":"JoJo Restaurant & Sushi Bar","phone":"7075698588","address":"645 4th St","lat":38.441164,"lng":-122.712404,"city_fetched":"Santa Rosa","state":"CA","country":"United States","canonicalUrl":"https://foursquare.com/v/jojo-restaurant--sushi-bar/4ab2842af964a520716b20e3","category":"Sushi Restaurant","checkinsCount":373,"usersCount":251,"tipCount":7,"visitsCount":374,"url":"http://www.jojosushibar.com","tier":"","message":"","currency":"","rating":7.7},{"name":"Sweet Spot Pub","phone":"7075287566","address":"619 4th St","lat":38.4409099817276,"lng":-122.71341193333333,"city_fetched":"Santa Rosa","state":"CA","country":"United States","canonicalUrl":"https://foursquare.com/v/sweet-spot-pub/4a875001f964a520d00320e3","category":"Bar","checkinsCount":1058,"usersCount":468,"tipCount":9,"visitsCount":1062,"url":"http://sweetspotpub.com","tier":1,"message":"Cheap","currency":"$","rating":7.6},{"name":"Flamingo Conference Resort & Spa","phone":"8008488300","address":"2777 4th St","lat":38.451300094449145,"lng":-122.68863810436363,"city_fetched":"Santa Rosa","state":"CA","country":"United States","canonicalUrl":"https://foursquare.com/v/flamingo-conference-resort--spa/4bc3337ddce4eee1cc7c719d","category":"Resort","checkinsCount":1962,"usersCount":1370,"tipCount":12,"visitsCount":2538,"tier":"","message":"","currency":"","rating":7.4},{"name":"Cellars Of Sonoma","phone":"7075781826","address":"133 4th St","lat":38.438011,"lng":-122.719599,"neighborhood":"Historic Railroad Square","city_fetched":"Santa Rosa","state":"CA","country":"United States","canonicalUrl":"https://foursquare.com/v/cellars-of-sonoma/4a874f26f964a520c90320e3","category":"Wine Bar","checkinsCount":1507,"usersCount":465,"tipCount":20,"visitsCount":1514,"url":"http://www.cellarsofsonoma.com","tier":"","message":"","currency":"","rating":7.3},{"name":"El Charro","phone":"7075702387","address":"1529 Farmers Ln","lat":38.43491914,"lng":-122.68965303897858,"city_fetched":"Santa Rosa","state":"CA","country":"United States","canonicalUrl":"https://foursquare.com/v/el-charro/4b6e3ad8f964a5200cb32ce3","category":"Mexican Restaurant","checkinsCount":296,"usersCount":119,"tipCount":7,"visitsCount":303,"tier":2,"message":"Moderate","currency":"$","rating":7.3},{"name":"Gary's at the Belvedere","phone":"7075421890","address":"727 Mendocino Ave","lat":38.44646233092404,"lng":-122.7180520191168,"neighborhood":"West Junior College","city_fetched":"Santa Rosa","state":"CA","country":"United States","canonicalUrl":"https://foursquare.com/v/garys-at-the-belvedere/4a8751aaf964a520db0320e3","category":"Pub","checkinsCount":3737,"usersCount":817,"tipCount":18,"visitsCount":4259,"tier":"","message":"","currency":"","rating":7.2},{"name":"Equus Restaurant & Loungebar","phone":"7075780149","twitter":"equusloungebar","address":"101 Fountaingrove Pkwy","lat":38.475077234022535,"lng":-122.72863961802952,"city_fetched":"Santa Rosa","state":"CA","country":"United States","canonicalUrl":"https://foursquare.com/equusloungebar","category":"Lounge","checkinsCount":896,"usersCount":573,"tipCount":11,"visitsCount":947,"url":"http://www.fountaingroveinn.com/equus.html","tier":"","message":"","currency":"","rating":7.1},{"name":"BJ's Restaurant and Brewhouse","phone":"7073031980","twitter":"bjsrestaurants","address":"334 Coddingtown Ctr","lat":38.45845411,"lng":-122.7298913,"city_fetched":"Santa Rosa","state":"CA","country":"United States","canonicalUrl":"https://foursquare.com/v/bjs-restaurant-and-brewhouse/4fa6f293e4b0f902088a792a","category":"American Restaurant","checkinsCount":2279,"usersCount":1199,"tipCount":45,"visitsCount":2722,"url":"http://t.co/bl46gcjDLN","tier":2,"message":"Moderate","currency":"$","rating":7.1},{"name":"Aubergine Vintage Emporium & Cafe","phone":"7078273460","address":"755 Petaluma Ave","lat":38.395575,"lng":-122.81914472579956,"city_fetched":"Santa Rosa","state":"CA","country":"United States","canonicalUrl":"https://foursquare.com/v/aubergine-vintage-emporium--cafe/4b1abeacf964a520d0f023e3","category":"Bar","checkinsCount":455,"usersCount":296,"tipCount":3,"visitsCount":475,"tier":"","message":"","currency":"","rating":6.9},{"name":"Legends at Bennett Valley","phone":"7075234111","address":"3328 Yulupa Ave","lat":38.420594,"lng":-122.662333,"city_fetched":"Santa Rosa","state":"CA","country":"United States","canonicalUrl":"https://foursquare.com/v/legends-at-bennett-valley/4b7f49baf964a520142530e3","category":"American Restaurant","checkinsCount":538,"usersCount":246,"tipCount":3,"visitsCount":576,"tier":2,"message":"Moderate","currency":"$","rating":6.9}]