[{"name":"Discretion Brewing","phone":"8313160662","twitter":"discretionbrew","address":"2703 41st Ave Ste A","lat":36.98577832216406,"lng":-121.9657269474339,"city_fetched":"Santa Cruz,US","state":"CA","country":"United States","canonicalUrl":"https://foursquare.com/discretionbrew","categoryId":"50327c8591d4c4b30a586d5d","category":"Brewery","checkinsCount":1117,"usersCount":791,"tipCount":24,"visitsCount":1520,"url":"http://www.discretionbrewing.com","tier":2,"message":"Moderate","currency":"$","rating":8.9},{"name":"Beer Thirty","address":"2504 S Main St","lat":36.98389015435141,"lng":-121.9564124547519,"city_fetched":"Santa Cruz,US","state":"CA","country":"United States","canonicalUrl":"https://foursquare.com/v/beer-thirty/5310d7e811d21bf22459c56c","categoryId":"4bf58dd8d48988d117941735","category":"Beer Garden","checkinsCount":898,"usersCount":678,"tipCount":18,"visitsCount":1405,"tier":2,"message":"Moderate","currency":"$","rating":8.9},{"name":"Santa Cruz Mountain Brewing","phone":"8314254900","twitter":"scmbrewing","address":"402 Ingalls St Ste 27","lat":36.95905691936279,"lng":-122.0481276512146,"neighborhood":"Westside","city_fetched":"Santa Cruz,US","state":"CA","country":"United States","canonicalUrl":"https://foursquare.com/v/santa-cruz-mountain-brewing/4ac7fbb6f964a5200bbb20e3","categoryId":"50327c8591d4c4b30a586d5d","category":"Brewery","checkinsCount":2491,"usersCount":1792,"tipCount":26,"visitsCount":2849,"url":"http://www.santacruzmountainbrewing.com","tier":1,"message":"Cheap","currency":"$","rating":8.6},{"name":"Vino Prima","address":"650-898 Municipal Wharf","lat":36.95863711704393,"lng":-122.017944529403,"city_fetched":"Santa Cruz,US","state":"CA","country":"United States","canonicalUrl":"https://foursquare.com/v/vino-prima/4ba52ee5f964a520d5e838e3","categoryId":"4bf58dd8d48988d123941735","category":"Wine Bar","checkinsCount":355,"usersCount":267,"tipCount":5,"visitsCount":357,"url":"http://vinoprimawines.com","tier":"","message":"","currency":"","rating":8.5},{"name":"LÃºpulo Craft Beer House","phone":"8314548306","twitter":"lupulo_sc","address":"233 Cathcart St","lat":36.97147336144991,"lng":-122.02664873479418,"neighborhood":"Downtown Santa Cruz","city_fetched":"Santa Cruz,US","state":"CA","country":"United States","canonicalUrl":"https://foursquare.com/v/l%C3%BApulo-craft-beer-house/52426c09498e7bd18df4d675","categoryId":"4bf58dd8d48988d116941735","category":"Bar","checkinsCount":807,"usersCount":630,"tipCount":9,"visitsCount":1076,"url":"http://www.lupulosc.com","tier":"","message":"","currency":"","rating":8.4},{"name":"515 Kitchen & Cocktails","phone":"8314255051","address":"515 Cedar St","lat":36.97132660809886,"lng":-122.02696513733744,"neighborhood":"Downtown Santa Cruz","city_fetched":"Santa Cruz,US","state":"CA","country":"United States","canonicalUrl":"https://foursquare.com/v/515-kitchen--cocktails/4afe5f4af964a520452f22e3","categoryId":"4bf58dd8d48988d121941735","category":"Lounge","checkinsCount":2794,"usersCount":1431,"tipCount":52,"visitsCount":2934,"url":"http://515santacruz.com","tier":2,"message":"Moderate","currency":"$","rating":8.4},{"name":"New Bohemia Brewing Co.","address":"1030 41st Ave","lat":36.96661509344776,"lng":-121.96487162449257,"city_fetched":"Santa Cruz,US","state":"CA","country":"United States","canonicalUrl":"https://foursquare.com/v/new-bohemia-brewing-co/54526f24498e78f30ae3347b","categoryId":"50327c8591d4c4b30a586d5d","category":"Brewery","checkinsCount":322,"usersCount":312,"tipCount":1,"visitsCount":566,"tier":"","message":"","currency":"","rating":8.3},{"name":"Rosie McCann's Irish Pub","phone":"8314269930","twitter":"rosiesirishpub","address":"1220 Pacific Ave","lat":36.973556,"lng":-122.025636,"neighborhood":"Downtown Santa Cruz","city_fetched":"Santa Cruz,US","state":"CA","country":"United States","canonicalUrl":"https://foursquare.com/v/rosie-mccanns-irish-pub/4b4808fcf964a520b94626e3","categoryId":"4bf58dd8d48988d11b941735","category":"Pub","checkinsCount":3142,"usersCount":1317,"tipCount":28,"visitsCount":3199,"url":"http://rosiemccanns.com","tier":2,"message":"Moderate","currency":"$","rating":8.2},{"name":"Soif","phone":"8314232020","address":"105 Walnut Ave","lat":36.973385034106755,"lng":-122.02639894266402,"neighborhood":"Downtown Santa Cruz","city_fetched":"Santa Cruz,US","state":"CA","country":"United States","canonicalUrl":"https://foursquare.com/v/soif/4a344436f964a520ff9b1fe3","categoryId":"4bf58dd8d48988d123941735","category":"Wine Bar","checkinsCount":921,"usersCount":503,"tipCount":19,"visitsCount":924,"url":"http://www.soifwine.com","tier":"","message":"","currency":"","rating":8.1},{"name":"Parish Publick House","phone":"8314210507","address":"841 Almar Ave","lat":36.96116,"lng":-122.043759,"neighborhood":"Westside","city_fetched":"Santa Cruz,US","state":"CA","country":"United States","canonicalUrl":"https://foursquare.com/v/parish-publick-house/4b6e17c1f964a520eea92ce3","categoryId":"4bf58dd8d48988d116941735","category":"Bar","checkinsCount":1782,"usersCount":689,"tipCount":22,"visitsCount":1988,"url":"http://www.theparishpublickhouse.com","tier":2,"message":"Moderate","currency":"$","rating":8},{"name":"99 Bottles of Beer on the Wall","phone":"8314599999","address":"110 Walnut Ave","lat":36.97343795,"lng":-122.026515,"neighborhood":"Downtown Santa Cruz","city_fetched":"Santa Cruz,US","state":"CA","country":"United States","canonicalUrl":"https://foursquare.com/v/99-bottles-of-beer-on-the-wall/4ab56a66f964a5207c7420e3","categoryId":"4bf58dd8d48988d116941735","category":"Bar","checkinsCount":4349,"usersCount":2461,"tipCount":56,"visitsCount":4525,"url":"http://99bottles.com","tier":2,"message":"Moderate","currency":"$","rating":8},{"name":"Brady's Yacht Club","address":"413 Seabright Ave","lat":36.96671426296234,"lng":-122.007981,"neighborhood":"Eastside","city_fetched":"Santa Cruz,US","state":"CA","country":"United States","canonicalUrl":"https://foursquare.com/v/bradys-yacht-club/4ab72804f964a520c97920e3","categoryId":"4bf58dd8d48988d118941735","category":"Dive Bar","checkinsCount":696,"usersCount":279,"tipCount":6,"visitsCount":719,"tier":1,"message":"Cheap","currency":"$","rating":8},{"name":"Red Restaurant and Bar","phone":"8314251913","address":"200 Locust St","lat":36.97513383091898,"lng":-122.02802535670943,"neighborhood":"Downtown Santa Cruz","city_fetched":"Santa Cruz,US","state":"CA","country":"United States","canonicalUrl":"https://foursquare.com/v/red-restaurant-and-bar/4ad55cd8f964a520e70221e3","categoryId":"4bf58dd8d48988d116941735","category":"Bar","checkinsCount":1871,"usersCount":697,"tipCount":10,"visitsCount":1904,"url":"http://www.redsantacruz.com","tier":"","message":"","currency":"","rating":7.8},{"name":"The Red Room","phone":"8314262994","address":"1003 Cedar St","lat":36.97513326666667,"lng":-122.027856,"neighborhood":"Downtown Santa Cruz","city_fetched":"Santa Cruz,US","state":"CA","country":"United States","canonicalUrl":"https://foursquare.com/v/the-red-room/4aade81af964a520936120e3","categoryId":"4bf58dd8d48988d116941735","category":"Bar","checkinsCount":3223,"usersCount":1740,"tipCount":26,"visitsCount":3303,"url":"http://www.redsantacruz.com","tier":1,"message":"Cheap","currency":"$","rating":7.8},{"name":"Seabright Brewery","phone":"8314262739","address":"519 Seabright Ave","lat":36.967414,"lng":-122.008314,"neighborhood":"Eastside","city_fetched":"Santa Cruz,US","state":"CA","country":"United States","canonicalUrl":"https://foursquare.com/v/seabright-brewery/4a68fd50f964a52068cb1fe3","categoryId":"50327c8591d4c4b30a586d5d","category":"Brewery","checkinsCount":3490,"usersCount":2171,"tipCount":45,"visitsCount":3857,"url":"http://seabrightbrewery.com","tier":2,"message":"Moderate","currency":"$","rating":7.7},{"name":"The Jury Room","phone":"8314267120","address":"712 Ocean St","lat":36.97843116,"lng":-122.02066909,"neighborhood":"Eastside","city_fetched":"Santa Cruz,US","state":"CA","country":"United States","canonicalUrl":"https://foursquare.com/v/the-jury-room/4b80fab2f964a5200d9430e3","categoryId":"4bf58dd8d48988d118941735","category":"Dive Bar","checkinsCount":663,"usersCount":277,"tipCount":11,"visitsCount":715,"tier":"","message":"","currency":"","rating":7.6},{"name":"Castaways","phone":"8314658200","address":"3623 Portola Dr","lat":36.96392186635386,"lng":-121.9687205251949,"city_fetched":"Santa Cruz,US","state":"CA","country":"United States","canonicalUrl":"https://foursquare.com/v/castaways/4b53918cf964a520c2a227e3","categoryId":"4bf58dd8d48988d118941735","category":"Dive Bar","checkinsCount":314,"usersCount":133,"tipCount":4,"visitsCount":339,"url":"http://thecastawaysbar.com","tier":"","message":"","currency":"","rating":7.4},{"name":"Coaster's Lounge","phone":"8314263324","address":"115 Cliff St","lat":36.96436487172974,"lng":-122.02047592606888,"city_fetched":"Santa Cruz,US","state":"CA","country":"United States","canonicalUrl":"https://foursquare.com/v/coasters-lounge/4c0d423e336220a15274ca77","categoryId":"4bf58dd8d48988d120941735","category":"Karaoke Bar","checkinsCount":667,"usersCount":360,"tipCount":6,"visitsCount":670,"url":"http://boardwalkbowl.com/coasters.html","tier":"","message":"","currency":"","rating":7.4},{"name":"Moe's Alley","phone":"8314791854","address":"1535 Commercial Way","lat":36.9875992,"lng":-121.982882,"city_fetched":"Santa Cruz,US","state":"CA","country":"United States","canonicalUrl":"https://foursquare.com/v/moes-alley/4afa8024f964a520ff1722e3","categoryId":"4bf58dd8d48988d118941735","category":"Dive Bar","checkinsCount":828,"usersCount":587,"tipCount":5,"visitsCount":1022,"url":"http://moesalley.com","tier":"","message":"","currency":"","rating":7.3},{"name":"Pour Taproom","address":"110 Cooper St.","lat":36.9745178289871,"lng":-122.0262990256517,"neighborhood":"Downtown Santa Cruz","city_fetched":"Santa Cruz,US","state":"CA","country":"United States","canonicalUrl":"https://foursquare.com/v/pour-taproom/574a0039498e865fe9672c05","categoryId":"50327c8591d4c4b30a586d5d","category":"Brewery","checkinsCount":111,"usersCount":92,"tipCount":6,"visitsCount":118,"tier":"","message":"","currency":"","rating":7.2},{"name":"Santa Cruz Ale Works","phone":"8314251182","twitter":"santacruzbeers","address":"150 Dubois St","lat":36.98676977446722,"lng":-122.03839386946693,"neighborhood":"Central Santa Cruz","city_fetched":"Santa Cruz,US","state":"CA","country":"United States","canonicalUrl":"https://foursquare.com/v/santa-cruz-ale-works/4b6b33eaf964a52049f92be3","categoryId":"50327c8591d4c4b30a586d5d","category":"Brewery","checkinsCount":295,"usersCount":205,"tipCount":8,"visitsCount":458,"url":"http://www.santacruzaleworks.com","tier":"","message":"","currency":"","rating":7.2},{"name":"Jack O'Neill Lounge","phone":"8314605012","lat":36.96219881818891,"lng":-122.02405086866732,"neighborhood":"Westside","city_fetched":"Santa Cruz,US","state":"CA","country":"United States","canonicalUrl":"https://foursquare.com/v/jack-oneill-lounge/52df337a498e8f50b076f933","categoryId":"4bf58dd8d48988d121941735","category":"Lounge","checkinsCount":100,"usersCount":80,"tipCount":5,"visitsCount":100,"tier":"","message":"","currency":"","rating":7.1},{"name":"KC's Sports Bar","address":"711 Pacific Ave","lat":36.968844306360566,"lng":-122.02491127990204,"neighborhood":"Central Santa Cruz","city_fetched":"Santa Cruz,US","state":"CA","country":"United States","canonicalUrl":"https://foursquare.com/v/kcs-sports-bar/53291a2e498e6081cccdc3dd","categoryId":"4bf58dd8d48988d11d941735","category":"Sports Bar","checkinsCount":200,"usersCount":154,"tipCount":3,"visitsCount":203,"tier":"","message":"","currency":"","rating":7.1},{"name":"The Poet & The Patriot","address":"320 Cedar St.","lat":36.96966545033706,"lng":-122.02569952165489,"neighborhood":"Downtown Santa Cruz","city_fetched":"Santa Cruz,US","state":"CA","country":"United States","canonicalUrl":"https://foursquare.com/v/the-poet--the-patriot/4af65edff964a520450322e3","categoryId":"4bf58dd8d48988d11b941735","category":"Pub","checkinsCount":1365,"usersCount":665,"tipCount":14,"visitsCount":1438,"tier":2,"message":"Moderate","currency":"$","rating":6.8},{"name":"The Rush Inn","address":"Knight Street","lat":36.9774043,"lng":-122.02659977,"neighborhood":"Downtown Santa Cruz","city_fetched":"Santa Cruz,US","state":"CA","country":"United States","canonicalUrl":"https://foursquare.com/v/the-rush-inn/4b4fc6a7f964a520fb1427e3","categoryId":"4bf58dd8d48988d116941735","category":"Bar","checkinsCount":353,"usersCount":188,"tipCount":3,"visitsCount":369,"tier":"","message":"","currency":"","rating":6.7},{"name":"The Blue Lagoon","phone":"8314237117","address":"923 Pacific Ave","lat":36.97062075999639,"lng":-122.02514997342873,"neighborhood":"Downtown Santa Cruz","city_fetched":"Santa Cruz,US","state":"CA","country":"United States","canonicalUrl":"https://foursquare.com/v/the-blue-lagoon/4a62d400f964a52086c41fe3","categoryId":"4bf58dd8d48988d11f941735","category":"Nightclub","checkinsCount":2283,"usersCount":962,"tipCount":22,"visitsCount":2366,"url":"http://www.thebluelagoon.com","tier":1,"message":"Cheap","currency":"$","rating":6.5},{"name":"One Double Oh Seven Smoking Parlor & Bar","phone":"8314259589","address":"1007 Soquel Ave","lat":36.97881215,"lng":-122.01286208333333,"neighborhood":"Eastside","city_fetched":"Santa Cruz,US","state":"CA","country":"United States","canonicalUrl":"https://foursquare.com/v/one-double-oh-seven-smoking-parlor--bar/4b08a2d6f964a520f70f23e3","categoryId":"4bf58dd8d48988d116941735","category":"Bar","checkinsCount":785,"usersCount":226,"tipCount":6,"visitsCount":815,"tier":"","message":"","currency":"","rating":6.5},{"name":"The Asti","address":"715 Pacific Ave","lat":36.96900979933139,"lng":-122.02496679007115,"neighborhood":"Central Santa Cruz","city_fetched":"Santa Cruz,US","state":"CA","country":"United States","canonicalUrl":"https://foursquare.com/v/the-asti/4af62b2df964a520de0122e3","categoryId":"4bf58dd8d48988d118941735","category":"Dive Bar","checkinsCount":1027,"usersCount":377,"tipCount":6,"visitsCount":1043,"tier":"","message":"","currency":"","rating":6.4},{"name":"Motiv","phone":"8314298070","address":"1209 Pacific Ave","lat":36.97304997323381,"lng":-122.02597707021137,"neighborhood":"Downtown Santa Cruz","city_fetched":"Santa Cruz,US","state":"CA","country":"United States","canonicalUrl":"https://foursquare.com/v/motiv/4b5164fbf964a520664c27e3","categoryId":"4bf58dd8d48988d11f941735","category":"Nightclub","checkinsCount":2097,"usersCount":879,"tipCount":13,"visitsCount":2117,"tier":"","message":"","currency":"","rating":6.3},{"name":"The Reef","phone":"8314599876","address":"120 Union St","lat":36.97575558982388,"lng":-122.02844167039726,"neighborhood":"Downtown Santa Cruz","city_fetched":"Santa Cruz,US","state":"CA","country":"United States","canonicalUrl":"https://foursquare.com/v/the-reef/4f4e7bc2e4b03933881fbccf","categoryId":"4bf58dd8d48988d116941735","category":"Bar","checkinsCount":533,"usersCount":404,"tipCount":5,"visitsCount":582,"tier":"","message":"","currency":"","rating":6.3},{"name":"Britannia Arms","phone":"8314642583","address":"110 Monterey Ave","lat":36.972140311995226,"lng":-121.95041343633963,"city_fetched":"Santa Cruz,US","state":"CA","country":"United States","canonicalUrl":"https://foursquare.com/v/britannia-arms/4de9a9da45dd3993a8783159","categoryId":"4bf58dd8d48988d11b941735","category":"Pub","checkinsCount":736,"usersCount":491,"tipCount":12,"visitsCount":750,"tier":"","message":"","currency":"","rating":5.4}]