[{"name":"Moloney's Alley","address":"227 W Portage Ave","lat":46.50095967600876,"lng":-84.34832559629548,"neighborhood":"Downtown Sault Ste. Marie-Michigan","city_fetched":"Sault Ste. Marie","state":"MI","country":"United States","canonicalUrl":"https://foursquare.com/v/moloneys-alley/4bd5f6035631c9b6e70da530","category":"Pub","checkinsCount":857,"usersCount":400,"tipCount":10,"visitsCount":881,"url":"http://moloneysalley.com","tier":"","message":"","currency":"","rating":7.8},{"name":"Karl's Cuisine","phone":"9062531900","address":"447 W Portage Ave","lat":46.50181497462732,"lng":-84.35385800036453,"neighborhood":"Downtown Sault Ste. Marie-Michigan","city_fetched":"Sault Ste. Marie","state":"MI","country":"United States","canonicalUrl":"https://foursquare.com/v/karls-cuisine/4da617186a23f2e80500a0d1","category":"Caf√©","checkinsCount":242,"usersCount":179,"tipCount":8,"visitsCount":265,"url":"http://www.karlscuisine.com","tier":"","message":"","currency":"","rating":7.6},{"name":"Soo Brewing Company","address":"223 W Portage Ave","lat":46.50089106666667,"lng":-84.348348,"neighborhood":"Downtown Sault Ste. Marie-Michigan","city_fetched":"Sault Ste. Marie","state":"MI","country":"United States","canonicalUrl":"https://foursquare.com/v/soo-brewing-company/4d951b9a2bd6f04de6ce1750","category":"Brewery","checkinsCount":633,"usersCount":391,"tipCount":9,"visitsCount":665,"url":"http://soobrew.com","tier":"","message":"","currency":"","rating":7.4},{"name":"Satisfied Frog","address":"209 Portage Ave.","lat":46.50051124643463,"lng":-84.3474377184303,"neighborhood":"Downtown Sault Ste. Marie-Michigan","city_fetched":"Sault Ste. Marie","state":"MI","country":"United States","canonicalUrl":"https://foursquare.com/v/satisfied-frog/4bf5e9265efe2d7f765a6634","category":"Bar","checkinsCount":369,"usersCount":148,"tipCount":4,"visitsCount":369,"tier":"","message":"","currency":"","rating":7.1},{"name":"Loplops Gallery-Lounge","phone":"7059450754","twitter":"loploplounge","address":"651 Queen St. East","lat":46.50810618592111,"lng":-84.32904904385032,"neighborhood":"Downtown Sault Ste. Marie-Ontario","city_fetched":"Sault Ste. Marie","state":"ON","country":"Canada","canonicalUrl":"https://foursquare.com/v/loplops-gallerylounge/4c53897e72cf0f4708f4ffd2","category":"Bar","checkinsCount":209,"usersCount":55,"tipCount":5,"visitsCount":211,"tier":"","message":"","currency":"","rating":7},{"name":"The Alpha","phone":"9066323281","address":"105 W Portage Ave","lat":46.50026004145396,"lng":-84.34645344574457,"neighborhood":"Downtown Sault Ste. Marie-Michigan","city_fetched":"Sault Ste. Marie","state":"MI","country":"United States","canonicalUrl":"https://foursquare.com/v/the-alpha/4c09bc597e3fc928cd93f282","category":"Bar","checkinsCount":326,"usersCount":72,"tipCount":4,"visitsCount":327,"tier":"","message":"","currency":"","rating":6.5},{"name":"Zims","address":"Maple St.","lat":46.49894075844045,"lng":-84.3464850957924,"neighborhood":"Downtown Sault Ste. Marie-Michigan","city_fetched":"Sault Ste. Marie","state":"MI","country":"United States","canonicalUrl":"https://foursquare.com/v/zims/4e587724ae60dbf65b4fb801","category":"Bar","checkinsCount":206,"usersCount":67,"tipCount":7,"visitsCount":207,"tier":"","message":"","currency":"","rating":6.4},{"name":"Top Hat Billiards","phone":"7052537665","address":"654 Queen St E","lat":46.50850039078273,"lng":-84.32821630390032,"neighborhood":"Downtown Sault Ste. Marie-Ontario","city_fetched":"Sault Ste. Marie","state":"ON","country":"Canada","canonicalUrl":"https://foursquare.com/v/top-hat-billiards/4eb060719911374b17396e1a","category":"Pool Hall","checkinsCount":296,"usersCount":40,"tipCount":3,"visitsCount":301,"tier":"","message":"","currency":"","rating":6}]