[{"name":"Green Truck Pub","phone":"9122345885","twitter":"greentruckpub","address":"2430 Habersham St","lat":32.05284989970839,"lng":-81.09668564575296,"city_fetched":"Savannah,US","state":"GA","country":"United States","canonicalUrl":"https://foursquare.com/v/green-truck-pub/4cb0fe0339458cfa03e907a0","categoryId":"4bf58dd8d48988d11b941735","category":"Pub","checkinsCount":5956,"usersCount":2688,"tipCount":125,"visitsCount":7040,"url":"http://greentruckpub.com","tier":2,"message":"Moderate","currency":"$","rating":9},{"name":"Southbound Brewing Company","phone":"9123351737","twitter":"southboundbrews","address":"107 E Lathrop Ave","lat":32.086835590130086,"lng":-81.11180424092808,"city_fetched":"Savannah,US","state":"GA","country":"United States","canonicalUrl":"https://foursquare.com/southboundbrews","categoryId":"50327c8591d4c4b30a586d5d","category":"Brewery","checkinsCount":698,"usersCount":402,"tipCount":7,"visitsCount":1031,"url":"http://www.southboundbrewingco.com","tier":1,"message":"Cheap","currency":"$","rating":8.8},{"name":"Tiki Hut","phone":"8437855126","address":"1 S Forest Beach Dr.","lat":32.14064399330902,"lng":-80.7518324759312,"city_fetched":"Savannah,US","state":"SC","country":"United States","canonicalUrl":"https://foursquare.com/v/tiki-hut/4b841674f964a520022031e3","categoryId":"4bf58dd8d48988d116941735","category":"Bar","checkinsCount":2978,"usersCount":1976,"tipCount":35,"visitsCount":3262,"url":"http://www.tikihuthhi.com","tier":2,"message":"Moderate","currency":"$","rating":8.8},{"name":"Six Pence Pub","phone":"9122333156","address":"245 Bull St","lat":32.07509315534757,"lng":-81.09335549833908,"neighborhood":"Historic District-North","city_fetched":"Savannah,US","state":"GA","country":"United States","canonicalUrl":"https://foursquare.com/v/six-pence-pub/4b393e79f964a520f25825e3","categoryId":"4bf58dd8d48988d11b941735","category":"Pub","checkinsCount":4241,"usersCount":3443,"tipCount":60,"visitsCount":4595,"url":"http://www.sixpencepub.com","tier":2,"message":"Moderate","currency":"$","rating":8.7},{"name":"American Legion","phone":"9122339277","address":"1108 Bull St","lat":32.06445792012957,"lng":-81.09726759871694,"city_fetched":"Savannah,US","state":"GA","country":"United States","canonicalUrl":"https://foursquare.com/v/american-legion/4b723f0af964a52070752de3","categoryId":"4bf58dd8d48988d116941735","category":"Bar","checkinsCount":2248,"usersCount":731,"tipCount":17,"visitsCount":2372,"url":"http://alpost135.com","tier":1,"message":"Cheap","currency":"$","rating":8.6},{"name":"The Distillery","phone":"9122361772","twitter":"distillerysav","address":"416 W Liberty St","lat":32.07600535203431,"lng":-81.09852309361138,"neighborhood":"Historic District-North","city_fetched":"Savannah,US","state":"GA","country":"United States","canonicalUrl":"https://foursquare.com/v/the-distillery/4af48fe1f964a520def321e3","categoryId":"4bf58dd8d48988d116941735","category":"Bar","checkinsCount":9666,"usersCount":4822,"tipCount":124,"visitsCount":10742,"url":"http://www.distillerysavannah.com","tier":2,"message":"Moderate","currency":"$","rating":8.6},{"name":"Pool Bar Jim's","address":"50 S Forest Beach Dr","lat":32.13596663333333,"lng":-80.76276065,"city_fetched":"Savannah,US","state":"SC","country":"United States","canonicalUrl":"https://foursquare.com/v/pool-bar-jims/4bb3cd3c42959c742679222c","categoryId":"4bf58dd8d48988d11e941735","category":"Cocktail Bar","checkinsCount":1002,"usersCount":606,"tipCount":15,"visitsCount":1116,"url":"http://poolbarjims.com","tier":"","message":"","currency":"","rating":8.6},{"name":"Chive Sea Bar + Lounge","phone":"9122331748","twitter":"eleandthechef","address":"4 W Broughton St","lat":32.0789846179781,"lng":-81.0921969186891,"neighborhood":"Historic District-North","city_fetched":"Savannah,US","state":"GA","country":"United States","canonicalUrl":"https://foursquare.com/v/chive-sea-bar--lounge/51acd61aabd81fd380f1629c","categoryId":"4bf58dd8d48988d121941735","category":"Lounge","checkinsCount":583,"usersCount":441,"tipCount":21,"visitsCount":594,"url":"http://www.chivelounge.com","tier":"","message":"","currency":"","rating":8.5},{"name":"Moon River Brewing Company","phone":"9124470943","address":"21 W Bay St","lat":32.08122463026525,"lng":-81.09214246273041,"neighborhood":"Historic District-North","city_fetched":"Savannah,US","state":"GA","country":"United States","canonicalUrl":"https://foursquare.com/v/moon-river-brewing-company/4b2d22a5f964a52030cf24e3","categoryId":"50327c8591d4c4b30a586d5d","category":"Brewery","checkinsCount":14077,"usersCount":10798,"tipCount":213,"visitsCount":15617,"url":"http://www.moonriverbrewing.com","tier":2,"message":"Moderate","currency":"$","rating":8.4},{"name":"World of Beer","phone":"9124431515","address":"112 W Broughton St","lat":32.07952103544378,"lng":-81.09361415564047,"neighborhood":"Historic District-North","city_fetched":"Savannah,US","state":"GA","country":"United States","canonicalUrl":"https://foursquare.com/v/world-of-beer/4fe11852e4b02702d77228f5","categoryId":"4bf58dd8d48988d116941735","category":"Bar","checkinsCount":7488,"usersCount":3384,"tipCount":54,"visitsCount":7840,"url":"http://worldofbeer.com/Locations/Savannah","tier":1,"message":"Cheap","currency":"$","rating":8.4},{"name":"Service Brewing Co","twitter":"servicebrewing","address":"574 Indian St","lat":32.08408354780131,"lng":-81.09817743301392,"city_fetched":"Savannah,US","state":"GA","country":"United States","canonicalUrl":"https://foursquare.com/v/service-brewing-co/522fc69b93cd57734d90eeb6","categoryId":"50327c8591d4c4b30a586d5d","category":"Brewery","checkinsCount":253,"usersCount":204,"tipCount":2,"visitsCount":312,"tier":"","message":"","currency":"","rating":8.4},{"name":"Abe's on Lincoln","phone":"9123490525","twitter":"abesonlincoln","address":"17 Lincoln St","lat":32.079471661412825,"lng":-81.0881336713056,"neighborhood":"Historic District-North","city_fetched":"Savannah,US","state":"GA","country":"United States","canonicalUrl":"https://foursquare.com/v/abes-on-lincoln/4b9ac345f964a5206ed335e3","categoryId":"4bf58dd8d48988d116941735","category":"Bar","checkinsCount":3424,"usersCount":1895,"tipCount":28,"visitsCount":4026,"url":"http://www.abesonlincoln.com","tier":2,"message":"Moderate","currency":"$","rating":8.4},{"name":"Wet Willie's","phone":"9122335650","address":"101 E River St","lat":32.08130037817428,"lng":-81.08972342848091,"neighborhood":"Historic District-North","city_fetched":"Savannah,US","state":"GA","country":"United States","canonicalUrl":"https://foursquare.com/v/wet-willies/4b396feff964a520935c25e3","categoryId":"4bf58dd8d48988d116941735","category":"Bar","checkinsCount":9540,"usersCount":7330,"tipCount":101,"visitsCount":9906,"url":"http://www.wetwillies.com","tier":1,"message":"Cheap","currency":"$","rating":8.3},{"name":"Jen's and Friends","phone":"9122385367","twitter":"jensnfriends","address":"34 Bull St.","lat":32.07941991064897,"lng":-81.09181431420141,"neighborhood":"Historic District-North","city_fetched":"Savannah,US","state":"GA","country":"United States","canonicalUrl":"https://foursquare.com/v/jens-and-friends/4b3974c4f964a520ce5c25e3","categoryId":"4bf58dd8d48988d116941735","category":"Bar","checkinsCount":4289,"usersCount":1921,"tipCount":66,"visitsCount":4427,"url":"http://jensandfriendsbar.com","tier":1,"message":"Cheap","currency":"$","rating":8.3},{"name":"Bayou Cafe","phone":"9122336411","address":"14 N Abercorn St","lat":32.08089815449581,"lng":-81.08877496706654,"neighborhood":"Historic District-North","city_fetched":"Savannah,US","state":"GA","country":"United States","canonicalUrl":"https://foursquare.com/v/bayou-cafe/4b53504af964a520d69627e3","categoryId":"4bf58dd8d48988d118941735","category":"Dive Bar","checkinsCount":1103,"usersCount":850,"tipCount":18,"visitsCount":1114,"url":"http://rsechler.wix.com/bayoucafe/","tier":2,"message":"Moderate","currency":"$","rating":8.3},{"name":"The Beer Growler","phone":"9125446414","address":"102 E Liberty St #105","lat":32.074566,"lng":-81.092079,"neighborhood":"Historic District-North","city_fetched":"Savannah,US","state":"GA","country":"United States","canonicalUrl":"https://foursquare.com/v/the-beer-growler/5171818ee4b0194481e2feb1","categoryId":"4bf58dd8d48988d117941735","category":"Beer Garden","checkinsCount":465,"usersCount":257,"tipCount":5,"visitsCount":489,"url":"http://www.thebeergrowler.net","tier":"","message":"","currency":"","rating":8.3},{"name":"The Rail Pub","phone":"9122381311","address":"405 W Congress St","lat":32.080763,"lng":-81.09629561,"neighborhood":"Historic District-North","city_fetched":"Savannah,US","state":"GA","country":"United States","canonicalUrl":"https://foursquare.com/v/the-rail-pub/4b038601f964a520ad4f22e3","categoryId":"4bf58dd8d48988d116941735","category":"Bar","checkinsCount":6854,"usersCount":2895,"tipCount":31,"visitsCount":7264,"url":"http://therailpub.com","tier":1,"message":"Cheap","currency":"$","rating":8.2},{"name":"Cocktail Co.","address":"10 Whitaker St","lat":32.0807902434511,"lng":-81.09223464015705,"neighborhood":"Historic District-North","city_fetched":"Savannah,US","state":"GA","country":"United States","canonicalUrl":"https://foursquare.com/v/cocktail-co/5538fe3a498eb9779dae7daf","categoryId":"4bf58dd8d48988d121941735","category":"Lounge","checkinsCount":77,"usersCount":51,"tipCount":2,"visitsCount":77,"tier":"","message":"","currency":"","rating":8.1},{"name":"Kevin Barry's Pub","phone":"9122339626","address":"117 W River St","lat":32.082100358249434,"lng":-81.09253102248705,"neighborhood":"Historic District-North","city_fetched":"Savannah,US","state":"GA","country":"United States","canonicalUrl":"https://foursquare.com/v/kevin-barrys-pub/517704fce4b0b1665963ec79","categoryId":"4bf58dd8d48988d11b941735","category":"Pub","checkinsCount":1689,"usersCount":1458,"tipCount":24,"visitsCount":1928,"url":"http://www.kevinbarrys.com","tier":1,"message":"Cheap","currency":"$","rating":8.1},{"name":"Congress Street Social Club","phone":"9122381985","twitter":"yellowpagecity","address":"411 W Congress St","lat":32.08079874768526,"lng":-81.09659943013095,"neighborhood":"Historic District-North","city_fetched":"Savannah,US","state":"GA","country":"United States","canonicalUrl":"https://foursquare.com/v/congress-street-social-club/4d8264aa4bbaa0933e38c1ac","categoryId":"4bf58dd8d48988d116941735","category":"Bar","checkinsCount":8519,"usersCount":3598,"tipCount":40,"visitsCount":9036,"url":"http://congressstreetsocialclub.com","tier":2,"message":"Moderate","currency":"$","rating":8.1},{"name":"The Cotton Exchange","phone":"9122327088","address":"201 E River St","lat":32.08101396040392,"lng":-81.08861868539024,"neighborhood":"Historic District-North","city_fetched":"Savannah,US","state":"GA","country":"United States","canonicalUrl":"https://foursquare.com/v/the-cotton-exchange/4b3c1325f964a5206b8125e3","categoryId":"4bf58dd8d48988d116941735","category":"Bar","checkinsCount":3872,"usersCount":3560,"tipCount":87,"visitsCount":4000,"tier":2,"message":"Moderate","currency":"$","rating":8},{"name":"Coach's Corner","phone":"9123522933","address":"3016 E Victory Dr","lat":32.03699918168249,"lng":-81.0565905349978,"city_fetched":"Savannah,US","state":"GA","country":"United States","canonicalUrl":"https://foursquare.com/v/coachs-corner/4b707ce6f964a5208f1d2de3","categoryId":"4bf58dd8d48988d11d941735","category":"Sports Bar","checkinsCount":3003,"usersCount":1060,"tipCount":36,"visitsCount":3471,"url":"http://www.coachs.net","tier":2,"message":"Moderate","currency":"$","rating":8},{"name":"Club One","phone":"9122320200","twitter":"club1jefferson","address":"1 Jefferson St","lat":32.08166828777572,"lng":-81.09461105599426,"neighborhood":"Historic District-North","city_fetched":"Savannah,US","state":"GA","country":"United States","canonicalUrl":"https://foursquare.com/v/club-one/4b35a696f964a5206a2e25e3","categoryId":"4bf58dd8d48988d11f941735","category":"Nightclub","checkinsCount":4238,"usersCount":1948,"tipCount":29,"visitsCount":4681,"url":"http://clubone-online.com","tier":2,"message":"Moderate","currency":"$","rating":8},{"name":"The Chromatic Dragon","phone":"9122890350","twitter":"gamerpubsav","address":"514 M L King Jr Blvd","lat":32.07107925415039,"lng":-81.10052490234375,"neighborhood":"Historic District-South","city_fetched":"Savannah,US","state":"GA","country":"United States","canonicalUrl":"https://foursquare.com/v/the-chromatic-dragon/5544072d498e6ee50a348baa","categoryId":"4bf58dd8d48988d11b941735","category":"Pub","checkinsCount":207,"usersCount":242,"tipCount":8,"visitsCount":424,"url":"http://chromaticdragon.com","tier":"","message":"","currency":"","rating":8},{"name":"McDonough's Restaurant & Lounge","phone":"9122336136","address":"21 E McDonough St","lat":32.075201862549356,"lng":-81.09213397936897,"neighborhood":"Historic District-North","city_fetched":"Savannah,US","state":"GA","country":"United States","canonicalUrl":"https://foursquare.com/v/mcdonoughs-restaurant--lounge/4ba0d7c9f964a5208b8137e3","categoryId":"4bf58dd8d48988d120941735","category":"Karaoke Bar","checkinsCount":8413,"usersCount":3173,"tipCount":40,"visitsCount":9137,"url":"http://innatmcdonoughs.com/restaurant-lounge/mcdonoughs-restaurant-lounge/","tier":2,"message":"Moderate","currency":"$","rating":7.9},{"name":"The Village Bar And Grille","phone":"9125985106","address":"3 Skidaway Village Walk Ste A","lat":31.939976860699755,"lng":-81.05252005103745,"city_fetched":"Savannah,US","state":"GA","country":"United States","canonicalUrl":"https://foursquare.com/v/the-village-bar-and-grille/4c4473e7f05e95219413e4b3","categoryId":"4bf58dd8d48988d116941735","category":"Bar","checkinsCount":700,"usersCount":225,"tipCount":5,"visitsCount":844,"url":"http://www.thevillagebarandgrille.com","tier":2,"message":"Moderate","currency":"$","rating":7.9},{"name":"The Warehouse Bar & Grille","phone":"9122346003","address":"18 E River St","lat":32.081498004067704,"lng":-81.09035932231443,"neighborhood":"Historic District-North","city_fetched":"Savannah,US","state":"GA","country":"United States","canonicalUrl":"https://foursquare.com/v/the-warehouse-bar--grille/4c3cd1914bc9a593c431d371","categoryId":"4bf58dd8d48988d116941735","category":"Bar","checkinsCount":3466,"usersCount":2438,"tipCount":46,"visitsCount":3524,"url":"http://warehousebarandgrill.com","tier":"","message":"","currency":"","rating":7.8},{"name":"Wild Wing Cafe","phone":"9127909464","twitter":"wildwingcafe","address":"27 Barnard St","lat":32.080595,"lng":-81.09438336,"neighborhood":"Historic District-North","city_fetched":"Savannah,US","state":"GA","country":"United States","canonicalUrl":"https://foursquare.com/v/wild-wing-cafe/4b9b0e79f964a52050ef35e3","categoryId":"4bf58dd8d48988d116941735","category":"Bar","checkinsCount":11012,"usersCount":5531,"tipCount":69,"visitsCount":11176,"url":"http://www.wildwingcafe.com","tier":2,"message":"Moderate","currency":"$","rating":7.8},{"name":"Boomy's","phone":"9124366660","twitter":"savannahboomys","address":"409 W Congress St","lat":32.0807623,"lng":-81.0964991,"neighborhood":"Historic District-North","city_fetched":"Savannah,US","state":"GA","country":"United States","canonicalUrl":"https://foursquare.com/v/boomys/532277df498e4a9ae298dbb4","categoryId":"4bf58dd8d48988d116941735","category":"Bar","checkinsCount":400,"usersCount":234,"tipCount":10,"visitsCount":409,"url":"http://www.boomysbar.com","tier":"","message":"","currency":"","rating":7.8},{"name":"Top Deck Bar","twitter":"topdeckbar","address":"125 W. River Street, Rooftop","lat":32.082065497647,"lng":-81.09287738800047,"neighborhood":"Historic District-North","city_fetched":"Savannah,US","state":"GA","country":"United States","canonicalUrl":"https://foursquare.com/v/top-deck-bar/527fcd6111d27c96e6448127","categoryId":"4bf58dd8d48988d1d5941735","category":"Hotel Bar","checkinsCount":522,"usersCount":425,"tipCount":6,"visitsCount":552,"tier":"","message":"","currency":"","rating":7.8},{"name":"Savannah Taphouse","phone":"9122018277","address":"125 E Broughton St","lat":32.078448,"lng":-81.090142,"neighborhood":"Historic District-North","city_fetched":"Savannah,US","state":"GA","country":"United States","canonicalUrl":"https://foursquare.com/v/savannah-taphouse/566f4b6c498ef5e47a14872d","categoryId":"4bf58dd8d48988d11d941735","category":"Sports Bar","checkinsCount":285,"usersCount":312,"tipCount":9,"visitsCount":406,"url":"http://savannahtaphouse.com","tier":"","message":"","currency":"","rating":7.8},{"name":"Wet Willie's City Market","phone":"9122355651","address":"20 Jefferson St","lat":32.08086105544736,"lng":-81.0948266003473,"neighborhood":"Historic District-North","city_fetched":"Savannah,US","state":"GA","country":"United States","canonicalUrl":"https://foursquare.com/v/wet-willies-city-market/513aafe9e4b010987ef5e5f8","categoryId":"4bf58dd8d48988d116941735","category":"Bar","checkinsCount":1609,"usersCount":1172,"tipCount":21,"visitsCount":1620,"url":"http://www.wetwillies.com","tier":2,"message":"Moderate","currency":"$","rating":7.7},{"name":"Britannia British Pub","address":"140 Johnny Mercer Blvd","lat":32.016578247118055,"lng":-80.98736906520209,"city_fetched":"Savannah,US","state":"GA","country":"United States","canonicalUrl":"https://foursquare.com/v/britannia-british-pub/4bb7c6071261d13a5cdbe798","categoryId":"4bf58dd8d48988d116941735","category":"Bar","checkinsCount":2496,"usersCount":235,"tipCount":4,"visitsCount":2647,"tier":"","message":"","currency":"","rating":7.5},{"name":"Ampersand","phone":"9122324272","twitter":"sav_ampersand","address":"36 Martin Luther King Jr Blvd","lat":32.08090635548191,"lng":-81.0968904074745,"neighborhood":"Historic District-North","city_fetched":"Savannah,US","state":"GA","country":"United States","canonicalUrl":"https://foursquare.com/v/ampersand/531abff3498e7ff6e81bfd7d","categoryId":"4bf58dd8d48988d11e941735","category":"Cocktail Bar","checkinsCount":632,"usersCount":380,"tipCount":6,"visitsCount":705,"url":"http://andsavannah.com","tier":2,"message":"Moderate","currency":"$","rating":7.5},{"name":"Molly Macpherson's Scottish Pub & Grill","phone":"9122399600","twitter":"mollymacpherson","address":"311 W Congress St","lat":32.08075351666667,"lng":-81.095302,"neighborhood":"Historic District-North","city_fetched":"Savannah,US","state":"GA","country":"United States","canonicalUrl":"https://foursquare.com/v/molly-macphersons-scottish-pub--grill/4b045236f964a5204a5322e3","categoryId":"4bf58dd8d48988d11b941735","category":"Pub","checkinsCount":7072,"usersCount":3263,"tipCount":64,"visitsCount":7139,"url":"http://www.macphersonspub.com","tier":2,"message":"Moderate","currency":"$","rating":7.4},{"name":"Sorry Charlie's","phone":"9123410300","address":"116 W Congress St","lat":32.080164,"lng":-81.093393,"neighborhood":"Historic District-North","city_fetched":"Savannah,US","state":"GA","country":"United States","canonicalUrl":"https://foursquare.com/v/sorry-charlies/4f32c70d19836c91c7f97db2","categoryId":"4bf58dd8d48988d116941735","category":"Bar","checkinsCount":463,"usersCount":365,"tipCount":7,"visitsCount":482,"tier":"","message":"","currency":"","rating":7.4},{"name":"The Bar Bar","phone":"9122311910","address":"219 W Saint Julian St","lat":32.080663290166825,"lng":-81.0946798324585,"neighborhood":"Historic District-North","city_fetched":"Savannah,US","state":"GA","country":"United States","canonicalUrl":"https://foursquare.com/v/the-bar-bar/4b6cd98cf964a520fc582ce3","categoryId":"4bf58dd8d48988d116941735","category":"Bar","checkinsCount":2319,"usersCount":1667,"tipCount":16,"visitsCount":2329,"url":"http://www.thebarbar.com","tier":2,"message":"Moderate","currency":"$","rating":7.4},{"name":"The Jinx","phone":"9122362281","address":"127 W Congress St","lat":32.080306,"lng":-81.093591,"neighborhood":"Historic District-North","city_fetched":"Savannah,US","state":"GA","country":"United States","canonicalUrl":"https://foursquare.com/v/the-jinx/4b50e7fbf964a520053827e3","categoryId":"4bf58dd8d48988d116941735","category":"Bar","checkinsCount":3924,"usersCount":1417,"tipCount":21,"visitsCount":4121,"tier":2,"message":"Moderate","currency":"$","rating":7.4},{"name":"House Of Mata Hari","address":"306 Lower Factors Walk","lat":32.082702994679174,"lng":-81.09431468153964,"neighborhood":"Historic District-North","city_fetched":"Savannah,US","state":"GA","country":"United States","canonicalUrl":"https://foursquare.com/v/house-of-mata-hari/4d40fa6e4677548111fe5cf4","categoryId":"4bf58dd8d48988d1d4941735","category":"Speakeasy","checkinsCount":1220,"usersCount":513,"tipCount":8,"visitsCount":1249,"tier":"","message":"","currency":"","rating":7.4},{"name":"Tubbys","lat":32.081155,"lng":-81.08924,"neighborhood":"Historic District-North","city_fetched":"Savannah,US","state":"GA","country":"United States","canonicalUrl":"https://foursquare.com/v/tubbys/50423b83e4b0235a81a2e30f","categoryId":"4bf58dd8d48988d116941735","category":"Bar","checkinsCount":161,"usersCount":155,"tipCount":8,"visitsCount":161,"tier":"","message":"","currency":"","rating":7.2},{"name":"Zunzi's 2","address":"1853 Drayton St","lat":32.080214,"lng":-81.090353,"neighborhood":"Historic District-North","city_fetched":"Savannah,US","state":"GA","country":"United States","canonicalUrl":"https://foursquare.com/v/zunzis-2/51325ac4e4b099a39e813434","categoryId":"4bf58dd8d48988d116941735","category":"Bar","checkinsCount":1066,"usersCount":885,"tipCount":36,"visitsCount":1251,"tier":2,"message":"Moderate","currency":"$","rating":7.2},{"name":"Tailgate Sports Bar","phone":"9129212269","address":"11215 Abercorn St","lat":31.98024949283597,"lng":-81.14560844229108,"neighborhood":"Windsor Forest","city_fetched":"Savannah,US","state":"GA","country":"United States","canonicalUrl":"https://foursquare.com/v/tailgate-sports-bar/4bda00fcc79cc9282b017de9","categoryId":"4bf58dd8d48988d11d941735","category":"Sports Bar","checkinsCount":2508,"usersCount":570,"tipCount":13,"visitsCount":2615,"url":"http://tailgatesportsbar.com","tier":"","message":"","currency":"","rating":7.2},{"name":"Pour Larry's","phone":"9122325778","address":"206 W Saint Julian St","lat":32.08066556280576,"lng":-81.09463691711426,"neighborhood":"Historic District-North","city_fetched":"Savannah,US","state":"GA","country":"United States","canonicalUrl":"https://foursquare.com/v/pour-larrys/4b396d51f964a520705c25e3","categoryId":"4bf58dd8d48988d118941735","category":"Dive Bar","checkinsCount":1262,"usersCount":850,"tipCount":5,"visitsCount":1272,"tier":"","message":"","currency":"","rating":7.2},{"name":"Pinkie Master's Lounge","phone":"9122380447","address":"318 Drayton St","lat":32.07368,"lng":-81.09271,"neighborhood":"Historic District-North","city_fetched":"Savannah,US","state":"GA","country":"United States","canonicalUrl":"https://foursquare.com/v/pinkie-masters-lounge/4b7774c2f964a520889b2ee3","categoryId":"4bf58dd8d48988d118941735","category":"Dive Bar","checkinsCount":2373,"usersCount":1307,"tipCount":21,"visitsCount":2609,"url":"http://pinkiemasters.net","tier":2,"message":"Moderate","currency":"$","rating":7.2},{"name":"Jt's Pub & Grill","address":"7 Fort Argyle Rd","lat":32.00495586666667,"lng":-81.28557801246643,"city_fetched":"Savannah,US","state":"GA","country":"United States","canonicalUrl":"https://foursquare.com/v/jts-pub--grill/4cf99c5bc671721ea261b818","categoryId":"4bf58dd8d48988d11b941735","category":"Pub","checkinsCount":298,"usersCount":86,"tipCount":7,"visitsCount":299,"url":"http://jtspub.com","tier":"","message":"","currency":"","rating":7.1},{"name":"Overtime","lat":32.0285896096239,"lng":-81.0704286023818,"city_fetched":"Savannah,US","state":"GA","country":"United States","canonicalUrl":"https://foursquare.com/v/overtime/4faaf6d4e4b09016f68bfa3a","categoryId":"4bf58dd8d48988d11d941735","category":"Sports Bar","checkinsCount":361,"usersCount":101,"tipCount":0,"visitsCount":436,"tier":"","message":"","currency":"","rating":7},{"name":"Perch At Local","address":"1300 Bull Street At Forsyth Park","lat":32.06414760921423,"lng":-81.09747774733476,"city_fetched":"Savannah,US","state":"GA","country":"United States","canonicalUrl":"https://foursquare.com/v/perch-at-local/4ebddfbf77c885a64d901d0e","categoryId":"4bf58dd8d48988d11e941735","category":"Cocktail Bar","checkinsCount":189,"usersCount":148,"tipCount":4,"visitsCount":193,"tier":"","message":"","currency":"","rating":7},{"name":"Dub's Pub","lat":32.08262765598838,"lng":-81.0941368563282,"neighborhood":"Historic District-North","city_fetched":"Savannah,US","state":"GA","country":"United States","canonicalUrl":"https://foursquare.com/v/dubs-pub/5079e4d1e4b0da238586b5e0","categoryId":"4bf58dd8d48988d11d941735","category":"Sports Bar","checkinsCount":1175,"usersCount":1097,"tipCount":15,"visitsCount":1551,"tier":"","message":"","currency":"","rating":7},{"name":"the Hearse Ghost Tour","phone":"9126951578","address":"412 E Duffy St","lat":32.08037006505009,"lng":-81.09240169215376,"neighborhood":"Historic District-North","city_fetched":"Savannah,US","state":"GA","country":"United States","canonicalUrl":"https://foursquare.com/v/the-hearse-ghost-tour/4c8c0cf9cf3ea143a6c8f151","categoryId":"4bf58dd8d48988d11a941735","category":"Other Nightlife","checkinsCount":239,"usersCount":229,"tipCount":8,"visitsCount":239,"tier":"","message":"","currency":"","rating":7},{"name":"Planter's Tavern","phone":"9122324286","twitter":"plantersinn","address":"23 Abercorn St","lat":32.07956922064791,"lng":-81.0896964837129,"neighborhood":"Historic District-North","city_fetched":"Savannah,US","state":"GA","country":"United States","canonicalUrl":"https://foursquare.com/v/planters-tavern/4d1ebca16e8c3704598bea9f","categoryId":"4bf58dd8d48988d121941735","category":"Lounge","checkinsCount":421,"usersCount":284,"tipCount":4,"visitsCount":423,"url":"http://plantersinnsavannah.com","tier":"","message":"","currency":"","rating":7},{"name":"Temptations","lat":32.108532,"lng":-81.08291445,"city_fetched":"Savannah,US","state":"SC","country":"United States","canonicalUrl":"https://foursquare.com/v/temptations/4c6f62ea9375a093fc080437","categoryId":"4bf58dd8d48988d1d6941735","category":"Strip Club","checkinsCount":343,"usersCount":343,"tipCount":4,"visitsCount":454,"tier":"","message":"","currency":"","rating":6.8},{"name":"Doubles","phone":"9123527100","address":"7100 Abercorn St","lat":32.01127643133522,"lng":-81.11304334040503,"city_fetched":"Savannah,US","state":"GA","country":"United States","canonicalUrl":"https://foursquare.com/v/doubles/4bf8a8a84a67c928f1da25cf","categoryId":"4bf58dd8d48988d116941735","category":"Bar","checkinsCount":367,"usersCount":122,"tipCount":3,"visitsCount":384,"tier":"","message":"","currency":"","rating":6.8},{"name":"Maxwell's","phone":"9123495878","address":"109 Jefferson St","lat":32.079375987757814,"lng":-81.09547861840159,"neighborhood":"Historic District-North","city_fetched":"Savannah,US","state":"GA","country":"United States","canonicalUrl":"https://foursquare.com/v/maxwells/4f2d520ee4b083c4271154a5","categoryId":"4bf58dd8d48988d123941735","category":"Wine Bar","checkinsCount":233,"usersCount":150,"tipCount":6,"visitsCount":233,"url":"http://www.maxwellssavannah.com","tier":"","message":"","currency":"","rating":6.8},{"name":"Dosha","phone":"9122320042","address":"128 E Broughton St","lat":32.07847055446648,"lng":-81.09023537731137,"neighborhood":"Historic District-North","city_fetched":"Savannah,US","state":"GA","country":"United States","canonicalUrl":"https://foursquare.com/v/dosha/4efe56a52c5b66f33adf5e12","categoryId":"4bf58dd8d48988d116941735","category":"Bar","checkinsCount":546,"usersCount":296,"tipCount":9,"visitsCount":547,"tier":"","message":"","currency":"","rating":6.8},{"name":"Tree House","address":"309 W Saint Julian St","lat":32.08074038023008,"lng":-81.09506908703496,"neighborhood":"Historic District-North","city_fetched":"Savannah,US","state":"GA","country":"United States","canonicalUrl":"https://foursquare.com/v/tree-house/507636f6e4b0859e5b1702e7","categoryId":"4bf58dd8d48988d116941735","category":"Bar","checkinsCount":1568,"usersCount":1259,"tipCount":12,"visitsCount":1588,"tier":2,"message":"Moderate","currency":"$","rating":6.7},{"name":"Vu Lounge","phone":"9122381234","twitter":"hyattconcierge","address":"2 W Bay St","lat":32.081582,"lng":-81.09113465,"neighborhood":"Historic District-North","city_fetched":"Savannah,US","state":"GA","country":"United States","canonicalUrl":"https://foursquare.com/v/vu-lounge/4c70550bdf6b8cfa1a09b84d","categoryId":"4bf58dd8d48988d1d5941735","category":"Hotel Bar","checkinsCount":412,"usersCount":290,"tipCount":10,"visitsCount":412,"tier":"","message":"","currency":"","rating":6.7},{"name":"Rusty Rudders","address":"303 W River St","lat":32.082759857177734,"lng":-81.09422302246094,"neighborhood":"Historic District-North","city_fetched":"Savannah,US","state":"GA","country":"United States","canonicalUrl":"https://foursquare.com/v/rusty-rudders/524f6c8411d249cee4b04ffb","categoryId":"4bf58dd8d48988d116941735","category":"Bar","checkinsCount":251,"usersCount":159,"tipCount":3,"visitsCount":266,"tier":2,"message":"Moderate","currency":"$","rating":6.7},{"name":"O'Connell's","phone":"9122312298","address":"42 Drayton St","lat":32.07900913778933,"lng":-81.09073654502953,"neighborhood":"Historic District-North","city_fetched":"Savannah,US","state":"GA","country":"United States","canonicalUrl":"https://foursquare.com/v/oconnells/4bad2f5bf964a520d5363be3","categoryId":"4bf58dd8d48988d11b941735","category":"Pub","checkinsCount":1499,"usersCount":804,"tipCount":26,"visitsCount":1558,"tier":1,"message":"Cheap","currency":"$","rating":6.7},{"name":"Barrel House South","twitter":"barrelhousesav","address":"125 W Congress St","lat":32.08007949565455,"lng":-81.09347943840264,"neighborhood":"Historic District-North","city_fetched":"Savannah,US","state":"GA","country":"United States","canonicalUrl":"https://foursquare.com/v/barrel-house-south/531fc89011d2500619884472","categoryId":"4bf58dd8d48988d116941735","category":"Bar","checkinsCount":325,"usersCount":219,"tipCount":1,"visitsCount":331,"url":"http://barrelhousesouth-hub.com","tier":"","message":"","currency":"","rating":6.6},{"name":"Tybee Time","lat":31.991497917730605,"lng":-80.84745793947961,"city_fetched":"Savannah,US","state":"GA","country":"United States","canonicalUrl":"https://foursquare.com/v/tybee-time/538ab5f8498e077069642c7b","categoryId":"52e81612bcbc57f1066b7a0d","category":"Beach Bar","checkinsCount":146,"usersCount":108,"tipCount":3,"visitsCount":149,"tier":"","message":"","currency":"","rating":6.6},{"name":"Island Daiquiri Cafe","phone":"9128989001","address":"313 Johnny Mercer Blvd","lat":32.01366126537323,"lng":-80.982272,"city_fetched":"Savannah,US","state":"GA","country":"United States","canonicalUrl":"https://foursquare.com/v/island-daiquiri-cafe/4bb659581344b7139a5e9d04","categoryId":"4bf58dd8d48988d116941735","category":"Bar","checkinsCount":460,"usersCount":132,"tipCount":5,"visitsCount":465,"tier":"","message":"","currency":"","rating":6.5},{"name":"51 Degrees","phone":"9122347265","twitter":"club51degrees","address":"121 W Congress St","lat":32.079992768919816,"lng":-81.09340399664819,"neighborhood":"Historic District-North","city_fetched":"Savannah,US","state":"GA","country":"United States","canonicalUrl":"https://foursquare.com/v/51-degrees/4b52308af964a520776e27e3","categoryId":"4bf58dd8d48988d11f941735","category":"Nightclub","checkinsCount":1317,"usersCount":601,"tipCount":9,"visitsCount":1337,"url":"http://www.myspace.com/51degreesnightclub","tier":"","message":"","currency":"","rating":6.5},{"name":"The Rooftop Tavern","address":"309 W Saint Julian St","lat":32.080715,"lng":-81.09511268,"neighborhood":"Historic District-North","city_fetched":"Savannah,US","state":"GA","country":"United States","canonicalUrl":"https://foursquare.com/v/the-rooftop-tavern/4b69f768f964a520bebe2be3","categoryId":"4bf58dd8d48988d116941735","category":"Bar","checkinsCount":1213,"usersCount":784,"tipCount":22,"visitsCount":1213,"tier":"","message":"","currency":"","rating":6.5},{"name":"SEED Eco Lounge","phone":"9123495100","twitter":"seedecolounge","address":"39 Montgomery St","lat":32.08054672405551,"lng":-81.09620068164368,"neighborhood":"Historic District-North","city_fetched":"Savannah,US","state":"GA","country":"United States","canonicalUrl":"https://foursquare.com/v/seed-eco-lounge/4b13cf81f964a520629923e3","categoryId":"4bf58dd8d48988d123941735","category":"Wine Bar","checkinsCount":2922,"usersCount":1149,"tipCount":19,"visitsCount":2935,"url":"http://seedecolounge-hub.com","tier":2,"message":"Moderate","currency":"$","rating":6.3},{"name":"Rogue Water Tap House","phone":"9123491549","address":"38 Martin Luther King Jr Blvd","lat":32.08080180656412,"lng":-81.09692812668057,"neighborhood":"Historic District-North","city_fetched":"Savannah,US","state":"GA","country":"United States","canonicalUrl":"https://foursquare.com/v/rogue-water-tap-house/4d66e967a800721efcaf09b8","categoryId":"4bf58dd8d48988d116941735","category":"Bar","checkinsCount":1926,"usersCount":800,"tipCount":15,"visitsCount":1946,"tier":1,"message":"Cheap","currency":"$","rating":6.3},{"name":"Chuck's Bar","phone":"9122321005","address":"301 W River St","lat":32.08265310187835,"lng":-81.094276961074,"neighborhood":"Historic District-North","city_fetched":"Savannah,US","state":"GA","country":"United States","canonicalUrl":"https://foursquare.com/v/chucks-bar/4b7f6493f964a520042c30e3","categoryId":"4bf58dd8d48988d116941735","category":"Bar","checkinsCount":2690,"usersCount":1014,"tipCount":18,"visitsCount":2785,"tier":1,"message":"Cheap","currency":"$","rating":6.2},{"name":"Retro On Congress","phone":"9125440731","address":"125 W Congress St","lat":32.08026,"lng":-81.093565,"neighborhood":"Historic District-North","city_fetched":"Savannah,US","state":"GA","country":"United States","canonicalUrl":"https://foursquare.com/v/retro-on-congress/4d94ee10647d8cfab31f943d","categoryId":"4bf58dd8d48988d116941735","category":"Bar","checkinsCount":1062,"usersCount":702,"tipCount":10,"visitsCount":1062,"tier":"","message":"","currency":"","rating":6},{"name":"Saddle Bags","phone":"9123495275","address":"317 W River St","lat":32.08287136163409,"lng":-81.09477810291962,"neighborhood":"Historic District-North","city_fetched":"Savannah,US","state":"GA","country":"United States","canonicalUrl":"https://foursquare.com/v/saddle-bags/4f7f6b7fe4b0eb34382734dd","categoryId":"4bf58dd8d48988d116941735","category":"Bar","checkinsCount":1433,"usersCount":946,"tipCount":13,"visitsCount":1457,"tier":"","message":"","currency":"","rating":5.9},{"name":"Isaac's on Drayton","phone":"9122310100","address":"9 Drayton St","lat":32.08026036496299,"lng":-81.09026771080933,"neighborhood":"Historic District-North","city_fetched":"Savannah,US","state":"GA","country":"United States","canonicalUrl":"https://foursquare.com/v/isaacs-on-drayton/4b9b13faf964a52005f135e3","categoryId":"4bf58dd8d48988d116941735","category":"Bar","checkinsCount":614,"usersCount":459,"tipCount":12,"visitsCount":614,"tier":"","message":"","currency":"","rating":5.4}]