[{"name":"Union Bar","phone":"3084367741","address":"1403 10th St","lat":41.822788142576584,"lng":-103.66062249015867,"city_fetched":"Scottsbluff,US","state":"NE","country":"United States","canonicalUrl":"https://foursquare.com/v/union-bar/4bedf889a40fc92811d9820c","categoryId":"4bf58dd8d48988d116941735","category":"Bar","checkinsCount":460,"usersCount":152,"tipCount":3,"visitsCount":534,"tier":"","message":"","currency":"","rating":7.9},{"name":"Backaracks","address":"1402 E 20th St","lat":41.86618474698596,"lng":-103.6451718915253,"city_fetched":"Scottsbluff,US","state":"NE","country":"United States","canonicalUrl":"https://foursquare.com/v/backaracks/506fa98ce4b0184b5ad4f94f","categoryId":"4bf58dd8d48988d116941735","category":"Bar","checkinsCount":196,"usersCount":120,"tipCount":5,"visitsCount":339,"tier":"","message":"","currency":"","rating":6.6},{"name":"Oregon Trail Lounge","phone":"3084367943","address":"310 M St","lat":41.82221741379452,"lng":-103.64896512052337,"city_fetched":"Scottsbluff,US","state":"NE","country":"United States","canonicalUrl":"https://foursquare.com/v/oregon-trail-lounge/4b5b7e6ff964a520620229e3","categoryId":"4bf58dd8d48988d121941735","category":"Lounge","checkinsCount":115,"usersCount":76,"tipCount":1,"visitsCount":157,"tier":"","message":"","currency":"","rating":5.3}]