[{"name":"Ale Mary's","phone":"5709550176","address":"126 Franklin Ave","lat":41.409708331181946,"lng":-75.66788720968202,"neighborhood":"Downtown Scranton","city_fetched":"Scranton","state":"PA","country":"United States","canonicalUrl":"https://foursquare.com/v/ale-marys/5319390c498e15f988b56094","category":"Bar","checkinsCount":763,"usersCount":541,"tipCount":11,"visitsCount":1278,"url":"http://thebittenbender.com","tier":"","message":"","currency":"","rating":8.8},{"name":"Zaleski's Clubhouse Cafe","phone":"5703420493","address":"934 Beech St","lat":41.3913163031944,"lng":-75.65975189208984,"neighborhood":"South Side","city_fetched":"Scranton","state":"PA","country":"United States","canonicalUrl":"https://foursquare.com/v/zaleskis-clubhouse-cafe/4bcf7442462cb713f9bdd607","category":"Wings Joint","checkinsCount":683,"usersCount":296,"tipCount":8,"visitsCount":825,"url":"http://www.zaleskisclubhouse.com","tier":1,"message":"Cheap","currency":"$","rating":8.6},{"name":"Jack's Draft House","phone":"5703447040","address":"802-804 Prescott Ave","lat":41.40797336681309,"lng":-75.64451694488525,"neighborhood":"Hill Section","city_fetched":"Scranton","state":"PA","country":"United States","canonicalUrl":"https://foursquare.com/v/jacks-draft-house/4b62526af964a5202b422ae3","category":"Bar","checkinsCount":1364,"usersCount":500,"tipCount":19,"visitsCount":1572,"url":"http://jacksdrafthouse.com","tier":2,"message":"Moderate","currency":"$","rating":8.6},{"name":"Posh @ The Scranton Club","phone":"5709555890","address":"N. Washington Ave.","lat":41.410132,"lng":-75.660758,"neighborhood":"Downtown Scranton","city_fetched":"Scranton","state":"PA","country":"United States","canonicalUrl":"https://foursquare.com/v/posh--the-scranton-club/4e9e0e742c5b176f1c68b52e","category":"Lounge","checkinsCount":883,"usersCount":555,"tipCount":12,"visitsCount":1116,"url":"http://poshatsc.com","tier":"","message":"","currency":"","rating":8.6},{"name":"Colarusso's Coal Fired Pizza","phone":"5704892627","address":"1126 Commerce Blvd","lat":41.46678515229239,"lng":-75.64018249511719,"city_fetched":"Scranton","state":"PA","country":"United States","canonicalUrl":"https://foursquare.com/v/colarussos-coal-fired-pizza/4d66e63af23f3704930dc133","category":"Pizza Place","checkinsCount":781,"usersCount":417,"tipCount":25,"visitsCount":816,"url":"http://www.colarussoscoalfiredpizza.com","tier":"","message":"","currency":"","rating":8.5},{"name":"The Loading Dock Bar and Grill","phone":"5703467391","twitter":"loadingdockbg","address":"1206 Oneill Hwy","lat":41.43387873710317,"lng":-75.61986822416131,"city_fetched":"Scranton","state":"PA","country":"United States","canonicalUrl":"https://foursquare.com/v/the-loading-dock-bar-and-grill/4c6afeb796eaa593647521df","category":"American Restaurant","checkinsCount":1159,"usersCount":600,"tipCount":36,"visitsCount":1460,"url":"http://www.theloadingdockbarandgrill.com","tier":2,"message":"Moderate","currency":"$","rating":8.5},{"name":"Backyard Ale House","phone":"5709550192","address":"523 Linden St","lat":41.408915,"lng":-75.66125538333333,"neighborhood":"Downtown Scranton","city_fetched":"Scranton","state":"PA","country":"United States","canonicalUrl":"https://foursquare.com/v/backyard-ale-house/4b63c5edf964a520f5902ae3","category":"Beer Garden","checkinsCount":5723,"usersCount":1910,"tipCount":30,"visitsCount":6501,"url":"http://backyardalehouse.com","tier":2,"message":"Moderate","currency":"$","rating":8.5},{"name":"The Bog","phone":"5703416761","address":"341 Adams Ave","lat":41.40920235291352,"lng":-75.65997888579602,"neighborhood":"Downtown Scranton","city_fetched":"Scranton","state":"PA","country":"United States","canonicalUrl":"https://foursquare.com/v/the-bog/4b511c23f964a520fb4227e3","category":"Bar","checkinsCount":2212,"usersCount":641,"tipCount":21,"visitsCount":2389,"tier":1,"message":"Cheap","currency":"$","rating":8.4},{"name":"Waldos","phone":"5709618904","address":"406 Green Ridge St","lat":41.43092683466786,"lng":-75.65557003614808,"neighborhood":"Greenridge","city_fetched":"Scranton","state":"PA","country":"United States","canonicalUrl":"https://foursquare.com/v/waldos/4bb2c2f214cfd13ab66915ab","category":"Bar","checkinsCount":2697,"usersCount":155,"tipCount":7,"visitsCount":2781,"tier":"","message":"","currency":"","rating":8.4},{"name":"Legends Saloon","phone":"5704890900","address":"750 Boulevard Ave","lat":41.458422175466566,"lng":-75.62342004400362,"city_fetched":"Scranton","state":"PA","country":"United States","canonicalUrl":"https://foursquare.com/v/legends-saloon/4c26b0a9c11dc9b67f7f2924","category":"Bar","checkinsCount":337,"usersCount":173,"tipCount":10,"visitsCount":403,"tier":"","message":"","currency":"","rating":8.2},{"name":"The 12 Penny Saloon","phone":"5709410444","address":"3501 Birney Ave","lat":41.372940764073626,"lng":-75.70149846781753,"city_fetched":"Scranton","state":"PA","country":"United States","canonicalUrl":"https://foursquare.com/v/the-12-penny-saloon/4bd6544a637ba5939e23f870","category":"Gay Bar","checkinsCount":1379,"usersCount":333,"tipCount":6,"visitsCount":1509,"url":"http://www.12pennysaloon.com","tier":1,"message":"Cheap","currency":"$","rating":8.2},{"name":"Honkey Tonk Restaurant-Saloon","phone":"5709612328","address":"763 E Drinker St","lat":41.418920158360145,"lng":-75.61475247144699,"city_fetched":"Scranton","state":"PA","country":"United States","canonicalUrl":"https://foursquare.com/v/honkey-tonk-restaurantsaloon/4c4d8ff09efabe9ae910b468","category":"Bar","checkinsCount":917,"usersCount":518,"tipCount":14,"visitsCount":1119,"tier":"","message":"","currency":"","rating":8.2},{"name":"Andy Gavin's","phone":"5703468864","address":"1392 N Washington Ave","lat":41.422908744467115,"lng":-75.64714399015251,"city_fetched":"Scranton","state":"PA","country":"United States","canonicalUrl":"https://foursquare.com/v/andy-gavins/4b70d1adf964a52007302de3","category":"Bar","checkinsCount":2555,"usersCount":819,"tipCount":20,"visitsCount":2857,"url":"http://andygavins.com","tier":2,"message":"Moderate","currency":"$","rating":8.1},{"name":"Smiler's Grill and Bar","phone":"5703830041","address":"600 Main St","lat":41.45754782640864,"lng":-75.62766506613323,"city_fetched":"Scranton","state":"PA","country":"United States","canonicalUrl":"https://foursquare.com/v/smilers-grill-and-bar/4c819741d4e2370496a05f88","category":"Bar","checkinsCount":795,"usersCount":425,"tipCount":11,"visitsCount":937,"tier":2,"message":"Moderate","currency":"$","rating":8.1},{"name":"Morganz Pub & Eatery","phone":"5703448300","address":"315 Green Ridge St","lat":41.43159107794629,"lng":-75.65595638397241,"neighborhood":"Greenridge","city_fetched":"Scranton","state":"PA","country":"United States","canonicalUrl":"https://foursquare.com/v/morganz-pub--eatery/4bdcd147afe8c9b65b315185","category":"American Restaurant","checkinsCount":1506,"usersCount":348,"tipCount":5,"visitsCount":1590,"url":"http://www.morganzpubandeatery.com","tier":"","message":"","currency":"","rating":8},{"name":"The V Spot","phone":"5709637888","address":"906 Providence Rd","lat":41.42192884687085,"lng":-75.66530228036393,"city_fetched":"Scranton","state":"PA","country":"United States","canonicalUrl":"https://foursquare.com/v/the-v-spot/4ce341301594236a7077f649","category":"Bar","checkinsCount":2285,"usersCount":474,"tipCount":11,"visitsCount":2523,"url":"http://vspotbar.com","tier":"","message":"","currency":"","rating":8},{"name":"The Penalty Box","phone":"5703436110","address":"3277 Pittston Ave","lat":41.374858,"lng":-75.696501,"neighborhood":"Minooka","city_fetched":"Scranton","state":"PA","country":"United States","canonicalUrl":"https://foursquare.com/v/the-penalty-box/4dbf862bcda12687c836a500","category":"Bar","checkinsCount":1743,"usersCount":454,"tipCount":12,"visitsCount":2018,"tier":"","message":"","currency":"","rating":7.9},{"name":"Coopers Seafood House","phone":"5703466883","twitter":"coopersseafood","address":"701 N Washington Ave","lat":41.41456793044565,"lng":-75.65681429974573,"city_fetched":"Scranton","state":"PA","country":"United States","canonicalUrl":"https://foursquare.com/v/coopers-seafood-house/4bdcc0823904a5933b9c4f9e","category":"Seafood Restaurant","checkinsCount":4038,"usersCount":2069,"tipCount":56,"visitsCount":4978,"url":"http://www.coopers-seafood.com","tier":2,"message":"Moderate","currency":"$","rating":7.8},{"name":"The Green Frog","phone":"5709699989","twitter":"greenfrog_scr","address":"815 Mulberry St","lat":41.407838,"lng":-75.656708,"neighborhood":"Hill Section","city_fetched":"Scranton","state":"PA","country":"United States","canonicalUrl":"https://foursquare.com/v/the-green-frog/4b914208f964a520cbad33e3","category":"Bar","checkinsCount":397,"usersCount":170,"tipCount":4,"visitsCount":397,"url":"http://www.greenfrogscranton.com","tier":"","message":"","currency":"","rating":7.8},{"name":"TGI Fridays","phone":"5705585500","twitter":"tgifridays","address":"620 Scranton Carbondale Hwy","lat":41.46403356,"lng":-75.6500262,"city_fetched":"Scranton","state":"PA","country":"United States","canonicalUrl":"https://foursquare.com/v/tgi-fridays/4b60bf24f964a52019f729e3","category":"American Restaurant","checkinsCount":2391,"usersCount":1245,"tipCount":13,"visitsCount":2591,"url":"http://tgifridays.com","tier":2,"message":"Moderate","currency":"$","rating":7.5},{"name":"O'malley's Tavern","address":"3277 Birney Ave","lat":41.37563613012667,"lng":-75.69743735525023,"neighborhood":"Minooka","city_fetched":"Scranton","state":"PA","country":"United States","canonicalUrl":"https://foursquare.com/v/omalleys-tavern/4c9035aa04a1b60c5dd2a53e","category":"Bar","checkinsCount":879,"usersCount":179,"tipCount":6,"visitsCount":972,"tier":"","message":"","currency":"","rating":7.5},{"name":"Texas Roadhouse","phone":"5703835358","twitter":"texasroadhouse","address":"1255 Commerce Blvd.","lat":41.46631671123003,"lng":-75.63619451759136,"city_fetched":"Scranton","state":"PA","country":"United States","canonicalUrl":"https://foursquare.com/v/texas-roadhouse/4b5659b8f964a520b30c28e3","category":"Steakhouse","checkinsCount":2459,"usersCount":1287,"tipCount":22,"visitsCount":2755,"url":"http://www.texasroadhouse.com","tier":2,"message":"Moderate","currency":"$","rating":7.5},{"name":"The Glass Onion","phone":"5703470199","address":"Prescott Ave","lat":41.41134,"lng":-75.640945,"neighborhood":"Hill Section","city_fetched":"Scranton","state":"PA","country":"United States","canonicalUrl":"https://foursquare.com/v/the-glass-onion/4c0149c6b45676b0b5e2e080","category":"Dive Bar","checkinsCount":211,"usersCount":80,"tipCount":2,"visitsCount":227,"tier":"","message":"","currency":"","rating":7.5},{"name":"The Dugout","phone":"5703424121","address":"401 S Webster Ave","lat":41.398477412101975,"lng":-75.65983772277832,"neighborhood":"South Side","city_fetched":"Scranton","state":"PA","country":"United States","canonicalUrl":"https://foursquare.com/v/the-dugout/4b933a65f964a5203a3c34e3","category":"Bar","checkinsCount":476,"usersCount":133,"tipCount":1,"visitsCount":531,"tier":"","message":"","currency":"","rating":7.4},{"name":"Bar Hill","lat":41.411076,"lng":-75.641691,"neighborhood":"Hill Section","city_fetched":"Scranton","state":"Pennsylvania","country":"United States","canonicalUrl":"https://foursquare.com/v/bar-hill/509a806ae4b07f2723cefbf2","category":"Wine Bar","checkinsCount":524,"usersCount":132,"tipCount":6,"visitsCount":593,"tier":"","message":"","currency":"","rating":7.3},{"name":"Farr Street Tavern","phone":"5709619641","address":"1601 Farr St","lat":41.426405606903,"lng":-75.67615299418704,"city_fetched":"Scranton","state":"PA","country":"United States","canonicalUrl":"https://foursquare.com/v/farr-street-tavern/4d90c8d4788c54810b416cfd","category":"Bar","checkinsCount":888,"usersCount":100,"tipCount":3,"visitsCount":900,"tier":"","message":"","currency":"","rating":7.2},{"name":"Waldorf","phone":"5703482285","address":"13 Waldorf Ln","lat":41.391473107063234,"lng":-75.64680875641382,"neighborhood":"East Mountain","city_fetched":"Scranton","state":"PA","country":"United States","canonicalUrl":"https://foursquare.com/v/waldorf/4bc11f6e461576b0e77f7b32","category":"Bar","checkinsCount":562,"usersCount":172,"tipCount":3,"visitsCount":653,"url":"http://waldorfparktiki.com","tier":"","message":"","currency":"","rating":7.2},{"name":"Mickey Gannon's","phone":"5703436234","address":"1925 Sanderson Ave.","lat":41.43371930538098,"lng":-75.6475701336246,"neighborhood":"Greenridge","city_fetched":"Scranton","state":"PA","country":"United States","canonicalUrl":"https://foursquare.com/v/mickey-gannons/4c084e02bbc676b0916846d5","category":"Wings Joint","checkinsCount":664,"usersCount":239,"tipCount":8,"visitsCount":759,"tier":"","message":"","currency":"","rating":7.2},{"name":"Diskin's Saloon","phone":"5709630770","address":"2716 Birney Ave","lat":41.3817,"lng":-75.6887499,"neighborhood":"Minooka","city_fetched":"Scranton","state":"PA","country":"United States","canonicalUrl":"https://foursquare.com/v/diskins-saloon/4b8739e0f964a5205cb731e3","category":"Bar","checkinsCount":412,"usersCount":89,"tipCount":2,"visitsCount":428,"tier":"","message":"","currency":"","rating":7.2},{"name":"Kildare's Irish Pub","phone":"5703444030","twitter":"kildarescranton","address":"119 Jefferson Ave","lat":41.40605788637791,"lng":-75.66208667787762,"neighborhood":"Downtown Scranton","city_fetched":"Scranton","state":"PA","country":"United States","canonicalUrl":"https://foursquare.com/v/kildares-irish-pub/49fc5cd7f964a520956e1fe3","category":"Pub","checkinsCount":5885,"usersCount":2263,"tipCount":43,"visitsCount":6158,"url":"http://www.kildaresirishpub.com","tier":2,"message":"Moderate","currency":"$","rating":7.1},{"name":"Whiskey Dick's","phone":"5703429824","address":"308 N Washington Ave","lat":41.409205450346704,"lng":-75.66208099653835,"neighborhood":"Downtown Scranton","city_fetched":"Scranton","state":"PA","country":"United States","canonicalUrl":"https://foursquare.com/v/whiskey-dicks/4baa45eaf964a520e4593ae3","category":"Bar","checkinsCount":532,"usersCount":273,"tipCount":3,"visitsCount":541,"tier":"","message":"","currency":"","rating":7},{"name":"Billy B's","phone":"5703417879","address":"138 Smith St","lat":41.417918488959195,"lng":-75.62235116958618,"city_fetched":"Scranton","state":"PA","country":"United States","canonicalUrl":"https://foursquare.com/v/billy-bs/4c648ee3f67ec9283a5e5527","category":"Bar","checkinsCount":486,"usersCount":271,"tipCount":12,"visitsCount":552,"tier":"","message":"","currency":"","rating":7},{"name":"Honeychild's","phone":"5702072734","address":"110 N. Blakely St.","lat":41.42189394972062,"lng":-75.62991538940678,"city_fetched":"Scranton","state":"PA","country":"United States","canonicalUrl":"https://foursquare.com/v/honeychilds/4dd96a138877f115101a317b","category":"Bar","checkinsCount":397,"usersCount":117,"tipCount":3,"visitsCount":403,"tier":"","message":"","currency":"","rating":7},{"name":"The Keys","address":"244 Penn Ave","lat":41.410647,"lng":-75.664916,"neighborhood":"Downtown Scranton","city_fetched":"Scranton","state":"PA","country":"United States","canonicalUrl":"https://foursquare.com/v/the-keys/4bce6747fb84c9b650df233e","category":"Bar","checkinsCount":1239,"usersCount":312,"tipCount":11,"visitsCount":1331,"tier":1,"message":"Cheap","currency":"$","rating":6.9}]