[{"name":"Spinasse","phone":"2062517673","twitter":"spinasse","address":"1531 14th Avenue","lat":47.61431,"lng":-122.31431,"neighborhood":"Capitol Hill","city_fetched":"Seattle","state":"WA","country":"United States","canonicalUrl":"https://foursquare.com/v/spinasse/49e0420af964a5204b611fe3","category":"Italian Restaurant","checkinsCount":3407,"usersCount":2283,"tipCount":76,"visitsCount":3528,"url":"http://www.spinasse.com/#dzRNWM","tier":3,"message":"Expensive","currency":"$","rating":9.5},{"name":"Bakery Nouveau","phone":"2068586957","twitter":"bnlounge","address":"1435 E John St","lat":47.61951461582449,"lng":-122.31303870677948,"neighborhood":"Capitol Hill","city_fetched":"Seattle","state":"WA","country":"United States","canonicalUrl":"https://foursquare.com/v/bakery-nouveau/51755180e4b01f6b164ed9b2","category":"Bakery","checkinsCount":4479,"usersCount":2419,"tipCount":66,"visitsCount":5868,"url":"http://www.bakerynouveau.com","tier":2,"message":"Moderate","currency":"$","rating":9.5},{"name":"Café Presse","phone":"2067097674","address":"1117 12th Ave","lat":47.61219554131669,"lng":-122.31714248657227,"neighborhood":"First Hill","city_fetched":"Seattle","state":"WA","country":"United States","canonicalUrl":"https://foursquare.com/v/caf%C3%A9-presse/46977605f964a520e5481fe3","category":"French Restaurant","checkinsCount":11979,"usersCount":4953,"tipCount":123,"visitsCount":12500,"url":"http://cafepresseseattle.com","tier":2,"message":"Moderate","currency":"$","rating":9.4},{"name":"Chuck's Hop Shop","phone":"2062976212","twitter":"chucks85th","address":"656 NW 85th St","lat":47.69080105470987,"lng":-122.36584605692941,"neighborhood":"Greenwood","city_fetched":"Seattle","state":"WA","country":"United States","canonicalUrl":"https://foursquare.com/v/chucks-hop-shop/4bec77f6d6e676b0848264d4","category":"Beer Store","checkinsCount":7272,"usersCount":2534,"tipCount":49,"visitsCount":9585,"url":"http://chucks85th.com","tier":"","message":"","currency":"","rating":9.4},{"name":"Fremont Brewing Company","phone":"2064202407","twitter":"fremontbrewing","address":"3409 Woodland Park Ave N","lat":47.64902743926716,"lng":-122.34464548812034,"neighborhood":"Fremont","city_fetched":"Seattle","state":"WA","country":"United States","canonicalUrl":"https://foursquare.com/v/fremont-brewing-company/40b13b00f964a52081f61ee3","category":"Brewery","checkinsCount":11991,"usersCount":7267,"tipCount":112,"visitsCount":15304,"url":"http://www.fremontbrewing.com","tier":1,"message":"Cheap","currency":"$","rating":9.4},{"name":"Reuben's Brews","phone":"2067842859","twitter":"reubensbrews","address":"1406 NW 53rd St Ste 1A","lat":47.66732166779699,"lng":-122.37415316855241,"neighborhood":"Ballard","city_fetched":"Seattle","state":"WA","country":"United States","canonicalUrl":"https://foursquare.com/v/reubens-brews/4f1c60f5e4b04ae084158528","category":"Brewery","checkinsCount":4494,"usersCount":2121,"tipCount":38,"visitsCount":5792,"url":"http://reubensbrews.com","tier":2,"message":"Moderate","currency":"$","rating":9.4},{"name":"Buddha Ruksa","phone":"2069377676","address":"3520 SW Genesee St","lat":47.5647703288108,"lng":-122.37730979919434,"neighborhood":"West Seattle","city_fetched":"Seattle","state":"WA","country":"United States","canonicalUrl":"https://foursquare.com/v/buddha-ruksa/466ed01ef964a520ba471fe3","category":"Asian Restaurant","checkinsCount":2848,"usersCount":1470,"tipCount":52,"visitsCount":3189,"url":"http://www.buddharuksa.com","tier":2,"message":"Moderate","currency":"$","rating":9.3},{"name":"Canon","phone":"2065529755","twitter":"canonseattle","address":"928 12th Ave","lat":47.611202,"lng":-122.31668651103973,"city_fetched":"Seattle","state":"WA","country":"United States","canonicalUrl":"https://foursquare.com/v/canon/4e18cb79d1648b834836786e","category":"Cocktail Bar","checkinsCount":8138,"usersCount":4583,"tipCount":118,"visitsCount":8779,"url":"http://www.canonseattle.com","tier":3,"message":"Expensive","currency":"$","rating":9.3},{"name":"Honeyhole","phone":"2067091399","twitter":"honeholesandwi","address":"703 E Pike St","lat":47.613913301495785,"lng":-122.32316404581069,"neighborhood":"First Hill","city_fetched":"Seattle","state":"WA","country":"United States","canonicalUrl":"https://foursquare.com/v/honeyhole/423b6b80f964a52039201fe3","category":"Sandwich Place","checkinsCount":11558,"usersCount":5963,"tipCount":126,"visitsCount":13042,"url":"http://www.thehoneyhole.com","tier":2,"message":"Moderate","currency":"$","rating":9.3},{"name":"The Walrus and the Carpenter","phone":"2063959227","twitter":"thewalrusbar","address":"4743 Ballard Ave NW","lat":47.66341838858932,"lng":-122.38028705120087,"neighborhood":"Ballard","city_fetched":"Seattle","state":"WA","country":"United States","canonicalUrl":"https://foursquare.com/v/the-walrus-and-the-carpenter/4c60a06213791b8d151f50af","category":"Seafood Restaurant","checkinsCount":6466,"usersCount":4986,"tipCount":183,"visitsCount":6883,"url":"http://thewalrusbar.com","tier":3,"message":"Expensive","currency":"$","rating":9.3},{"name":"Toulouse Petit Kitchen & Lounge","phone":"2064329069","twitter":"toulousepetit","address":"601 Queen Anne Ave N","lat":47.624775,"lng":-122.356852,"neighborhood":"Lower Queen Anne","city_fetched":"Seattle","state":"WA","country":"United States","canonicalUrl":"https://foursquare.com/v/toulouse-petit-kitchen--lounge/4ae60430f964a52018a421e3","category":"Cajun / Creole Restaurant","checkinsCount":20151,"usersCount":10795,"tipCount":223,"visitsCount":21010,"url":"http://www.toulousepetit.com","tier":2,"message":"Moderate","currency":"$","rating":9.2},{"name":"Holy Mountain Brewing Company","twitter":"holymtnbrewing","address":"1421 Elliott Ave W","lat":47.63073763200203,"lng":-122.37462755736033,"neighborhood":"Interbay","city_fetched":"Seattle","state":"WA","country":"United States","canonicalUrl":"https://foursquare.com/v/holy-mountain-brewing-company/53cb3d97498eaf7d403ef4f3","category":"Brewery","checkinsCount":1427,"usersCount":937,"tipCount":14,"visitsCount":1851,"url":"http://holymountainbrewing.com","tier":"","message":"","currency":"","rating":9.2},{"name":"Twilight Exit","phone":"2063247462","twitter":"twilightexit","address":"2514 E Cherry St","lat":47.608130553547454,"lng":-122.29954719543457,"city_fetched":"Seattle","state":"WA","country":"United States","canonicalUrl":"https://foursquare.com/v/twilight-exit/40b3de00f964a52017001fe3","category":"Bar","checkinsCount":10222,"usersCount":2065,"tipCount":57,"visitsCount":10993,"url":"http://twilightexit.com","tier":2,"message":"Moderate","currency":"$","rating":9.2},{"name":"Bottlehouse","phone":"2067087164","twitter":"bottlehouseseattle","address":"1416 34th Ave","lat":47.61338170595358,"lng":-122.28929042816162,"neighborhood":"Madrona","city_fetched":"Seattle","state":"WA","country":"United States","canonicalUrl":"https://foursquare.com/v/bottlehouse/4bd3e54b046076b050267771","category":"Wine Bar","checkinsCount":1893,"usersCount":824,"tipCount":23,"visitsCount":1972,"url":"http://bottlehouseseattle.com","tier":2,"message":"Moderate","currency":"$","rating":9.2},{"name":"Le Caviste","phone":"2067282657","address":"1919 7th Ave","lat":47.61497072439597,"lng":-122.33686730824417,"neighborhood":"Belltown","city_fetched":"Seattle","state":"WA","country":"United States","canonicalUrl":"https://foursquare.com/v/le-caviste/52b68abb498e0ba0a50bc0ec","category":"Wine Bar","checkinsCount":655,"usersCount":388,"tipCount":11,"visitsCount":669,"url":"http://lecavisteseattle.com","tier":2,"message":"Moderate","currency":"$","rating":9.2},{"name":"Chuck's Hop Shop - Central District","phone":"2065380743","address":"2001 E Union St","lat":47.61283202324746,"lng":-122.30607032775879,"city_fetched":"Seattle","state":"WA","country":"United States","canonicalUrl":"https://foursquare.com/v/chucks-hop-shop--central-district/513680e47ab48a1d5b9c0ae1","category":"Beer Store","checkinsCount":4477,"usersCount":2061,"tipCount":30,"visitsCount":6537,"url":"http://www.chuckscd.com","tier":"","message":"","currency":"","rating":9.2},{"name":"Umi Sake House","phone":"2063748717","address":"2230 1st Ave","lat":47.61326960008122,"lng":-122.34602183103561,"neighborhood":"Belltown","city_fetched":"Seattle","state":"WA","country":"United States","canonicalUrl":"https://foursquare.com/v/umi-sake-house/447da2d6f964a520fb331fe3","category":"Sushi Restaurant","checkinsCount":16947,"usersCount":9000,"tipCount":209,"visitsCount":17198,"url":"http://umisakehouse.com","tier":2,"message":"Moderate","currency":"$","rating":9.1},{"name":"Zig Zag Cafe","phone":"2066251146","address":"1501 Western Ave","lat":47.60827612462268,"lng":-122.34152644872665,"neighborhood":"Pike Place","city_fetched":"Seattle","state":"WA","country":"United States","canonicalUrl":"https://foursquare.com/v/zig-zag-cafe/40b13b00f964a5203df71ee3","category":"Cocktail Bar","checkinsCount":9940,"usersCount":5810,"tipCount":133,"visitsCount":10341,"url":"http://zigzagseattle.com","tier":2,"message":"Moderate","currency":"$","rating":9.1},{"name":"Central Cinema","phone":"2066866684","twitter":"centralcinema","address":"1411 21st Ave","lat":47.6133150991113,"lng":-122.30522539525313,"city_fetched":"Seattle","state":"WA","country":"United States","canonicalUrl":"https://foursquare.com/v/central-cinema/44df89c8f964a520f2361fe3","category":"Indie Movie Theater","checkinsCount":5066,"usersCount":2205,"tipCount":31,"visitsCount":5355,"url":"http://www.central-cinema.com","tier":"","message":"","currency":"","rating":9.1},{"name":"Local 360","phone":"2064419360","twitter":"local360seattle","address":"2234 1st Ave","lat":47.61338659737346,"lng":-122.34633981189022,"neighborhood":"Belltown","city_fetched":"Seattle","state":"WA","country":"United States","canonicalUrl":"https://foursquare.com/local360seattle","category":"Gastropub","checkinsCount":15373,"usersCount":9757,"tipCount":238,"visitsCount":17222,"url":"http://www.local360.org","tier":3,"message":"Expensive","currency":"$","rating":9.1},{"name":"Flying Bike Cooperative Brewery","twitter":"flyingbikecoop","address":"8570 Greenwood Ave N","lat":47.692085061134094,"lng":-122.35504137786036,"neighborhood":"Greenwood","city_fetched":"Seattle","state":"WA","country":"United States","canonicalUrl":"https://foursquare.com/v/flying-bike-cooperative-brewery/548c8781498ed1c276634ca7","category":"Brewery","checkinsCount":604,"usersCount":258,"tipCount":10,"visitsCount":668,"url":"http://www.flyingbike.coop","tier":"","message":"","currency":"","rating":9.1},{"name":"Bastille Café & Bar","phone":"2064535014","twitter":"bastilleseattle","address":"5307 Ballard Ave NW","lat":47.666504429842,"lng":-122.38355510354666,"neighborhood":"Ballard","city_fetched":"Seattle","state":"WA","country":"United States","canonicalUrl":"https://foursquare.com/v/bastille-caf%C3%A9--bar/4a4ad742f964a5203cac1fe3","category":"French Restaurant","checkinsCount":10343,"usersCount":5522,"tipCount":93,"visitsCount":10486,"url":"http://www.bastilleseattle.com","tier":2,"message":"Moderate","currency":"$","rating":9.1},{"name":"Cloudburst Brewing","twitter":"cloudburst_brew","address":"2116 Western Ave","lat":47.61144065801491,"lng":-122.34536149863426,"neighborhood":"Belltown","city_fetched":"Seattle","state":"WA","country":"United States","canonicalUrl":"https://foursquare.com/v/cloudburst-brewing/54f8d7cd498e011cb93ae3c9","category":"Brewery","checkinsCount":948,"usersCount":858,"tipCount":13,"visitsCount":1349,"url":"http://www.cloudburstbrew.com","tier":"","message":"","currency":"","rating":9.1},{"name":"Schilling Cider House","phone":"2064207088","twitter":"cidersociety","address":"708 34th Ave NE","lat":47.649474978633016,"lng":-122.34901964727179,"neighborhood":"Fremont","city_fetched":"Seattle","state":"WA","country":"United States","canonicalUrl":"https://foursquare.com/v/schilling-cider-house/54027198498ed729c02ed6c6","category":"Bar","checkinsCount":1614,"usersCount":1003,"tipCount":16,"visitsCount":1929,"url":"http://schillingcider.com/schilling-cider-house/","tier":"","message":"","currency":"","rating":9.1},{"name":"Smith","phone":"2067091900","twitter":"smithseattle","address":"332 15th Ave E","lat":47.621532796618126,"lng":-122.3124891834766,"neighborhood":"Capitol Hill","city_fetched":"Seattle","state":"WA","country":"United States","canonicalUrl":"https://foursquare.com/v/smith/46781e65f964a520e9471fe3","category":"Pub","checkinsCount":12450,"usersCount":5136,"tipCount":84,"visitsCount":13334,"url":"http://www.smithseattle.com","tier":2,"message":"Moderate","currency":"$","rating":9.1},{"name":"Purple Café & Wine Bar","phone":"2068292280","twitter":"heavyrestaurant","address":"1225 4th Ave","lat":47.608198717348294,"lng":-122.33486672685662,"neighborhood":"Seattle Central Business District","city_fetched":"Seattle","state":"WA","country":"United States","canonicalUrl":"https://foursquare.com/v/purple-caf%C3%A9--wine-bar/47a4ec98f964a520834d1fe3","category":"Wine Bar","checkinsCount":13318,"usersCount":9698,"tipCount":154,"visitsCount":14034,"url":"http://www.purplecafe.com","tier":2,"message":"Moderate","currency":"$","rating":9.1},{"name":"Brouwer's Cafe","phone":"2062672437","twitter":"brouwerscafe","address":"400 N 35th St","lat":47.651678732878814,"lng":-122.3542033601333,"neighborhood":"Fremont","city_fetched":"Seattle","state":"WA","country":"United States","canonicalUrl":"https://foursquare.com/v/brouwers-cafe/437e6b00f964a520bd2a1fe3","category":"Pub","checkinsCount":16056,"usersCount":7595,"tipCount":97,"visitsCount":17085,"url":"http://brouwerscafe.blogspot.com","tier":2,"message":"Moderate","currency":"$","rating":9.1},{"name":"Rachel's Ginger Beer","phone":"2064674924","twitter":"rgbsoda","address":"1530 Post Aly","lat":47.60956729812789,"lng":-122.34126993203112,"neighborhood":"Pike Place","city_fetched":"Seattle","state":"WA","country":"United States","canonicalUrl":"https://foursquare.com/v/rachels-ginger-beer/51c1286f498e2505fd764fbe","category":"Brewery","checkinsCount":4884,"usersCount":3502,"tipCount":78,"visitsCount":4953,"url":"http://rachelsgingerbeer.com","tier":2,"message":"Moderate","currency":"$","rating":9.1},{"name":"Bathtub Gin & Co.","phone":"2067286069","address":"2205 2nd Ave","lat":47.612886268508305,"lng":-122.3451367020607,"neighborhood":"Belltown","city_fetched":"Seattle","state":"WA","country":"United States","canonicalUrl":"https://foursquare.com/v/bathtub-gin--co/4a7a27bcf964a520b1e81fe3","category":"Speakeasy","checkinsCount":8426,"usersCount":5399,"tipCount":103,"visitsCount":8633,"url":"http://bathtubginseattle.com","tier":2,"message":"Moderate","currency":"$","rating":9.1},{"name":"Add-a-Ball Arcade","twitter":"addaball","address":"315 N 36th St #2B","lat":47.651968258139796,"lng":-122.35480627561913,"neighborhood":"Fremont","city_fetched":"Seattle","state":"WA","country":"United States","canonicalUrl":"https://foursquare.com/v/addaball-arcade/4ee59ef76c25be9631860f8d","category":"Arcade","checkinsCount":2433,"usersCount":1377,"tipCount":23,"visitsCount":2716,"url":"http://add-a-ball.com","tier":"","message":"","currency":"","rating":9.1},{"name":"Oddfellows Cafe & Bar","phone":"2063250807","twitter":"oddfellowscafe","address":"1525 10th Ave","lat":47.61488631241573,"lng":-122.31953439974077,"neighborhood":"Capitol Hill","city_fetched":"Seattle","state":"WA","country":"United States","canonicalUrl":"https://foursquare.com/v/oddfellows-cafe--bar/49bdc223f964a52094541fe3","category":"Café","checkinsCount":18659,"usersCount":7643,"tipCount":172,"visitsCount":19435,"url":"http://oddfellowscafe.com","tier":2,"message":"Moderate","currency":"$","rating":9.1},{"name":"Cafe Flora","phone":"2063259100","twitter":"cafefloraveg","address":"2901 E Madison St","lat":47.623941,"lng":-122.295237,"city_fetched":"Seattle","state":"WA","country":"United States","canonicalUrl":"https://foursquare.com/v/cafe-flora/4283ee00f964a520d3221fe3","category":"Vegetarian / Vegan Restaurant","checkinsCount":4689,"usersCount":3268,"tipCount":71,"visitsCount":5745,"url":"http://cafeflora.com","tier":2,"message":"Moderate","currency":"$","rating":9.1},{"name":"Stoup Brewing","phone":"2064575524","twitter":"stoupbrewing","address":"1108 NW 52nd St","lat":47.66655946531123,"lng":-122.3711755674959,"neighborhood":"Ballard","city_fetched":"Seattle","state":"WA","country":"United States","canonicalUrl":"https://foursquare.com/v/stoup-brewing/51951469498e4f724104b356","category":"Brewery","checkinsCount":3151,"usersCount":2079,"tipCount":32,"visitsCount":4321,"url":"http://stoupbrewing.com","tier":1,"message":"Cheap","currency":"$","rating":9},{"name":"West 5","phone":"2069351966","twitter":"westfive","address":"4539 California Ave SW","lat":47.561794131235374,"lng":-122.38707974457343,"neighborhood":"West Seattle","city_fetched":"Seattle","state":"WA","country":"United States","canonicalUrl":"https://foursquare.com/v/west-5/42af6f80f964a5205c251fe3","category":"Lounge","checkinsCount":4434,"usersCount":1750,"tipCount":57,"visitsCount":4545,"url":"http://www.westfive.com","tier":2,"message":"Moderate","currency":"$","rating":9},{"name":"Lark","phone":"2063235275","twitter":"larkseattle","address":"952 E Seneca St","lat":47.61226786919895,"lng":-122.31969594955444,"neighborhood":"First Hill","city_fetched":"Seattle","state":"WA","country":"United States","canonicalUrl":"https://foursquare.com/v/lark/428bd700f964a520a7231fe3","category":"New American Restaurant","checkinsCount":2271,"usersCount":1756,"tipCount":37,"visitsCount":2427,"url":"http://www.larkseattle.com","tier":4,"message":"Very Expensive","currency":"$","rating":9},{"name":"Elliott's Oyster House","phone":"2066234340","twitter":"elliottsseattle","address":"1201 Alaskan Way Pier 56","lat":47.605239556196594,"lng":-122.34072300148378,"neighborhood":"Seattle Central Business District","city_fetched":"Seattle","state":"WA","country":"United States","canonicalUrl":"https://foursquare.com/v/elliotts-oyster-house/468e5f13f964a52085481fe3","category":"Seafood Restaurant","checkinsCount":11350,"usersCount":9471,"tipCount":153,"visitsCount":11990,"url":"http://www.elliottsoysterhouse.com","tier":3,"message":"Expensive","currency":"$","rating":9},{"name":"Starbucks","phone":"2063293736","twitter":"starbucks","address":"4000 East Madison St","lat":47.63407343051307,"lng":-122.28081884894522,"neighborhood":"Madison Park","city_fetched":"Seattle","state":"WA","country":"United States","canonicalUrl":"https://foursquare.com/v/starbucks/44e6e49af964a52081371fe3","category":"Coffee Shop","checkinsCount":6519,"usersCount":1767,"tipCount":29,"visitsCount":7897,"url":"http://www.starbucks.com","tier":1,"message":"Cheap","currency":"$","rating":9},{"name":"Rocco's","phone":"2064482625","address":"2228 2nd Ave","lat":47.61395079981538,"lng":-122.34523185309888,"neighborhood":"Belltown","city_fetched":"Seattle","state":"WA","country":"United States","canonicalUrl":"https://foursquare.com/v/roccos/4fd3d21be4b05a4aba929ef6","category":"Pizza Place","checkinsCount":4566,"usersCount":2039,"tipCount":63,"visitsCount":4699,"url":"http://www.roccosseattle.com","tier":2,"message":"Moderate","currency":"$","rating":9},{"name":"Rumba","phone":"2065837177","twitter":"rumbaseattle","address":"1112 Pike St","lat":47.613665585878074,"lng":-122.32850432395935,"neighborhood":"Capitol Hill","city_fetched":"Seattle","state":"WA","country":"United States","canonicalUrl":"https://foursquare.com/v/rumba/504eac6de4b0ab052ff64777","category":"Caribbean Restaurant","checkinsCount":3261,"usersCount":2055,"tipCount":28,"visitsCount":3821,"url":"http://www.rumbaonpike.com","tier":2,"message":"Moderate","currency":"$","rating":9},{"name":"Volunteer Park Cafe","phone":"2063283155","twitter":"volunteerpark","address":"1501 17th Ave E","lat":47.63242,"lng":-122.30996466666667,"neighborhood":"Capitol Hill","city_fetched":"Seattle","state":"WA","country":"United States","canonicalUrl":"https://foursquare.com/v/volunteer-park-cafe/46950309f964a520dc481fe3","category":"Coffee Shop","checkinsCount":4297,"usersCount":2457,"tipCount":59,"visitsCount":5066,"url":"http://www.alwaysfreshgoodness.com","tier":2,"message":"Moderate","currency":"$","rating":9},{"name":"Radiator Whiskey","phone":"2064674268","twitter":"radiatorwhiskey","address":"94 Pike St Ste 30","lat":47.60902417778907,"lng":-122.34027727120296,"neighborhood":"Pike Place","city_fetched":"Seattle","state":"WA","country":"United States","canonicalUrl":"https://foursquare.com/v/radiator-whiskey/5130fe65e4120e2b1ab130b1","category":"Cocktail Bar","checkinsCount":3848,"usersCount":2690,"tipCount":70,"visitsCount":3938,"url":"http://www.radiatorwhiskey.com","tier":2,"message":"Moderate","currency":"$","rating":9},{"name":"Kimpton Palladian","phone":"2064481111","twitter":"kimpton","address":"2000 2nd Ave","lat":47.612011011098346,"lng":-122.34146564104097,"neighborhood":"Belltown","city_fetched":"Seattle","state":"WA","country":"United States","canonicalUrl":"https://foursquare.com/v/kimpton-palladian/54d6b070498efd97694d21dd","category":"Hotel","checkinsCount":568,"usersCount":305,"tipCount":6,"visitsCount":634,"url":"https://www.kimptonhotels.com/boutique-hotels-in-dc-metro-area","tier":"","message":"","currency":"","rating":9},{"name":"La Isla","phone":"2067890516","twitter":"laislacuisine","address":"2320 NW Market St","lat":47.66881209940507,"lng":-122.38705962896347,"neighborhood":"Ballard","city_fetched":"Seattle","state":"WA","country":"United States","canonicalUrl":"https://foursquare.com/v/la-isla/44d33e64f964a52040361fe3","category":"Latin American Restaurant","checkinsCount":6494,"usersCount":3714,"tipCount":75,"visitsCount":6721,"url":"http://laislacuisine.com","tier":2,"message":"Moderate","currency":"$","rating":9},{"name":"Oliver's Twist","phone":"2067066673","twitter":"mrsowerberry","address":"6822 Greenwood Ave N","lat":47.6795009,"lng":-122.355089,"neighborhood":"Phinney Ridge","city_fetched":"Seattle","state":"WA","country":"United States","canonicalUrl":"https://foursquare.com/v/olivers-twist/45b7e0f5f964a520ca411fe3","category":"Cocktail Bar","checkinsCount":3137,"usersCount":1496,"tipCount":36,"visitsCount":3514,"url":"http://www.oliverstwistseattle.com","tier":2,"message":"Moderate","currency":"$","rating":9},{"name":"Rooftop Brewing Company","phone":"2064578598","twitter":"rooftopbrewco","address":"1220 W Nickerson St","lat":47.655766553851116,"lng":-122.37300729353986,"neighborhood":"North Queen Anne","city_fetched":"Seattle","state":"WA","country":"United States","canonicalUrl":"https://foursquare.com/v/rooftop-brewing-company/55b2e221498e74c43d4ecdfc","category":"Brewery","checkinsCount":598,"usersCount":427,"tipCount":7,"visitsCount":873,"url":"http://rooftopbrewco.com","tier":"","message":"","currency":"","rating":8.9},{"name":"Medina Hookah Lounge","phone":"2063725242","address":"700 S Dearborn St","lat":47.596005,"lng":-122.323542,"neighborhood":"International District","city_fetched":"Seattle","state":"WA","country":"United States","canonicalUrl":"https://foursquare.com/v/medina-hookah-lounge/4cb835d9c7228cfa83e905ce","category":"Hookah Bar","checkinsCount":931,"usersCount":500,"tipCount":18,"visitsCount":1178,"url":"http://medinahookah.com","tier":"","message":"","currency":"","rating":8.9},{"name":"Prost - West Seattle","phone":"2064207174","twitter":"prostwest","address":"3407 California Ave SW","lat":47.573485,"lng":-122.38700505,"neighborhood":"North Admiral","city_fetched":"Seattle","state":"WA","country":"United States","canonicalUrl":"https://foursquare.com/v/prost--west-seattle/4a12465af964a52087771fe3","category":"Pub","checkinsCount":2923,"usersCount":1053,"tipCount":22,"visitsCount":3299,"url":"http://prostwestseattle.com","tier":2,"message":"Moderate","currency":"$","rating":8.9},{"name":"Rachel's Ginger Beer","address":"1510 12th Ave","lat":47.61570332838087,"lng":-122.31672406196593,"neighborhood":"Capitol Hill","city_fetched":"Seattle","state":"WA","country":"United States","canonicalUrl":"https://foursquare.com/v/rachels-ginger-beer/5579f9d0498eb7077a4b1a8b","category":"Cocktail Bar","checkinsCount":1329,"usersCount":885,"tipCount":18,"visitsCount":1649,"url":"http://rachelsgingerbeer.com","tier":"","message":"","currency":"","rating":8.9},{"name":"Damn the Weather","phone":"2069461283","twitter":"damntheweather","address":"116 1st Ave S","lat":47.601050409691915,"lng":-122.33412840131665,"neighborhood":"Pioneer Square","city_fetched":"Seattle","state":"WA","country":"United States","canonicalUrl":"https://foursquare.com/v/damn-the-weather/534d8b3c498e9cf5c6823cd8","category":"Cocktail Bar","checkinsCount":1718,"usersCount":1444,"tipCount":41,"visitsCount":2160,"url":"http://damntheweather.com","tier":3,"message":"Expensive","currency":"$","rating":8.9},{"name":"Essex","address":"1421 NW 70th St","lat":47.679422,"lng":-122.37491,"neighborhood":"Ballard","city_fetched":"Seattle","state":"WA","country":"United States","canonicalUrl":"https://foursquare.com/v/essex/5028592be4b07f3295f264f6","category":"Cocktail Bar","checkinsCount":1092,"usersCount":552,"tipCount":14,"visitsCount":1129,"url":"http://essexbarseattle.com","tier":2,"message":"Moderate","currency":"$","rating":8.9},{"name":"Rock Box","phone":"2063027625","twitter":"rockboxseattle","address":"1603 Nagle Pl","lat":47.615287,"lng":-122.320031,"neighborhood":"Capitol Hill","city_fetched":"Seattle","state":"WA","country":"United States","canonicalUrl":"https://foursquare.com/rockboxseattle","category":"Karaoke Bar","checkinsCount":8637,"usersCount":4371,"tipCount":30,"visitsCount":8975,"url":"http://www.rockboxseattle.com","tier":2,"message":"Moderate","currency":"$","rating":8.9},{"name":"Cafe Mox","phone":"2064360540","twitter":"cafemox","address":"5105 Leary Ave NW","lat":47.664903250043515,"lng":-122.38036751747131,"neighborhood":"Ballard","city_fetched":"Seattle","state":"WA","country":"United States","canonicalUrl":"https://foursquare.com/cafemox","category":"Gaming Cafe","checkinsCount":7299,"usersCount":2275,"tipCount":37,"visitsCount":7784,"url":"http://www.cafemox.com","tier":"","message":"","currency":"","rating":8.9},{"name":"The Yard Cafe","phone":"2065881746","address":"8313 Greenwood Ave N","lat":47.68958976,"lng":-122.355656,"neighborhood":"Greenwood","city_fetched":"Seattle","state":"WA","country":"United States","canonicalUrl":"https://foursquare.com/v/the-yard-cafe/4dcdebdb22718eed7a2c19ca","category":"Bar","checkinsCount":4500,"usersCount":1605,"tipCount":32,"visitsCount":4824,"url":"http://theyardcafe.com","tier":2,"message":"Moderate","currency":"$","rating":8.9},{"name":"Tractor Tavern","phone":"2067893599","twitter":"tractortavern","address":"5213 Ballard Ave NW","lat":47.665883,"lng":-122.382712,"neighborhood":"Ballard","city_fetched":"Seattle","state":"WA","country":"United States","canonicalUrl":"https://foursquare.com/v/tractor-tavern/40b13b00f964a52026f71ee3","category":"Rock Club","checkinsCount":6310,"usersCount":3563,"tipCount":25,"visitsCount":6374,"url":"http://www.tractortavern.com","tier":"","message":"","currency":"","rating":8.9},{"name":"Bar Cotto","phone":"2068388081","twitter":"esrseattle","address":"1546 15th Ave","lat":47.6150429187911,"lng":-122.31281609364228,"neighborhood":"Capitol Hill","city_fetched":"Seattle","state":"WA","country":"United States","canonicalUrl":"https://foursquare.com/v/bar-cotto/5122d797e4b0d6fccef9915a","category":"Italian Restaurant","checkinsCount":1320,"usersCount":762,"tipCount":19,"visitsCount":1367,"url":"http://www.ethanstowellrestaurants.com/barcotto/","tier":2,"message":"Moderate","currency":"$","rating":8.9},{"name":"Ray's Boathouse","phone":"2067893770","twitter":"raysboathouse","address":"6049 Seaview Ave NW","lat":47.67339432869541,"lng":-122.40764558315277,"neighborhood":"Sunset Hill","city_fetched":"Seattle","state":"WA","country":"United States","canonicalUrl":"https://foursquare.com/v/rays-boathouse/45d797dcf964a520e2421fe3","category":"Seafood Restaurant","checkinsCount":6088,"usersCount":4843,"tipCount":87,"visitsCount":6684,"url":"http://www.rays.com","tier":3,"message":"Expensive","currency":"$","rating":8.9},{"name":"Ristorante Picolinos","phone":"2067818000","twitter":"picolinos_sea","address":"6415 32nd Ave NW","lat":47.67554115135928,"lng":-122.39852412885868,"neighborhood":"Sunset Hill","city_fetched":"Seattle","state":"WA","country":"United States","canonicalUrl":"https://foursquare.com/picolinos_sea","category":"Italian Restaurant","checkinsCount":1720,"usersCount":882,"tipCount":14,"visitsCount":1863,"url":"http://www.ristorantepicolinos.com","tier":2,"message":"Moderate","currency":"$","rating":8.9},{"name":"The Masonry","phone":"2064534375","twitter":"themasonrypizza","address":"20 Roy St","lat":47.62542854104452,"lng":-122.35570352380866,"neighborhood":"Lower Queen Anne","city_fetched":"Seattle","state":"WA","country":"United States","canonicalUrl":"https://foursquare.com/v/the-masonry/51fdb194498e5101da70bb56","category":"Bar","checkinsCount":1744,"usersCount":989,"tipCount":25,"visitsCount":2056,"url":"http://themasonryseattle.com","tier":2,"message":"Moderate","currency":"$","rating":8.9},{"name":"Two Beers Brewing Company","phone":"2067620490","twitter":"twobeersbrewing","address":"4700 Ohio Ave S","lat":47.56073928625916,"lng":-122.33798337481352,"neighborhood":"Industrial District","city_fetched":"Seattle","state":"WA","country":"United States","canonicalUrl":"https://foursquare.com/v/two-beers-brewing-company/4af5f6fdf964a52089ff21e3","category":"Brewery","checkinsCount":2713,"usersCount":1240,"tipCount":20,"visitsCount":3012,"url":"http://www.twobeersbrewery.com","tier":"","message":"","currency":"","rating":8.9},{"name":"Mashiko","phone":"2069354339","address":"4725 California Ave SW","lat":47.56037570369541,"lng":-122.38699905530541,"neighborhood":"West Seattle","city_fetched":"Seattle","state":"WA","country":"United States","canonicalUrl":"https://foursquare.com/v/mashiko/4230df80f964a52000201fe3","category":"Sushi Restaurant","checkinsCount":2612,"usersCount":1382,"tipCount":51,"visitsCount":2634,"url":"http://sushiwhore.com","tier":3,"message":"Expensive","currency":"$","rating":8.9},{"name":"Mioposto - Bryant","phone":"2065821899","twitter":"mioposto","address":"3426 NE 55th St","lat":47.66859145015125,"lng":-122.29042375312042,"neighborhood":"Northeast Seattle","city_fetched":"Seattle","state":"WA","country":"United States","canonicalUrl":"https://foursquare.com/v/mioposto--bryant/53c73232498e24aab86f11c1","category":"Italian Restaurant","checkinsCount":266,"usersCount":188,"tipCount":9,"visitsCount":369,"url":"http://miopostopizza.com","tier":1,"message":"Cheap","currency":"$","rating":8.9},{"name":"Queen Anne Beerhall","phone":"2066594043","twitter":"queenannehall","address":"203 W Thomas St","lat":47.620811,"lng":-122.359607,"neighborhood":"Lower Queen Anne","city_fetched":"Seattle","state":"WA","country":"United States","canonicalUrl":"https://foursquare.com/queenannehall","category":"German Restaurant","checkinsCount":1348,"usersCount":1191,"tipCount":13,"visitsCount":2008,"url":"http://www.queenannebeerhall.com","tier":2,"message":"Moderate","currency":"$","rating":8.8},{"name":"Aqua by El Gaucho","phone":"2069569171","twitter":"aquabyelgaucho","address":"2801 Alaskan Way","lat":47.614822412362116,"lng":-122.35650107529875,"neighborhood":"Belltown","city_fetched":"Seattle","state":"WA","country":"United States","canonicalUrl":"https://foursquare.com/v/aqua-by-el-gaucho/44b696e7f964a52067351fe3","category":"Seafood Restaurant","checkinsCount":3974,"usersCount":2988,"tipCount":37,"visitsCount":4442,"url":"http://www.elgaucho.com","tier":4,"message":"Very Expensive","currency":"$","rating":8.8},{"name":"Rock Creek Seafood & Spirits","phone":"2065577532","address":"4300 Fremont Ave N","lat":47.659337670208195,"lng":-122.34968486500576,"neighborhood":"Fremont","city_fetched":"Seattle","state":"WA","country":"United States","canonicalUrl":"https://foursquare.com/v/rock-creek-seafood--spirits/51f75b14498e84c493e826bc","category":"Seafood Restaurant","checkinsCount":2055,"usersCount":1506,"tipCount":51,"visitsCount":2213,"url":"http://www.rockcreekseattle.com","tier":3,"message":"Expensive","currency":"$","rating":8.8},{"name":"Witness","phone":"2063290248","address":"410 Broadway E","lat":47.62234979281263,"lng":-122.32087384500876,"neighborhood":"Capitol Hill","city_fetched":"Seattle","state":"WA","country":"United States","canonicalUrl":"https://foursquare.com/v/witness/52156bbd498eb27e8d0eb520","category":"Cocktail Bar","checkinsCount":4826,"usersCount":1883,"tipCount":44,"visitsCount":5102,"url":"http://witnessbar.com","tier":2,"message":"Moderate","currency":"$","rating":8.8},{"name":"The Pine Box","phone":"2065880375","twitter":"pinebox","address":"1600 Melrose Ave","lat":47.61543746977134,"lng":-122.32766405932361,"neighborhood":"Capitol Hill","city_fetched":"Seattle","state":"WA","country":"United States","canonicalUrl":"https://foursquare.com/v/the-pine-box/4f566c9ae4b01a8c7fd8b325","category":"Pub","checkinsCount":10333,"usersCount":5187,"tipCount":70,"visitsCount":11672,"url":"http://pineboxbar.com","tier":2,"message":"Moderate","currency":"$","rating":8.8},{"name":"Barolo Ristorante","phone":"2067709000","address":"1940 Westlake Ave","lat":47.61451672638791,"lng":-122.3379442734137,"neighborhood":"Belltown","city_fetched":"Seattle","state":"WA","country":"United States","canonicalUrl":"https://foursquare.com/v/barolo-ristorante/45a7b89af964a52016411fe3","category":"Italian Restaurant","checkinsCount":7613,"usersCount":4015,"tipCount":85,"visitsCount":8334,"url":"http://baroloseattle.com","tier":3,"message":"Expensive","currency":"$","rating":8.8},{"name":"Liberty","phone":"2063239898","twitter":"libertylovesyou","address":"517 15th Ave E","lat":47.623565302687545,"lng":-122.31286715744078,"neighborhood":"Capitol Hill","city_fetched":"Seattle","state":"WA","country":"United States","canonicalUrl":"https://foursquare.com/v/liberty/4447ebabf964a5206e321fe3","category":"Lounge","checkinsCount":10372,"usersCount":3567,"tipCount":100,"visitsCount":10654,"url":"http://www.libertybars.com","tier":2,"message":"Moderate","currency":"$","rating":8.8},{"name":"Latona Pub","phone":"2065252238","twitter":"latonapub","address":"6423 Latona Ave NE","lat":47.67580389,"lng":-122.32568973,"neighborhood":"Green Lake","city_fetched":"Seattle","state":"WA","country":"United States","canonicalUrl":"https://foursquare.com/v/latona-pub/40b13b00f964a520a9f61ee3","category":"American Restaurant","checkinsCount":3897,"usersCount":1554,"tipCount":31,"visitsCount":4045,"url":"http://www.3pubs.com/Latona.html","tier":2,"message":"Moderate","currency":"$","rating":8.8},{"name":"Maharaja","phone":"2069359443","address":"4542 California Ave SW","lat":47.56167084636167,"lng":-122.38634858994494,"neighborhood":"West Seattle","city_fetched":"Seattle","state":"WA","country":"United States","canonicalUrl":"https://foursquare.com/v/maharaja/4a52ac0df964a520e4b11fe3","category":"Indian Restaurant","checkinsCount":2800,"usersCount":842,"tipCount":18,"visitsCount":2881,"url":"http://maharajaseattle.net","tier":2,"message":"Moderate","currency":"$","rating":8.8},{"name":"Elliott Bay Public House & Brewery","phone":"2063652337","twitter":"elliottbay_beer","address":"12537 Lake City Way NE","lat":47.720341850900425,"lng":-122.29505872178869,"neighborhood":"Lake City","city_fetched":"Seattle","state":"WA","country":"United States","canonicalUrl":"https://foursquare.com/v/elliott-bay-public-house--brewery/4f496492e4b0ecdacfa76c68","category":"Pub","checkinsCount":5828,"usersCount":2342,"tipCount":49,"visitsCount":7023,"url":"http://www.elliottbaybrewing.com/locations-menus/lake-city/","tier":2,"message":"Moderate","currency":"$","rating":8.8},{"name":"Poco Wine + Spirits","phone":"2063229463","twitter":"pocowine","address":"1408 E Pine St","lat":47.61536051663769,"lng":-122.31362107455887,"neighborhood":"Capitol Hill","city_fetched":"Seattle","state":"WA","country":"United States","canonicalUrl":"https://foursquare.com/pocowine","category":"Wine Bar","checkinsCount":4109,"usersCount":1457,"tipCount":27,"visitsCount":4270,"url":"http://www.pocowineandspirits.com","tier":2,"message":"Moderate","currency":"$","rating":8.8},{"name":"The Crocodile","phone":"2064414618","twitter":"thecrocodile","address":"2200 2nd Ave","lat":47.61354082355331,"lng":-122.3443078994751,"neighborhood":"Belltown","city_fetched":"Seattle","state":"WA","country":"United States","canonicalUrl":"https://foursquare.com/v/the-crocodile/40b13b00f964a5205af61ee3","category":"Rock Club","checkinsCount":12798,"usersCount":6871,"tipCount":55,"visitsCount":13626,"url":"http://thecrocodile.com","tier":"","message":"","currency":"","rating":8.8},{"name":"Quinn's Pub","phone":"2063257711","address":"1001 E Pike St","lat":47.614045181183315,"lng":-122.31936990850407,"neighborhood":"Capitol Hill","city_fetched":"Seattle","state":"WA","country":"United States","canonicalUrl":"https://foursquare.com/v/quinns-pub/4728eda7f964a520e54b1fe3","category":"Gastropub","checkinsCount":11277,"usersCount":6123,"tipCount":130,"visitsCount":11383,"url":"http://www.quinnspubseattle.com","tier":2,"message":"Moderate","currency":"$","rating":8.8},{"name":"The 5 Point Cafe","phone":"2064489991","twitter":"the5pointcafe","address":"415 Cedar St","lat":47.61813151943295,"lng":-122.34742999076843,"neighborhood":"Belltown","city_fetched":"Seattle","state":"WA","country":"United States","canonicalUrl":"https://foursquare.com/v/the-5-point-cafe/40b13b00f964a5207df61ee3","category":"Diner","checkinsCount":17429,"usersCount":7784,"tipCount":171,"visitsCount":18125,"url":"http://www.the5pointcafe.com","tier":2,"message":"Moderate","currency":"$","rating":8.8},{"name":"Sun Liquor Lounge","phone":"2068601130","twitter":"sunliquor","address":"607 Summit Ave E","lat":47.62456058,"lng":-122.32541,"neighborhood":"Capitol Hill","city_fetched":"Seattle","state":"WA","country":"United States","canonicalUrl":"https://foursquare.com/v/sun-liquor-lounge/449a8388f964a52098341fe3","category":"Cocktail Bar","checkinsCount":5779,"usersCount":2284,"tipCount":49,"visitsCount":5872,"url":"http://sunliquor.com","tier":2,"message":"Moderate","currency":"$","rating":8.8},{"name":"The Saint","phone":"2063239922","twitter":"thesaintsocial","address":"1416 E Olive Way","lat":47.617564,"lng":-122.326499,"neighborhood":"Capitol Hill","city_fetched":"Seattle","state":"WA","country":"United States","canonicalUrl":"https://foursquare.com/v/the-saint/47fcdf8df964a520d74e1fe3","category":"Bar","checkinsCount":4940,"usersCount":2676,"tipCount":51,"visitsCount":5008,"url":"http://www.thesaintsocialclub.com","tier":2,"message":"Moderate","currency":"$","rating":8.8},{"name":"Hazlewood","phone":"2067830478","address":"2311 NW Market St","lat":47.668571068450944,"lng":-122.386772710321,"neighborhood":"Ballard","city_fetched":"Seattle","state":"WA","country":"United States","canonicalUrl":"https://foursquare.com/v/hazlewood/43df51bdf964a520b72e1fe3","category":"Bar","checkinsCount":3855,"usersCount":1691,"tipCount":30,"visitsCount":3929,"tier":2,"message":"Moderate","currency":"$","rating":8.8},{"name":"Peddler Brewing Company","phone":"3603620002","twitter":"peddlerbrewing","address":"1514 NW Leary Way","lat":47.66382074912687,"lng":-122.37700439650484,"neighborhood":"Ballard","city_fetched":"Seattle","state":"WA","country":"United States","canonicalUrl":"https://foursquare.com/peddlerbrewing","category":"Brewery","checkinsCount":2067,"usersCount":1793,"tipCount":13,"visitsCount":3022,"url":"http://www.peddlerbrewing.com","tier":1,"message":"Cheap","currency":"$","rating":8.8},{"name":"E. Smith Mercantile","phone":"2066417250","twitter":"esmithmerc","address":"208 1st Ave S","lat":47.600541985890466,"lng":-122.33399822634466,"neighborhood":"Pioneer Square","city_fetched":"Seattle","state":"WA","country":"United States","canonicalUrl":"https://foursquare.com/v/e-smith-mercantile/515b6bd6e4b0057b6e4cdaa3","category":"Gift Shop","checkinsCount":1136,"usersCount":741,"tipCount":17,"visitsCount":1181,"url":"http://www.esmithmercantile.com","tier":"","message":"","currency":"","rating":8.8},{"name":"Linda's Tavern","phone":"2063251220","twitter":"lindastavern","address":"707 E Pine St","lat":47.61523216880707,"lng":-122.32306662002912,"neighborhood":"Capitol Hill","city_fetched":"Seattle","state":"WA","country":"United States","canonicalUrl":"https://foursquare.com/v/lindas-tavern/40e4a580f964a520f4091fe3","category":"Dive Bar","checkinsCount":24087,"usersCount":7791,"tipCount":102,"visitsCount":25362,"url":"http://lindastavern.com","tier":1,"message":"Cheap","currency":"$","rating":8.7},{"name":"Salty's on Alki","phone":"2069371600","twitter":"saltysseafood","address":"1936 Harbor Ave SW","lat":47.58648387645128,"lng":-122.37645149230957,"neighborhood":"West Seattle","city_fetched":"Seattle","state":"WA","country":"United States","canonicalUrl":"https://foursquare.com/v/saltys-on-alki/40b13b00f964a520fdf61ee3","category":"Seafood Restaurant","checkinsCount":8026,"usersCount":6902,"tipCount":107,"visitsCount":9493,"url":"http://www.saltys.com/seattle","tier":3,"message":"Expensive","currency":"$","rating":8.7},{"name":"Tavern Law","phone":"2063229734","address":"1406 12th Ave","lat":47.61329129801075,"lng":-122.31671333312988,"neighborhood":"Capitol Hill","city_fetched":"Seattle","state":"WA","country":"United States","canonicalUrl":"https://foursquare.com/v/tavern-law/4a8b62f8f964a520540c20e3","category":"Speakeasy","checkinsCount":10580,"usersCount":5550,"tipCount":107,"visitsCount":10827,"url":"http://www.tavernlaw.com","tier":3,"message":"Expensive","currency":"$","rating":8.7},{"name":"Brunswick & Hunt","phone":"2069461574","twitter":"brunswickhunt","address":"1480 NW 70th St","lat":47.67964,"lng":-122.376356,"neighborhood":"Ballard","city_fetched":"Seattle","state":"WA","country":"United States","canonicalUrl":"https://foursquare.com/v/brunswick--hunt/53a24709498e9554a1369960","category":"Bar","checkinsCount":313,"usersCount":295,"tipCount":12,"visitsCount":416,"tier":"","message":"","currency":"","rating":8.7},{"name":"Ivar's Salmon House","phone":"2066320767","twitter":"ivarsclam","address":"401 NE Northlake Way","lat":47.65356253422009,"lng":-122.3238963679964,"neighborhood":"Wallingford","city_fetched":"Seattle","state":"WA","country":"United States","canonicalUrl":"https://foursquare.com/v/ivars-salmon-house/42966300f964a52054241fe3","category":"Seafood Restaurant","checkinsCount":10519,"usersCount":6815,"tipCount":83,"visitsCount":11652,"url":"http://www.ivars.com/locations/salmon-house","tier":3,"message":"Expensive","currency":"$","rating":8.7},{"name":"Pie Bar","phone":"2062571459","address":"1361 E Olive Way","lat":47.61696729002676,"lng":-122.3275075512536,"neighborhood":"Capitol Hill","city_fetched":"Seattle","state":"WA","country":"United States","canonicalUrl":"https://foursquare.com/v/pie-bar/517c94dee4b0f7d84c4424a3","category":"Pie Shop","checkinsCount":2399,"usersCount":1747,"tipCount":41,"visitsCount":2733,"url":"http://www.piebarcapitolhill.com","tier":2,"message":"Moderate","currency":"$","rating":8.7},{"name":"Vittles Neighborhood Bistro & Bar","phone":"2064483348","twitter":"vittlesbistro","address":"2330 2nd Ave","lat":47.61471643004955,"lng":-122.34661667286419,"neighborhood":"Belltown","city_fetched":"Seattle","state":"WA","country":"United States","canonicalUrl":"https://foursquare.com/v/vittles-neighborhood-bistro--bar/53dde4e3498eba44bea70ce4","category":"Bistro","checkinsCount":519,"usersCount":340,"tipCount":14,"visitsCount":522,"url":"http://vittlesseattle.com","tier":2,"message":"Moderate","currency":"$","rating":8.7},{"name":"Foundation Nightclub","phone":"2065357285","twitter":"foundationsea","address":"2218 Western Ave Ste 100","lat":47.61247140914838,"lng":-122.34650116379463,"neighborhood":"Belltown","city_fetched":"Seattle","state":"WA","country":"United States","canonicalUrl":"https://foursquare.com/foundationsea","category":"Nightclub","checkinsCount":3525,"usersCount":1844,"tipCount":13,"visitsCount":4282,"url":"http://www.foundation-nightclub.com","tier":2,"message":"Moderate","currency":"$","rating":8.7},{"name":"Can Can","phone":"2066520832","twitter":"thecancan","address":"94 Pike St","lat":47.608935,"lng":-122.340146,"neighborhood":"Pike Place","city_fetched":"Seattle","state":"WA","country":"United States","canonicalUrl":"https://foursquare.com/v/can-can/4add1dddf964a5202a6421e3","category":"Other Nightlife","checkinsCount":2683,"usersCount":1945,"tipCount":17,"visitsCount":2687,"url":"http://www.thecancan.com","tier":2,"message":"Moderate","currency":"$","rating":8.7},{"name":"Some Random Bar","phone":"2067452185","address":"2604 1st Ave","lat":47.6155283662109,"lng":-122.34989631663171,"neighborhood":"Belltown","city_fetched":"Seattle","state":"WA","country":"United States","canonicalUrl":"https://foursquare.com/v/some-random-bar/51dcc3c8498e8458c328b441","category":"Bar","checkinsCount":2574,"usersCount":1729,"tipCount":34,"visitsCount":3159,"url":"http://somerandombar.com","tier":2,"message":"Moderate","currency":"$","rating":8.7},{"name":"Total Wine & More","phone":"2063650572","twitter":"totalwine","address":"525 NE Northgate Way, Suite 5","lat":47.708068,"lng":-122.321656,"neighborhood":"Northgate","city_fetched":"Seattle","state":"WA","country":"United States","canonicalUrl":"https://foursquare.com/v/total-wine--more/543d8628498e0a3393f57b22","category":"Wine Shop","checkinsCount":505,"usersCount":268,"tipCount":2,"visitsCount":641,"url":"http://www.totalwine.com","tier":"","message":"","currency":"","rating":8.7},{"name":"Sun Liquor Distillery","phone":"2067201600","twitter":"sunliquor","address":"514 E Pike St","lat":47.614167524292064,"lng":-122.32484966063569,"neighborhood":"Capitol Hill","city_fetched":"Seattle","state":"WA","country":"United States","canonicalUrl":"https://foursquare.com/v/sun-liquor-distillery/4d7ac65f4755f04d4d40f024","category":"Cocktail Bar","checkinsCount":7261,"usersCount":3950,"tipCount":55,"visitsCount":8026,"url":"http://sunliquor.com","tier":2,"message":"Moderate","currency":"$","rating":8.7},{"name":"Old Stove Brewing Co.","address":"1525 1st Ave","lat":47.6096313517239,"lng":-122.34067808741061,"neighborhood":"Pike Place","city_fetched":"Seattle","state":"WA","country":"United States","canonicalUrl":"https://foursquare.com/v/old-stove-brewing-co/570eb9a0498ee6976729573d","category":"Brewery","checkinsCount":562,"usersCount":491,"tipCount":7,"visitsCount":613,"tier":"","message":"","currency":"","rating":8.7},{"name":"Artusi","phone":"2066782516","twitter":"artusibar","address":"1535 14th Ave","lat":47.61431,"lng":-122.31431,"neighborhood":"Capitol Hill","city_fetched":"Seattle","state":"WA","country":"United States","canonicalUrl":"https://foursquare.com/v/artusi/4df037d8d4c04d0392c5220b","category":"Cocktail Bar","checkinsCount":2714,"usersCount":1302,"tipCount":22,"visitsCount":2791,"url":"http://www.artusibar.com/?utm_source=local&utm_medium=organic&utm_campaign=gmb#D02DM4","tier":3,"message":"Expensive","currency":"$","rating":8.7},{"name":"Loretta's Northwesterner","phone":"2063279649","address":"8617 14th Ave S","lat":47.52593063750261,"lng":-122.31514789669484,"neighborhood":"South Park","city_fetched":"Seattle","state":"WA","country":"United States","canonicalUrl":"https://foursquare.com/v/lorettas-northwesterner/48844786f964a52037511fe3","category":"Bar","checkinsCount":2547,"usersCount":771,"tipCount":29,"visitsCount":2904,"url":"http://lorettasnorthwesterner.com","tier":"","message":"","currency":"","rating":8.7},{"name":"The Octopus Bar","phone":"2065822483","address":"2109 N 45th St","lat":47.661295811706594,"lng":-122.33319320070191,"neighborhood":"Wallingford","city_fetched":"Seattle","state":"WA","country":"United States","canonicalUrl":"https://foursquare.com/v/the-octopus-bar/52e313b8498e58b7dc9f26dc","category":"Dive Bar","checkinsCount":1328,"usersCount":839,"tipCount":16,"visitsCount":1529,"url":"http://theoctopusbar.com","tier":1,"message":"Cheap","currency":"$","rating":8.7},{"name":"Hellbent Brewing Co.","phone":"2063613707","twitter":"hellbentb","address":"13035 Lake City Way NE","lat":47.72384168503864,"lng":-122.2931061886711,"neighborhood":"Lake City","city_fetched":"Seattle","state":"WA","country":"United States","canonicalUrl":"https://foursquare.com/v/hellbent-brewing-co/55666889498e9ef9b8a98d06","category":"Brewery","checkinsCount":893,"usersCount":475,"tipCount":7,"visitsCount":1228,"url":"http://www.hellbentbrewingcompany.com","tier":"","message":"","currency":"","rating":8.7},{"name":"The Needle and Thread","phone":"2063250133","address":"1406 12th Ave","lat":47.61324405670166,"lng":-122.316843,"neighborhood":"Capitol Hill","city_fetched":"Seattle","state":"WA","country":"United States","canonicalUrl":"https://foursquare.com/v/the-needle-and-thread/4b29b417f964a520b2a224e3","category":"Speakeasy","checkinsCount":2025,"usersCount":1355,"tipCount":27,"visitsCount":2033,"tier":"","message":"","currency":"","rating":8.7},{"name":"Via Tribunali","phone":"2063229234","twitter":"viatribunali","address":"913 E Pike St","lat":47.61407675,"lng":-122.320012,"neighborhood":"First Hill","city_fetched":"Seattle","state":"WA","country":"United States","canonicalUrl":"https://foursquare.com/v/via-tribunali/427ab380f964a52094211fe3","category":"Pizza Place","checkinsCount":6027,"usersCount":3059,"tipCount":52,"visitsCount":6105,"url":"http://viatribunali.com","tier":2,"message":"Moderate","currency":"$","rating":8.7},{"name":"Neumos","phone":"2066280888","address":"925 E Pike St","lat":47.61391731876974,"lng":-122.31970257430662,"neighborhood":"First Hill","city_fetched":"Seattle","state":"WA","country":"United States","canonicalUrl":"https://foursquare.com/v/neumos/40cf8d80f964a52026011fe3","category":"Nightclub","checkinsCount":14343,"usersCount":6572,"tipCount":39,"visitsCount":14600,"url":"http://neumos.com","tier":2,"message":"Moderate","currency":"$","rating":8.7},{"name":"Tippe and Drague Alehouse","phone":"2065380094","address":"3315 Beacon Ave S","lat":47.573574,"lng":-122.309042,"neighborhood":"North Beacon Hill","city_fetched":"Seattle","state":"WA","country":"United States","canonicalUrl":"https://foursquare.com/v/tippe-and-drague-alehouse/5011b535e4b08516d1297f1c","category":"Pub","checkinsCount":1521,"usersCount":605,"tipCount":23,"visitsCount":1888,"url":"http://www.tippeanddrague.com","tier":1,"message":"Cheap","currency":"$","rating":8.6},{"name":"King's Hardware","phone":"2067820027","twitter":"kingsballard","address":"5225 Ballard Ave NW","lat":47.66593648637691,"lng":-122.38303899765015,"neighborhood":"Ballard","city_fetched":"Seattle","state":"WA","country":"United States","canonicalUrl":"https://foursquare.com/v/kings-hardware/4512dc9af964a520ae391fe3","category":"Bar","checkinsCount":14427,"usersCount":6749,"tipCount":97,"visitsCount":14680,"url":"http://www.kingsballard.com","tier":2,"message":"Moderate","currency":"$","rating":8.6},{"name":"Schooner Exact Brewing","phone":"2064329734","twitter":"schoonerexact","address":"3901 1st Ave S","lat":47.56783175178748,"lng":-122.33547518950411,"neighborhood":"Industrial District","city_fetched":"Seattle","state":"WA","country":"United States","canonicalUrl":"https://foursquare.com/v/schooner-exact-brewing/4bad3b0ff964a520ee3b3be3","category":"Brewery","checkinsCount":3015,"usersCount":1652,"tipCount":22,"visitsCount":3633,"url":"http://www.schoonerexact.com","tier":1,"message":"Cheap","currency":"$","rating":8.6},{"name":"Duke's Chowder House","phone":"2069376100","twitter":"dukeschowder","address":"2516 Alki Ave SW","lat":47.58082344,"lng":-122.405988,"neighborhood":"Alki","city_fetched":"Seattle","state":"WA","country":"United States","canonicalUrl":"https://foursquare.com/v/dukes-chowder-house/49b41703f964a520e6521fe3","category":"Seafood Restaurant","checkinsCount":3233,"usersCount":2225,"tipCount":38,"visitsCount":3376,"url":"http://dukeschowderhouse.com","tier":2,"message":"Moderate","currency":"$","rating":8.6},{"name":"Naked City Brewery & Taphouse","phone":"2068386299","twitter":"nakedcitybeer","address":"8564 Greenwood Ave N","lat":47.69181130035372,"lng":-122.35504746437073,"neighborhood":"Greenwood","city_fetched":"Seattle","state":"WA","country":"United States","canonicalUrl":"https://foursquare.com/v/naked-city-brewery--taphouse/49bfcb74f964a52025551fe3","category":"Brewery","checkinsCount":9969,"usersCount":3513,"tipCount":75,"visitsCount":10413,"url":"http://nakedcitybrewing.com","tier":2,"message":"Moderate","currency":"$","rating":8.6},{"name":"Knee High Stocking Co.","phone":"2069797049","twitter":"kneehighstockco","address":"1356 E Olive Way","lat":47.616954,"lng":-122.32723,"neighborhood":"Capitol Hill","city_fetched":"Seattle","state":"WA","country":"United States","canonicalUrl":"https://foursquare.com/v/knee-high-stocking-co/49b7551df964a52028531fe3","category":"Speakeasy","checkinsCount":5450,"usersCount":3206,"tipCount":57,"visitsCount":5553,"url":"http://www.kneehighstocking.com","tier":2,"message":"Moderate","currency":"$","rating":8.6},{"name":"Slim's Last Chance Chili Shack","phone":"2067627900","twitter":"lastchanceslims","address":"5606 1st Ave S","lat":47.55248537294044,"lng":-122.33395286235944,"neighborhood":"Georgetown","city_fetched":"Seattle","state":"WA","country":"United States","canonicalUrl":"https://foursquare.com/v/slims-last-chance-chili-shack/49dea092f964a5208f601fe3","category":"Burger Joint","checkinsCount":2906,"usersCount":1426,"tipCount":31,"visitsCount":3189,"url":"http://www.slimslastchance.com","tier":1,"message":"Cheap","currency":"$","rating":8.6},{"name":"Roanoke Inn","phone":"2062320800","address":"1825 72nd Ave SE","lat":47.59401195073634,"lng":-122.2433641958493,"city_fetched":"Seattle","state":"WA","country":"United States","canonicalUrl":"https://foursquare.com/v/roanoke-inn/40b13b00f964a520f6f61ee3","category":"Bar","checkinsCount":3417,"usersCount":1702,"tipCount":22,"visitsCount":4169,"tier":2,"message":"Moderate","currency":"$","rating":8.6},{"name":"Beveridge Place Pub","phone":"2069329906","twitter":"bppub","address":"6413 California Ave SW","lat":47.545433160264224,"lng":-122.38745304827644,"neighborhood":"West Seattle","city_fetched":"Seattle","state":"WA","country":"United States","canonicalUrl":"https://foursquare.com/v/beveridge-place-pub/442c2497f964a520d0311fe3","category":"Pub","checkinsCount":6177,"usersCount":2197,"tipCount":39,"visitsCount":6682,"url":"http://www.beveridgeplacepub.com","tier":2,"message":"Moderate","currency":"$","rating":8.6},{"name":"High Dive","phone":"2066320212","twitter":"highdive","address":"513 N 36th St","lat":47.65141149761156,"lng":-122.35175371170044,"neighborhood":"Fremont","city_fetched":"Seattle","state":"WA","country":"United States","canonicalUrl":"https://foursquare.com/v/high-dive/43598100f964a520ec281fe3","category":"Music Venue","checkinsCount":2874,"usersCount":1968,"tipCount":16,"visitsCount":2910,"url":"http://www.highdiveseattle.com","tier":"","message":"","currency":"","rating":8.6},{"name":"Prost Tavern","phone":"2067065430","twitter":"prosttavern","address":"7311 Greenwood Ave N","lat":47.68221258833846,"lng":-122.35551879691516,"neighborhood":"Phinney Ridge","city_fetched":"Seattle","state":"WA","country":"United States","canonicalUrl":"https://foursquare.com/v/prost-tavern/412bd680f964a520980c1fe3","category":"Bar","checkinsCount":2205,"usersCount":1065,"tipCount":15,"visitsCount":2252,"url":"http://www.prosttavern.net","tier":2,"message":"Moderate","currency":"$","rating":8.6},{"name":"Alibi Room","phone":"2067834880","twitter":"alibiroom","address":"10406 Holman Rd N","lat":47.704545411100156,"lng":-122.35604052050863,"neighborhood":"Greenwood","city_fetched":"Seattle","state":"WA","country":"United States","canonicalUrl":"https://foursquare.com/v/alibi-room/51f9a79c498e00a212be0a4c","category":"Pizza Place","checkinsCount":726,"usersCount":391,"tipCount":7,"visitsCount":917,"url":"http://greenwoodalibi.com","tier":2,"message":"Moderate","currency":"$","rating":8.6},{"name":"Rob Roy","phone":"2069568423","twitter":"robroyseattle","address":"2332 2nd Ave","lat":47.614807,"lng":-122.34669768333333,"neighborhood":"Belltown","city_fetched":"Seattle","state":"WA","country":"United States","canonicalUrl":"https://foursquare.com/v/rob-roy/41a7c380f964a520491e1fe3","category":"Cocktail Bar","checkinsCount":9056,"usersCount":3781,"tipCount":90,"visitsCount":9204,"url":"http://www.robroyseattle.com","tier":2,"message":"Moderate","currency":"$","rating":8.6},{"name":"Locöl Barley & Vine","phone":"2067087725","twitter":"locolseattle","address":"7902 35th Ave SW","lat":47.53175055,"lng":-122.376373,"neighborhood":"Roxhill","city_fetched":"Seattle","state":"WA","country":"United States","canonicalUrl":"https://foursquare.com/v/loc%C3%B6l-barley--vine/4d0955e363d52c0fdc90cb7f","category":"Wine Bar","checkinsCount":1290,"usersCount":531,"tipCount":18,"visitsCount":1341,"url":"http://www.locolseattle.com","tier":2,"message":"Moderate","currency":"$","rating":8.6},{"name":"Noble Barton","phone":"2064207574","address":"9635 16th Ave SW","lat":47.51618393338548,"lng":-122.35524950166872,"city_fetched":"Seattle","state":"WA","country":"United States","canonicalUrl":"https://foursquare.com/v/noble-barton/55f4bce6498e324dbe404058","category":"Pub","checkinsCount":233,"usersCount":160,"tipCount":1,"visitsCount":331,"tier":"","message":"","currency":"","rating":8.6},{"name":"Triple Door","phone":"2068384333","twitter":"thetripledoor","address":"216 Union St","lat":47.60875014644202,"lng":-122.3372645611994,"neighborhood":"Seattle Central Business District","city_fetched":"Seattle","state":"WA","country":"United States","canonicalUrl":"https://foursquare.com/v/triple-door/40b68100f964a5206e001fe3","category":"Music Venue","checkinsCount":9201,"usersCount":5705,"tipCount":64,"visitsCount":9326,"url":"http://www.thetripledoor.net","tier":"","message":"","currency":"","rating":8.6},{"name":"Six Seven","phone":"2062694575","twitter":"theedgewatersea","address":"2411 Alaskan Way","lat":47.61260978618081,"lng":-122.35276489817964,"neighborhood":"Belltown","city_fetched":"Seattle","state":"WA","country":"United States","canonicalUrl":"https://foursquare.com/v/six-seven/439be173f964a520e62b1fe3","category":"Hotel Bar","checkinsCount":3732,"usersCount":2696,"tipCount":78,"visitsCount":3886,"url":"http://www.facebook.com/TheEdgewater","tier":3,"message":"Expensive","currency":"$","rating":8.6},{"name":"Black Bottle","phone":"2064411500","address":"2600 1st Ave","lat":47.61530554992409,"lng":-122.34971523284912,"neighborhood":"Belltown","city_fetched":"Seattle","state":"WA","country":"United States","canonicalUrl":"https://foursquare.com/v/black-bottle/4313a180f964a5205b271fe3","category":"Gastropub","checkinsCount":9205,"usersCount":5503,"tipCount":100,"visitsCount":9818,"url":"http://blackbottleseattle.com","tier":2,"message":"Moderate","currency":"$","rating":8.6},{"name":"Unicorn","phone":"2063256492","twitter":"unicornseattle","address":"1118 E Pike St","lat":47.61405353887538,"lng":-122.31723896872319,"neighborhood":"Capitol Hill","city_fetched":"Seattle","state":"WA","country":"United States","canonicalUrl":"https://foursquare.com/v/unicorn/4ad4e8faf964a5209ffc20e3","category":"Bar","checkinsCount":28178,"usersCount":10896,"tipCount":169,"visitsCount":29876,"url":"http://unicornseattle.com","tier":2,"message":"Moderate","currency":"$","rating":8.6},{"name":"Madison Pub","phone":"2063256537","address":"1315 E Madison St","lat":47.61344318326541,"lng":-122.31488674879074,"city_fetched":"Seattle","state":"WA","country":"United States","canonicalUrl":"https://foursquare.com/v/madison-pub/40b13b00f964a520b5f61ee3","category":"Gay Bar","checkinsCount":11878,"usersCount":2413,"tipCount":33,"visitsCount":12773,"url":"http://www.madisonpub.com","tier":2,"message":"Moderate","currency":"$","rating":8.6},{"name":"Columbia City Ale House","phone":"2067235123","twitter":"ccityalehouse","address":"4914 Rainier Ave S","lat":47.557443704439955,"lng":-122.28460465569621,"neighborhood":"Columbia City","city_fetched":"Seattle","state":"WA","country":"United States","canonicalUrl":"https://foursquare.com/v/columbia-city-ale-house/427d5680f964a520a5211fe3","category":"Pub","checkinsCount":2692,"usersCount":1254,"tipCount":25,"visitsCount":2757,"url":"http://seattlealehouses.com/columbia/default.htm","tier":2,"message":"Moderate","currency":"$","rating":8.5},{"name":"Mistral Kitchen","phone":"2066231922","twitter":"mistralkitchen","address":"2020 Westlake Ave","lat":47.6162810254603,"lng":-122.33797042275893,"neighborhood":"Belltown","city_fetched":"Seattle","state":"WA","country":"United States","canonicalUrl":"https://foursquare.com/v/mistral-kitchen/4b05e98ef964a520aee522e3","category":"New American Restaurant","checkinsCount":4407,"usersCount":2504,"tipCount":81,"visitsCount":4711,"url":"http://www.mistral-kitchen.com","tier":4,"message":"Very Expensive","currency":"$","rating":8.5},{"name":"Georgetown Brewing Company","phone":"2067668055","twitter":"georgetownbeer","address":"5200 Denver Ave S","lat":47.55536556916887,"lng":-122.32618689537048,"neighborhood":"Industrial District","city_fetched":"Seattle","state":"WA","country":"United States","canonicalUrl":"https://foursquare.com/v/georgetown-brewing-company/49efade9f964a520f5681fe3","category":"Brewery","checkinsCount":2653,"usersCount":1624,"tipCount":25,"visitsCount":3232,"url":"http://www.georgetownbeer.com","tier":1,"message":"Cheap","currency":"$","rating":8.5},{"name":"SeaMonster Lounge","phone":"2069921120","address":"2202 N 45th St","lat":47.661387925730004,"lng":-122.33233451843262,"neighborhood":"Wallingford","city_fetched":"Seattle","state":"WA","country":"United States","canonicalUrl":"https://foursquare.com/v/seamonster-lounge/43b69f92f964a520ca2c1fe3","category":"Lounge","checkinsCount":2166,"usersCount":1021,"tipCount":23,"visitsCount":2325,"tier":1,"message":"Cheap","currency":"$","rating":8.5},{"name":"Bar Melusine","phone":"2069008808","address":"1060 E Union St","lat":47.612962960227165,"lng":-122.31826398877544,"neighborhood":"Capitol Hill","city_fetched":"Seattle","state":"WA","country":"United States","canonicalUrl":"https://foursquare.com/v/bar-melusine/563969a8cd10018e5d904993","category":"French Restaurant","checkinsCount":307,"usersCount":258,"tipCount":7,"visitsCount":324,"url":"http://www.barmelusine.com","tier":"","message":"","currency":"","rating":8.5},{"name":"Lucky Envelope Brewing","phone":"2066594075","address":"907 NW 50th St","lat":47.664902220229955,"lng":-122.36917243108542,"neighborhood":"Ballard","city_fetched":"Seattle","state":"WA","country":"United States","canonicalUrl":"https://foursquare.com/v/lucky-envelope-brewing/553ffab5498e17c6f2468177","category":"Brewery","checkinsCount":611,"usersCount":568,"tipCount":9,"visitsCount":911,"url":"http://luckyenvelopebrewing.com","tier":"","message":"","currency":"","rating":8.5},{"name":"Cantinetta","phone":"2066321000","twitter":"cantinettasea","address":"3650 Wallingford Ave N","lat":47.651951,"lng":-122.33615,"neighborhood":"Wallingford","city_fetched":"Seattle","state":"WA","country":"United States","canonicalUrl":"https://foursquare.com/cantinettasea","category":"Italian Restaurant","checkinsCount":1421,"usersCount":1009,"tipCount":18,"visitsCount":1724,"url":"http://cantinettaseattle.com","tier":2,"message":"Moderate","currency":"$","rating":8.5},{"name":"Cure Seattle","phone":"2065685475","twitter":"cureseattle","address":"1641 Nagle Pl","lat":47.615864,"lng":-122.319847,"neighborhood":"Capitol Hill","city_fetched":"Seattle","state":"WA","country":"United States","canonicalUrl":"https://foursquare.com/cureseattle","category":"Lounge","checkinsCount":1907,"usersCount":886,"tipCount":18,"visitsCount":1920,"url":"http://cureseattle.com","tier":2,"message":"Moderate","currency":"$","rating":8.5},{"name":"RN74","phone":"2064567474","twitter":"rn74seattle","address":"1433 4th Ave","lat":47.610040124517944,"lng":-122.33633637428284,"neighborhood":"Seattle Central Business District","city_fetched":"Seattle","state":"WA","country":"United States","canonicalUrl":"https://foursquare.com/v/rn74/4ddff11b227140b9050de0d6","category":"French Restaurant","checkinsCount":8710,"usersCount":4442,"tipCount":91,"visitsCount":8777,"url":"http://www.michaelmina.net/restaurants/seattle/rn74-seattle/","tier":3,"message":"Expensive","currency":"$","rating":8.5},{"name":"Tulio Ristorante","phone":"2066245500","address":"1100 5th Ave","lat":47.60734801168973,"lng":-122.33244966438832,"neighborhood":"Seattle Central Business District","city_fetched":"Seattle","state":"WA","country":"United States","canonicalUrl":"https://foursquare.com/v/tulio-ristorante/4b5f379ef964a520f4ad29e3","category":"Italian Restaurant","checkinsCount":3297,"usersCount":1812,"tipCount":41,"visitsCount":3319,"url":"http://www.tulio.com","tier":3,"message":"Expensive","currency":"$","rating":8.5},{"name":"Big Picture Seattle","phone":"2062560566","twitter":"visitbigpicture","address":"2505 1st Ave","lat":47.61467813866235,"lng":-122.34929412603378,"neighborhood":"Belltown","city_fetched":"Seattle","state":"WA","country":"United States","canonicalUrl":"https://foursquare.com/v/big-picture-seattle/425db280f964a52000211fe3","category":"Movie Theater","checkinsCount":3410,"usersCount":1919,"tipCount":27,"visitsCount":3449,"url":"http://www.thebigpicture.net","tier":"","message":"","currency":"","rating":8.5},{"name":"Rhein Haus","phone":"2063255409","twitter":"searheinhaus","address":"912 12th Ave","lat":47.61094203053143,"lng":-122.31646462983399,"neighborhood":"Capitol Hill","city_fetched":"Seattle","state":"WA","country":"United States","canonicalUrl":"https://foursquare.com/v/rhein-haus/5112fa7de4b09f1fadfc0d8a","category":"German Restaurant","checkinsCount":10962,"usersCount":7599,"tipCount":65,"visitsCount":13399,"url":"http://www.rheinhausseattle.com","tier":2,"message":"Moderate","currency":"$","rating":8.5},{"name":"Alibi Room","phone":"2066233180","address":"85 Pike St","lat":47.608234,"lng":-122.340421,"neighborhood":"Pike Place","city_fetched":"Seattle","state":"WA","country":"United States","canonicalUrl":"https://foursquare.com/v/alibi-room/40b13b00f964a52020f61ee3","category":"Lounge","checkinsCount":8445,"usersCount":5173,"tipCount":46,"visitsCount":8513,"url":"http://seattlealibi.com","tier":2,"message":"Moderate","currency":"$","rating":8.5},{"name":"Jules Maes Saloon","phone":"2069577766","address":"5919 Airport Way S","lat":47.549652385251264,"lng":-122.31744289398193,"neighborhood":"Georgetown","city_fetched":"Seattle","state":"WA","country":"United States","canonicalUrl":"https://foursquare.com/v/jules-maes-saloon/425f0400f964a52012211fe3","category":"Bar","checkinsCount":3633,"usersCount":1779,"tipCount":30,"visitsCount":3844,"url":"http://julesmaes.com","tier":2,"message":"Moderate","currency":"$","rating":8.5},{"name":"Feierabend","phone":"2063402528","twitter":"feierabendsea","address":"422 Yale Ave N","lat":47.62233179630825,"lng":-122.33059757033426,"neighborhood":"South Lake Union","city_fetched":"Seattle","state":"WA","country":"United States","canonicalUrl":"https://foursquare.com/v/feierabend/449c24f5f964a520ab341fe3","category":"German Restaurant","checkinsCount":10680,"usersCount":4729,"tipCount":75,"visitsCount":12115,"url":"http://www.feierabendseattle.com","tier":2,"message":"Moderate","currency":"$","rating":8.5},{"name":"The Matador","phone":"2069329988","twitter":"matadorrest","address":"4546 California Ave SW","lat":47.56140441,"lng":-122.386504,"neighborhood":"West Seattle","city_fetched":"Seattle","state":"WA","country":"United States","canonicalUrl":"https://foursquare.com/v/the-matador/49fe7895f964a520a46f1fe3","category":"Mexican Restaurant","checkinsCount":4807,"usersCount":2147,"tipCount":38,"visitsCount":4876,"url":"http://matadorrestaurants.com","tier":2,"message":"Moderate","currency":"$","rating":8.5},{"name":"Poquitos","phone":"2064534216","twitter":"vivapoquitos","address":"1000 E Pike St","lat":47.614182422971815,"lng":-122.31906054826155,"neighborhood":"Capitol Hill","city_fetched":"Seattle","state":"WA","country":"United States","canonicalUrl":"https://foursquare.com/v/poquitos/4d8be972d49f370495f9308a","category":"Mexican Restaurant","checkinsCount":16646,"usersCount":7905,"tipCount":107,"visitsCount":16978,"url":"http://www.vivapoquitos.com","tier":2,"message":"Moderate","currency":"$","rating":8.5},{"name":"La Spiga","phone":"2063238881","twitter":"osterialaspiga","address":"1429 12th Ave","lat":47.613729,"lng":-122.317171,"neighborhood":"Capitol Hill","city_fetched":"Seattle","state":"WA","country":"United States","canonicalUrl":"https://foursquare.com/v/la-spiga/44397f33f964a5201e321fe3","category":"Italian Restaurant","checkinsCount":3941,"usersCount":2531,"tipCount":47,"visitsCount":3963,"url":"http://www.laspiga.com","tier":3,"message":"Expensive","currency":"$","rating":8.5},{"name":"Art of the Table","phone":"2062820942","address":"1054 N 39th St","lat":47.653967,"lng":-122.3444527387619,"neighborhood":"Fremont","city_fetched":"Seattle","state":"WA","country":"United States","canonicalUrl":"https://foursquare.com/v/art-of-the-table/4a77b232f964a52000e51fe3","category":"Wine Bar","checkinsCount":768,"usersCount":714,"tipCount":20,"visitsCount":926,"url":"http://www.artofthetable.net","tier":"","message":"","currency":"","rating":8.5},{"name":"The Dray","phone":"2064534527","address":"708 NW 65th St","lat":47.67607634034995,"lng":-122.36498290041196,"neighborhood":"Phinney Ridge","city_fetched":"Seattle","state":"WA","country":"United States","canonicalUrl":"https://foursquare.com/v/the-dray/4814929ef964a5205c4f1fe3","category":"Gastropub","checkinsCount":3184,"usersCount":1090,"tipCount":21,"visitsCount":3398,"url":"http://thedray.com","tier":2,"message":"Moderate","currency":"$","rating":8.5},{"name":"Flying Lion Brewing","phone":"2066599912","twitter":"flyinglionbeer","address":"5041 Rainier Ave S #106","lat":47.556204,"lng":-122.284319,"neighborhood":"Columbia City","city_fetched":"Seattle","state":"WA","country":"United States","canonicalUrl":"https://foursquare.com/v/flying-lion-brewing/544331bf498e6255f132bb0c","category":"Brewery","checkinsCount":314,"usersCount":171,"tipCount":6,"visitsCount":333,"url":"http://www.flyinglionbrewing.com","tier":1,"message":"Cheap","currency":"$","rating":8.5},{"name":"The Grizzled Wizard","phone":"2063954749","twitter":"grizzledwizard","address":"2317 N 45th St","lat":47.66130989841848,"lng":-122.33065427444382,"neighborhood":"Wallingford","city_fetched":"Seattle","state":"WA","country":"United States","canonicalUrl":"https://foursquare.com/v/the-grizzled-wizard/4ba18714f964a52047be37e3","category":"Bar","checkinsCount":4012,"usersCount":684,"tipCount":12,"visitsCount":4297,"url":"http://grizzledwizard.com","tier":"","message":"","currency":"","rating":8.5},{"name":"Laredos Grill","phone":"2062181040","twitter":"laredosseattle","address":"555 Aloha St #100","lat":47.627142,"lng":-122.34602310000001,"neighborhood":"Lower Queen Anne","city_fetched":"Seattle","state":"WA","country":"United States","canonicalUrl":"https://foursquare.com/v/laredos-grill/4a790103f964a520cce61fe3","category":"Mexican Restaurant","checkinsCount":6897,"usersCount":2790,"tipCount":57,"visitsCount":7950,"url":"http://www.laredosgrill.com","tier":2,"message":"Moderate","currency":"$","rating":8.5},{"name":"The Tasting Room","phone":"2067709463","twitter":"ttrseattle","address":"1924 Post Aly","lat":47.61042220636254,"lng":-122.34248505123355,"neighborhood":"Pike Place","city_fetched":"Seattle","state":"WA","country":"United States","canonicalUrl":"https://foursquare.com/v/the-tasting-room/449addfdf964a5209c341fe3","category":"Wine Bar","checkinsCount":1680,"usersCount":1235,"tipCount":18,"visitsCount":1686,"url":"http://tastingroomseattle.com","tier":"","message":"","currency":"","rating":8.5},{"name":"Terrace Club","twitter":"mariners","address":"1250 1st Ave S","lat":47.59137651914607,"lng":-122.33237854432714,"city_fetched":"Seattle","state":"WA","country":"United States","canonicalUrl":"https://foursquare.com/v/terrace-club/4bca551368f976b00f415f83","category":"Sports Bar","checkinsCount":1361,"usersCount":746,"tipCount":6,"visitsCount":1362,"tier":"","message":"","currency":"","rating":8.5},{"name":"The Atlantic Crossing","phone":"2067296266","twitter":"acpubseattle","address":"6508 Roosevelt Way NE","lat":47.67616231,"lng":-122.31724067,"neighborhood":"Roosevelt","city_fetched":"Seattle","state":"WA","country":"United States","canonicalUrl":"https://foursquare.com/v/the-atlantic-crossing/46c0d694f964a520f0491fe3","category":"Pub","checkinsCount":4491,"usersCount":1453,"tipCount":37,"visitsCount":4641,"url":"http://theatlanticcrossing.com","tier":1,"message":"Cheap","currency":"$","rating":8.4},{"name":"The Leary Traveler","phone":"2067834805","twitter":"thelearytraveler","address":"4354 Leary Way NW","lat":47.660252,"lng":-122.36567974090221,"neighborhood":"Fremont","city_fetched":"Seattle","state":"WA","country":"United States","canonicalUrl":"https://foursquare.com/v/the-leary-traveler/4a2dba30f964a520e6971fe3","category":"Bar","checkinsCount":3061,"usersCount":1249,"tipCount":27,"visitsCount":3110,"url":"http://www.learytraveler.com/home","tier":2,"message":"Moderate","currency":"$","rating":8.4},{"name":"Good Bar","phone":"2066242337","address":"240 2nd Ave S Ste 101","lat":47.600242226260654,"lng":-122.33153688287821,"neighborhood":"Pioneer Square","city_fetched":"Seattle","state":"WA","country":"United States","canonicalUrl":"https://foursquare.com/v/good-bar/546d5049498e6c78df746146","category":"Cocktail Bar","checkinsCount":960,"usersCount":684,"tipCount":13,"visitsCount":1161,"url":"http://www.goodbarseattle.com","tier":"","message":"","currency":"","rating":8.4},{"name":"Outlander Brewery & Pub","phone":"2064864088","twitter":"outlanderbrew","address":"225 N 36th St","lat":47.65232213800995,"lng":-122.35522985458373,"neighborhood":"Fremont","city_fetched":"Seattle","state":"WA","country":"United States","canonicalUrl":"https://foursquare.com/v/outlander-brewery--pub/5009f956067dc4c8b165a68b","category":"Brewery","checkinsCount":1950,"usersCount":1246,"tipCount":13,"visitsCount":2192,"url":"http://outlanderbrewing.com","tier":1,"message":"Cheap","currency":"$","rating":8.4},{"name":"Star Brass Lounge","address":"5809 Airport Way S","lat":47.550701263552476,"lng":-122.31840030967504,"neighborhood":"Georgetown","city_fetched":"Seattle","state":"WA","country":"United States","canonicalUrl":"https://foursquare.com/v/star-brass-lounge/51675db3e4b058109a3bc3ce","category":"Lounge","checkinsCount":925,"usersCount":648,"tipCount":4,"visitsCount":1216,"tier":"","message":"","currency":"","rating":8.4},{"name":"Marjorie","phone":"2064419842","twitter":"marjorieseattle","address":"1412 E Union St","lat":47.613063606516775,"lng":-122.31372049584822,"city_fetched":"Seattle","state":"WA","country":"United States","canonicalUrl":"https://foursquare.com/v/marjorie/4bee0ce54daaa593e6b58f61","category":"Lounge","checkinsCount":1525,"usersCount":952,"tipCount":25,"visitsCount":1552,"url":"http://www.marjorierestaurant.com","tier":3,"message":"Expensive","currency":"$","rating":8.4},{"name":"Pies & Pints","phone":"2065247082","twitter":"piespints","address":"1215 NE 65th St","lat":47.67569341947555,"lng":-122.3150047659874,"neighborhood":"Roosevelt","city_fetched":"Seattle","state":"WA","country":"United States","canonicalUrl":"https://foursquare.com/v/pies--pints/414a2900f964a520ce1c1fe3","category":"Pub","checkinsCount":4394,"usersCount":2219,"tipCount":48,"visitsCount":4758,"url":"http://piesandpints.com","tier":2,"message":"Moderate","currency":"$","rating":8.4},{"name":"Smarty Pants","phone":"2067624777","address":"6017 Airport Way S","lat":47.54880207,"lng":-122.316633,"neighborhood":"Georgetown","city_fetched":"Seattle","state":"WA","country":"United States","canonicalUrl":"https://foursquare.com/v/smarty-pants/40b3de00f964a52009001fe3","category":"Bar","checkinsCount":4780,"usersCount":1979,"tipCount":53,"visitsCount":4924,"url":"http://smartypantsseattle.com","tier":1,"message":"Cheap","currency":"$","rating":8.4},{"name":"Elliott Bay Brewery and Pub","phone":"2069328695","twitter":"elliottbay_beer","address":"4720 California Ave SW","lat":47.56039917469025,"lng":-122.3865419626236,"neighborhood":"West Seattle","city_fetched":"Seattle","state":"WA","country":"United States","canonicalUrl":"https://foursquare.com/v/elliott-bay-brewery-and-pub/40b13b00f964a52074f61ee3","category":"Brewery","checkinsCount":5330,"usersCount":2268,"tipCount":64,"visitsCount":5454,"url":"http://www.elliottbaybrewing.com","tier":2,"message":"Moderate","currency":"$","rating":8.4},{"name":"Populuxe Brewing","phone":"2067063400","twitter":"populuxebrewing","address":"826B NW 49th St","lat":47.66454237104572,"lng":-122.3679296540399,"neighborhood":"Ballard","city_fetched":"Seattle","state":"WA","country":"United States","canonicalUrl":"https://foursquare.com/v/populuxe-brewing/51301af4e4b03f2989fc0a65","category":"Brewery","checkinsCount":1722,"usersCount":1277,"tipCount":23,"visitsCount":2441,"url":"http://www.populuxebrewing.com","tier":"","message":"","currency":"","rating":8.4},{"name":"Nue","phone":"2062570312","address":"1519 14th Ave Seattle","lat":47.614643077008076,"lng":-122.31419315957702,"neighborhood":"Capitol Hill","city_fetched":"Seattle","state":"WA","country":"United States","canonicalUrl":"https://foursquare.com/v/nue/546d5e58498ea3aa56897c85","category":"Gastropub","checkinsCount":659,"usersCount":548,"tipCount":18,"visitsCount":708,"url":"http://www.nueseattle.com","tier":2,"message":"Moderate","currency":"$","rating":8.4},{"name":"Via Tribunali","phone":"2065472144","address":"4303 Fremont Ave N","lat":47.659105,"lng":-122.350156,"neighborhood":"Fremont","city_fetched":"Seattle","state":"WA","country":"United States","canonicalUrl":"https://foursquare.com/v/via-tribunali/49d597a7f964a520a05c1fe3","category":"Pizza Place","checkinsCount":1722,"usersCount":977,"tipCount":24,"visitsCount":1739,"url":"http://viatribunali.com","tier":"","message":"","currency":"","rating":8.4},{"name":"Billy Beach Sushi and Bar","phone":"2062574616","twitter":"billybeachsushi","address":"5463 Leary Ave NW","lat":47.668180327308576,"lng":-122.38428371643641,"neighborhood":"Ballard","city_fetched":"Seattle","state":"WA","country":"United States","canonicalUrl":"https://foursquare.com/billybeachsushi","category":"Sushi Restaurant","checkinsCount":1935,"usersCount":878,"tipCount":23,"visitsCount":1991,"url":"http://www.billybeachsushi.com","tier":2,"message":"Moderate","currency":"$","rating":8.4},{"name":"Voxx Coffee","phone":"2063242778","address":"2245 Eastlake Ave E","lat":47.63960425791797,"lng":-122.32609570026398,"neighborhood":"Eastlake","city_fetched":"Seattle","state":"WA","country":"United States","canonicalUrl":"https://foursquare.com/v/voxx-coffee/49e96cb8f964a520f8651fe3","category":"Coffee Shop","checkinsCount":5475,"usersCount":1248,"tipCount":39,"visitsCount":5638,"url":"http://voxxseattle.com","tier":1,"message":"Cheap","currency":"$","rating":8.4},{"name":"El Norte","phone":"2069541349","address":"13717 Lake City Way NE","lat":47.72893603579159,"lng":-122.29253236975889,"neighborhood":"Lake City","city_fetched":"Seattle","state":"WA","country":"United States","canonicalUrl":"https://foursquare.com/v/el-norte/4becef3291380f47504c9f18","category":"Mexican Restaurant","checkinsCount":1122,"usersCount":507,"tipCount":13,"visitsCount":1354,"url":"http://elnorteloungeseattle.com","tier":2,"message":"Moderate","currency":"$","rating":8.4},{"name":"Hudson","phone":"2067674777","address":"5000 E Marginal Way S","lat":47.55728754169239,"lng":-122.33864044189272,"neighborhood":"Georgetown","city_fetched":"Seattle","state":"WA","country":"United States","canonicalUrl":"https://foursquare.com/v/hudson/49ebe40ef964a52041671fe3","category":"New American Restaurant","checkinsCount":4219,"usersCount":1750,"tipCount":53,"visitsCount":5043,"url":"http://www.hudsonseattle.com","tier":2,"message":"Moderate","currency":"$","rating":8.4},{"name":"Pan Pacific Hotel Seattle","phone":"2062648111","twitter":"panpacificsea","address":"2125 Terry Avenue","lat":47.61799224642507,"lng":-122.33766643843575,"neighborhood":"Belltown","city_fetched":"Seattle","state":"WA","country":"United States","canonicalUrl":"https://foursquare.com/v/pan-pacific-hotel-seattle/45b9ffd5f964a520dd411fe3","category":"Hotel","checkinsCount":4736,"usersCount":2056,"tipCount":30,"visitsCount":4768,"url":"http://www.panpacific.com/en/hotels-resorts/united-states/seattle.html","tier":"","message":"","currency":"","rating":8.4},{"name":"The Hideout","phone":"2069038480","twitter":"hideoutseattle","address":"1005 Boren Ave","lat":47.60954827199486,"lng":-122.32544660568237,"neighborhood":"First Hill","city_fetched":"Seattle","state":"WA","country":"United States","canonicalUrl":"https://foursquare.com/v/the-hideout/4339dd00f964a52034281fe3","category":"Speakeasy","checkinsCount":4788,"usersCount":2153,"tipCount":51,"visitsCount":5164,"url":"http://www.hideoutseattle.com","tier":"","message":"","currency":"","rating":8.4},{"name":"Big Mario's Pizza","phone":"2069223875","twitter":"bigmariospizza","address":"1009 E Pike St","lat":47.61391149335684,"lng":-122.31885373592377,"neighborhood":"Capitol Hill","city_fetched":"Seattle","state":"WA","country":"United States","canonicalUrl":"https://foursquare.com/v/big-marios-pizza/4c2a575b8ef52d7f26b82fba","category":"Pizza Place","checkinsCount":11576,"usersCount":3952,"tipCount":55,"visitsCount":11664,"url":"http://bigmariosnewyorkstylepizza.com","tier":1,"message":"Cheap","currency":"$","rating":8.4},{"name":"Pike Brewing Company","phone":"2066226044","twitter":"pikebrewing","address":"1415 1st Ave","lat":47.608190975778136,"lng":-122.33966224323066,"neighborhood":"Pike Place","city_fetched":"Seattle","state":"WA","country":"United States","canonicalUrl":"https://foursquare.com/pikebrewing","category":"Brewery","checkinsCount":21858,"usersCount":15921,"tipCount":216,"visitsCount":22192,"url":"http://pikebrewing.com","tier":2,"message":"Moderate","currency":"$","rating":8.4},{"name":"Pintxo","phone":"2064414042","twitter":"pintxoseattle","address":"2207 2nd Ave","lat":47.61341063646226,"lng":-122.34477996826172,"neighborhood":"Belltown","city_fetched":"Seattle","state":"WA","country":"United States","canonicalUrl":"https://foursquare.com/v/pintxo/4bba43c37421a593d997c340","category":"Tapas Restaurant","checkinsCount":3035,"usersCount":1550,"tipCount":44,"visitsCount":3039,"url":"http://www.pintxoseattle.com","tier":2,"message":"Moderate","currency":"$","rating":8.3},{"name":"Shorty's","phone":"2064415449","address":"2222 2nd Ave","lat":47.61378894064022,"lng":-122.34492074104432,"neighborhood":"Belltown","city_fetched":"Seattle","state":"WA","country":"United States","canonicalUrl":"https://foursquare.com/v/shortys/40b3de00f964a52029001fe3","category":"Dive Bar","checkinsCount":13075,"usersCount":5549,"tipCount":75,"visitsCount":13240,"url":"http://www.shortydog.com","tier":1,"message":"Cheap","currency":"$","rating":8.3},{"name":"Monkey Loft","address":"2915 1st Ave","lat":47.57727482724362,"lng":-122.33444086623992,"city_fetched":"Seattle","state":"WA","country":"United States","canonicalUrl":"https://foursquare.com/v/monkey-loft/4e85947893ad3864105e2462","category":"Other Nightlife","checkinsCount":885,"usersCount":605,"tipCount":10,"visitsCount":1283,"tier":2,"message":"Moderate","currency":"$","rating":8.3},{"name":"Red Papaya","phone":"2062836614","address":"530 1st Ave","lat":47.62418433470984,"lng":-122.35533499077555,"neighborhood":"Lower Queen Anne","city_fetched":"Seattle","state":"WA","country":"United States","canonicalUrl":"https://foursquare.com/v/red-papaya/49f627e1f964a520126c1fe3","category":"Vietnamese Restaurant","checkinsCount":3482,"usersCount":1622,"tipCount":40,"visitsCount":3774,"url":"http://www.redpapayaales.com","tier":2,"message":"Moderate","currency":"$","rating":8.3},{"name":"Percy's & Co.","phone":"2064203750","address":"5233 Ballard Ave NW","lat":47.666237,"lng":-122.383192,"neighborhood":"Ballard","city_fetched":"Seattle","state":"WA","country":"United States","canonicalUrl":"https://foursquare.com/v/percys--co/520947d611d2031f1ae47e8a","category":"Cocktail Bar","checkinsCount":2909,"usersCount":1776,"tipCount":26,"visitsCount":3006,"url":"http://www.percysseattle.com","tier":2,"message":"Moderate","currency":"$","rating":8.3},{"name":"Primo","phone":"2065477466","twitter":"primoseattle","address":"1106 8th Ave","lat":47.60887278357298,"lng":-122.32953677262424,"neighborhood":"First Hill","city_fetched":"Seattle","state":"WA","country":"United States","canonicalUrl":"https://foursquare.com/v/primo/4cad3f2e2f08236a01ba9261","category":"Italian Restaurant","checkinsCount":1437,"usersCount":658,"tipCount":30,"visitsCount":1542,"url":"http://www.primoseattle.com","tier":2,"message":"Moderate","currency":"$","rating":8.3},{"name":"Pyramid Alehouse","phone":"2066823377","twitter":"pyramidsea","address":"1201 1st Ave S","lat":47.592041097110474,"lng":-122.33448028564453,"city_fetched":"Seattle","state":"WA","country":"United States","canonicalUrl":"https://foursquare.com/v/pyramid-alehouse/40b13b00f964a520e5f61ee3","category":"Brewery","checkinsCount":16159,"usersCount":10116,"tipCount":77,"visitsCount":17638,"url":"http://www.pyramidbrew.com/alehouses/seattle","tier":2,"message":"Moderate","currency":"$","rating":8.3},{"name":"Olaf's","phone":"2062976122","address":"6301 24th Ave NW","lat":47.674723588200415,"lng":-122.38774205889939,"neighborhood":"Ballard","city_fetched":"Seattle","state":"WA","country":"United States","canonicalUrl":"https://foursquare.com/v/olafs/521fd57d2fc6ec07a81e85d1","category":"Bar","checkinsCount":1433,"usersCount":549,"tipCount":19,"visitsCount":2045,"url":"http://www.olafsballard.com","tier":2,"message":"Moderate","currency":"$","rating":8.3},{"name":"C.C. Attle's","phone":"2067260565","address":"1701 E Olive Way","lat":47.61967371476228,"lng":-122.32331156730652,"neighborhood":"Capitol Hill","city_fetched":"Seattle","state":"WA","country":"United States","canonicalUrl":"https://foursquare.com/v/cc-attles/43012c80f964a520fc261fe3","category":"Gay Bar","checkinsCount":8344,"usersCount":2119,"tipCount":33,"visitsCount":9753,"url":"http://ccattles.net","tier":1,"message":"Cheap","currency":"$","rating":8.3},{"name":"List","phone":"2064411000","address":"2226 1st Ave","lat":47.613234401461476,"lng":-122.34615082837043,"neighborhood":"Belltown","city_fetched":"Seattle","state":"WA","country":"United States","canonicalUrl":"https://foursquare.com/v/list/49c6da71f964a52085571fe3","category":"Lounge","checkinsCount":8509,"usersCount":3263,"tipCount":89,"visitsCount":8556,"url":"http://www.listbelltown.com","tier":2,"message":"Moderate","currency":"$","rating":8.3},{"name":"Kushibar","phone":"2064482488","twitter":"kushibar","address":"2319 2nd Ave","lat":47.614331875450326,"lng":-122.34645120305854,"neighborhood":"Belltown","city_fetched":"Seattle","state":"WA","country":"United States","canonicalUrl":"https://foursquare.com/v/kushibar/48c962eef964a520e6511fe3","category":"Japanese Restaurant","checkinsCount":6715,"usersCount":2688,"tipCount":68,"visitsCount":6879,"url":"http://kushibar.com","tier":2,"message":"Moderate","currency":"$","rating":8.3},{"name":"Lunchbox Laboratory","phone":"2066211090","twitter":"lunchbox_lab","address":"1253 Thomas St","lat":47.62074822592692,"lng":-122.33147077824927,"neighborhood":"South Lake Union","city_fetched":"Seattle","state":"WA","country":"United States","canonicalUrl":"https://foursquare.com/v/lunchbox-laboratory/4d4239995d01224bf1015e50","category":"Burger Joint","checkinsCount":10345,"usersCount":6550,"tipCount":126,"visitsCount":11892,"url":"http://www.lunchboxlaboratory.com","tier":2,"message":"Moderate","currency":"$","rating":8.3},{"name":"Dilettante Mocha Café & Chocolate Martini Bar","phone":"2063296463","address":"538 Broadway E #100","lat":47.62415398482468,"lng":-122.3208786476391,"neighborhood":"Capitol Hill","city_fetched":"Seattle","state":"WA","country":"United States","canonicalUrl":"https://foursquare.com/v/dilettante-mocha-caf%C3%A9--chocolate-martini-bar/49d1962ef964a520925b1fe3","category":"Chocolate Shop","checkinsCount":4381,"usersCount":2701,"tipCount":46,"visitsCount":4461,"url":"http://www.dilettante.com/Mocha-Cafes.html","tier":"","message":"","currency":"","rating":8.3},{"name":"74th Street Ale House","phone":"2067842955","twitter":"74thalehouse","address":"7401 Greenwood Ave N","lat":47.682681,"lng":-122.355431,"neighborhood":"Phinney Ridge","city_fetched":"Seattle","state":"WA","country":"United States","canonicalUrl":"https://foursquare.com/v/74th-street-ale-house/40b13b00f964a5201df61ee3","category":"Pub","checkinsCount":3799,"usersCount":1333,"tipCount":32,"visitsCount":3944,"url":"http://seattlealehouses.com/74th/default.htm","tier":2,"message":"Moderate","currency":"$","rating":8.3},{"name":"Brass Tacks","phone":"2063973821","twitter":"georgetownbrass","address":"6031 Airport Way S","lat":47.54855167497084,"lng":-122.31608033180235,"neighborhood":"Georgetown","city_fetched":"Seattle","state":"WA","country":"United States","canonicalUrl":"https://foursquare.com/v/brass-tacks/50ecc54be4b0e7253aa82b2e","category":"Gastropub","checkinsCount":1549,"usersCount":1257,"tipCount":27,"visitsCount":1911,"url":"http://georgetownbrass.com","tier":2,"message":"Moderate","currency":"$","rating":8.3},{"name":"Marco Polo Pub","phone":"2067623964","address":"5613 4th Ave S","lat":47.55207821116157,"lng":-122.32981860637665,"neighborhood":"Georgetown","city_fetched":"Seattle","state":"WA","country":"United States","canonicalUrl":"https://foursquare.com/v/marco-polo-pub/40b13b00f964a520baf61ee3","category":"Pub","checkinsCount":2762,"usersCount":949,"tipCount":33,"visitsCount":3676,"url":"http://www.marcopoloseattle.com","tier":2,"message":"Moderate","currency":"$","rating":8.3},{"name":"Mamma Melina Ristorante","phone":"2066322271","twitter":"mammamelina","address":"5101 25th Ave NE","lat":47.66636940685272,"lng":-122.30086092189369,"neighborhood":"University District","city_fetched":"Seattle","state":"WA","country":"United States","canonicalUrl":"https://foursquare.com/v/mamma-melina-ristorante/4bdf2bc96198c9b65c3216ff","category":"Italian Restaurant","checkinsCount":2954,"usersCount":1989,"tipCount":47,"visitsCount":3535,"url":"http://www.mammamelina.com","tier":2,"message":"Moderate","currency":"$","rating":8.3},{"name":"Tallulah's","phone":"2068600077","twitter":"tallulahseattle","address":"550 19th Ave E","lat":47.62433076005991,"lng":-122.3072075843811,"neighborhood":"Capitol Hill","city_fetched":"Seattle","state":"WA","country":"United States","canonicalUrl":"https://foursquare.com/v/tallulahs/52a7810611d2234ab9564dac","category":"Bar","checkinsCount":2268,"usersCount":1384,"tipCount":31,"visitsCount":2516,"url":"http://aneighborhoodcafe.com","tier":2,"message":"Moderate","currency":"$","rating":8.3},{"name":"Old Rainier Brewery","phone":"2062332070","address":"3100 Airport Way S","lat":47.57645964947297,"lng":-122.32091094421881,"city_fetched":"Seattle","state":"WA","country":"United States","canonicalUrl":"https://foursquare.com/v/old-rainier-brewery/4ad1493cf964a520dedd20e3","category":"Brewery","checkinsCount":1907,"usersCount":890,"tipCount":7,"visitsCount":2035,"tier":"","message":"","currency":"","rating":8.3},{"name":"White Horse Trading Company","phone":"2064417767","twitter":"whitehorseco","address":"1908 Post Aly","lat":47.61016250058773,"lng":-122.34203552471298,"neighborhood":"Pike Place","city_fetched":"Seattle","state":"WA","country":"United States","canonicalUrl":"https://foursquare.com/v/white-horse-trading-company/48b95da3f964a520c6511fe3","category":"Pub","checkinsCount":2246,"usersCount":1319,"tipCount":22,"visitsCount":2253,"tier":2,"message":"Moderate","currency":"$","rating":8.3},{"name":"Brimmer & Heeltap","phone":"2064202534","address":"425 NW Market St","lat":47.668529,"lng":-122.363051,"neighborhood":"Ballard","city_fetched":"Seattle","state":"WA","country":"United States","canonicalUrl":"https://foursquare.com/v/brimmer--heeltap/5205311f11d27a0c4ccda379","category":"Gastropub","checkinsCount":904,"usersCount":624,"tipCount":22,"visitsCount":996,"url":"http://www.brimmerandheeltap.com","tier":2,"message":"Moderate","currency":"$","rating":8.3},{"name":"Hooverville","phone":"2062642428","address":"1721 1st Ave S","lat":47.58758066090993,"lng":-122.33447256452475,"city_fetched":"Seattle","state":"WA","country":"United States","canonicalUrl":"https://foursquare.com/v/hooverville/453bbf4df964a520023c1fe3","category":"Bar","checkinsCount":4865,"usersCount":2521,"tipCount":31,"visitsCount":5335,"url":"http://www.hoovervillebar.com","tier":"","message":"","currency":"","rating":8.3},{"name":"Perche No Pasta & Vino","phone":"2065470222","twitter":"percheno8","address":"1319 N 49th St","lat":47.664219,"lng":-122.34118488,"neighborhood":"Wallingford","city_fetched":"Seattle","state":"WA","country":"United States","canonicalUrl":"https://foursquare.com/v/perche-no-pasta--vino/4509a039f964a52041391fe3","category":"Italian Restaurant","checkinsCount":1121,"usersCount":746,"tipCount":16,"visitsCount":1182,"url":"http://www.perchenopastaandvino.com","tier":2,"message":"Moderate","currency":"$","rating":8.3},{"name":"Bottleworks","phone":"2066332437","address":"1710 N 45th St #3","lat":47.661517158671565,"lng":-122.33716249465942,"neighborhood":"Wallingford","city_fetched":"Seattle","state":"WA","country":"United States","canonicalUrl":"https://foursquare.com/v/bottleworks/455e6bcaf964a520873d1fe3","category":"Beer Store","checkinsCount":3020,"usersCount":1209,"tipCount":30,"visitsCount":3078,"tier":"","message":"","currency":"","rating":8.3},{"name":"Duke's Chowder House","phone":"2063829963","twitter":"dukeschowder","address":"901 Fairview Ave N","lat":47.62796,"lng":-122.333986,"neighborhood":"South Lake Union","city_fetched":"Seattle","state":"WA","country":"United States","canonicalUrl":"https://foursquare.com/v/dukes-chowder-house/49fe423ef964a520896f1fe3","category":"Seafood Restaurant","checkinsCount":3344,"usersCount":2656,"tipCount":43,"visitsCount":3817,"url":"http://www.dukeschowderhouse.com/locations/lake-union/","tier":2,"message":"Moderate","currency":"$","rating":8.3},{"name":"Talarico's","phone":"2069373463","twitter":"talaricoseattle","address":"4718 California Ave SW","lat":47.5604906658156,"lng":-122.38655885450564,"neighborhood":"West Seattle","city_fetched":"Seattle","state":"WA","country":"United States","canonicalUrl":"https://foursquare.com/v/talaricos/4536e377f964a520b13b1fe3","category":"Pizza Place","checkinsCount":7338,"usersCount":2783,"tipCount":56,"visitsCount":7515,"url":"http://www.talaricoswest.com","tier":2,"message":"Moderate","currency":"$","rating":8.3},{"name":"Ohana","phone":"2069569329","twitter":"ohanabelltown","address":"2207 1st Ave","lat":47.61278094173274,"lng":-122.34551744703391,"neighborhood":"Belltown","city_fetched":"Seattle","state":"WA","country":"United States","canonicalUrl":"https://foursquare.com/v/ohana/40ccea80f964a52017011fe3","category":"Sushi Restaurant","checkinsCount":7680,"usersCount":3932,"tipCount":56,"visitsCount":7909,"url":"http://www.ohanabelltown.com","tier":2,"message":"Moderate","currency":"$","rating":8.3},{"name":"The Matador","phone":"2062972855","twitter":"matadorrest","address":"2221 NW Market St","lat":47.66858500635852,"lng":-122.38581006772436,"neighborhood":"Ballard","city_fetched":"Seattle","state":"WA","country":"United States","canonicalUrl":"https://foursquare.com/v/the-matador/42911d00f964a520fb231fe3","category":"Mexican Restaurant","checkinsCount":9042,"usersCount":4815,"tipCount":58,"visitsCount":9561,"url":"http://matadorrestaurants.com","tier":2,"message":"Moderate","currency":"$","rating":8.3},{"name":"Diesel","phone":"2063221080","address":"1413 14th Ave","lat":47.61337947890739,"lng":-122.31434453944156,"city_fetched":"Seattle","state":"WA","country":"United States","canonicalUrl":"https://foursquare.com/v/diesel/4df4284f18386ecb4e334859","category":"Gay Bar","checkinsCount":3631,"usersCount":1128,"tipCount":18,"visitsCount":3774,"url":"http://dieselseattle.com/DIESEL.html","tier":2,"message":"Moderate","currency":"$","rating":8.3},{"name":"Bar Sue","address":"1407 14th Ave","lat":47.613288444267205,"lng":-122.31429772497155,"city_fetched":"Seattle","state":"WA","country":"United States","canonicalUrl":"https://foursquare.com/v/bar-sue/522185db498e4ca236b18fb2","category":"Bar","checkinsCount":889,"usersCount":476,"tipCount":5,"visitsCount":928,"url":"http://barsueseattle.com","tier":"","message":"","currency":"","rating":8.2},{"name":"Mioposto - Mt. Baker","phone":"2067603400","twitter":"mioposto","address":"3601 S McClellan St","lat":47.57826555177709,"lng":-122.28834531616194,"neighborhood":"Mount Baker","city_fetched":"Seattle","state":"WA","country":"United States","canonicalUrl":"https://foursquare.com/v/mioposto--mt-baker/4a91b65df964a5207b1b20e3","category":"Pizza Place","checkinsCount":2905,"usersCount":937,"tipCount":21,"visitsCount":3339,"url":"http://miopostopizza.com","tier":2,"message":"Moderate","currency":"$","rating":8.2},{"name":"Etta's Seafood","phone":"2064436000","twitter":"ettasseafoodwa","address":"2020 Western Ave","lat":47.610587135025675,"lng":-122.34406275161469,"neighborhood":"Pike Place","city_fetched":"Seattle","state":"WA","country":"United States","canonicalUrl":"https://foursquare.com/v/ettas-seafood/4158a980f964a5203b1d1fe3","category":"Seafood Restaurant","checkinsCount":5687,"usersCount":4686,"tipCount":101,"visitsCount":5774,"url":"http://www.tomdouglas.com/restaurants/ettas","tier":2,"message":"Moderate","currency":"$","rating":8.2},{"name":"Gainsbourg","phone":"2067812224","address":"8550 Greenwood Ave N","lat":47.691418,"lng":-122.35511720180511,"neighborhood":"Greenwood","city_fetched":"Seattle","state":"WA","country":"United States","canonicalUrl":"https://foursquare.com/v/gainsbourg/49b754c5f964a52027531fe3","category":"French Restaurant","checkinsCount":3955,"usersCount":1094,"tipCount":23,"visitsCount":4036,"url":"http://gainsbourglounge.com","tier":2,"message":"Moderate","currency":"$","rating":8.2},{"name":"Capitol Cider","phone":"2063973564","twitter":"capitolcider","address":"818 E Pike St","lat":47.61408473577474,"lng":-122.32128451977802,"neighborhood":"First Hill","city_fetched":"Seattle","state":"WA","country":"United States","canonicalUrl":"https://foursquare.com/v/capitol-cider/50f1027ee4b04196702b9cb8","category":"Bar","checkinsCount":5746,"usersCount":3657,"tipCount":67,"visitsCount":6452,"url":"http://www.seattleciderbar.com","tier":2,"message":"Moderate","currency":"$","rating":8.2},{"name":"Russell's","phone":"2065471653","address":"4111 Stone Way N","lat":47.657079184166605,"lng":-122.34237490294319,"neighborhood":"Fremont","city_fetched":"Seattle","state":"WA","country":"United States","canonicalUrl":"https://foursquare.com/v/russells/532d2fb1498ed3bab7a31084","category":"Bar","checkinsCount":419,"usersCount":399,"tipCount":7,"visitsCount":750,"url":"http://russellsseattle.com","tier":2,"message":"Moderate","currency":"$","rating":8.2},{"name":"The Pacific Inn","phone":"2065472967","address":"3501 Stone Way N","lat":47.64959435416614,"lng":-122.34294570570034,"neighborhood":"Fremont","city_fetched":"Seattle","state":"WA","country":"United States","canonicalUrl":"https://foursquare.com/v/the-pacific-inn/40b13b00f964a520d9f61ee3","category":"Bar","checkinsCount":2787,"usersCount":1367,"tipCount":32,"visitsCount":2910,"url":"http://pacific-inn.com","tier":1,"message":"Cheap","currency":"$","rating":8.2},{"name":"Kerloo Cellars","phone":"2062091892","address":"3911 1st avenue South","lat":47.567669305382864,"lng":-122.33549346123318,"neighborhood":"Industrial District","city_fetched":"Seattle","state":"WA","country":"United States","canonicalUrl":"https://foursquare.com/v/kerloo-cellars/55174065498ea99fe4c18992","category":"Winery","checkinsCount":91,"usersCount":56,"tipCount":3,"visitsCount":95,"url":"http://kerloocellarswa.com","tier":"","message":"","currency":"","rating":8.2},{"name":"Mercury @ MachineWerks","phone":"2063289481","twitter":"the_mercury","address":"1009 E Union St","lat":47.612672903490974,"lng":-122.31889128684998,"neighborhood":"Capitol Hill","city_fetched":"Seattle","state":"WA","country":"United States","canonicalUrl":"https://foursquare.com/v/mercury--machinewerks/412bd680f964a520b80c1fe3","category":"Nightclub","checkinsCount":7967,"usersCount":1000,"tipCount":23,"visitsCount":8342,"url":"http://mercuryatmachinewerks.com","tier":1,"message":"Cheap","currency":"$","rating":8.2},{"name":"Standard Brewing","phone":"2065351584","address":"2504 S Jackson St","lat":47.599509894444274,"lng":-122.29986937016785,"city_fetched":"Seattle","state":"WA","country":"United States","canonicalUrl":"https://foursquare.com/v/standard-brewing/5141334ce4b00f63c3fa2085","category":"Brewery","checkinsCount":650,"usersCount":376,"tipCount":4,"visitsCount":865,"url":"http://standardbrew.com","tier":"","message":"","currency":"","rating":8.2},{"name":"Stoneburner","phone":"2066952051","twitter":"eatstoneburner","address":"5214 Ballard Ave NW","lat":47.666127,"lng":-122.382735,"neighborhood":"Ballard","city_fetched":"Seattle","state":"WA","country":"United States","canonicalUrl":"https://foursquare.com/v/stoneburner/51cb44f3498e1f289782f9b6","category":"Italian Restaurant","checkinsCount":2359,"usersCount":1548,"tipCount":35,"visitsCount":2427,"url":"http://stoneburnerseattle.com","tier":2,"message":"Moderate","currency":"$","rating":8.2},{"name":"Cyclops","phone":"2064411677","address":"2421 1st Ave","lat":47.614658707193755,"lng":-122.3487685515101,"neighborhood":"Belltown","city_fetched":"Seattle","state":"WA","country":"United States","canonicalUrl":"https://foursquare.com/v/cyclops/41044980f964a520730b1fe3","category":"Bar","checkinsCount":7323,"usersCount":3234,"tipCount":53,"visitsCount":7618,"url":"http://cyclopsseattle.com","tier":2,"message":"Moderate","currency":"$","rating":8.2},{"name":"Captain Blacks","phone":"2063279549","twitter":"captainblacks","address":"129 Belmont Ave E","lat":47.61931657791138,"lng":-122.324372716362,"neighborhood":"Capitol Hill","city_fetched":"Seattle","state":"WA","country":"United States","canonicalUrl":"https://foursquare.com/captainblacks","category":"Bar","checkinsCount":7149,"usersCount":2855,"tipCount":39,"visitsCount":7303,"url":"http://www.captainblacksseattle.com","tier":1,"message":"Cheap","currency":"$","rating":8.2},{"name":"Brave Horse Tavern","phone":"2069710717","address":"310 Terry Ave N","lat":47.621261338861544,"lng":-122.33709162367171,"neighborhood":"South Lake Union","city_fetched":"Seattle","state":"WA","country":"United States","canonicalUrl":"https://foursquare.com/v/brave-horse-tavern/4d9a7c885e52224b217e2ee3","category":"Gastropub","checkinsCount":21462,"usersCount":8861,"tipCount":154,"visitsCount":22373,"url":"http://bravehorsetavern.com","tier":2,"message":"Moderate","currency":"$","rating":8.2},{"name":"Hattie's Hat Restaurant","phone":"2067840175","twitter":"hatties_hat","address":"5231 Ballard Ave NW","lat":47.666122804221374,"lng":-122.38309135874057,"neighborhood":"Ballard","city_fetched":"Seattle","state":"WA","country":"United States","canonicalUrl":"https://foursquare.com/v/hatties-hat-restaurant/40b13b00f964a52096f61ee3","category":"Bar","checkinsCount":6569,"usersCount":2983,"tipCount":52,"visitsCount":6640,"url":"http://hatties-hat.com","tier":2,"message":"Moderate","currency":"$","rating":8.2},{"name":"Montana","phone":"2064224647","address":"1506 E Olive Way","lat":47.61787100261665,"lng":-122.32611399694993,"neighborhood":"Capitol Hill","city_fetched":"Seattle","state":"WA","country":"United States","canonicalUrl":"https://foursquare.com/v/montana/4ed545e8f790888b54679bb8","category":"Bar","checkinsCount":7802,"usersCount":2792,"tipCount":55,"visitsCount":8050,"url":"http://montanainseattle.com","tier":1,"message":"Cheap","currency":"$","rating":8.2},{"name":"Suite 410","phone":"2066824101","twitter":"suite410","address":"410 Stewart St","lat":47.612582086773145,"lng":-122.3384815977716,"neighborhood":"Belltown","city_fetched":"Seattle","state":"WA","country":"United States","canonicalUrl":"https://foursquare.com/suite410","category":"Cocktail Bar","checkinsCount":1956,"usersCount":1071,"tipCount":16,"visitsCount":1981,"url":"http://www.suite410bar.com","tier":"","message":"","currency":"","rating":8.1},{"name":"The Beer Authority","phone":"2064179629","twitter":"beerauthority","address":"12716 Lake City Way NE","lat":47.72187270280804,"lng":-122.29348561778686,"neighborhood":"Lake City","city_fetched":"Seattle","state":"WA","country":"United States","canonicalUrl":"https://foursquare.com/v/the-beer-authority/4ab97fd9f964a5209f7f20e3","category":"Bar","checkinsCount":3048,"usersCount":698,"tipCount":15,"visitsCount":3560,"url":"http://www.seattlebeerauthority.com","tier":2,"message":"Moderate","currency":"$","rating":8.1},{"name":"Americana","phone":"2063284604","twitter":"americanafood","address":"219 Broadway E","lat":47.62051576076501,"lng":-122.32096472168813,"neighborhood":"Capitol Hill","city_fetched":"Seattle","state":"WA","country":"United States","canonicalUrl":"https://foursquare.com/v/americana/4a357a60f964a520089d1fe3","category":"Gastropub","checkinsCount":4886,"usersCount":2908,"tipCount":69,"visitsCount":5055,"url":"http://www.americanaseattle.com","tier":2,"message":"Moderate","currency":"$","rating":8.1},{"name":"Shiku Sushi","phone":"2065882151","twitter":"shikusushi","address":"5310 Ballard Ave NW","lat":47.666702,"lng":-122.3835279610752,"neighborhood":"Ballard","city_fetched":"Seattle","state":"WA","country":"United States","canonicalUrl":"https://foursquare.com/v/shiku-sushi/4a665e1af964a52075c81fe3","category":"Sushi Restaurant","checkinsCount":2853,"usersCount":1464,"tipCount":28,"visitsCount":2862,"url":"http://shikusushi.com","tier":2,"message":"Moderate","currency":"$","rating":8.1},{"name":"The Duchess Tavern","phone":"2065278606","address":"2827 NE 55th St","lat":47.66851049,"lng":-122.296139,"neighborhood":"Northeast Seattle","city_fetched":"Seattle","state":"WA","country":"United States","canonicalUrl":"https://foursquare.com/v/the-duchess-tavern/435d7580f964a52019291fe3","category":"Dive Bar","checkinsCount":2200,"usersCount":1181,"tipCount":25,"visitsCount":2429,"tier":"","message":"","currency":"","rating":8.1},{"name":"Fonté Café & Wine Bar","phone":"2067620760","twitter":"fontecoffee","address":"1321 1st Ave","lat":47.60748079958686,"lng":-122.33873098171239,"neighborhood":"Seattle Central Business District","city_fetched":"Seattle","state":"WA","country":"United States","canonicalUrl":"https://foursquare.com/v/font%C3%A9-caf%C3%A9--wine-bar/4a735223f964a52020dc1fe3","category":"Coffee Shop","checkinsCount":5868,"usersCount":2900,"tipCount":81,"visitsCount":6026,"url":"http://cafefonte.com","tier":2,"message":"Moderate","currency":"$","rating":8.1},{"name":"No Bones Beach Club","phone":"2065558735","twitter":"nobonestruck","address":"5410 17th Ave NW","lat":47.668386,"lng":-122.378691,"neighborhood":"Ballard","city_fetched":"Seattle","state":"WA","country":"United States","canonicalUrl":"https://foursquare.com/v/no-bones-beach-club/56aab388498eabd73aebd185","category":"Vegetarian / Vegan Restaurant","checkinsCount":298,"usersCount":204,"tipCount":10,"visitsCount":348,"url":"http://nobonesbeachclub.com","tier":2,"message":"Moderate","currency":"$","rating":8.1},{"name":"Shanghai Room","address":"8700 Greenwood Ave N","lat":47.69237398812623,"lng":-122.35513346271225,"neighborhood":"Greenwood","city_fetched":"Seattle","state":"WA","country":"United States","canonicalUrl":"https://foursquare.com/v/shanghai-room/55ab20e8498e3d4419261165","category":"Lounge","checkinsCount":245,"usersCount":69,"tipCount":0,"visitsCount":252,"tier":"","message":"","currency":"","rating":8.1},{"name":"Kate's Pub","phone":"2065476832","address":"309 NE 45th St","lat":47.66126478333334,"lng":-122.324594,"neighborhood":"Wallingford","city_fetched":"Seattle","state":"WA","country":"United States","canonicalUrl":"https://foursquare.com/v/kates-pub/4767a0f0f964a520f24c1fe3","category":"Bar","checkinsCount":6187,"usersCount":1840,"tipCount":35,"visitsCount":6370,"tier":2,"message":"Moderate","currency":"$","rating":8.1},{"name":"Elysian Brewing Company","phone":"2068601920","twitter":"elysianbrewing","address":"1221 E Pike St","lat":47.614042,"lng":-122.3157907,"neighborhood":"Capitol Hill","city_fetched":"Seattle","state":"WA","country":"United States","canonicalUrl":"https://foursquare.com/v/elysian-brewing-company/40b3de00f964a5202a001fe3","category":"Brewery","checkinsCount":16812,"usersCount":9620,"tipCount":116,"visitsCount":18187,"url":"http://www.elysianbrewing.com","tier":2,"message":"Moderate","currency":"$","rating":8.1},{"name":"The Estates Wine Room","phone":"2066235835","twitter":"estateswineroom","address":"307 Occidental Ave S","lat":47.59985680299987,"lng":-122.33299053925118,"neighborhood":"Pioneer Square","city_fetched":"Seattle","state":"WA","country":"United States","canonicalUrl":"https://foursquare.com/v/the-estates-wine-room/566630c3498eaeee546e811b","category":"Wine Bar","checkinsCount":65,"usersCount":54,"tipCount":3,"visitsCount":65,"tier":"","message":"","currency":"","rating":8.1},{"name":"Duck Island Ale House","phone":"2067833360","address":"7317 Aurora Ave N","lat":47.682248793727105,"lng":-122.34463512897491,"neighborhood":"Phinney Ridge","city_fetched":"Seattle","state":"WA","country":"United States","canonicalUrl":"https://foursquare.com/v/duck-island-ale-house/40b13b00f964a5206bf61ee3","category":"Pub","checkinsCount":1789,"usersCount":634,"tipCount":9,"visitsCount":1837,"url":"http://duckislandalehouse.blogspot.com","tier":2,"message":"Moderate","currency":"$","rating":8},{"name":"Seapine Brewing","address":"2959 Utah Ave S","lat":47.57604497864737,"lng":-122.335352558461,"city_fetched":"Seattle","state":"WA","country":"United States","canonicalUrl":"https://foursquare.com/v/seapine-brewing/56510a0a498edd9078613949","category":"Brewery","checkinsCount":256,"usersCount":239,"tipCount":6,"visitsCount":376,"tier":"","message":"","currency":"","rating":8},{"name":"Maple Bar","phone":"2064026135","address":"8929 Roosevelt Way NE","lat":47.69395338803524,"lng":-122.31779406149268,"neighborhood":"Northgate","city_fetched":"Seattle","state":"WA","country":"United States","canonicalUrl":"https://foursquare.com/v/maple-bar/53f3f642498ed525459df4a8","category":"Cocktail Bar","checkinsCount":195,"usersCount":112,"tipCount":4,"visitsCount":243,"tier":"","message":"","currency":"","rating":8},{"name":"Stumbling Monk","phone":"2068600916","address":"1635 E Olive Way","lat":47.61946607,"lng":-122.324214,"neighborhood":"Capitol Hill","city_fetched":"Seattle","state":"WA","country":"United States","canonicalUrl":"https://foursquare.com/v/stumbling-monk/42829c80f964a5201a221fe3","category":"Bar","checkinsCount":5140,"usersCount":2146,"tipCount":49,"visitsCount":5187,"tier":2,"message":"Moderate","currency":"$","rating":8},{"name":"The Little London Plane","phone":"2066241374","address":"322 Occidental Ave S","lat":47.59935322264006,"lng":-122.33283189703776,"neighborhood":"Pioneer Square","city_fetched":"Seattle","state":"WA","country":"United States","canonicalUrl":"https://foursquare.com/v/the-little-london-plane/51e022f4498e2cfb8eefdcb4","category":"Wine Bar","checkinsCount":566,"usersCount":382,"tipCount":6,"visitsCount":574,"url":"http://thelondonplaneseattle.com/wp/","tier":2,"message":"Moderate","currency":"$","rating":8}]