[{"name":"Earl's Hideaway","phone":"7725895700","address":"1405 Indian River Dr","lat":27.819254894745907,"lng":-80.46988411559202,"city_fetched":"Sebastian,US","state":"FL","country":"United States","canonicalUrl":"https://foursquare.com/v/earls-hideaway/4b524085f964a520d67227e3","categoryId":"4bf58dd8d48988d116941735","category":"Bar","checkinsCount":1199,"usersCount":530,"tipCount":19,"visitsCount":1524,"tier":"","message":"","currency":"","rating":8.7},{"name":"Outriggers Bar and Grill","phone":"7726641112","address":"4015 Main St","lat":27.85545742,"lng":-80.49377381801605,"city_fetched":"Sebastian,US","state":"FL","country":"United States","canonicalUrl":"https://foursquare.com/v/outriggers-bar-and-grill/4c997ba29818ef3ba5951cfa","categoryId":"4bf58dd8d48988d116941735","category":"Bar","checkinsCount":251,"usersCount":174,"tipCount":4,"visitsCount":384,"url":"http://www.outriggersbar-n-grill.net","tier":"","message":"","currency":"","rating":8.7},{"name":"The Blue Lion","phone":"7725894445","address":"13401 US Highway 1","lat":27.837785070294675,"lng":-80.48601127309662,"city_fetched":"Sebastian,US","state":"FL","country":"United States","canonicalUrl":"https://foursquare.com/v/the-blue-lion/4b5238a4f964a520b97027e3","categoryId":"4bf58dd8d48988d116941735","category":"Bar","checkinsCount":148,"usersCount":66,"tipCount":3,"visitsCount":156,"url":"http://www.bluelionbar.com","tier":"","message":"","currency":"","rating":7.6},{"name":"Tiki Bar &Grill, Sebastian, FL","lat":27.815844753027637,"lng":-80.467271981452,"city_fetched":"Sebastian,US","state":"FL","country":"United States","canonicalUrl":"https://foursquare.com/v/tiki-bar-grill-sebastian-fl/4f909d26e4b08d59069fcc96","categoryId":"4bf58dd8d48988d116941735","category":"Bar","checkinsCount":564,"usersCount":322,"tipCount":9,"visitsCount":773,"tier":"","message":"","currency":"","rating":7.3},{"name":"Suzy's Tiki Bar","address":"Indian River Drive","lat":27.815886,"lng":-80.46729615,"city_fetched":"Sebastian,US","state":"FL","country":"United States","canonicalUrl":"https://foursquare.com/v/suzys-tiki-bar/4c9e7d3c031337041f9369d5","categoryId":"4bf58dd8d48988d116941735","category":"Bar","checkinsCount":335,"usersCount":142,"tipCount":7,"visitsCount":339,"url":"http://sebastiantiki.com","tier":"","message":"","currency":"","rating":6.3}]