[{"name":"Blue Lagoon Saloon","phone":"8634716001","twitter":"lagoonsaloon","address":"4120 US Highway 27 N","lat":27.52023896,"lng":-81.496392,"city_fetched":"Sebring,US","state":"FL","country":"United States","canonicalUrl":"https://foursquare.com/v/blue-lagoon-saloon/4b7f412af964a520a42230e3","categoryId":"4bf58dd8d48988d118941735","category":"Dive Bar","checkinsCount":1480,"usersCount":425,"tipCount":14,"visitsCount":1986,"url":"http://thebluelagoonsaloon.com","tier":"","message":"","currency":"","rating":8.2},{"name":"Wild Turkey Tavern","address":"2751 US Highway 27 S","lat":27.55725,"lng":-81.51009,"city_fetched":"Sebring,US","state":"FL","country":"United States","canonicalUrl":"https://foursquare.com/v/wild-turkey-tavern/4b6f0e83f964a52010da2ce3","categoryId":"4bf58dd8d48988d11b941735","category":"Pub","checkinsCount":239,"usersCount":146,"tipCount":6,"visitsCount":316,"tier":"","message":"","currency":"","rating":6.8},{"name":"Beef O Bradys","address":"3000 US Highway 27 N","lat":27.510700911821235,"lng":-81.49261722367103,"city_fetched":"Sebring,US","state":"FL","country":"United States","canonicalUrl":"https://foursquare.com/v/beef-o-bradys/4d07ac7c26adb1f74a05e370","categoryId":"4bf58dd8d48988d11d941735","category":"Sports Bar","checkinsCount":408,"usersCount":222,"tipCount":7,"visitsCount":499,"url":"http://beefobradys.com","tier":"","message":"","currency":"","rating":6.5},{"name":"Shooters","address":"3030 US Highway 27 N","lat":27.511594653380865,"lng":-81.49258505900453,"city_fetched":"Sebring,US","state":"FL","country":"United States","canonicalUrl":"https://foursquare.com/v/shooters/4d543780c8d0f04d2672bfd4","categoryId":"4bf58dd8d48988d116941735","category":"Bar","checkinsCount":194,"usersCount":83,"tipCount":3,"visitsCount":194,"tier":"","message":"","currency":"","rating":5.9}]