[{"name":"Selin's Grove Brewing Co.","phone":"5703747308","address":"121 N Market St","lat":40.800895710796134,"lng":-76.86120405910472,"city_fetched":"Selinsgrove,US","state":"PA","country":"United States","canonicalUrl":"https://foursquare.com/v/selins-grove-brewing-co/4bcf222ffb84c9b683de243e","categoryId":"50327c8591d4c4b30a586d5d","category":"Brewery","checkinsCount":2028,"usersCount":887,"tipCount":34,"visitsCount":2454,"url":"http://selinsgrovebrewing.com","tier":2,"message":"Moderate","currency":"$","rating":8.9},{"name":"Selinsgrove Hotel","phone":"5703741999","address":"225 N Market St","lat":40.802306,"lng":-76.860624,"city_fetched":"Selinsgrove,US","state":"PA","country":"United States","canonicalUrl":"https://foursquare.com/v/selinsgrove-hotel/4b18c2c4f964a52098d523e3","categoryId":"4bf58dd8d48988d1d5941735","category":"Hotel Bar","checkinsCount":385,"usersCount":208,"tipCount":5,"visitsCount":470,"tier":"","message":"","currency":"","rating":7.5},{"name":"Garfield's Restaurant & Pub","phone":"5703748081","address":"1 Susquehanna Valley Mall Dr","lat":40.8251691431717,"lng":-76.84837112815593,"city_fetched":"Selinsgrove,US","state":"PA","country":"United States","canonicalUrl":"https://foursquare.com/v/garfields-restaurant--pub/4c4c8854712ac928a18c796e","categoryId":"4bf58dd8d48988d11b941735","category":"Pub","checkinsCount":661,"usersCount":388,"tipCount":7,"visitsCount":701,"url":"http://garfields.net","tier":"","message":"","currency":"","rating":6.2},{"name":"Bots Cafe","phone":"5703749074","address":"7 S. Market St.","lat":40.79922972832444,"lng":-76.86197545658705,"city_fetched":"Selinsgrove,US","state":"PA","country":"United States","canonicalUrl":"https://foursquare.com/v/bots-cafe/4ba5835ff964a5203a0e39e3","categoryId":"4bf58dd8d48988d118941735","category":"Dive Bar","checkinsCount":734,"usersCount":215,"tipCount":5,"visitsCount":735,"tier":"","message":"","currency":"","rating":6}]