[{"name":"Double Barley Brewing","phone":"9199343433","address":"3174 US Highway 70 W","lat":35.5666994670252,"lng":-78.33809809859011,"city_fetched":"Selma,US","state":"NC","country":"United States","canonicalUrl":"https://foursquare.com/v/double-barley-brewing/5181c86d498ed11421cd33d9","categoryId":"50327c8591d4c4b30a586d5d","category":"Brewery","checkinsCount":482,"usersCount":379,"tipCount":11,"visitsCount":789,"url":"http://doublebarleybrewing.com","tier":2,"message":"Moderate","currency":"$","rating":8.8},{"name":"Little Brown Jug","address":"100 West Market Street","lat":35.5126519,"lng":-78.349,"city_fetched":"Selma,US","state":"NC","country":"United States","canonicalUrl":"https://foursquare.com/v/little-brown-jug/4bf979428d30d13a0f470218","categoryId":"4bf58dd8d48988d116941735","category":"Bar","checkinsCount":295,"usersCount":123,"tipCount":6,"visitsCount":317,"url":"http://littlebrownjug.rocks","tier":"","message":"","currency":"","rating":8.3},{"name":"Heidi's Two Wheel Cafe","phone":"9199898389","address":"1475 W Market St","lat":35.52960895,"lng":-78.366553,"city_fetched":"Selma,US","state":"NC","country":"United States","canonicalUrl":"https://foursquare.com/v/heidis-two-wheel-cafe/4b6208e5f964a520b0312ae3","categoryId":"4bf58dd8d48988d116941735","category":"Bar","checkinsCount":519,"usersCount":139,"tipCount":11,"visitsCount":598,"tier":"","message":"","currency":"","rating":8.1},{"name":"Plan B","address":"519 W Market St","lat":35.515676,"lng":-78.356243,"city_fetched":"Selma,US","state":"NC","country":"United States","canonicalUrl":"https://foursquare.com/v/plan-b/4cbb5989c7228cfab7331dce","categoryId":"4bf58dd8d48988d116941735","category":"Bar","checkinsCount":144,"usersCount":55,"tipCount":2,"visitsCount":160,"tier":"","message":"","currency":"","rating":7.3}]