[{"name":"The Esso Club","phone":"8646545120","address":"129 Old Greenville Hwy","lat":34.682923240306714,"lng":-82.84621652551517,"city_fetched":"Seneca,US","state":"SC","country":"United States","canonicalUrl":"https://foursquare.com/v/the-esso-club/4b6ddddef964a520fb962ce3","categoryId":"4bf58dd8d48988d11d941735","category":"Sports Bar","checkinsCount":3249,"usersCount":1842,"tipCount":15,"visitsCount":3909,"url":"http://theessoclub.com","tier":1,"message":"Cheap","currency":"$","rating":8.3},{"name":"Nicks Tavern & Deli","phone":"8646544890","address":"107-2 Sloan St","lat":34.683619,"lng":-82.837507,"city_fetched":"Seneca,US","state":"SC","country":"United States","canonicalUrl":"https://foursquare.com/v/nicks-tavern--deli/4bb53e361344b713fc159c04","categoryId":"4bf58dd8d48988d116941735","category":"Bar","checkinsCount":2002,"usersCount":562,"tipCount":19,"visitsCount":2033,"tier":"","message":"","currency":"","rating":8.2},{"name":"The Tiki Hut","phone":"8648820800","address":"156 Keowee Marina Dr","lat":34.711507228914385,"lng":-82.94822061417156,"city_fetched":"Seneca,US","state":"SC","country":"United States","canonicalUrl":"https://foursquare.com/v/the-tiki-hut/4bca4e960687ef3b4fd3dbcc","categoryId":"4bf58dd8d48988d116941735","category":"Bar","checkinsCount":1005,"usersCount":568,"tipCount":15,"visitsCount":1218,"url":"http://clubtikihut.com","tier":"","message":"","currency":"","rating":8.2},{"name":"TD's Food & Drink","phone":"8646543656","address":"Hwy. 93","lat":34.68235691194188,"lng":-82.83736416466446,"city_fetched":"Seneca,US","state":"SC","country":"United States","canonicalUrl":"https://foursquare.com/v/tds-food--drink/4b5b9b3ff964a520810a29e3","categoryId":"4bf58dd8d48988d11d941735","category":"Sports Bar","checkinsCount":5651,"usersCount":1541,"tipCount":17,"visitsCount":5972,"url":"http://www.tdsclemson.com","tier":1,"message":"Cheap","currency":"$","rating":8.1},{"name":"Loose Change","phone":"8646541090","address":"349 College Ave","lat":34.682614,"lng":-82.83743086,"city_fetched":"Seneca,US","state":"SC","country":"United States","canonicalUrl":"https://foursquare.com/v/loose-change/4b738801f964a520d7b22de3","categoryId":"4bf58dd8d48988d116941735","category":"Bar","checkinsCount":1630,"usersCount":605,"tipCount":10,"visitsCount":1668,"tier":1,"message":"Cheap","currency":"$","rating":8},{"name":"RAM Cat Alley","address":"126 Ram Cat Aly","lat":34.68495369021852,"lng":-82.9540442493245,"city_fetched":"Seneca,US","state":"SC","country":"United States","canonicalUrl":"https://foursquare.com/v/ram-cat-alley/4d1e6bd8f7a9a14380681a9f","categoryId":"4bf58dd8d48988d11a941735","category":"Other Nightlife","checkinsCount":254,"usersCount":90,"tipCount":2,"visitsCount":254,"tier":"","message":"","currency":"","rating":7.9},{"name":"Tiger Town Tavern","phone":"8646545901","address":"368 College Ave.","lat":34.68335955131795,"lng":-82.83734312379163,"city_fetched":"Seneca,US","state":"SC","country":"United States","canonicalUrl":"https://foursquare.com/v/tiger-town-tavern/4b60cc0bf964a52025fa29e3","categoryId":"4bf58dd8d48988d116941735","category":"Bar","checkinsCount":5363,"usersCount":1877,"tipCount":27,"visitsCount":5556,"url":"http://www.tigertowntavern.com","tier":1,"message":"Cheap","currency":"$","rating":7.7},{"name":"Wingin It","address":"359 College Ave","lat":34.68279566254635,"lng":-82.83757983323002,"city_fetched":"Seneca,US","state":"SC","country":"United States","canonicalUrl":"https://foursquare.com/v/wingin-it/4bd789b60b779c74927b05a0","categoryId":"4bf58dd8d48988d116941735","category":"Bar","checkinsCount":2386,"usersCount":811,"tipCount":13,"visitsCount":2394,"tier":"","message":"","currency":"","rating":7.6},{"name":"BREWS on the Alley","twitter":"brewsonthealley","address":"109 Ram Cat Aly","lat":34.68500235103034,"lng":-82.9543278037195,"city_fetched":"Seneca,US","state":"SC","country":"United States","canonicalUrl":"https://foursquare.com/v/brews-on-the-alley/56708dba498e68e70e3734da","categoryId":"4bf58dd8d48988d116941735","category":"Bar","checkinsCount":28,"usersCount":17,"tipCount":6,"visitsCount":63,"tier":"","message":"","currency":"","rating":7.6},{"name":"Mullins Irish Pub","address":"695 By Pass 123","lat":34.69705581665039,"lng":-82.96323537826538,"city_fetched":"Seneca,US","state":"SC","country":"United States","canonicalUrl":"https://foursquare.com/v/mullins-irish-pub/4cf9ba29feec6dcb1d473b36","categoryId":"4bf58dd8d48988d116941735","category":"Bar","checkinsCount":108,"usersCount":64,"tipCount":4,"visitsCount":111,"tier":"","message":"","currency":"","rating":7.2},{"name":"Overtime Sports Bar","phone":"8646541234","address":"102-2 Earle St","lat":34.68369125803025,"lng":-82.83670137399592,"city_fetched":"Seneca,US","state":"SC","country":"United States","canonicalUrl":"https://foursquare.com/v/overtime-sports-bar/4b5e371bf964a520368429e3","categoryId":"4bf58dd8d48988d11d941735","category":"Sports Bar","checkinsCount":2578,"usersCount":418,"tipCount":8,"visitsCount":2580,"tier":"","message":"","currency":"","rating":6.7},{"name":"Sloan Treet Tap Roon","phone":"8646547210","address":"Sloan Street","lat":34.68386833,"lng":-82.837847,"city_fetched":"Seneca,US","state":"SC","country":"United States","canonicalUrl":"https://foursquare.com/v/sloan-treet-tap-roon/4ca670f0d971b1f7183d00e1","categoryId":"4bf58dd8d48988d118941735","category":"Dive Bar","checkinsCount":203,"usersCount":106,"tipCount":7,"visitsCount":203,"tier":"","message":"","currency":"","rating":5.7},{"name":"Backstreets Pub & Grill","twitter":"backstreetspub","address":"102 Earle St","lat":34.683668583333336,"lng":-82.836602,"city_fetched":"Seneca,US","state":"SC","country":"United States","canonicalUrl":"https://foursquare.com/v/backstreets-pub--grill/4b524348f964a520887327e3","categoryId":"4bf58dd8d48988d118941735","category":"Dive Bar","checkinsCount":2384,"usersCount":647,"tipCount":44,"visitsCount":2429,"tier":1,"message":"Cheap","currency":"$","rating":4.6}]