[{"name":"Smoky Mountain Brewery","phone":"8654364200","twitter":"smokymtnbrewery","address":"1004 Parkway","lat":35.70765600976727,"lng":-83.5205372084123,"city_fetched":"Sevierville,US","state":"TN","country":"United States","canonicalUrl":"https://foursquare.com/v/smoky-mountain-brewery/4ae3b6c6f964a520699821e3","categoryId":"50327c8591d4c4b30a586d5d","category":"Brewery","checkinsCount":10123,"usersCount":7188,"tipCount":200,"visitsCount":11268,"url":"http://smoky-mtn-brewery.com","tier":2,"message":"Moderate","currency":"$","rating":8.4},{"name":"Davy Crocketts Tennessee Whiskey","phone":"8653251111","address":"650 Parkway","lat":35.71267022774446,"lng":-83.51530047983327,"city_fetched":"Sevierville,US","state":"TN","country":"United States","canonicalUrl":"https://foursquare.com/v/davy-crocketts-tennessee-whiskey/5096a222e4b076702d75bffc","categoryId":"4bf58dd8d48988d122941735","category":"Whisky Bar","checkinsCount":2300,"usersCount":2147,"tipCount":42,"visitsCount":2917,"tier":"","message":"","currency":"","rating":8.2},{"name":"Smoky Mountain Brewery","phone":"8658681400","twitter":"smokymtnbrewery","address":"2530 Parkway","lat":35.80612988898513,"lng":-83.57883024564543,"city_fetched":"Sevierville,US","state":"TN","country":"United States","canonicalUrl":"https://foursquare.com/v/smoky-mountain-brewery/51e1c40b498eb68b029b478b","categoryId":"50327c8591d4c4b30a586d5d","category":"Brewery","checkinsCount":1286,"usersCount":1186,"tipCount":32,"visitsCount":1653,"url":"http://www.smoky-mtn-brewery.com","tier":2,"message":"Moderate","currency":"$","rating":8.1},{"name":"Boogaloos","lat":35.855974806583504,"lng":-83.56958832830146,"city_fetched":"Sevierville,US","state":"TN","country":"United States","canonicalUrl":"https://foursquare.com/v/boogaloos/538e5082498ecdf240e5360c","categoryId":"52e81612bcbc57f1066b7a0d","category":"Beach Bar","checkinsCount":42,"usersCount":52,"tipCount":3,"visitsCount":82,"tier":"","message":"","currency":"","rating":7.9},{"name":"The Bluffs","address":"1548 Parkway Ste 301","lat":35.836316910767415,"lng":-83.57338511583488,"city_fetched":"Sevierville,US","state":"TN","country":"United States","canonicalUrl":"https://foursquare.com/v/the-bluffs/4e8342848b81f6ea6f620165","categoryId":"4bf58dd8d48988d11b941735","category":"Pub","checkinsCount":1021,"usersCount":369,"tipCount":6,"visitsCount":1329,"tier":"","message":"","currency":"","rating":7.2},{"name":"Mason Jar Lounge","address":"915 Westgate Resorts Rd","lat":35.73177245564563,"lng":-83.51757012915337,"city_fetched":"Sevierville,US","state":"TN","country":"United States","canonicalUrl":"https://foursquare.com/v/mason-jar-lounge/5099ae7fe4b078ba4dd493a1","categoryId":"4bf58dd8d48988d11e941735","category":"Cocktail Bar","checkinsCount":87,"usersCount":56,"tipCount":1,"visitsCount":87,"tier":"","message":"","currency":"","rating":7.1},{"name":"Dude's Daquiries","lat":35.71096090200801,"lng":-83.51934518803535,"city_fetched":"Sevierville,US","state":"TN","country":"United States","canonicalUrl":"https://foursquare.com/v/dudes-daquiries/4edaf90b7ee5e8e3e79c6836","categoryId":"4bf58dd8d48988d11e941735","category":"Cocktail Bar","checkinsCount":305,"usersCount":274,"tipCount":7,"visitsCount":307,"tier":"","message":"","currency":"","rating":7.1},{"name":"The Roaming Gnome Pub & Eatery","phone":"8657743336","twitter":"roaminggnomepub","address":"202 Collier Dr.","lat":35.8371922485369,"lng":-83.56538038812188,"city_fetched":"Sevierville,US","state":"TN","country":"United States","canonicalUrl":"https://foursquare.com/v/the-roaming-gnome-pub--eatery/4c53b4a86a4bb7131b9f1627","categoryId":"4bf58dd8d48988d116941735","category":"Bar","checkinsCount":1621,"usersCount":607,"tipCount":18,"visitsCount":1766,"url":"http://gnomepub.com","tier":2,"message":"Moderate","currency":"$","rating":6.7},{"name":"Firefly Lounge","lat":35.703384,"lng":-83.512991,"city_fetched":"Sevierville,US","state":"TN","country":"United States","canonicalUrl":"https://foursquare.com/v/firefly-lounge/4da609376a23f2e804ff7d40","categoryId":"4bf58dd8d48988d121941735","category":"Lounge","checkinsCount":148,"usersCount":114,"tipCount":3,"visitsCount":150,"tier":"","message":"","currency":"","rating":6.2},{"name":"Puckers Sports Bar","phone":"8654307755","address":"745 Parkway","lat":35.711987748518546,"lng":-83.51763725280762,"city_fetched":"Sevierville,US","state":"TN","country":"United States","canonicalUrl":"https://foursquare.com/v/puckers-sports-bar/4c464bfef5aee21e51271858","categoryId":"4bf58dd8d48988d11d941735","category":"Sports Bar","checkinsCount":1003,"usersCount":846,"tipCount":16,"visitsCount":1036,"url":"http://puckerssportsbar.com","tier":"","message":"","currency":"","rating":5.8},{"name":"Shamrock Lounge","address":"105 Reagan Dr","lat":35.71122521776047,"lng":-83.51815835066566,"city_fetched":"Sevierville,US","state":"TN","country":"United States","canonicalUrl":"https://foursquare.com/v/shamrock-lounge/4bf83c33b182c9b6a91e775a","categoryId":"4bf58dd8d48988d116941735","category":"Bar","checkinsCount":723,"usersCount":587,"tipCount":15,"visitsCount":732,"tier":"","message":"","currency":"","rating":5.7},{"name":"Ober Gatlinburg Restaurant & Lounge","phone":"8654365423","twitter":"obergatlinburg","address":"1339 Ski Mountain Rd","lat":35.70352521268836,"lng":-83.5580457290676,"city_fetched":"Sevierville,US","state":"TN","country":"United States","canonicalUrl":"https://foursquare.com/v/ober-gatlinburg-restaurant--lounge/4f132fcae4b0044a25032c90","categoryId":"4bf58dd8d48988d121941735","category":"Lounge","checkinsCount":385,"usersCount":316,"tipCount":6,"visitsCount":387,"url":"http://www.obergatlinburg.com/restaurants-shops/restaurant/","tier":"","message":"","currency":"","rating":5.6},{"name":"Thirsty Miner","phone":"8654290625","address":"1424 Old Knoxville Hwy","lat":35.8931180581146,"lng":-83.58409810332886,"city_fetched":"Sevierville,US","state":"TN","country":"United States","canonicalUrl":"https://foursquare.com/v/thirsty-miner/4baded81f964a5203a733be3","categoryId":"4bf58dd8d48988d11b941735","category":"Pub","checkinsCount":402,"usersCount":286,"tipCount":10,"visitsCount":411,"url":"http://www.wildernessatthesmokies.com/smokymountainresort-amenities/resort-amenities-restaurant.html","tier":"","message":"","currency":"","rating":5}]