[{"name":"Horse & Plow","phone":"9204578000","address":"419 Highland Dr","lat":43.74026118009503,"lng":-87.78110111786414,"city_fetched":"Sheboygan,US","state":"WI","country":"United States","canonicalUrl":"https://foursquare.com/v/horse--plow/4b06f7a1f964a52074f422e3","categoryId":"4bf58dd8d48988d1d5941735","category":"Hotel Bar","checkinsCount":2534,"usersCount":1407,"tipCount":44,"visitsCount":2726,"url":"http://www.americanclubresort.com/dining-directory/the-horse-plow","tier":2,"message":"Moderate","currency":"$","rating":8.7},{"name":"Handlebar","phone":"9204579020","address":"County OK","lat":43.687138561517024,"lng":-87.7516885947631,"city_fetched":"Sheboygan,US","state":"WI","country":"United States","canonicalUrl":"https://foursquare.com/v/handlebar/4c126c5a77cea5932300cd60","categoryId":"4bf58dd8d48988d116941735","category":"Bar","checkinsCount":532,"usersCount":260,"tipCount":8,"visitsCount":632,"tier":"","message":"","currency":"","rating":8.4},{"name":"Sly's Midtown Salooon","phone":"9207836644","address":"508 N 8th St","lat":43.750085512081434,"lng":-87.71304031068578,"neighborhood":"Downtown Sheboygan","city_fetched":"Sheboygan,US","state":"WI","country":"United States","canonicalUrl":"https://foursquare.com/v/slys-midtown-salooon/4ebdf55a6da15b4dde2eb95d","categoryId":"4bf58dd8d48988d11b941735","category":"Pub","checkinsCount":361,"usersCount":179,"tipCount":6,"visitsCount":374,"url":"http://slysmidtown.com","tier":"","message":"","currency":"","rating":8.1},{"name":"Angler's Avenue Pub & Grill","address":"518 S Pier Dr","lat":43.74787672511252,"lng":-87.70786354766626,"neighborhood":"South Pier","city_fetched":"Sheboygan,US","state":"WI","country":"United States","canonicalUrl":"https://foursquare.com/v/anglers-avenue-pub--grill/4f48204ce4b07d0ddd5cdaa3","categoryId":"4bf58dd8d48988d11b941735","category":"Pub","checkinsCount":733,"usersCount":469,"tipCount":5,"visitsCount":1025,"url":"http://anglersavenue.net","tier":"","message":"","currency":"","rating":8},{"name":"Water Street Pub","phone":"9202081000","address":"931 N 12th St","lat":43.75518888833328,"lng":-87.7193709398131,"neighborhood":"Downtown Sheboygan","city_fetched":"Sheboygan,US","state":"WI","country":"United States","canonicalUrl":"https://foursquare.com/v/water-street-pub/4b834ec9f964a520af0131e3","categoryId":"4bf58dd8d48988d116941735","category":"Bar","checkinsCount":925,"usersCount":233,"tipCount":6,"visitsCount":1104,"tier":"","message":"","currency":"","rating":8},{"name":"Mojo","phone":"9202086656","address":"1235 Pennsylvania Ave","lat":43.749668,"lng":-87.721076,"city_fetched":"Sheboygan,US","state":"WI","country":"United States","canonicalUrl":"https://foursquare.com/v/mojo/4be63a88cf200f47b569143c","categoryId":"4bf58dd8d48988d116941735","category":"Bar","checkinsCount":997,"usersCount":415,"tipCount":7,"visitsCount":1203,"url":"http://sheboyganmojobar.com","tier":"","message":"","currency":"","rating":7.9},{"name":"The Duke Of Devon","phone":"9204587900","address":"793 Riverfront Dr.","lat":43.746377029837575,"lng":-87.71097641177283,"city_fetched":"Sheboygan,US","state":"WI","country":"United States","canonicalUrl":"https://foursquare.com/v/the-duke-of-devon/4b59cf05f964a520469928e3","categoryId":"4bf58dd8d48988d11b941735","category":"Pub","checkinsCount":1057,"usersCount":606,"tipCount":25,"visitsCount":1199,"url":"http://www.dukeofdevonpub.com","tier":"","message":"","currency":"","rating":7.9},{"name":"NZ's Bar & Grill","phone":"9203952434","address":"1022 Michigan Ave","lat":43.758686514124456,"lng":-87.71738910525613,"city_fetched":"Sheboygan,US","state":"WI","country":"United States","canonicalUrl":"https://foursquare.com/v/nzs-bar--grill/4ec725eae300719914bad452","categoryId":"4bf58dd8d48988d116941735","category":"Bar","checkinsCount":1795,"usersCount":494,"tipCount":13,"visitsCount":2004,"tier":"","message":"","currency":"","rating":7.9},{"name":"Hops Haven Bar","phone":"9204586572","twitter":"3sheepsbrewing","address":"1327 N 14th St","lat":43.75946693327657,"lng":-87.72279565379299,"city_fetched":"Sheboygan,US","state":"WI","country":"United States","canonicalUrl":"https://foursquare.com/v/hops-haven-bar/4b6b8c69f964a520390f2ce3","categoryId":"4bf58dd8d48988d116941735","category":"Bar","checkinsCount":1914,"usersCount":741,"tipCount":13,"visitsCount":2221,"url":"http://www.hops-haven.com","tier":2,"message":"Moderate","currency":"$","rating":7.9},{"name":"Epicure Lounge","phone":"9204517750","twitter":"epicure_lounge","address":"1116 Michigan Ave","lat":43.75858783721924,"lng":-87.718803,"city_fetched":"Sheboygan,US","state":"WI","country":"United States","canonicalUrl":"https://foursquare.com/epicure_lounge","categoryId":"4bf58dd8d48988d119941735","category":"Hookah Bar","checkinsCount":954,"usersCount":210,"tipCount":9,"visitsCount":1008,"url":"http://www.epicurelounge.com","tier":1,"message":"Cheap","currency":"$","rating":7.7},{"name":"Talk of the Town","phone":"9204514761","address":"3023 N 15th St","lat":43.77784808056549,"lng":-87.72462334479907,"city_fetched":"Sheboygan,US","state":"WI","country":"United States","canonicalUrl":"https://foursquare.com/v/talk-of-the-town/4c5b3c067f661b8d756a451c","categoryId":"4bf58dd8d48988d116941735","category":"Bar","checkinsCount":860,"usersCount":113,"tipCount":8,"visitsCount":887,"tier":"","message":"","currency":"","rating":7.7},{"name":"Urbane","phone":"9207830814","address":"1231 N 8th St","lat":43.758449820413844,"lng":-87.71274203738736,"city_fetched":"Sheboygan,US","state":"WI","country":"United States","canonicalUrl":"https://foursquare.com/v/urbane/4b5a75e8f964a52088c628e3","categoryId":"4bf58dd8d48988d11e941735","category":"Cocktail Bar","checkinsCount":1493,"usersCount":569,"tipCount":17,"visitsCount":1620,"url":"http://urbanehospitality.com","tier":1,"message":"Cheap","currency":"$","rating":7.7},{"name":"Rewind","phone":"9208032742","address":"1002 Michigan Ave","lat":43.75860738176524,"lng":-87.7164847442319,"city_fetched":"Sheboygan,US","state":"WI","country":"United States","canonicalUrl":"https://foursquare.com/v/rewind/4c4641a3f5aee21efbfa1758","categoryId":"4bf58dd8d48988d116941735","category":"Bar","checkinsCount":1557,"usersCount":345,"tipCount":13,"visitsCount":1689,"tier":"","message":"","currency":"","rating":7.6},{"name":"Champs Sports Bar & Grill","phone":"9204589122","twitter":"champssheboygan","address":"1501 Indiana Ave","lat":43.74313402775639,"lng":-87.72490711127331,"city_fetched":"Sheboygan,US","state":"WI","country":"United States","canonicalUrl":"https://foursquare.com/v/champs-sports-bar--grill/4b50ff5cf964a520b23c27e3","categoryId":"4bf58dd8d48988d11d941735","category":"Sports Bar","checkinsCount":936,"usersCount":210,"tipCount":12,"visitsCount":1065,"url":"http://www.champssheboygan.com","tier":1,"message":"Cheap","currency":"$","rating":7.6},{"name":"The End zone","phone":"9204526635","address":"904 Indiana Ave","lat":43.74337848234372,"lng":-87.71523400248985,"city_fetched":"Sheboygan,US","state":"WI","country":"United States","canonicalUrl":"https://foursquare.com/v/the-end-zone/4c9979d1b8e9224b55f3453d","categoryId":"4bf58dd8d48988d11d941735","category":"Sports Bar","checkinsCount":647,"usersCount":129,"tipCount":2,"visitsCount":717,"tier":"","message":"","currency":"","rating":7.5},{"name":"Pier 17","lat":43.748457604286884,"lng":-87.70987466509713,"city_fetched":"Sheboygan,US","state":"WI","country":"United States","canonicalUrl":"https://foursquare.com/v/pier-17/54cd996a498ede96b0ad955d","categoryId":"4bf58dd8d48988d116941735","category":"Bar","checkinsCount":81,"usersCount":221,"tipCount":1,"visitsCount":299,"tier":"","message":"","currency":"","rating":7.5},{"name":"What's Up Bar & Grill","phone":"9204521635","address":"1635 Michigan Ave","lat":43.7584,"lng":-87.7278,"city_fetched":"Sheboygan,US","state":"WI","country":"United States","canonicalUrl":"https://foursquare.com/v/whats-up-bar--grill/4c449ec92d3ec9b672222fae","categoryId":"4bf58dd8d48988d116941735","category":"Bar","checkinsCount":1669,"usersCount":340,"tipCount":8,"visitsCount":1945,"tier":1,"message":"Cheap","currency":"$","rating":7.4},{"name":"George Michael's","phone":"9204524476","address":"513 N 8th St","lat":43.75030015169124,"lng":-87.71269392860735,"neighborhood":"Downtown Sheboygan","city_fetched":"Sheboygan,US","state":"WI","country":"United States","canonicalUrl":"https://foursquare.com/v/george-michaels/4bda57865f34b71340f33579","categoryId":"4bf58dd8d48988d116941735","category":"Bar","checkinsCount":1285,"usersCount":245,"tipCount":7,"visitsCount":1309,"tier":"","message":"","currency":"","rating":7.3},{"name":"Tommy's Bar","phone":"9204576714","address":"2335 N 15th St","lat":43.7703,"lng":-87.72434413433075,"city_fetched":"Sheboygan,US","state":"WI","country":"United States","canonicalUrl":"https://foursquare.com/v/tommys-bar/4c47ac8096abd13a05cd7101","categoryId":"4bf58dd8d48988d116941735","category":"Bar","checkinsCount":420,"usersCount":142,"tipCount":8,"visitsCount":523,"url":"http://www.tommysbargrill.com","tier":"","message":"","currency":"","rating":7.2},{"name":"Emmer's","phone":"9204510414","address":"906 S 15th St","lat":43.745183065143515,"lng":-87.72491192085927,"city_fetched":"Sheboygan,US","state":"WI","country":"United States","canonicalUrl":"https://foursquare.com/v/emmers/4c5201829426c9284cb9b174","categoryId":"4bf58dd8d48988d116941735","category":"Bar","checkinsCount":520,"usersCount":168,"tipCount":5,"visitsCount":641,"url":"http://emmersbar.com","tier":"","message":"","currency":"","rating":7.2},{"name":"Silver Fern","phone":"9204523376","address":"2538 N 15th St","lat":43.77236044911777,"lng":-87.72470029859461,"city_fetched":"Sheboygan,US","state":"WI","country":"United States","canonicalUrl":"https://foursquare.com/v/silver-fern/4b593fd4f964a520e78228e3","categoryId":"4bf58dd8d48988d116941735","category":"Bar","checkinsCount":1553,"usersCount":318,"tipCount":4,"visitsCount":1777,"tier":1,"message":"Cheap","currency":"$","rating":7.1},{"name":"The Next Level","phone":"9207836073","address":"1210 Michigan Ave","lat":43.758779408980246,"lng":-87.72015980133537,"city_fetched":"Sheboygan,US","state":"WI","country":"United States","canonicalUrl":"https://foursquare.com/v/the-next-level/51e1d248498e006fee2aa169","categoryId":"4bf58dd8d48988d121941735","category":"Lounge","checkinsCount":447,"usersCount":83,"tipCount":3,"visitsCount":533,"tier":"","message":"","currency":"","rating":7},{"name":"Brennan's on Michigan","phone":"9204571903","address":"1101 Michigan Ave","lat":43.758489959776796,"lng":-87.71830306883692,"city_fetched":"Sheboygan,US","state":"WI","country":"United States","canonicalUrl":"https://foursquare.com/v/brennans-on-michigan/4c0c3306340720a1be588993","categoryId":"4bf58dd8d48988d116941735","category":"Bar","checkinsCount":1699,"usersCount":397,"tipCount":4,"visitsCount":1837,"tier":"","message":"","currency":"","rating":7},{"name":"Mueller's Bar","phone":"9204581026","address":"1501 Union Ave","lat":43.73199719,"lng":-87.72501721,"city_fetched":"Sheboygan,US","state":"WI","country":"United States","canonicalUrl":"https://foursquare.com/v/muellers-bar/4b89fb15f964a520005a32e3","categoryId":"4bf58dd8d48988d116941735","category":"Bar","checkinsCount":659,"usersCount":59,"tipCount":3,"visitsCount":762,"tier":"","message":"","currency":"","rating":6.9},{"name":"Hyryders Rochester Saloon","address":"416 Broadway Street","lat":43.72896067814951,"lng":-87.8111857688294,"city_fetched":"Sheboygan,US","state":"WI","country":"United States","canonicalUrl":"https://foursquare.com/v/hyryders-rochester-saloon/4b88963af964a520a00232e3","categoryId":"4bf58dd8d48988d116941735","category":"Bar","checkinsCount":857,"usersCount":166,"tipCount":4,"visitsCount":910,"tier":"","message":"","currency":"","rating":6.9},{"name":"Doug's Skip'er Inn","phone":"9204572999","address":"808 Broadway Ave","lat":43.73629795732399,"lng":-87.71341555495574,"city_fetched":"Sheboygan,US","state":"WI","country":"United States","canonicalUrl":"https://foursquare.com/v/dougs-skiper-inn/4ce89c30f86537045513b2c4","categoryId":"4bf58dd8d48988d116941735","category":"Bar","checkinsCount":429,"usersCount":97,"tipCount":6,"visitsCount":508,"tier":"","message":"","currency":"","rating":6.9},{"name":"4th St Tap","lat":43.750392703870595,"lng":-87.706646249123,"city_fetched":"Sheboygan,US","state":"Wisconsin","country":"United States","canonicalUrl":"https://foursquare.com/v/4th-st-tap/4ea034c2e5fa13c70e679be9","categoryId":"4bf58dd8d48988d116941735","category":"Bar","checkinsCount":122,"usersCount":58,"tipCount":4,"visitsCount":128,"tier":"","message":"","currency":"","rating":6.8},{"name":"The Walkabout","address":"2401 Calumet Dr, Sheboygan, WI 53083","lat":43.770568012453595,"lng":-87.73113509785514,"city_fetched":"Sheboygan,US","state":"WI","country":"United States","canonicalUrl":"https://foursquare.com/v/the-walkabout/4f18dc95e4b0e1c5f76e75e1","categoryId":"4bf58dd8d48988d11b941735","category":"Pub","checkinsCount":652,"usersCount":168,"tipCount":6,"visitsCount":807,"tier":"","message":"","currency":"","rating":6.7},{"name":"Manning's Irish Pub","phone":"9202080343","address":"3015 N 15th St","lat":43.77755277548373,"lng":-87.72461853518251,"city_fetched":"Sheboygan,US","state":"WI","country":"United States","canonicalUrl":"https://foursquare.com/v/mannings-irish-pub/4c54f6f1a724e21eeb2c40f7","categoryId":"4bf58dd8d48988d11b941735","category":"Pub","checkinsCount":437,"usersCount":143,"tipCount":1,"visitsCount":463,"tier":"","message":"","currency":"","rating":6.5},{"name":"Vreeke's Tavern","phone":"9204516991","address":"935 Michigan Ave","lat":43.758530901794174,"lng":-87.71642701844846,"city_fetched":"Sheboygan,US","state":"WI","country":"United States","canonicalUrl":"https://foursquare.com/v/vreekes-tavern/4b91d9e7f964a52096db33e3","categoryId":"4bf58dd8d48988d116941735","category":"Bar","checkinsCount":2735,"usersCount":544,"tipCount":14,"visitsCount":2894,"tier":1,"message":"Cheap","currency":"$","rating":6.5},{"name":"Dave's Who's Inn","phone":"9204579832","twitter":"daveswhosinn","address":"835 Indiana Ave","lat":43.743246846421684,"lng":-87.71444024466594,"city_fetched":"Sheboygan,US","state":"WI","country":"United States","canonicalUrl":"https://foursquare.com/v/daves-whos-inn/4c428ed5af052d7fac3f7f79","categoryId":"4bf58dd8d48988d11f941735","category":"Nightclub","checkinsCount":769,"usersCount":206,"tipCount":3,"visitsCount":817,"tier":1,"message":"Cheap","currency":"$","rating":6.3},{"name":"Night Moves","phone":"9207836073","address":"1210 Michigan Ave","lat":43.75876091155632,"lng":-87.72020790220418,"city_fetched":"Sheboygan,US","state":"WI","country":"United States","canonicalUrl":"https://foursquare.com/v/night-moves/4ecd00459adf1839a1bc8d15","categoryId":"4bf58dd8d48988d11f941735","category":"Nightclub","checkinsCount":989,"usersCount":201,"tipCount":6,"visitsCount":991,"tier":"","message":"","currency":"","rating":6.3},{"name":"On The House","phone":"9204586711","address":"1153 High Ave","lat":43.734568200000005,"lng":-87.720135,"city_fetched":"Sheboygan,US","state":"WI","country":"United States","canonicalUrl":"https://foursquare.com/v/on-the-house/4d73fa63ed838cfa4221076b","categoryId":"4bf58dd8d48988d116941735","category":"Bar","checkinsCount":396,"usersCount":89,"tipCount":7,"visitsCount":436,"tier":"","message":"","currency":"","rating":6.3},{"name":"Holidays Pub & Grill","address":"5533 Superior Ave","lat":43.76074981689453,"lng":-87.77924346923828,"city_fetched":"Sheboygan,US","state":"WI","country":"United States","canonicalUrl":"https://foursquare.com/v/holidays-pub--grill/507a3771e4b0753d59fcb934","categoryId":"4bf58dd8d48988d11d941735","category":"Sports Bar","checkinsCount":585,"usersCount":398,"tipCount":9,"visitsCount":995,"tier":"","message":"","currency":"","rating":6.2},{"name":"Club VibeZ","phone":"9204589965","address":"2513 S 8th St","lat":43.72761169958319,"lng":-87.71291522857337,"city_fetched":"Sheboygan,US","state":"WI","country":"United States","canonicalUrl":"https://foursquare.com/v/club-vibez/4d4314241629b60c00a09d89","categoryId":"4bf58dd8d48988d11f941735","category":"Nightclub","checkinsCount":682,"usersCount":180,"tipCount":3,"visitsCount":762,"tier":"","message":"","currency":"","rating":5.7},{"name":"Sandee's","phone":"9204525755","address":"1202 Michigan Ave","lat":43.75868374947273,"lng":-87.71974132162563,"city_fetched":"Sheboygan,US","state":"WI","country":"United States","canonicalUrl":"https://foursquare.com/v/sandees/4c2554bbc11dc9b6de172724","categoryId":"4bf58dd8d48988d116941735","category":"Bar","checkinsCount":2004,"usersCount":493,"tipCount":5,"visitsCount":2086,"tier":"","message":"","currency":"","rating":5.3},{"name":"SheVegas Club","phone":"9202877536","address":"1133 Michigan Ave","lat":43.758477,"lng":-87.71933817,"city_fetched":"Sheboygan,US","state":"WI","country":"United States","canonicalUrl":"https://foursquare.com/v/shevegas-club/4c13005177cea5939b33ce60","categoryId":"4bf58dd8d48988d11f941735","category":"Nightclub","checkinsCount":1176,"usersCount":337,"tipCount":9,"visitsCount":1209,"tier":"","message":"","currency":"","rating":5.1},{"name":"The Blue Lite","phone":"9204571636","address":"1029 N 8th St","lat":43.75625281171933,"lng":-87.71322793320839,"city_fetched":"Sheboygan,US","state":"WI","country":"United States","canonicalUrl":"https://foursquare.com/v/the-blue-lite/4ad95dbef964a520f41921e3","categoryId":"4bf58dd8d48988d1d8941735","category":"Gay Bar","checkinsCount":370,"usersCount":149,"tipCount":5,"visitsCount":373,"tier":"","message":"","currency":"","rating":5}]