[{"name":"Two Roads Brewing Company","phone":"2033352010","twitter":"2roadsbrewing","address":"1700 Stratford Ave","lat":41.18576811207013,"lng":-73.14214916976144,"city_fetched":"Shelton,US","state":"CT","country":"United States","canonicalUrl":"https://foursquare.com/v/two-roads-brewing-company/507d7a65e4b03d34a5f811be","categoryId":"50327c8591d4c4b30a586d5d","category":"Brewery","checkinsCount":5009,"usersCount":3067,"tipCount":67,"visitsCount":6751,"url":"http://tworoadsbrewing.com","tier":1,"message":"Cheap","currency":"$","rating":9.4},{"name":"Dew Drop Inn","phone":"2037357757","twitter":"dewdropinnct","address":"25 North Ave","lat":41.324442323258836,"lng":-73.09653559947161,"city_fetched":"Shelton,US","state":"CT","country":"United States","canonicalUrl":"https://foursquare.com/dewdropinnct","categoryId":"4bf58dd8d48988d116941735","category":"Bar","checkinsCount":1442,"usersCount":655,"tipCount":32,"visitsCount":2143,"tier":2,"message":"Moderate","currency":"$","rating":9.1},{"name":"New England Brewing Company","phone":"2033872222","twitter":"newenglandbrew","address":"175 Amity Rd","lat":41.33920683813231,"lng":-72.97987026531405,"city_fetched":"Shelton,US","state":"CT","country":"United States","canonicalUrl":"https://foursquare.com/v/new-england-brewing-company/4bc93038937ca593957ea592","categoryId":"50327c8591d4c4b30a586d5d","category":"Brewery","checkinsCount":2028,"usersCount":1064,"tipCount":14,"visitsCount":2752,"url":"http://newenglandbrewing.com","tier":"","message":"","currency":"","rating":9.1},{"name":"Veracious Brewing","lat":41.3103639848739,"lng":-73.2569981779954,"city_fetched":"Shelton,US","state":"CT","country":"United States","canonicalUrl":"https://foursquare.com/v/veracious-brewing/557b6795498ee95399b18887","categoryId":"50327c8591d4c4b30a586d5d","category":"Brewery","checkinsCount":199,"usersCount":180,"tipCount":2,"visitsCount":297,"tier":"","message":"","currency":"","rating":8.9},{"name":"Stony Creek Brewery","phone":"+2036843150","twitter":"stonycreekbeer","address":"5 Indian Neck Ave","lat":41.27450291831222,"lng":-72.81357309326094,"city_fetched":"Shelton,US","state":"CT","country":"United States","canonicalUrl":"https://foursquare.com/v/stony-creek-brewery/55047a41498e8da63adbc912","categoryId":"50327c8591d4c4b30a586d5d","category":"Brewery","checkinsCount":1020,"usersCount":1134,"tipCount":14,"visitsCount":1886,"url":"http://stonycreekbeer.com","tier":"","message":"","currency":"","rating":8.9},{"name":"Mikro Beer Bar","phone":"2035537676","twitter":"mikrobeerbar","address":"3000 Whitney Ave","lat":41.40456142077979,"lng":-72.89905071258545,"city_fetched":"Shelton,US","state":"CT","country":"United States","canonicalUrl":"https://foursquare.com/v/mikro-beer-bar/4ccf48739d87224bc3534e3b","categoryId":"4bf58dd8d48988d117941735","category":"Beer Garden","checkinsCount":3782,"usersCount":1555,"tipCount":35,"visitsCount":4538,"url":"http://mikrobeerbar.com","tier":3,"message":"Expensive","currency":"$","rating":8.9},{"name":"The Outer Space","phone":"2032886400","address":"295 Treadwell St","lat":41.35361358065433,"lng":-72.92536006592144,"city_fetched":"Shelton,US","state":"CT","country":"United States","canonicalUrl":"https://foursquare.com/v/the-outer-space/4de5be61d4c09fc98b6fc174","categoryId":"4bf58dd8d48988d116941735","category":"Bar","checkinsCount":2823,"usersCount":951,"tipCount":15,"visitsCount":3210,"url":"http://theouterspace.net","tier":2,"message":"Moderate","currency":"$","rating":8.9},{"name":"116 Crown","phone":"2037773116","twitter":"116crown","address":"116 Crown St","lat":41.30452641535615,"lng":-72.92616177705426,"neighborhood":"Downtown New Haven","city_fetched":"Shelton,US","state":"CT","country":"United States","canonicalUrl":"https://foursquare.com/v/116-crown/4b188536f964a520cad323e3","categoryId":"4bf58dd8d48988d11e941735","category":"Cocktail Bar","checkinsCount":2698,"usersCount":1338,"tipCount":35,"visitsCount":2919,"url":"http://116crown.com","tier":3,"message":"Expensive","currency":"$","rating":8.7},{"name":"Barcelona Wine Bar - Fairfield","phone":"2032550800","twitter":"barcelonawineba","address":"4180 Black Rock Tpke","lat":41.20364699541816,"lng":-73.27114283104005,"city_fetched":"Shelton,US","state":"CT","country":"United States","canonicalUrl":"https://foursquare.com/v/barcelona-wine-bar--fairfield/4b527ac9f964a5203c7f27e3","categoryId":"4bf58dd8d48988d123941735","category":"Wine Bar","checkinsCount":2095,"usersCount":1449,"tipCount":20,"visitsCount":2744,"url":"http://www.barcelonawinebar.com/fairfield.htm","tier":2,"message":"Moderate","currency":"$","rating":8.7},{"name":"The Corner Tavern","phone":"2037293640","twitter":"cornertavernct","address":"178 N Main St","lat":41.49576926285692,"lng":-73.05047750473022,"city_fetched":"Shelton,US","state":"CT","country":"United States","canonicalUrl":"https://foursquare.com/v/the-corner-tavern/524285f7bce6dfa7b7926261","categoryId":"4bf58dd8d48988d116941735","category":"Bar","checkinsCount":814,"usersCount":277,"tipCount":11,"visitsCount":1242,"url":"http://www.cornertavernct.com","tier":2,"message":"Moderate","currency":"$","rating":8.6},{"name":"THC The Hops Company","phone":"2037341616","twitter":"thehopscompany","address":"77 Sodom Ln","lat":41.314472074055566,"lng":-73.05225613031281,"city_fetched":"Shelton,US","state":"CT","country":"United States","canonicalUrl":"https://foursquare.com/v/thc-the-hops-company/5642753e498e9bfd2329bdd9","categoryId":"4bf58dd8d48988d117941735","category":"Beer Garden","checkinsCount":374,"usersCount":377,"tipCount":5,"visitsCount":704,"url":"http://thehopscompany.com","tier":"","message":"","currency":"","rating":8.6},{"name":"Rudy's Bar","phone":"2038651242","address":"1227 Chapel St","lat":41.30931799191039,"lng":-72.93525726071651,"neighborhood":"Dwight","city_fetched":"Shelton,US","state":"CT","country":"United States","canonicalUrl":"https://foursquare.com/v/rudys-bar/4b05ade6f964a520e0e022e3","categoryId":"4bf58dd8d48988d116941735","category":"Bar","checkinsCount":4491,"usersCount":1919,"tipCount":37,"visitsCount":5078,"url":"http://rudysnewhaven.com","tier":2,"message":"Moderate","currency":"$","rating":8.4},{"name":"66 Church","phone":"4752123992","address":"66 Church St","lat":41.48826562236567,"lng":-73.05617026518308,"city_fetched":"Shelton,US","state":"CT","country":"United States","canonicalUrl":"https://foursquare.com/v/66-church/556362de498e57b14516793a","categoryId":"4bf58dd8d48988d116941735","category":"Bar","checkinsCount":293,"usersCount":273,"tipCount":13,"visitsCount":756,"url":"http:/www.66church.com","tier":"","message":"","currency":"","rating":8.4},{"name":"Bar 3 Thirty Three","phone":"2036932637","address":"333 Boston Post Rd","lat":41.224444,"lng":-73.071169,"neighborhood":"Downtown Milford - Harbor - Post Road South","city_fetched":"Shelton,US","state":"CT","country":"United States","canonicalUrl":"https://foursquare.com/v/bar-3-thirty-three/54516a12498e0f068e011361","categoryId":"4bf58dd8d48988d116941735","category":"Bar","checkinsCount":236,"usersCount":215,"tipCount":3,"visitsCount":599,"url":"http://www.bar3thirtythree.com","tier":"","message":"","currency":"","rating":8.4},{"name":"The Cask Republic","phone":"4752388335","twitter":"thecaskrepublic","address":"179 Crown St","lat":41.305216508692496,"lng":-72.92736722253812,"neighborhood":"Downtown New Haven","city_fetched":"Shelton,US","state":"CT","country":"United States","canonicalUrl":"https://foursquare.com/v/the-cask-republic/4d27bb1cb818a35dd1648e8a","categoryId":"4bf58dd8d48988d116941735","category":"Bar","checkinsCount":6739,"usersCount":3337,"tipCount":40,"visitsCount":7482,"url":"http://thecaskrepublic.com","tier":3,"message":"Expensive","currency":"$","rating":8.3},{"name":"Elm City Social","phone":"4754417436","address":"266 College St","lat":41.306982463994125,"lng":-72.92899946676553,"neighborhood":"Downtown New Haven","city_fetched":"Shelton,US","state":"CT","country":"United States","canonicalUrl":"https://foursquare.com/v/elm-city-social/55c6a0ba498eb5cf90f9c06a","categoryId":"4bf58dd8d48988d11e941735","category":"Cocktail Bar","checkinsCount":349,"usersCount":237,"tipCount":5,"visitsCount":363,"tier":"","message":"","currency":"","rating":8.3},{"name":"OEC Brewing","phone":"2032952831","address":"7 Fox Hollow Rd","lat":41.47305914847939,"lng":-73.1212539246656,"city_fetched":"Shelton,US","state":"CT","country":"United States","canonicalUrl":"https://foursquare.com/v/oec-brewing/53077fee498e6ef4ae69c795","categoryId":"50327c8591d4c4b30a586d5d","category":"Brewery","checkinsCount":581,"usersCount":380,"tipCount":8,"visitsCount":811,"url":"http://oecbrewing.com","tier":"","message":"","currency":"","rating":8.2},{"name":"Diesel Lounge","phone":"2037769899","address":"944 State St","lat":41.315069301010716,"lng":-72.91069231488602,"neighborhood":"East Rock","city_fetched":"Shelton,US","state":"CT","country":"United States","canonicalUrl":"https://foursquare.com/v/diesel-lounge/4be370d263609c7418e71bff","categoryId":"4bf58dd8d48988d121941735","category":"Lounge","checkinsCount":562,"usersCount":255,"tipCount":2,"visitsCount":579,"url":"http://diesellounge.com","tier":2,"message":"Moderate","currency":"$","rating":8.2},{"name":"Dive Bar & Restaurant","phone":"2039333483","address":"24 Ocean Ave","lat":41.23612487994954,"lng":-72.9866168459477,"city_fetched":"Shelton,US","state":"CT","country":"United States","canonicalUrl":"https://foursquare.com/v/dive-bar--restaurant/4c521f6d2543a593f93a0285","categoryId":"4bf58dd8d48988d116941735","category":"Bar","checkinsCount":2402,"usersCount":675,"tipCount":19,"visitsCount":2702,"url":"http://www.divebarandrestaurant.com","tier":2,"message":"Moderate","currency":"$","rating":8.1},{"name":"Anna Liffey's","phone":"2037731776","twitter":"annaliffeys","address":"17 Whitney Ave","lat":41.310772435954725,"lng":-72.92249349402452,"neighborhood":"Downtown New Haven","city_fetched":"Shelton,US","state":"CT","country":"United States","canonicalUrl":"https://foursquare.com/v/anna-liffeys/4ab45ab0f964a520fc7020e3","categoryId":"4bf58dd8d48988d11b941735","category":"Pub","checkinsCount":5967,"usersCount":1883,"tipCount":40,"visitsCount":6281,"url":"http://annaliffeys.com","tier":1,"message":"Cheap","currency":"$","rating":8.1},{"name":"Wood-n-Tap Bar & Grill","phone":"2037999663","twitter":"woodntap","address":"311 Boston Post Rd","lat":41.265162565637866,"lng":-73.00419330596924,"city_fetched":"Shelton,US","state":"CT","country":"United States","canonicalUrl":"https://foursquare.com/v/woodntap-bar--grill/4d140271bb64224b3577a965","categoryId":"4bf58dd8d48988d11b941735","category":"Pub","checkinsCount":4058,"usersCount":1812,"tipCount":41,"visitsCount":4675,"url":"http://woodntap.com","tier":2,"message":"Moderate","currency":"$","rating":8},{"name":"Black Hog Brewing Co.","address":"115 Hurley Rd Bldg 9A","lat":41.47414640738986,"lng":-73.15207172275409,"city_fetched":"Shelton,US","state":"CT","country":"United States","canonicalUrl":"https://foursquare.com/v/black-hog-brewing-co/53cd1813498e10c40b33c081","categoryId":"50327c8591d4c4b30a586d5d","category":"Brewery","checkinsCount":397,"usersCount":391,"tipCount":3,"visitsCount":854,"tier":"","message":"","currency":"","rating":8},{"name":"Slainte Pub & Eatery","phone":"2037231138","address":"1221 New Haven Rd","lat":41.467470815208266,"lng":-73.0208484329339,"city_fetched":"Shelton,US","state":"CT","country":"United States","canonicalUrl":"https://foursquare.com/v/slainte-pub--eatery/4bca04a9937ca5932de2a692","categoryId":"4bf58dd8d48988d11b941735","category":"Pub","checkinsCount":1360,"usersCount":303,"tipCount":12,"visitsCount":1628,"url":"http://www.slaintect.com","tier":"","message":"","currency":"","rating":7.9},{"name":"Barracuda Bistro & Bar","phone":"2036915696","address":"1180 Chapel St","lat":41.30904097356582,"lng":-72.93361352429862,"neighborhood":"Dwight","city_fetched":"Shelton,US","state":"CT","country":"United States","canonicalUrl":"https://foursquare.com/v/barracuda-bistro--bar/548f9645498ea579baca0673","categoryId":"4bf58dd8d48988d116941735","category":"Bar","checkinsCount":146,"usersCount":107,"tipCount":3,"visitsCount":162,"tier":"","message":"","currency":"","rating":7.9},{"name":"Ordinary","phone":"2039070238","address":"990 Chapel St","lat":41.307179112597716,"lng":-72.92864187357908,"neighborhood":"Downtown New Haven","city_fetched":"Shelton,US","state":"CT","country":"United States","canonicalUrl":"https://foursquare.com/v/ordinary/515f2508498eedc7c5f3492f","categoryId":"4bf58dd8d48988d116941735","category":"Bar","checkinsCount":1956,"usersCount":900,"tipCount":20,"visitsCount":2204,"url":"http://ordinarynewhaven.com","tier":3,"message":"Expensive","currency":"$","rating":7.9},{"name":"Barcade","twitter":"barcadenewhaven","address":"56 Orange St","lat":41.30489229611817,"lng":-72.92475700378417,"neighborhood":"Downtown New Haven","city_fetched":"Shelton,US","state":"CT","country":"United States","canonicalUrl":"https://foursquare.com/v/barcade/5643a4e4498e822123f77d23","categoryId":"4bf58dd8d48988d116941735","category":"Bar","checkinsCount":208,"usersCount":197,"tipCount":2,"visitsCount":309,"url":"http://barcade.com","tier":"","message":"","currency":"","rating":7.9},{"name":"Center Street Social","phone":"2035138005","twitter":"centerstsocial","address":"127 Center St","lat":41.31542115648177,"lng":-73.09512353731346,"city_fetched":"Shelton,US","state":"CT","country":"United States","canonicalUrl":"https://foursquare.com/v/center-street-social/5217ed2d11d2dbbfa12ea25a","categoryId":"4bf58dd8d48988d116941735","category":"Bar","checkinsCount":749,"usersCount":536,"tipCount":7,"visitsCount":1175,"url":"http://www.centerstreetsocial.com","tier":"","message":"","currency":"","rating":7.9},{"name":"No Worries Brewing","twitter":"noworriesbrew","address":"2520 State St","lat":41.349849,"lng":-72.89287,"city_fetched":"Shelton,US","state":"CT","country":"United States","canonicalUrl":"https://foursquare.com/v/no-worries-brewing/56478569498ef53f70f9b5a0","categoryId":"50327c8591d4c4b30a586d5d","category":"Brewery","checkinsCount":118,"usersCount":133,"tipCount":4,"visitsCount":208,"tier":"","message":"","currency":"","rating":7.9},{"name":"Christopher Martins Restaurant & Pub","phone":"2037768835","address":"860 State St","lat":41.313495,"lng":-72.913357,"neighborhood":"East Rock","city_fetched":"Shelton,US","state":"CT","country":"United States","canonicalUrl":"https://foursquare.com/v/christopher-martins-restaurant--pub/4b09b58ef964a5202a1c23e3","categoryId":"4bf58dd8d48988d116941735","category":"Bar","checkinsCount":1675,"usersCount":769,"tipCount":14,"visitsCount":1730,"url":"http://www.christophermartins.com","tier":"","message":"","currency":"","rating":7.9},{"name":"Brewport","address":"225 South Frontage Rd","lat":41.170814,"lng":-73.191774,"neighborhood":"Downtown Bridgeport","city_fetched":"Shelton,US","state":"CT","country":"United States","canonicalUrl":"https://foursquare.com/v/brewport/5787d0d2498ec9461f604d3f","categoryId":"50327c8591d4c4b30a586d5d","category":"Brewery","checkinsCount":115,"usersCount":142,"tipCount":3,"visitsCount":187,"tier":"","message":"","currency":"","rating":7.9},{"name":"Village Bistro","phone":"2038828507","twitter":"village","address":"1501 Boston Post Rd","lat":41.2430334728069,"lng":-73.03037841855759,"city_fetched":"Shelton,US","state":"CT","country":"United States","canonicalUrl":"https://foursquare.com/v/village-bistro/5132583de4b0dc200d6efb07","categoryId":"4bf58dd8d48988d121941735","category":"Lounge","checkinsCount":225,"usersCount":170,"tipCount":6,"visitsCount":325,"url":"http://www.villagebistromilford.com","tier":2,"message":"Moderate","currency":"$","rating":7.9},{"name":"Archie Moore's Restaurant & Bar","phone":"8552122554","twitter":"archiemooresbar","address":"17 Elizabeth St","lat":41.319914151482934,"lng":-73.08911785363276,"city_fetched":"Shelton,US","state":"CT","country":"United States","canonicalUrl":"https://foursquare.com/v/archie-moores-restaurant--bar/4dc982d481dc70a0ec7551e2","categoryId":"4bf58dd8d48988d116941735","category":"Bar","checkinsCount":1990,"usersCount":1079,"tipCount":15,"visitsCount":2409,"url":"http://www.archiemoores.com/original/locationderby2.htm","tier":2,"message":"Moderate","currency":"$","rating":7.9},{"name":"Porky's Cafe","phone":"2039244869","address":"50 Center St","lat":41.31644702274826,"lng":-73.09342905127363,"city_fetched":"Shelton,US","state":"CT","country":"United States","canonicalUrl":"https://foursquare.com/v/porkys-cafe/4b89d5eef964a520285032e3","categoryId":"4bf58dd8d48988d116941735","category":"Bar","checkinsCount":1453,"usersCount":549,"tipCount":14,"visitsCount":1653,"tier":"","message":"","currency":"","rating":7.8},{"name":"Gipper's Restaurant & Ale House","phone":"2038785262","twitter":"gippersalehouse","address":"304 Old Gate Ln","lat":41.23385284529128,"lng":-73.02778408715496,"city_fetched":"Shelton,US","state":"CT","country":"United States","canonicalUrl":"https://foursquare.com/v/gippers-restaurant--ale-house/4c046734310fc9b6464fc761","categoryId":"4bf58dd8d48988d118941735","category":"Dive Bar","checkinsCount":848,"usersCount":294,"tipCount":9,"visitsCount":872,"url":"http://www.gippersalehouse.com","tier":"","message":"","currency":"","rating":7.8},{"name":"Playwright Irish Pub","phone":"2032872401","address":"1232 Whitney Ave","lat":41.34585531085705,"lng":-72.91288417124908,"city_fetched":"Shelton,US","state":"CT","country":"United States","canonicalUrl":"https://foursquare.com/v/playwright-irish-pub/4b2197c8f964a5208d3e24e3","categoryId":"4bf58dd8d48988d11b941735","category":"Pub","checkinsCount":1928,"usersCount":857,"tipCount":21,"visitsCount":2222,"url":"http://playwrightirishpub.com","tier":2,"message":"Moderate","currency":"$","rating":7.8},{"name":"Bar None","phone":"2035165039","address":"87 Elizabeth St","lat":41.32132746315519,"lng":-73.08918125418329,"city_fetched":"Shelton,US","state":"CT","country":"United States","canonicalUrl":"https://foursquare.com/v/bar-none/4e45e6c3887781a619a425b8","categoryId":"4bf58dd8d48988d116941735","category":"Bar","checkinsCount":1328,"usersCount":337,"tipCount":7,"visitsCount":1394,"url":"http://www.barnonect.com","tier":"","message":"","currency":"","rating":7.8},{"name":"Pub 67","phone":"2038286666","address":"223 West St","lat":41.39790654498503,"lng":-73.0877864380377,"city_fetched":"Shelton,US","state":"CT","country":"United States","canonicalUrl":"https://foursquare.com/v/pub-67/5081a796e4b0073ffa78bc66","categoryId":"4bf58dd8d48988d11b941735","category":"Pub","checkinsCount":365,"usersCount":135,"tipCount":2,"visitsCount":466,"tier":"","message":"","currency":"","rating":7.8},{"name":"Archie Moore's","phone":"2038765088","twitter":"archiemooresct","address":"15 Factory Ln","lat":41.22178297991693,"lng":-73.056331,"neighborhood":"Downtown Milford - Harbor - Post Road South","city_fetched":"Shelton,US","state":"CT","country":"United States","canonicalUrl":"https://foursquare.com/v/archie-moores/4b393531f964a5202f5825e3","categoryId":"4bf58dd8d48988d116941735","category":"Bar","checkinsCount":4283,"usersCount":1843,"tipCount":28,"visitsCount":4548,"url":"http://www.archiemoores.com","tier":2,"message":"Moderate","currency":"$","rating":7.8},{"name":"Brennan's Shebeen Irish Bar & Grill","phone":"2038709981","twitter":"brennansshebeen","address":"2652 Fairfield Ave","lat":41.159545337115375,"lng":-73.22482109069824,"neighborhood":"Black Rock","city_fetched":"Shelton,US","state":"CT","country":"United States","canonicalUrl":"https://foursquare.com/brennansshebeen","categoryId":"4bf58dd8d48988d11b941735","category":"Pub","checkinsCount":3468,"usersCount":893,"tipCount":21,"visitsCount":3828,"url":"http://www.brennansshebeen.com","tier":"","message":"","currency":"","rating":7.8},{"name":"Mediterranea Cafe","phone":"2036240589","address":"140 Orange St","lat":41.30583389799591,"lng":-72.92394120364929,"neighborhood":"Downtown New Haven","city_fetched":"Shelton,US","state":"CT","country":"United States","canonicalUrl":"https://foursquare.com/v/mediterranea-cafe/4b624c08f964a520ee402ae3","categoryId":"4bf58dd8d48988d119941735","category":"Hookah Bar","checkinsCount":803,"usersCount":369,"tipCount":13,"visitsCount":808,"url":"http://mediterraneanewhaven.com","tier":"","message":"","currency":"","rating":7.7},{"name":"World Of Beer","address":"1201 Boston Post Rd","lat":41.235806645028944,"lng":-73.03669117103055,"city_fetched":"Shelton,US","state":"CT","country":"United States","canonicalUrl":"https://foursquare.com/v/world-of-beer/57114ab4498e5f70245c04b2","categoryId":"56aa371ce4b08b9a8d57356c","category":"Beer Bar","checkinsCount":150,"usersCount":107,"tipCount":2,"visitsCount":164,"tier":"","message":"","currency":"","rating":7.7},{"name":"Gryphon's Pub (GPSCY)","phone":"2034322638","address":"204 York St","lat":41.309241356190476,"lng":-72.93195824143021,"neighborhood":"Downtown New Haven","city_fetched":"Shelton,US","state":"CT","country":"United States","canonicalUrl":"https://foursquare.com/v/gryphons-pub-gpscy/4b247416f964a520b26724e3","categoryId":"4bf58dd8d48988d11b941735","category":"Pub","checkinsCount":2351,"usersCount":892,"tipCount":7,"visitsCount":2745,"url":"http://www.gpscy.net","tier":1,"message":"Cheap","currency":"$","rating":7.7},{"name":"Christy's Irish Pub","phone":"2036240811","address":"261 Orange St","lat":41.30791520882063,"lng":-72.92213607133615,"neighborhood":"Downtown New Haven","city_fetched":"Shelton,US","state":"CT","country":"United States","canonicalUrl":"https://foursquare.com/v/christys-irish-pub/4b1934c1f964a52030d923e3","categoryId":"4bf58dd8d48988d11b941735","category":"Pub","checkinsCount":2142,"usersCount":724,"tipCount":19,"visitsCount":2318,"tier":2,"message":"Moderate","currency":"$","rating":7.6},{"name":"New West Cafe","phone":"2033875939","address":"879 Whalley Ave","lat":41.326819,"lng":-72.959668,"neighborhood":"Westville","city_fetched":"Shelton,US","state":"CT","country":"United States","canonicalUrl":"https://foursquare.com/v/new-west-cafe/4bfa040fbc86952109d57a6b","categoryId":"4bf58dd8d48988d116941735","category":"Bar","checkinsCount":1215,"usersCount":321,"tipCount":5,"visitsCount":1269,"tier":2,"message":"Moderate","currency":"$","rating":7.5},{"name":"744","address":"744 Post Road","lat":41.28775005923548,"lng":-72.97252376911516,"city_fetched":"Shelton,US","state":"CT","country":"United States","canonicalUrl":"https://foursquare.com/v/744/4c0eabdf7189c928a3e0d8b6","categoryId":"4bf58dd8d48988d116941735","category":"Bar","checkinsCount":729,"usersCount":350,"tipCount":5,"visitsCount":902,"url":"http://744west.com","tier":"","message":"","currency":"","rating":7.5},{"name":"Three Sheets","address":"372 Elm St","lat":41.31182789924074,"lng":-72.9332674730815,"neighborhood":"Dwight","city_fetched":"Shelton,US","state":"CT","country":"United States","canonicalUrl":"https://foursquare.com/v/three-sheets/52b3593711d24c47e9dcd21d","categoryId":"4bf58dd8d48988d118941735","category":"Dive Bar","checkinsCount":387,"usersCount":251,"tipCount":6,"visitsCount":477,"tier":"","message":"","currency":"","rating":7.5},{"name":"Bar 140","address":"140 Center St","lat":41.31506965291885,"lng":-73.09523304448501,"city_fetched":"Shelton,US","state":"CT","country":"United States","canonicalUrl":"https://foursquare.com/v/bar-140/4e42e510fa76415849a289e5","categoryId":"4bf58dd8d48988d116941735","category":"Bar","checkinsCount":971,"usersCount":346,"tipCount":10,"visitsCount":1047,"tier":2,"message":"Moderate","currency":"$","rating":7.5},{"name":"Woodbridge Social","address":"12 Selden St","lat":41.33953157625313,"lng":-72.9822402400056,"city_fetched":"Shelton,US","state":"CT","country":"United States","canonicalUrl":"https://foursquare.com/v/woodbridge-social/52f7d9f411d2b87ba6cabf9f","categoryId":"4bf58dd8d48988d116941735","category":"Bar","checkinsCount":369,"usersCount":285,"tipCount":5,"visitsCount":679,"url":"http://woodbridgesocial.com","tier":"","message":"","currency":"","rating":7.4},{"name":"Fairfield Craft Ales","address":"724 Honeyspot Rd","lat":41.1757,"lng":-73.147106,"city_fetched":"Shelton,US","state":"CT","country":"United States","canonicalUrl":"https://foursquare.com/v/fairfield-craft-ales/5782915e498eb7aacc2f28b6","categoryId":"50327c8591d4c4b30a586d5d","category":"Brewery","checkinsCount":22,"usersCount":27,"tipCount":1,"visitsCount":37,"tier":"","message":"","currency":"","rating":7.4},{"name":"Tcb Bar and Billiards","phone":"2032485100","address":"348 Sackett Point Rd","lat":41.367348,"lng":-72.874317,"city_fetched":"Shelton,US","state":"CT","country":"United States","canonicalUrl":"https://foursquare.com/v/tcb-bar-and-billiards/4f32c60919836c91c7f909b2","categoryId":"4bf58dd8d48988d11f941735","category":"Nightclub","checkinsCount":481,"usersCount":54,"tipCount":5,"visitsCount":485,"url":"http://www.tcbnh.com","tier":"","message":"","currency":"","rating":7.4},{"name":"Kelly's Restaurant & Bar","phone":"2037761111","twitter":"kellysoncrown","address":"196 Crown St","lat":41.30542240171419,"lng":-72.92820930045976,"neighborhood":"Downtown New Haven","city_fetched":"Shelton,US","state":"CT","country":"United States","canonicalUrl":"https://foursquare.com/v/kellys-restaurant--bar/4b9d11b0f964a520d58c36e3","categoryId":"4bf58dd8d48988d116941735","category":"Bar","checkinsCount":2435,"usersCount":1268,"tipCount":20,"visitsCount":2490,"url":"http://www.kellysnewhaven.com","tier":2,"message":"Moderate","currency":"$","rating":7.3},{"name":"Park Central Tavern","phone":"2032878887","address":"1640 Whitney Ave","lat":41.359166570084454,"lng":-72.90994823277072,"city_fetched":"Shelton,US","state":"CT","country":"United States","canonicalUrl":"https://foursquare.com/v/park-central-tavern/4b929548f964a520b00634e3","categoryId":"4bf58dd8d48988d116941735","category":"Bar","checkinsCount":1161,"usersCount":574,"tipCount":11,"visitsCount":1486,"url":"http://www.parkcentraltavern.com","tier":2,"message":"Moderate","currency":"$","rating":7.3},{"name":"O'Manel Restaurant","phone":"2033351676","address":"1909 Main St","lat":41.18961338954124,"lng":-73.1958594467817,"city_fetched":"Shelton,US","state":"CT","country":"United States","canonicalUrl":"https://foursquare.com/v/omanel-restaurant/4d4dee789aaab60ca2df3d29","categoryId":"4bf58dd8d48988d120941735","category":"Karaoke Bar","checkinsCount":213,"usersCount":119,"tipCount":2,"visitsCount":267,"url":"http://omanelrestaurant.com","tier":"","message":"","currency":"","rating":7.3},{"name":"Firehouse 12","phone":"2037850468","twitter":"firehouse12","address":"45 Crown St","lat":41.303973,"lng":-72.924817,"neighborhood":"Downtown New Haven","city_fetched":"Shelton,US","state":"CT","country":"United States","canonicalUrl":"https://foursquare.com/v/firehouse-12/4b3bdb22f964a520ba7c25e3","categoryId":"4bf58dd8d48988d11e941735","category":"Cocktail Bar","checkinsCount":1376,"usersCount":617,"tipCount":12,"visitsCount":1405,"url":"http://www.firehouse12.com","tier":2,"message":"Moderate","currency":"$","rating":7.3},{"name":"Club Vandome","phone":"2037892066","twitter":"clubvandome","address":"102 Hamilton St","lat":41.305970953771705,"lng":-72.91310912379322,"neighborhood":"Wooster Square - Mill River","city_fetched":"Shelton,US","state":"CT","country":"United States","canonicalUrl":"https://foursquare.com/v/club-vandome/4bbffb42920eb713246a182c","categoryId":"4bf58dd8d48988d11f941735","category":"Nightclub","checkinsCount":710,"usersCount":425,"tipCount":7,"visitsCount":925,"url":"http://www.clubvandome.com","tier":1,"message":"Cheap","currency":"$","rating":7.3},{"name":"Side Street Bar & Grill","phone":"2034071539","twitter":"sidestreetgrill","address":"15 Dickerman St","lat":41.403912,"lng":-72.899118,"city_fetched":"Shelton,US","state":"CT","country":"United States","canonicalUrl":"https://foursquare.com/v/side-street-bar--grill/4b4919e2f964a520e66526e3","categoryId":"4bf58dd8d48988d116941735","category":"Bar","checkinsCount":4003,"usersCount":1329,"tipCount":21,"visitsCount":4312,"url":"http://www.sidestreetgrille.com","tier":2,"message":"Moderate","currency":"$","rating":7.2},{"name":"C.J. Sparrow","phone":"2032728204","twitter":"cjsparrowct","address":"908 S Main St","lat":41.47996748439468,"lng":-72.90537409583528,"city_fetched":"Shelton,US","state":"CT","country":"United States","canonicalUrl":"https://foursquare.com/v/cj-sparrow/4b95c3c2f964a52071b234e3","categoryId":"4bf58dd8d48988d116941735","category":"Bar","checkinsCount":839,"usersCount":320,"tipCount":10,"visitsCount":969,"url":"http://www.cjsparrow.com","tier":"","message":"","currency":"","rating":7.2},{"name":"Cafe Nine","phone":"2037898281","twitter":"cafenine","address":"250 State St","lat":41.30344385264726,"lng":-72.92403348763065,"neighborhood":"Downtown New Haven","city_fetched":"Shelton,US","state":"CT","country":"United States","canonicalUrl":"https://foursquare.com/v/cafe-nine/4b058678f964a5204f6322e3","categoryId":"4bf58dd8d48988d117941735","category":"Beer Garden","checkinsCount":1579,"usersCount":798,"tipCount":14,"visitsCount":1866,"url":"http://cafenine.com","tier":"","message":"","currency":"","rating":7.1},{"name":"Ibiza Tapas Wine Bar","phone":"2039096512","address":"1832 Dixwell Ave","lat":41.36083403578611,"lng":-72.92458534240723,"city_fetched":"Shelton,US","state":"CT","country":"United States","canonicalUrl":"https://foursquare.com/v/ibiza-tapas-wine-bar/4b37ed65f964a520cd4825e3","categoryId":"4bf58dd8d48988d123941735","category":"Wine Bar","checkinsCount":506,"usersCount":331,"tipCount":11,"visitsCount":542,"tier":"","message":"","currency":"","rating":7},{"name":"Overshores Brewing Co.","phone":"2039096224","twitter":"overshores","address":"250 Bradley Street","lat":41.28855530389577,"lng":-72.87416612209499,"city_fetched":"Shelton,US","state":"CT","country":"United States","canonicalUrl":"https://foursquare.com/v/overshores-brewing-co/5134baefe4b02bbf5e9c8740","categoryId":"50327c8591d4c4b30a586d5d","category":"Brewery","checkinsCount":162,"usersCount":185,"tipCount":1,"visitsCount":235,"url":"http://overshores.com","tier":"","message":"","currency":"","rating":7},{"name":"SBC Restaurant & Brewery","phone":"2038742337","twitter":"sbcbrewery","address":"33 New Haven Ave","lat":41.22252099650261,"lng":-73.05586474598695,"neighborhood":"Downtown Milford - Harbor - Post Road South","city_fetched":"Shelton,US","state":"CT","country":"United States","canonicalUrl":"https://foursquare.com/v/sbc-restaurant--brewery/4b4cad9cf964a520f1b926e3","categoryId":"50327c8591d4c4b30a586d5d","category":"Brewery","checkinsCount":4393,"usersCount":1930,"tipCount":24,"visitsCount":4592,"url":"http://www.southportbrewing.com","tier":2,"message":"Moderate","currency":"$","rating":7},{"name":"Buffalo Wild Wings","phone":"2038779453","twitter":"bwwings","address":"1201 Boston Post Rd","lat":41.23507423398382,"lng":-73.03761933299546,"city_fetched":"Shelton,US","state":"CT","country":"United States","canonicalUrl":"https://foursquare.com/v/buffalo-wild-wings/4b5ccf38f964a5201a4529e3","categoryId":"4bf58dd8d48988d11d941735","category":"Sports Bar","checkinsCount":7167,"usersCount":3302,"tipCount":54,"visitsCount":7335,"url":"http://www.buffalowildwings.com/en/","tier":2,"message":"Moderate","currency":"$","rating":7},{"name":"Orange Ale House","phone":"2037950707","address":"517 Boston Post Rd","lat":41.25426301351068,"lng":-73.01738341133843,"city_fetched":"Shelton,US","state":"CT","country":"United States","canonicalUrl":"https://foursquare.com/v/orange-ale-house/4bd2759e462cb7132c8adc07","categoryId":"4bf58dd8d48988d116941735","category":"Bar","checkinsCount":2923,"usersCount":1186,"tipCount":15,"visitsCount":3268,"url":"http://orangealehouse.com","tier":"","message":"","currency":"","rating":7},{"name":"Crush Sports Cafe","phone":"2038772200","twitter":"crushmilford","address":"1015 Bridgeport Ave","lat":41.21556497690565,"lng":-73.0712230265012,"neighborhood":"Devon - Walnut Beach","city_fetched":"Shelton,US","state":"CT","country":"United States","canonicalUrl":"https://foursquare.com/crushmilford","categoryId":"4bf58dd8d48988d11d941735","category":"Sports Bar","checkinsCount":1165,"usersCount":605,"tipCount":15,"visitsCount":1357,"url":"http://crushmilford.com","tier":"","message":"","currency":"","rating":6.9},{"name":"Dunn's Pub","phone":"2032870664","address":"2345 Whitney Ave","lat":41.382749703479966,"lng":-72.90188312530518,"city_fetched":"Shelton,US","state":"CT","country":"United States","canonicalUrl":"https://foursquare.com/v/dunns-pub/4aea4cdbf964a520d3ba21e3","categoryId":"4bf58dd8d48988d116941735","category":"Bar","checkinsCount":1980,"usersCount":455,"tipCount":21,"visitsCount":2102,"tier":"","message":"","currency":"","rating":6.8},{"name":"Sitting Duck Tavern","address":"4244 Madison Ave","lat":41.233983279907434,"lng":-73.23090653260157,"city_fetched":"Shelton,US","state":"CT","country":"United States","canonicalUrl":"https://foursquare.com/v/sitting-duck-tavern/56341417498e8f8d6756404b","categoryId":"4bf58dd8d48988d116941735","category":"Bar","checkinsCount":214,"usersCount":153,"tipCount":0,"visitsCount":418,"tier":"","message":"","currency":"","rating":6.8},{"name":"Aroma Hookah Lounge","phone":"2033380316","address":"689 Kings Hwy E","lat":41.16944763331445,"lng":-73.23020696640015,"city_fetched":"Shelton,US","state":"CT","country":"United States","canonicalUrl":"https://foursquare.com/v/aroma-hookah-lounge/4ba56603f964a5203a0339e3","categoryId":"4bf58dd8d48988d119941735","category":"Hookah Bar","checkinsCount":807,"usersCount":301,"tipCount":9,"visitsCount":826,"tier":"","message":"","currency":"","rating":6.8},{"name":"168 York St. Cafe","phone":"2037891915","address":"168 York St","lat":41.30821463019571,"lng":-72.9319005658617,"neighborhood":"Downtown New Haven","city_fetched":"Shelton,US","state":"CT","country":"United States","canonicalUrl":"https://foursquare.com/v/168-york-st-cafe/4b19328af964a5200bd923e3","categoryId":"4bf58dd8d48988d1d8941735","category":"Gay Bar","checkinsCount":1715,"usersCount":569,"tipCount":3,"visitsCount":1759,"tier":2,"message":"Moderate","currency":"$","rating":6.8},{"name":"Partners Cafe","phone":"2037761014","address":"365 Crown St","lat":41.30788489690569,"lng":-72.93392496996437,"neighborhood":"Downtown New Haven","city_fetched":"Shelton,US","state":"CT","country":"United States","canonicalUrl":"https://foursquare.com/v/partners-cafe/4b81ea17f964a520dbc330e3","categoryId":"4bf58dd8d48988d1d8941735","category":"Gay Bar","checkinsCount":951,"usersCount":499,"tipCount":4,"visitsCount":1209,"url":"http://www.partnerscafe.com","tier":"","message":"","currency":"","rating":6.8},{"name":"La Sheesh Hookah Lounge","phone":"2038428190","twitter":"lasheesh","address":"78 Church St","lat":41.30572004600593,"lng":-72.92593683679233,"neighborhood":"Downtown New Haven","city_fetched":"Shelton,US","state":"CT","country":"United States","canonicalUrl":"https://foursquare.com/v/la-sheesh-hookah-lounge/4c0718810ed3c928fd23797d","categoryId":"4bf58dd8d48988d119941735","category":"Hookah Bar","checkinsCount":337,"usersCount":217,"tipCount":5,"visitsCount":338,"tier":"","message":"","currency":"","rating":6.8},{"name":"Scruples","phone":"2033358975","twitter":"scrupleslounge","address":"369 North Ave","lat":41.198570834165416,"lng":-73.19231641401483,"city_fetched":"Shelton,US","state":"CT","country":"United States","canonicalUrl":"https://foursquare.com/v/scruples/4bcb9b83b6c49c74869c9291","categoryId":"4bf58dd8d48988d1d6941735","category":"Strip Club","checkinsCount":441,"usersCount":193,"tipCount":5,"visitsCount":543,"tier":"","message":"","currency":"","rating":6.7},{"name":"Tiago's Restaurant and Bar","phone":"2038730282","address":"211 Main St","lat":41.176519066613686,"lng":-73.18979881048965,"neighborhood":"Downtown Bridgeport","city_fetched":"Shelton,US","state":"CT","country":"United States","canonicalUrl":"https://foursquare.com/v/tiagos-restaurant-and-bar/4bd74843f645c9b6139aa5e0","categoryId":"50327c8591d4c4b30a586d5d","category":"Brewery","checkinsCount":662,"usersCount":328,"tipCount":12,"visitsCount":725,"url":"http://www.fairfieldcafe.com","tier":"","message":"","currency":"","rating":6.6},{"name":"Allegra's","address":"249 W Main St","lat":41.277188,"lng":-72.85392478333333,"city_fetched":"Shelton,US","state":"CT","country":"United States","canonicalUrl":"https://foursquare.com/v/allegras/4c0970b6009a0f4709c6e7bf","categoryId":"4bf58dd8d48988d116941735","category":"Bar","checkinsCount":822,"usersCount":299,"tipCount":3,"visitsCount":1020,"tier":"","message":"","currency":"","rating":6.6},{"name":"J.P Dempsey's","phone":"2036245991","address":"974 State St","lat":41.31549371985095,"lng":-72.90990208806731,"neighborhood":"Wooster Square - Mill River","city_fetched":"Shelton,US","state":"CT","country":"United States","canonicalUrl":"https://foursquare.com/v/jp-dempseys/4b058677f964a520456322e3","categoryId":"4bf58dd8d48988d11b941735","category":"Pub","checkinsCount":1571,"usersCount":691,"tipCount":9,"visitsCount":1811,"url":"http://jpdempseynewhaven.com","tier":2,"message":"Moderate","currency":"$","rating":6.6},{"name":"The Regal Beagle","address":"422 State St","lat":41.30586875679195,"lng":-72.92205514196938,"neighborhood":"Downtown New Haven","city_fetched":"Shelton,US","state":"CT","country":"United States","canonicalUrl":"https://foursquare.com/v/the-regal-beagle/5362eb01498e0c4d9e073f43","categoryId":"4bf58dd8d48988d116941735","category":"Bar","checkinsCount":189,"usersCount":91,"tipCount":1,"visitsCount":245,"tier":"","message":"","currency":"","rating":6.6},{"name":"Tautog Tavern","phone":"2039157500","twitter":"tautogtavern","address":"2926 Fairfield Ave","lat":41.156669862302394,"lng":-73.22794007045648,"neighborhood":"Black Rock","city_fetched":"Shelton,US","state":"CT","country":"United States","canonicalUrl":"https://foursquare.com/v/tautog-tavern/4f483c10e4b0e4755ca5b95e","categoryId":"4bf58dd8d48988d11b941735","category":"Pub","checkinsCount":921,"usersCount":264,"tipCount":8,"visitsCount":926,"tier":"","message":"","currency":"","rating":6.6},{"name":"Murphy's Law","phone":"2033665297","address":"239 Fairfield Ave","lat":41.178710670274484,"lng":-73.19151562326981,"neighborhood":"Downtown Bridgeport","city_fetched":"Shelton,US","state":"CT","country":"United States","canonicalUrl":"https://foursquare.com/v/murphys-law/4b1744d4f964a52065c423e3","categoryId":"4bf58dd8d48988d116941735","category":"Bar","checkinsCount":856,"usersCount":263,"tipCount":7,"visitsCount":901,"url":"http://murphyslawpub.com","tier":"","message":"","currency":"","rating":6.5},{"name":"Karaoke Heroes","phone":"2038488854","address":"212 Crown St","lat":41.30536655667545,"lng":-72.92874569101102,"neighborhood":"Downtown New Haven","city_fetched":"Shelton,US","state":"CT","country":"United States","canonicalUrl":"https://foursquare.com/v/karaoke-heroes/4f60deb8e5e8d4902df2ffaf","categoryId":"4bf58dd8d48988d120941735","category":"Karaoke Bar","checkinsCount":629,"usersCount":435,"tipCount":10,"visitsCount":655,"tier":"","message":"","currency":"","rating":6.5},{"name":"Fairfield University - The Levee","phone":"2032544000","twitter":"fairfieldu","address":"1073 N Benson Rd","lat":41.16104773934986,"lng":-73.25634241104126,"city_fetched":"Shelton,US","state":"CT","country":"United States","canonicalUrl":"https://foursquare.com/v/fairfield-university--the-levee/4bc92c7cb6c49c74cb1b8e91","categoryId":"4bf58dd8d48988d116941735","category":"Bar","checkinsCount":851,"usersCount":208,"tipCount":11,"visitsCount":901,"url":"http://www.fairfield.edu","tier":"","message":"","currency":"","rating":6.4},{"name":"Tavern","phone":"2038805007","twitter":"tavernmonroect","address":"262 Main St","lat":41.31154919999999,"lng":-73.2579895,"city_fetched":"Shelton,US","state":"CT","country":"United States","canonicalUrl":"https://foursquare.com/v/tavern/4ddfde53814d4840097f4060","categoryId":"4bf58dd8d48988d116941735","category":"Bar","checkinsCount":1434,"usersCount":729,"tipCount":20,"visitsCount":1814,"url":"http://tavernmonroect.com","tier":"","message":"","currency":"","rating":6.4},{"name":"Mystique","phone":"2036128026","address":"2458 Main St","lat":41.196452,"lng":-73.199872,"neighborhood":"Brooklawn - St. Vincent","city_fetched":"Shelton,US","state":"CT","country":"United States","canonicalUrl":"https://foursquare.com/v/mystique/4bafd53ef964a5206b243ce3","categoryId":"4bf58dd8d48988d1d6941735","category":"Strip Club","checkinsCount":501,"usersCount":145,"tipCount":5,"visitsCount":627,"tier":"","message":"","currency":"","rating":6.4},{"name":"Beachcomber Restaurant","phone":"2038772212","address":"92 Melba St","lat":41.20833365099534,"lng":-73.02529350186721,"neighborhood":"Woodmont","city_fetched":"Shelton,US","state":"CT","country":"United States","canonicalUrl":"https://foursquare.com/v/beachcomber-restaurant/4ccb74212dc4370403f8bf08","categoryId":"4bf58dd8d48988d116941735","category":"Bar","checkinsCount":1297,"usersCount":255,"tipCount":4,"visitsCount":1433,"tier":"","message":"","currency":"","rating":6.3},{"name":"Corner Pocket","phone":"2038910777","address":"501 Boston Post Rd","lat":41.25612014,"lng":-73.01568088333333,"city_fetched":"Shelton,US","state":"CT","country":"United States","canonicalUrl":"https://foursquare.com/v/corner-pocket/4ba42245f964a520e98438e3","categoryId":"4bf58dd8d48988d116941735","category":"Bar","checkinsCount":320,"usersCount":183,"tipCount":6,"visitsCount":325,"url":"http://cornerpocketcafe.com","tier":"","message":"","currency":"","rating":6.3},{"name":"Frog Pond","phone":"2033777868","address":"251 E Main St","lat":41.20349407196045,"lng":-73.11843477,"city_fetched":"Shelton,US","state":"CT","country":"United States","canonicalUrl":"https://foursquare.com/v/frog-pond/4bb6928e2f70c9b612ab8530","categoryId":"4bf58dd8d48988d118941735","category":"Dive Bar","checkinsCount":735,"usersCount":316,"tipCount":17,"visitsCount":933,"tier":2,"message":"Moderate","currency":"$","rating":6.3},{"name":"Cook's Cafe","phone":"2037293760","address":"Old Firehouse Rd.","lat":41.49001404,"lng":-73.054854,"city_fetched":"Shelton,US","state":"CT","country":"United States","canonicalUrl":"https://foursquare.com/v/cooks-cafe/4bca5bbb937ca593edcba792","categoryId":"4bf58dd8d48988d118941735","category":"Dive Bar","checkinsCount":244,"usersCount":109,"tipCount":5,"visitsCount":251,"url":"http://www.cooksrocks.com","tier":"","message":"","currency":"","rating":6.3},{"name":"Trevi Lounge","address":"548 Kings Highway Cutoff","lat":41.15891713144944,"lng":-73.24284686377024,"city_fetched":"Shelton,US","state":"CT","country":"United States","canonicalUrl":"https://foursquare.com/v/trevi-lounge/50c9506ce4b08539fabf74e4","categoryId":"4bf58dd8d48988d1d8941735","category":"Gay Bar","checkinsCount":482,"usersCount":165,"tipCount":9,"visitsCount":691,"tier":"","message":"","currency":"","rating":6.2},{"name":"Fireside","phone":"2034699670","address":"810 Woodward Ave","lat":41.29059837746354,"lng":-72.89412007880826,"neighborhood":"Annex","city_fetched":"Shelton,US","state":"CT","country":"United States","canonicalUrl":"https://foursquare.com/v/fireside/4baec188f964a52039d53be3","categoryId":"4bf58dd8d48988d11b941735","category":"Pub","checkinsCount":759,"usersCount":250,"tipCount":6,"visitsCount":803,"url":"http://robstickets.com","tier":"","message":"","currency":"","rating":6.2},{"name":"Brennan's Shebeen","phone":"2038819242","address":"441 Oxford Rd","lat":41.43521215933961,"lng":-73.11785956333036,"city_fetched":"Shelton,US","state":"CT","country":"United States","canonicalUrl":"https://foursquare.com/v/brennans-shebeen/5393c6b9498e0e408d3e30bd","categoryId":"4bf58dd8d48988d116941735","category":"Bar","checkinsCount":114,"usersCount":143,"tipCount":2,"visitsCount":245,"tier":"","message":"","currency":"","rating":6.2},{"name":"Anthony D's","address":"New Haven Ave","lat":41.223002,"lng":-73.04245006666666,"neighborhood":"Downtown Milford - Harbor - Post Road South","city_fetched":"Shelton,US","state":"CT","country":"United States","canonicalUrl":"https://foursquare.com/v/anthony-ds/4df43fd1d1649c8a28e61fbc","categoryId":"4bf58dd8d48988d118941735","category":"Dive Bar","checkinsCount":456,"usersCount":251,"tipCount":2,"visitsCount":551,"tier":"","message":"","currency":"","rating":6.1},{"name":"Buffalo Wild Wings","phone":"2037899453","twitter":"bwwings","address":"74-76 Church St","lat":41.30560023301599,"lng":-72.926075261594,"neighborhood":"Downtown New Haven","city_fetched":"Shelton,US","state":"CT","country":"United States","canonicalUrl":"https://foursquare.com/v/buffalo-wild-wings/4b90467cf964a520b78033e3","categoryId":"4bf58dd8d48988d11d941735","category":"Sports Bar","checkinsCount":2307,"usersCount":1382,"tipCount":16,"visitsCount":2412,"url":"http://www.buffalowildwings.com/en/","tier":1,"message":"Cheap","currency":"$","rating":6.1},{"name":"Koji Restaurant New Haven","phone":"2037727900","address":"182 Temple St","lat":41.3062711,"lng":-72.9272539,"neighborhood":"Downtown New Haven","city_fetched":"Shelton,US","state":"CT","country":"United States","canonicalUrl":"https://foursquare.com/v/koji-restaurant-new-haven/4bb6c0951344b713a20d9e04","categoryId":"4bf58dd8d48988d11c941735","category":"Sake Bar","checkinsCount":769,"usersCount":420,"tipCount":10,"visitsCount":769,"url":"http://www.kojirestaurantnewhaven.com","tier":"","message":"","currency":"","rating":6.1},{"name":"Keepers Gentlemen's Club","phone":"2033010764","twitter":"keepersmilford","address":"354 Woodmont Rd","lat":41.23734860454321,"lng":-73.01473128025249,"city_fetched":"Shelton,US","state":"CT","country":"United States","canonicalUrl":"https://foursquare.com/keepersmilford","categoryId":"4bf58dd8d48988d1d6941735","category":"Strip Club","checkinsCount":631,"usersCount":285,"tipCount":3,"visitsCount":758,"url":"http://www.keepersx.com","tier":"","message":"","currency":"","rating":6.1},{"name":"Hards Corner","phone":"2033751477","address":"1900 main st","lat":41.18663989925308,"lng":-73.12990960594715,"city_fetched":"Shelton,US","state":"CT","country":"United States","canonicalUrl":"https://foursquare.com/v/hards-corner/4bdf7d9b0ee3a593fd8c34b0","categoryId":"4bf58dd8d48988d118941735","category":"Dive Bar","checkinsCount":677,"usersCount":141,"tipCount":3,"visitsCount":705,"tier":"","message":"","currency":"","rating":6.1},{"name":"Lazy Lizard","address":"Crown Street","lat":41.305539492650425,"lng":-72.92859573248373,"neighborhood":"Downtown New Haven","city_fetched":"Shelton,US","state":"CT","country":"United States","canonicalUrl":"https://foursquare.com/v/lazy-lizard/4e618eee52b1260c12c0e53b","categoryId":"4bf58dd8d48988d116941735","category":"Bar","checkinsCount":241,"usersCount":179,"tipCount":3,"visitsCount":241,"tier":"","message":"","currency":"","rating":6.1},{"name":"Draft House","phone":"2034020525","twitter":"drafthouse1","address":"350 Bridgeport Ave","lat":41.29721097886357,"lng":-73.10637944870145,"city_fetched":"Shelton,US","state":"CT","country":"United States","canonicalUrl":"https://foursquare.com/v/draft-house/4b64e8a5f964a52021d92ae3","categoryId":"4bf58dd8d48988d116941735","category":"Bar","checkinsCount":2239,"usersCount":948,"tipCount":12,"visitsCount":2448,"url":"http://www.drafthouseshelton.com","tier":2,"message":"Moderate","currency":"$","rating":6},{"name":"Tavern New Haven","address":"124 Temple St","lat":41.305358,"lng":-72.92807,"neighborhood":"Downtown New Haven","city_fetched":"Shelton,US","state":"CT","country":"United States","canonicalUrl":"https://foursquare.com/v/tavern-new-haven/55df8a8f498e2abd155ada2c","categoryId":"4bf58dd8d48988d11b941735","category":"Pub","checkinsCount":185,"usersCount":109,"tipCount":0,"visitsCount":189,"tier":"","message":"","currency":"","rating":6},{"name":"Buffalo Bills","phone":"2034459672","address":"634 Main St","lat":41.33578598499298,"lng":-73.262727,"city_fetched":"Shelton,US","state":"CT","country":"United States","canonicalUrl":"https://foursquare.com/v/buffalo-bills/4cf1c30ee3b9a09362d14053","categoryId":"4bf58dd8d48988d118941735","category":"Dive Bar","checkinsCount":932,"usersCount":314,"tipCount":10,"visitsCount":952,"tier":"","message":"","currency":"","rating":6},{"name":"Jeremiah's Grille & Bar","phone":"2039294972","address":"220 Leavenworth Rd","lat":41.33197914052013,"lng":-73.13828259896341,"city_fetched":"Shelton,US","state":"CT","country":"United States","canonicalUrl":"https://foursquare.com/v/jeremiahs-grille--bar/4e7294a7fa767a2b30fba617","categoryId":"4bf58dd8d48988d118941735","category":"Dive Bar","checkinsCount":118,"usersCount":50,"tipCount":4,"visitsCount":118,"tier":"","message":"","currency":"","rating":5.9},{"name":"Uptown Danny O's","phone":"2039246066","address":"458 River Rd","lat":41.28988056666667,"lng":-73.07620525,"city_fetched":"Shelton,US","state":"CT","country":"United States","canonicalUrl":"https://foursquare.com/v/uptown-danny-os/4b9ebbc1f964a52081fd36e3","categoryId":"4bf58dd8d48988d11d941735","category":"Sports Bar","checkinsCount":353,"usersCount":184,"tipCount":3,"visitsCount":358,"url":"http://dannyos.net","tier":"","message":"","currency":"","rating":5.9},{"name":"Terminal 110","phone":"2036246200","twitter":"terminal110","address":"240 Sargent Dr","lat":41.29522053829795,"lng":-72.92343940887656,"city_fetched":"Shelton,US","state":"CT","country":"United States","canonicalUrl":"https://foursquare.com/v/terminal-110/4bd3504477b29c749f859082","categoryId":"4bf58dd8d48988d116941735","category":"Bar","checkinsCount":1830,"usersCount":706,"tipCount":3,"visitsCount":1836,"url":"http://www.terminal110.com","tier":"","message":"","currency":"","rating":5.9},{"name":"Kings Court Bar & Grill","phone":"2038768831","address":"229 Bridgeport Ave","lat":41.20221307531999,"lng":-73.10152530670166,"neighborhood":"Devon - Walnut Beach","city_fetched":"Shelton,US","state":"CT","country":"United States","canonicalUrl":"https://foursquare.com/v/kings-court-bar--grill/4b9c6ff2f964a520926836e3","categoryId":"4bf58dd8d48988d118941735","category":"Dive Bar","checkinsCount":1176,"usersCount":188,"tipCount":6,"visitsCount":1180,"tier":"","message":"","currency":"","rating":5.6},{"name":"Naughty Water Whiskey Bar and Grille","phone":"4752829900","twitter":"naughtywaterwb","address":"2931 Fairfield Ave","lat":41.1564383751424,"lng":-73.22767510298848,"neighborhood":"Black Rock","city_fetched":"Shelton,US","state":"CT","country":"United States","canonicalUrl":"https://foursquare.com/v/naughty-water-whiskey-bar-and-grille/52bd0657498e74792e459a81","categoryId":"4bf58dd8d48988d116941735","category":"Bar","checkinsCount":84,"usersCount":67,"tipCount":1,"visitsCount":86,"url":"http://www.naughtywaterwhiskeybar.com","tier":"","message":"","currency":"","rating":5.4},{"name":"Bricks & Barley Tavern","phone":"2035138163","address":"441 Howe Ave","lat":41.317402222193834,"lng":-73.09317545364912,"city_fetched":"Shelton,US","state":"CT","country":"United States","canonicalUrl":"https://foursquare.com/v/bricks--barley-tavern/53a49521498e5cd1fc509410","categoryId":"4bf58dd8d48988d116941735","category":"Bar","checkinsCount":264,"usersCount":179,"tipCount":9,"visitsCount":308,"url":"http://bricksnbarley.com","tier":"","message":"","currency":"","rating":5.1}]