[{"name":"Big Hart Brewing Co.","address":"4256 W Polk Rd","lat":43.68946811165204,"lng":-86.3801763295006,"city_fetched":"Shelby,US","state":"MI","country":"United States","canonicalUrl":"https://foursquare.com/v/big-hart-brewing-co/56b6659e498ec2291301f13b","categoryId":"50327c8591d4c4b30a586d5d","category":"Brewery","checkinsCount":87,"usersCount":122,"tipCount":1,"visitsCount":159,"tier":"","message":"","currency":"","rating":8.1},{"name":"The Brown Bear","phone":"2318615014","address":"147 N Michigan Ave","lat":43.61111505,"lng":-86.36393526666667,"city_fetched":"Shelby,US","state":"MI","country":"United States","canonicalUrl":"https://foursquare.com/v/the-brown-bear/4bca46b768f976b0e41b5f83","categoryId":"4bf58dd8d48988d116941735","category":"Bar","checkinsCount":644,"usersCount":528,"tipCount":19,"visitsCount":856,"tier":"","message":"","currency":"","rating":7.8},{"name":"Schooners","phone":"2318732378","address":"211 E Main St","lat":43.70257554701559,"lng":-86.36297764241887,"city_fetched":"Shelby,US","state":"MI","country":"United States","canonicalUrl":"https://foursquare.com/v/schooners/4c55df324623be9a71b02df5","categoryId":"4bf58dd8d48988d116941735","category":"Bar","checkinsCount":153,"usersCount":89,"tipCount":6,"visitsCount":155,"tier":"","message":"","currency":"","rating":7},{"name":"The Boathouse Bar & Grille","phone":"2318694588","address":"5164 W Monroe Rd","lat":43.76624822616577,"lng":-86.408075,"city_fetched":"Shelby,US","state":"MI","country":"United States","canonicalUrl":"https://foursquare.com/v/the-boathouse-bar--grille/4c31458209a99c748b3f0b2a","categoryId":"4bf58dd8d48988d116941735","category":"Bar","checkinsCount":132,"usersCount":142,"tipCount":3,"visitsCount":199,"tier":"","message":"","currency":"","rating":6.5}]