[{"name":"Bout Time Pub & Grub Riverpoint","phone":"3037611700","twitter":"bouttimepub","address":"3850 South Platte River Drive Suite A","lat":39.65172615748527,"lng":-105.00937402361652,"city_fetched":"Sheridan","state":"CO","country":"United States","canonicalUrl":"https://foursquare.com/v/bout-time-pub--grub-riverpoint/53f79ce2498e47b1dc1724ef","category":"Sports Bar","checkinsCount":169,"usersCount":185,"tipCount":7,"visitsCount":400,"url":"http://www.bouttimepub.com","tier":"","message":"","currency":"","rating":8.1},{"name":"Longshot Restaurant & Lounge","phone":"3037899653","address":"3665 S Federal Blvd","lat":39.65006904689001,"lng":-105.02564919487743,"city_fetched":"Sheridan","state":"CO","country":"United States","canonicalUrl":"https://foursquare.com/v/longshot-restaurant--lounge/4eb9dfea775bf193edd3493f","category":"Bar","checkinsCount":1169,"usersCount":165,"tipCount":18,"visitsCount":1328,"tier":"","message":"","currency":"","rating":8},{"name":"Boggy Draw Brewery","address":"353 S Platte River Drive","lat":39.65329830396077,"lng":-105.01104597654914,"city_fetched":"Sheridan","state":"CO","country":"United States","canonicalUrl":"https://foursquare.com/v/boggy-draw-brewery/5599a74a498e4caa78916bc4","category":"Brewery","checkinsCount":136,"usersCount":175,"tipCount":4,"visitsCount":271,"tier":"","message":"","currency":"","rating":6.5}]