[{"name":"Great Raft Brewing","address":"1251 Dalzell St","lat":32.488872785633454,"lng":-93.75623319718835,"neighborhood":"Highland-Stoner Hill","city_fetched":"Shreveport","state":"LA","country":"United States","canonicalUrl":"https://foursquare.com/v/great-raft-brewing/524326a0498ebbcbde57061e","category":"Brewery","checkinsCount":655,"usersCount":360,"tipCount":9,"visitsCount":1091,"url":"http://greatraftbrewing.com","tier":2,"message":"Moderate","currency":"$","rating":8.9},{"name":"Daq's Wings & Grill","phone":"3182129464","address":"1705 Old Minden Rd","lat":32.516487,"lng":-93.71588799999999,"city_fetched":"Shreveport","state":"LA","country":"United States","canonicalUrl":"https://foursquare.com/v/daqs-wings--grill/5123e917e4b007a522cae53b","category":"Bar","checkinsCount":330,"usersCount":176,"tipCount":10,"visitsCount":494,"url":"http://daqsbossier.com","tier":"","message":"","currency":"","rating":8.7},{"name":"Twisted Root Burger Co.","phone":"3188686410","address":"8690 Line Ave","lat":32.42183015477661,"lng":-93.73751878738403,"city_fetched":"Shreveport","state":"LA","country":"United States","canonicalUrl":"https://foursquare.com/v/twisted-root-burger-co/5221df46bce61a8845af0b0a","category":"Burger Joint","checkinsCount":681,"usersCount":584,"tipCount":21,"visitsCount":1206,"url":"http://twistedrootburgerco.com/shreveport","tier":2,"message":"Moderate","currency":"$","rating":8.6},{"name":"Superior Bar & Grill","phone":"3188693243","address":"6123 Line Ave","lat":32.45001370864236,"lng":-93.74580759359158,"city_fetched":"Shreveport","state":"LA","country":"United States","canonicalUrl":"https://foursquare.com/v/superior-bar--grill/4b480a23f964a520d44626e3","category":"Mexican Restaurant","checkinsCount":3595,"usersCount":1993,"tipCount":35,"visitsCount":4422,"url":"http://shreveport.superiorgrill.com","tier":2,"message":"Moderate","currency":"$","rating":8.5},{"name":"El Jimador","phone":"3186869199","address":"2711 Alkay Dr","lat":32.408762,"lng":-93.79995300000002,"city_fetched":"Shreveport","state":"LA","country":"United States","canonicalUrl":"https://foursquare.com/v/el-jimador/528d0300498e1a82126c9cba","category":"Mexican Restaurant","checkinsCount":119,"usersCount":35,"tipCount":8,"visitsCount":138,"url":"http://eljimadorcantina.com","tier":"","message":"","currency":"","rating":8.5},{"name":"The Blind Tiger","phone":"3182268747","address":"120 Texas St","lat":32.515135865292734,"lng":-93.74671339988708,"neighborhood":"Downtown Riverfront","city_fetched":"Shreveport","state":"LA","country":"United States","canonicalUrl":"https://foursquare.com/v/the-blind-tiger/4b4bd27ef964a520d3a826e3","category":"Bar","checkinsCount":2245,"usersCount":1472,"tipCount":55,"visitsCount":2492,"url":"http://blindtigerrestaurant.com","tier":2,"message":"Moderate","currency":"$","rating":8.5},{"name":"Superior's Steakhouse","phone":"3182194123","twitter":"superiorssteak","address":"855 Pierremont Rd","lat":32.4534678922129,"lng":-93.7479043006897,"city_fetched":"Shreveport","state":"LA","country":"United States","canonicalUrl":"https://foursquare.com/v/superiors-steakhouse/4b463b7ef964a520e21a26e3","category":"Steakhouse","checkinsCount":1782,"usersCount":632,"tipCount":21,"visitsCount":1979,"url":"http://www.superiorssteakhouse.com","tier":2,"message":"Moderate","currency":"$","rating":8.4},{"name":"Sand Bar","phone":"3182121718","twitter":"sandbarfun","address":"415 Spring St","lat":32.51553393616898,"lng":-93.74712109565735,"neighborhood":"Downtown Riverfront","city_fetched":"Shreveport","state":"LA","country":"United States","canonicalUrl":"https://foursquare.com/v/sand-bar/4bba0dcb53649c74768c48fb","category":"Sports Bar","checkinsCount":1099,"usersCount":315,"tipCount":8,"visitsCount":1129,"tier":"","message":"","currency":"","rating":8.3},{"name":"Vintage Wine Bar & Spirits","address":"6645 Line Ave","lat":32.446016,"lng":-93.745676,"city_fetched":"Shreveport","state":"LA","country":"United States","canonicalUrl":"https://foursquare.com/v/vintage-wine-bar--spirits/4bf4665294af2d7ff98d3a72","category":"Wine Bar","checkinsCount":681,"usersCount":204,"tipCount":5,"visitsCount":734,"tier":"","message":"","currency":"","rating":8.3},{"name":"Don Juanz Baja Beach Tacos","phone":"3187523244","twitter":"donjuanzbaja","address":"2333 Airline Dr","lat":32.54468094959183,"lng":-93.7098254615428,"city_fetched":"Shreveport","state":"LA","country":"United States","canonicalUrl":"https://foursquare.com/donjuanzbaja","category":"Mexican Restaurant","checkinsCount":595,"usersCount":221,"tipCount":18,"visitsCount":636,"url":"http://www.donjuanz.com","tier":1,"message":"Cheap","currency":"$","rating":8.2},{"name":"Noble Savage Tavern","phone":"3182211781","address":"417 Texas St","lat":32.513280070393265,"lng":-93.7492048554866,"neighborhood":"Downtown Riverfront","city_fetched":"Shreveport","state":"LA","country":"United States","canonicalUrl":"https://foursquare.com/v/noble-savage-tavern/4b5655bbf964a520eb0b28e3","category":"Bar","checkinsCount":995,"usersCount":486,"tipCount":14,"visitsCount":1179,"url":"http://www.noblesavagetavern.com","tier":"","message":"","currency":"","rating":8.1},{"name":"Daiquiri Express","phone":"3188692220","address":"Shreveport-Barksdale Highway","lat":32.485907651203696,"lng":-93.70600466602905,"neighborhood":"Broadmoor-Anderson Island-Shreve Isle","city_fetched":"Shreveport","state":"LA","country":"United States","canonicalUrl":"https://foursquare.com/v/daiquiri-express/4ba591c9f964a5202a1339e3","category":"Bar","checkinsCount":169,"usersCount":110,"tipCount":1,"visitsCount":171,"url":"http://whatsontapdaiquiriexpress.com","tier":"","message":"","currency":"","rating":7.8},{"name":"Cuban Liquor and Wine","phone":"3188691236","address":"928 Pierremont Rd","lat":32.45485961009409,"lng":-93.74949747699337,"neighborhood":"Caddo Heights-South Highlands","city_fetched":"Shreveport","state":"LA","country":"United States","canonicalUrl":"https://foursquare.com/v/cuban-liquor-and-wine/4f452c5d19836ed001991200","category":"Wine Bar","checkinsCount":104,"usersCount":54,"tipCount":2,"visitsCount":118,"tier":"","message":"","currency":"","rating":7.6},{"name":"What's on Tap","phone":"3188692422","address":"1207 Shreveport Barksdale Hwy","lat":32.486002,"lng":-93.705774,"neighborhood":"Broadmoor-Anderson Island-Shreve Isle","city_fetched":"Shreveport","state":"LA","country":"United States","canonicalUrl":"https://foursquare.com/v/whats-on-tap/4b48d971f964a520e25926e3","category":"Bar","checkinsCount":304,"usersCount":140,"tipCount":4,"visitsCount":305,"url":"http://whatsontapdaiquiriexpress.com","tier":"","message":"","currency":"","rating":7.5},{"name":"Korner Lounge","phone":"3182229796","address":"800 Louisiana Ave","lat":32.50882044388235,"lng":-93.74918997647195,"neighborhood":"Downtown Riverfront","city_fetched":"Shreveport","state":"LA","country":"United States","canonicalUrl":"https://foursquare.com/v/korner-lounge/4bac2777f964a520b3e73ae3","category":"Gay Bar","checkinsCount":1404,"usersCount":234,"tipCount":9,"visitsCount":1591,"url":"http://thekornerlounge.com","tier":"","message":"","currency":"","rating":7.4},{"name":"Bear's","phone":"3186749660","address":"1401 Fairfield Ave","lat":32.49907,"lng":-93.75221,"neighborhood":"Highland-Stoner Hill","city_fetched":"Shreveport","state":"LA","country":"United States","canonicalUrl":"https://foursquare.com/v/bears/4baebd55f964a520c1d33be3","category":"Bar","checkinsCount":422,"usersCount":245,"tipCount":7,"visitsCount":611,"tier":"","message":"","currency":"","rating":7.4},{"name":"Central Station","phone":"3182222216","address":"1025 Marshall St","lat":32.50876766980503,"lng":-93.74528686550308,"neighborhood":"Downtown Riverfront","city_fetched":"Shreveport","state":"LA","country":"United States","canonicalUrl":"https://foursquare.com/v/central-station/4bb81382b35776b023a2c801","category":"Gay Bar","checkinsCount":1122,"usersCount":336,"tipCount":7,"visitsCount":1375,"tier":2,"message":"Moderate","currency":"$","rating":7.4},{"name":"Thrifty Liquor","address":"8806 Youree Dr.","lat":32.42342845331579,"lng":-93.70755574539832,"city_fetched":"Shreveport","state":"LA","country":"United States","canonicalUrl":"https://foursquare.com/v/thrifty-liquor/4c1fc91d8b3aa5938b029e5f","category":"Cocktail Bar","checkinsCount":184,"usersCount":116,"tipCount":2,"visitsCount":276,"tier":"","message":"","currency":"","rating":7.4},{"name":"Flying Heart Brewing","phone":"3183448775","twitter":"flyingheartbrew","address":"700 Barksdale Blvd","lat":32.515553574161366,"lng":-93.73204233055287,"city_fetched":"Shreveport","state":"LA","country":"United States","canonicalUrl":"https://foursquare.com/v/flying-heart-brewing/5538687a498eb49be05452a6","category":"Brewery","checkinsCount":107,"usersCount":91,"tipCount":1,"visitsCount":190,"tier":"","message":"","currency":"","rating":7.4},{"name":"The Cub","phone":"3188616517","address":"3002 Girard St","lat":32.481664467723164,"lng":-93.7242043018341,"neighborhood":"Highland-Stoner Hill","city_fetched":"Shreveport","state":"LA","country":"United States","canonicalUrl":"https://foursquare.com/v/the-cub/4b569152f964a520691528e3","category":"Bar","checkinsCount":864,"usersCount":283,"tipCount":7,"visitsCount":899,"tier":"","message":"","currency":"","rating":7.2},{"name":"Fumblebrewski","address":"3142 N Market St","lat":32.560070416862104,"lng":-93.78423220414622,"city_fetched":"Shreveport","state":"LA","country":"United States","canonicalUrl":"https://foursquare.com/v/fumblebrewski/4e49bc557d8b3dcca352a9bd","category":"Brewery","checkinsCount":259,"usersCount":96,"tipCount":7,"visitsCount":292,"tier":"","message":"","currency":"","rating":7.2},{"name":"Josh lounge","phone":"3186819960","address":"224 Spring St","lat":32.51676469427958,"lng":-93.74889735673648,"neighborhood":"Downtown Riverfront","city_fetched":"Shreveport","state":"LA","country":"United States","canonicalUrl":"https://foursquare.com/v/josh-lounge/4b58fbfef964a520e67628e3","category":"Bar","checkinsCount":100,"usersCount":59,"tipCount":6,"visitsCount":104,"tier":"","message":"","currency":"","rating":7.2},{"name":"Chicago","lat":32.51526250570263,"lng":-93.74645727135956,"neighborhood":"Downtown Riverfront","city_fetched":"Shreveport","state":"Louisiana","country":"United States","canonicalUrl":"https://foursquare.com/v/chicago/4f40b186e4b005b534ed3f24","category":"Cocktail Bar","checkinsCount":189,"usersCount":128,"tipCount":1,"visitsCount":190,"tier":"","message":"","currency":"","rating":7.1},{"name":"Overtime Sports Bar","phone":"3186730048","address":"200 Travis St","lat":32.51598006140228,"lng":-93.74770209701708,"neighborhood":"Downtown Riverfront","city_fetched":"Shreveport","state":"LA","country":"United States","canonicalUrl":"https://foursquare.com/v/overtime-sports-bar/4bf0b79021072d7ff94f208b","category":"Sports Bar","checkinsCount":450,"usersCount":127,"tipCount":4,"visitsCount":450,"tier":"","message":"","currency":"","rating":7.1},{"name":"Stray Cat","phone":"3184244747","address":"222 Travis St","lat":32.515254,"lng":-93.74826156666667,"neighborhood":"Downtown Riverfront","city_fetched":"Shreveport","state":"LA","country":"United States","canonicalUrl":"https://foursquare.com/v/stray-cat/4bd7d2fb0b779c74190306a0","category":"Bar","checkinsCount":969,"usersCount":342,"tipCount":8,"visitsCount":1048,"tier":2,"message":"Moderate","currency":"$","rating":7.1},{"name":"Cajun Daiquiris","phone":"3188689620","address":"3306 Youree Dr","lat":32.47928146825546,"lng":-93.72231567549935,"neighborhood":"Broadmoor-Anderson Island-Shreve Isle","city_fetched":"Shreveport","state":"LA","country":"United States","canonicalUrl":"https://foursquare.com/v/cajun-daiquiris/4bb5132b1344b713f3cc9b04","category":"Cocktail Bar","checkinsCount":766,"usersCount":138,"tipCount":3,"visitsCount":769,"tier":"","message":"","currency":"","rating":7.1},{"name":"Ivan's Pub","phone":"3182268801","address":"2013 Market St","lat":32.501119,"lng":-93.73359,"neighborhood":"Highland-Stoner Hill","city_fetched":"Shreveport","state":"LA","country":"United States","canonicalUrl":"https://foursquare.com/v/ivans-pub/4b999faef964a5202c8835e3","category":"Bar","checkinsCount":439,"usersCount":112,"tipCount":1,"visitsCount":452,"tier":"","message":"","currency":"","rating":6.9},{"name":"Zocolo Neighborhood Eatery & Drinkery","phone":"3182199536","address":"436 Ashley Ridge Blvd","lat":32.416249,"lng":-93.732206,"city_fetched":"Shreveport","state":"LA","country":"United States","canonicalUrl":"https://foursquare.com/v/zocolo-neighborhood-eatery--drinkery/4b0e0991f964a5203b5423e3","category":"American Restaurant","checkinsCount":490,"usersCount":288,"tipCount":12,"visitsCount":651,"url":"http://www.zocoloeatery.com","tier":2,"message":"Moderate","currency":"$","rating":6.9}]