[{"name":"Hoppin' Grapes Wine and Beer Tasting Bar and Retail Shop","phone":"5203389463","twitter":"hoppingrapes","address":"409 W Fry Blvd","lat":31.554616,"lng":-110.303953,"city_fetched":"Sierra Vista,US","state":"AZ","country":"United States","canonicalUrl":"https://foursquare.com/hoppingrapes","categoryId":"4bf58dd8d48988d116941735","category":"Bar","checkinsCount":101,"usersCount":26,"tipCount":6,"visitsCount":104,"url":"http://www.hoppin-grapes.com","tier":2,"message":"Moderate","currency":"$","rating":7.9},{"name":"Crystal Palace Saloon","phone":"5204573611","address":"436 E Allen St","lat":31.712491038469715,"lng":-110.06612745126534,"city_fetched":"Sierra Vista,US","state":"AZ","country":"United States","canonicalUrl":"https://foursquare.com/v/crystal-palace-saloon/4ce830fdf1c6236a754e5ef0","categoryId":"4bf58dd8d48988d116941735","category":"Bar","checkinsCount":1115,"usersCount":1062,"tipCount":17,"visitsCount":1229,"tier":"","message":"","currency":"","rating":7.8},{"name":"Paul's Pub","address":"1805 Paseo San Luis","lat":31.53622535,"lng":-110.25439023971558,"city_fetched":"Sierra Vista,US","state":"AZ","country":"United States","canonicalUrl":"https://foursquare.com/v/pauls-pub/4be23c89b02ec9b659a74cc0","categoryId":"4bf58dd8d48988d116941735","category":"Bar","checkinsCount":517,"usersCount":185,"tipCount":2,"visitsCount":549,"tier":"","message":"","currency":"","rating":7.5},{"name":"Four Deuces","address":"101 S 3rd St.","lat":31.71296515,"lng":-110.06856069,"city_fetched":"Sierra Vista,US","state":"AZ","country":"United States","canonicalUrl":"https://foursquare.com/v/four-deuces/4d9e31b691cb236a8e3f6297","categoryId":"4bf58dd8d48988d116941735","category":"Bar","checkinsCount":151,"usersCount":110,"tipCount":6,"visitsCount":152,"tier":"","message":"","currency":"","rating":6.6},{"name":"Famous Sam's","phone":"5204588055","address":"2239 E Fry Blvd","lat":31.555735979150956,"lng":-110.2754289540713,"city_fetched":"Sierra Vista,US","state":"AZ","country":"United States","canonicalUrl":"https://foursquare.com/v/famous-sams/4bea04c261aca59399578300","categoryId":"4bf58dd8d48988d11d941735","category":"Sports Bar","checkinsCount":704,"usersCount":140,"tipCount":4,"visitsCount":717,"url":"http://www.famoussams.net","tier":1,"message":"Cheap","currency":"$","rating":6.4},{"name":"Dusk Til Dawn","lat":31.641987001112327,"lng":-110.3392681239857,"city_fetched":"Sierra Vista,US","state":"AZ","country":"United States","canonicalUrl":"https://foursquare.com/v/dusk-til-dawn/4c004980c30a2d7f8658121d","categoryId":"4bf58dd8d48988d1d6941735","category":"Strip Club","checkinsCount":281,"usersCount":126,"tipCount":3,"visitsCount":301,"tier":"","message":"","currency":"","rating":6.4}]