[{"name":"little toad creek brewery and distillery","address":"200 N Bullard At","lat":32.769824522269225,"lng":-108.2764256867909,"city_fetched":"Silver City","state":"NM","country":"United States","canonicalUrl":"https://foursquare.com/v/little-toad-creek-brewery-and-distillery/54791805498ee690add491b6","category":"Brewery","checkinsCount":62,"usersCount":81,"tipCount":0,"visitsCount":109,"tier":"","message":"","currency":"","rating":8},{"name":"The Curious Kumquat","phone":"5755340337","address":"111 E College Ave","lat":32.7746912,"lng":-108.27571605,"city_fetched":"Silver City","state":"NM","country":"United States","canonicalUrl":"https://foursquare.com/v/the-curious-kumquat/4caaa50414c337045cece33b","category":"Gastropub","checkinsCount":148,"usersCount":68,"tipCount":3,"visitsCount":149,"tier":1,"message":"Cheap","currency":"$","rating":8},{"name":"Wrangler's Bar & Grill","phone":"5755384387","address":"2005 Highway 180 E","lat":32.78786581666667,"lng":-108.25500525,"city_fetched":"Silver City","state":"NM","country":"United States","canonicalUrl":"https://foursquare.com/v/wranglers-bar--grill/4dc7148dc65b89d3ca97d205","category":"Bar","checkinsCount":223,"usersCount":121,"tipCount":6,"visitsCount":252,"tier":"","message":"","currency":"","rating":6}]