[{"name":"Monks House of Ale Repute","phone":"6053382328","twitter":"monkshouseofale","address":"420 E 8th St","lat":43.54885,"lng":-96.721762,"neighborhood":"Downtown Sioux Falls","city_fetched":"Sioux Falls","state":"SD","country":"United States","canonicalUrl":"https://foursquare.com/v/monks-house-of-ale-repute/4b452ec5f964a520450726e3","category":"Bar","checkinsCount":6788,"usersCount":1655,"tipCount":53,"visitsCount":7657,"url":"http://monkshouseofalerepute.com","tier":1,"message":"Cheap","currency":"$","rating":9.1},{"name":"Hilton Garden Inn Downtown","address":"8th St.","lat":43.54814112945795,"lng":-96.7246919380649,"neighborhood":"Downtown Sioux Falls","city_fetched":"Sioux Falls","state":"SD","country":"United States","canonicalUrl":"https://foursquare.com/v/hilton-garden-inn-downtown/525ee2a511d24991ab490522","category":"Hotel","checkinsCount":673,"usersCount":447,"tipCount":4,"visitsCount":907,"tier":"","message":"","currency":"","rating":8.9},{"name":"WoodGrain","lat":43.54725317072551,"lng":-96.7271583264027,"neighborhood":"Downtown Sioux Falls","city_fetched":"Sioux Falls","state":"SD","country":"United States","canonicalUrl":"https://foursquare.com/v/woodgrain/55cb9f9d498e6173bc331f5e","category":"Brewery","checkinsCount":391,"usersCount":159,"tipCount":7,"visitsCount":469,"url":"http://www.woodgrainbrew.com","tier":"","message":"","currency":"","rating":8.9},{"name":"JL Beers","phone":"6052752012","address":"323 S Phillips Ave Ste 101","lat":43.54384850191119,"lng":-96.7269754342024,"neighborhood":"Downtown Sioux Falls","city_fetched":"Sioux Falls","state":"SD","country":"United States","canonicalUrl":"https://foursquare.com/v/jl-beers/4f849ea2e4b0d71c51cefdd6","category":"Bar","checkinsCount":5235,"usersCount":1761,"tipCount":62,"visitsCount":5703,"url":"http://jlbeers.com","tier":2,"message":"Moderate","currency":"$","rating":8.9},{"name":"Granite City Food & Brewery","phone":"6053620000","address":"2620 S Louise Ave","lat":43.52178439752603,"lng":-96.7712152004242,"city_fetched":"Sioux Falls","state":"SD","country":"United States","canonicalUrl":"https://foursquare.com/v/granite-city-food--brewery/4b66297cf964a520f9162be3","category":"American Restaurant","checkinsCount":7565,"usersCount":2665,"tipCount":60,"visitsCount":8346,"url":"http://gcfb.net","tier":2,"message":"Moderate","currency":"$","rating":8.7},{"name":"Old Chicago","phone":"6053628887","address":"4301 W 41st St","lat":43.51386,"lng":-96.77736331666667,"city_fetched":"Sioux Falls","state":"SD","country":"United States","canonicalUrl":"https://foursquare.com/v/old-chicago/4b53a8d1f964a520bca627e3","category":"Pizza Place","checkinsCount":11004,"usersCount":2246,"tipCount":43,"visitsCount":12069,"url":"http://oldchicago.com","tier":2,"message":"Moderate","currency":"$","rating":8.7},{"name":"Taphouse 41","phone":"6052749944","address":"2101 W 41st St","lat":43.513654294191554,"lng":-96.75369363224726,"city_fetched":"Sioux Falls","state":"SD","country":"United States","canonicalUrl":"https://foursquare.com/v/taphouse-41/52e075c5498ed19e302c5a17","category":"Burger Joint","checkinsCount":848,"usersCount":465,"tipCount":23,"visitsCount":1026,"url":"http://www.taphouse41.com","tier":2,"message":"Moderate","currency":"$","rating":8.5},{"name":"Prairie Berry East Bank","phone":"6054967175","twitter":"pbeastbank","address":"322 E 8th St","lat":43.54874808119938,"lng":-96.72271158004932,"neighborhood":"Downtown Sioux Falls","city_fetched":"Sioux Falls","state":"SD","country":"United States","canonicalUrl":"https://foursquare.com/v/prairie-berry-east-bank/536a3932498ea4305dbdb936","category":"Wine Bar","checkinsCount":373,"usersCount":203,"tipCount":12,"visitsCount":442,"url":"http://www.prairieberry.com/eastbank/","tier":"","message":"","currency":"","rating":8.4},{"name":"Crawford's Bar & Grill","phone":"6053325333","address":"214 S Phillips Ave","lat":43.54542759693929,"lng":-96.72669325868114,"neighborhood":"Downtown Sioux Falls","city_fetched":"Sioux Falls","state":"SD","country":"United States","canonicalUrl":"https://foursquare.com/v/crawfords-bar--grill/4d964e3ce07ea35d26b0bc02","category":"New American Restaurant","checkinsCount":3281,"usersCount":1121,"tipCount":53,"visitsCount":3349,"url":"http://crawfordssf.com","tier":2,"message":"Moderate","currency":"$","rating":8.4},{"name":"McNally's Irish Pub","phone":"6052717170","address":"6211 S Old Village Pl","lat":43.487813278349975,"lng":-96.74677260104956,"city_fetched":"Sioux Falls","state":"SD","country":"United States","canonicalUrl":"https://foursquare.com/v/mcnallys-irish-pub/4b61e75bf964a520432a2ae3","category":"Bar","checkinsCount":3230,"usersCount":1020,"tipCount":29,"visitsCount":3527,"url":"http://mcnallysip.com","tier":2,"message":"Moderate","currency":"$","rating":8.3},{"name":"Spezia","phone":"6053347491","address":"4801 S Louise Ave","lat":43.50168174809769,"lng":-96.77176289328635,"city_fetched":"Sioux Falls","state":"SD","country":"United States","canonicalUrl":"https://foursquare.com/v/spezia/4b4a7915f964a520a98826e3","category":"Italian Restaurant","checkinsCount":2495,"usersCount":1219,"tipCount":17,"visitsCount":2882,"url":"http://speziarestaurant.com/spezia/siouxfalls/","tier":3,"message":"Expensive","currency":"$","rating":8.3},{"name":"Hydra Beer Co-Taphouse & Brewery","phone":"6052755544","address":"2425 S Shirley Ave Ste 112","lat":43.524479744819146,"lng":-96.77734258685237,"city_fetched":"Sioux Falls","state":"SD","country":"United States","canonicalUrl":"https://foursquare.com/v/hydra-beer-cotaphouse--brewery/566c9c22498ef6790ba02c82","category":"Brewery","checkinsCount":154,"usersCount":62,"tipCount":3,"visitsCount":157,"tier":"","message":"","currency":"","rating":8.3},{"name":"Fernson Brewing","address":"1400 E Robur Dr, Sioux Falls, SD, 57104","lat":43.60792120665723,"lng":-96.70774329383038,"city_fetched":"Sioux Falls","state":"SD","country":"United States","canonicalUrl":"https://foursquare.com/v/fernson-brewing/54ebb730498eea13cc7e02df","category":"Brewery","checkinsCount":81,"usersCount":103,"tipCount":3,"visitsCount":163,"tier":"","message":"","currency":"","rating":8.3},{"name":"The Little Cellar Wine Company","phone":"6053618585","address":"2316 S Louise Ave","lat":43.52567647858013,"lng":-96.77453960671279,"city_fetched":"Sioux Falls","state":"SD","country":"United States","canonicalUrl":"https://foursquare.com/v/the-little-cellar-wine-company/4bb7c4eb3db7b713a987209a","category":"Wine Shop","checkinsCount":402,"usersCount":169,"tipCount":7,"visitsCount":408,"tier":"","message":"","currency":"","rating":8.2},{"name":"The Market","address":"196 E 6th St","lat":43.55136396409276,"lng":-96.72526149819032,"neighborhood":"Downtown Sioux Falls","city_fetched":"Sioux Falls","state":"SD","country":"United States","canonicalUrl":"https://foursquare.com/v/the-market/53926600498eb0e46ce56eef","category":"Wine Bar","checkinsCount":150,"usersCount":69,"tipCount":2,"visitsCount":161,"tier":"","message":"","currency":"","rating":8.2},{"name":"Icon Lounge + Events","phone":"6054444260","twitter":"iconlounge","address":"402 N Main Ave","lat":43.55124,"lng":-96.72823,"neighborhood":"Downtown Sioux Falls","city_fetched":"Sioux Falls","state":"SD","country":"United States","canonicalUrl":"https://foursquare.com/v/icon-lounge--events/4ed593e5754abbc61e436e69","category":"Lounge","checkinsCount":3023,"usersCount":1103,"tipCount":16,"visitsCount":3446,"url":"http://iconsiouxfalls.com","tier":2,"message":"Moderate","currency":"$","rating":8.1},{"name":"Tre Lounge","phone":"6052747017","address":"601 W 33rd St","lat":43.52244566110963,"lng":-96.73230171203613,"city_fetched":"Sioux Falls","state":"SD","country":"United States","canonicalUrl":"https://foursquare.com/v/tre-lounge/4b2d6d6af964a52076d624e3","category":"American Restaurant","checkinsCount":2062,"usersCount":739,"tipCount":14,"visitsCount":2188,"url":"http://trelounge.com","tier":2,"message":"Moderate","currency":"$","rating":7.9},{"name":"JL Beers","phone":"+6052753626","twitter":"jlbeerssf3623","address":"3623 S Western Ave","lat":43.511502832008766,"lng":-96.75153987852808,"city_fetched":"Sioux Falls","state":"SD","country":"United States","canonicalUrl":"https://foursquare.com/v/jl-beers/55674c23498e410645561217","category":"Burger Joint","checkinsCount":272,"usersCount":218,"tipCount":7,"visitsCount":495,"tier":"","message":"","currency":"","rating":7.9},{"name":"Gateway Casino & Lounge","phone":"6053611137","address":"3408 S Gateway Blvd","lat":43.513650561570685,"lng":-96.78239976238625,"city_fetched":"Sioux Falls","state":"SD","country":"United States","canonicalUrl":"https://foursquare.com/v/gateway-casino--lounge/4b9cfefbf964a520628736e3","category":"Bar","checkinsCount":3708,"usersCount":962,"tipCount":30,"visitsCount":4476,"url":"http://gateway-lounge.com","tier":2,"message":"Moderate","currency":"$","rating":7.9},{"name":"The Attic","phone":"6052754600","address":"4601 E 41st St","lat":43.514394875083326,"lng":-96.66993839126138,"city_fetched":"Sioux Falls","state":"SD","country":"United States","canonicalUrl":"https://foursquare.com/v/the-attic/4b5cbc1bf964a5203d4129e3","category":"Bar","checkinsCount":3156,"usersCount":1247,"tipCount":28,"visitsCount":4022,"url":"http://theatticsf.com","tier":2,"message":"Moderate","currency":"$","rating":7.9},{"name":"Botski's","phone":"6052715353","address":"1914 S Sycamore Ave","lat":43.52799776291437,"lng":-96.67061188553605,"city_fetched":"Sioux Falls","state":"SD","country":"United States","canonicalUrl":"https://foursquare.com/v/botskis/4b525454f964a520907727e3","category":"Bar","checkinsCount":1007,"usersCount":164,"tipCount":9,"visitsCount":1110,"url":"http://botskissiouxfalls.com","tier":1,"message":"Cheap","currency":"$","rating":7.8},{"name":"Falls Landing Restaurant","phone":"6053362290","twitter":"fallslandingsd","address":"200 E 8th St","lat":43.54885793936334,"lng":-96.72507338603346,"neighborhood":"Downtown Sioux Falls","city_fetched":"Sioux Falls","state":"SD","country":"United States","canonicalUrl":"https://foursquare.com/v/falls-landing-restaurant/4b47ba88f964a520313c26e3","category":"Hotel Bar","checkinsCount":1451,"usersCount":431,"tipCount":8,"visitsCount":1551,"url":"http://falls-landing.com","tier":2,"message":"Moderate","currency":"$","rating":7.8},{"name":"T.C.'s Referee Sports Bar","phone":"6053612208","address":"5322 W 26th St","lat":43.529721413262685,"lng":-96.79218575820127,"city_fetched":"Sioux Falls","state":"SD","country":"United States","canonicalUrl":"https://foursquare.com/v/tcs-referee-sports-bar/4b774673f964a520f18d2ee3","category":"Sports Bar","checkinsCount":1779,"usersCount":772,"tipCount":17,"visitsCount":2174,"url":"http://www.tcreferee.com","tier":2,"message":"Moderate","currency":"$","rating":7.8},{"name":"Stogeez Cigar Lounge","phone":"6052743810","address":"215 S Phillips Ave","lat":43.545416958825506,"lng":-96.72674551331426,"neighborhood":"Downtown Sioux Falls","city_fetched":"Sioux Falls","state":"SD","country":"United States","canonicalUrl":"https://foursquare.com/v/stogeez-cigar-lounge/4b8c6400f964a52062ce32e3","category":"Bar","checkinsCount":1364,"usersCount":512,"tipCount":12,"visitsCount":1369,"tier":"","message":"","currency":"","rating":7.5},{"name":"CJ Callaway's","phone":"6053348888","address":"500 E 69th St","lat":43.49038548794601,"lng":-96.72187328338623,"city_fetched":"Sioux Falls","state":"SD","country":"United States","canonicalUrl":"https://foursquare.com/v/cj-callaways/4b5890edf964a5206d5e28e3","category":"Pub","checkinsCount":2771,"usersCount":883,"tipCount":9,"visitsCount":3256,"tier":2,"message":"Moderate","currency":"$","rating":7.5},{"name":"Paramount Studio Bar","phone":"6053325681","address":"307 S Phillips Ave.","lat":43.544379943853905,"lng":-96.72699093818665,"neighborhood":"Downtown Sioux Falls","city_fetched":"Sioux Falls","state":"SD","country":"United States","canonicalUrl":"https://foursquare.com/v/paramount-studio-bar/4b870630f964a5200aac31e3","category":"Wine Bar","checkinsCount":1474,"usersCount":533,"tipCount":13,"visitsCount":1493,"tier":"","message":"","currency":"","rating":7.5},{"name":"The Country Club","address":"4115 W Newcomb St","lat":43.5337370095115,"lng":-96.76740196773774,"city_fetched":"Sioux Falls","state":"SD","country":"United States","canonicalUrl":"https://foursquare.com/v/the-country-club/4c02e6adf423a5938081cf16","category":"Golf Course","checkinsCount":1240,"usersCount":509,"tipCount":2,"visitsCount":1607,"tier":"","message":"","currency":"","rating":7.5},{"name":"Copper Lounge","phone":"6053352763","address":"136 S Phillips Ave","lat":43.54605968763826,"lng":-96.72667980194092,"neighborhood":"Downtown Sioux Falls","city_fetched":"Sioux Falls","state":"SD","country":"United States","canonicalUrl":"https://foursquare.com/v/copper-lounge/4b480743f964a520924626e3","category":"Cocktail Bar","checkinsCount":3089,"usersCount":587,"tipCount":24,"visitsCount":3127,"tier":3,"message":"Expensive","currency":"$","rating":7.5},{"name":"Bracco World Cafe & Island Bar","phone":"6053384386","address":"5001 S Western Ave","lat":43.49994306839047,"lng":-96.74822330474854,"city_fetched":"Sioux Falls","state":"SD","country":"United States","canonicalUrl":"https://foursquare.com/v/bracco-world-cafe--island-bar/4b43d68ff964a52098eb25e3","category":"Caribbean Restaurant","checkinsCount":6322,"usersCount":2051,"tipCount":43,"visitsCount":7017,"url":"http://www.braccorestaurant.com","tier":2,"message":"Moderate","currency":"$","rating":7.4},{"name":"The Bar Code","phone":"6053315253","address":"4200 N Cliff Ave","lat":43.59290592295071,"lng":-96.7109874337474,"city_fetched":"Sioux Falls","state":"SD","country":"United States","canonicalUrl":"https://foursquare.com/v/the-bar-code/4b7f5503f964a5200e2830e3","category":"Dive Bar","checkinsCount":717,"usersCount":85,"tipCount":6,"visitsCount":746,"tier":1,"message":"Cheap","currency":"$","rating":7.4},{"name":"Sioux Falls JazzFest Beer Garden","lat":43.505474139358974,"lng":-96.7381432591349,"city_fetched":"Sioux Falls","state":"SD","country":"United States","canonicalUrl":"https://foursquare.com/v/sioux-falls-jazzfest-beer-garden/51ea0033498ec400e8bb4153","category":"Beer Garden","checkinsCount":79,"usersCount":75,"tipCount":1,"visitsCount":91,"tier":"","message":"","currency":"","rating":7.3},{"name":"The Alpine Inn","phone":"6053392708","address":"212 S Sneve Ave","lat":43.545931577682495,"lng":-96.68510218333333,"city_fetched":"Sioux Falls","state":"SD","country":"United States","canonicalUrl":"https://foursquare.com/v/the-alpine-inn/4bc92103511f9521b445adc7","category":"Cocktail Bar","checkinsCount":720,"usersCount":266,"tipCount":11,"visitsCount":795,"tier":"","message":"","currency":"","rating":7.2},{"name":"All Day Café by Minervas","phone":"6052747711","address":"2101 W 41st St","lat":43.51359592112508,"lng":-96.75324928398402,"city_fetched":"Sioux Falls","state":"SD","country":"United States","canonicalUrl":"https://foursquare.com/v/all-day-caf%C3%A9-by-minervas/52b5db60498ede6a864a9b24","category":"Café","checkinsCount":867,"usersCount":453,"tipCount":29,"visitsCount":1052,"url":"http://www.alldaycafe.net","tier":2,"message":"Moderate","currency":"$","rating":7.2},{"name":"Latitude 44","phone":"6053380943","address":"201 N Weber Ave","lat":43.5487828219311,"lng":-96.7201565377202,"neighborhood":"Downtown Sioux Falls","city_fetched":"Sioux Falls","state":"SD","country":"United States","canonicalUrl":"https://foursquare.com/v/latitude-44/4ba2ed99f964a520232338e3","category":"Bar","checkinsCount":659,"usersCount":335,"tipCount":4,"visitsCount":677,"tier":2,"message":"Moderate","currency":"$","rating":7.2},{"name":"Martini's","phone":"6053100900","address":"4823 S Louise Ave","lat":43.50115846425154,"lng":-96.77294991064585,"city_fetched":"Sioux Falls","state":"SD","country":"United States","canonicalUrl":"https://foursquare.com/v/martinis/4de03a84d164e323c7a79949","category":"Cocktail Bar","checkinsCount":289,"usersCount":150,"tipCount":8,"visitsCount":289,"tier":"","message":"","currency":"","rating":7.2},{"name":"Elements on 8th","address":"201 E 8th St","lat":43.54809513217926,"lng":-96.724582206875,"neighborhood":"Downtown Sioux Falls","city_fetched":"Sioux Falls","state":"SD","country":"United States","canonicalUrl":"https://foursquare.com/v/elements-on-8th/5289957011d2b3568ffe52fb","category":"Cocktail Bar","checkinsCount":367,"usersCount":190,"tipCount":11,"visitsCount":390,"url":"http://elementson8th.com","tier":"","message":"","currency":"","rating":7.1},{"name":"BB's Pub N Grill","phone":"6053620947","address":"3400 W 49th St #102","lat":43.50837203529424,"lng":-96.76779935407387,"city_fetched":"Sioux Falls","state":"SD","country":"United States","canonicalUrl":"https://foursquare.com/v/bbs-pub-n-grill/4bd8d1c42e6f0f4799c60808","category":"Restaurant","checkinsCount":2786,"usersCount":786,"tipCount":16,"visitsCount":3252,"url":"http://bbspubngrill.com","tier":2,"message":"Moderate","currency":"$","rating":7.1},{"name":"Club David","phone":"6052740700","twitter":"clubdavid","address":"214 W 10th St","lat":43.546217633333335,"lng":-96.72910451888757,"neighborhood":"Downtown Sioux Falls","city_fetched":"Sioux Falls","state":"SD","country":"United States","canonicalUrl":"https://foursquare.com/v/club-david/4b6b8c06f964a520230f2ce3","category":"Nightclub","checkinsCount":2456,"usersCount":844,"tipCount":12,"visitsCount":2692,"tier":"","message":"","currency":"","rating":7},{"name":"The Garage Bar","phone":"6052755590","address":"2400 W Madison St","lat":43.55859407517727,"lng":-96.7591667175293,"city_fetched":"Sioux Falls","state":"SD","country":"United States","canonicalUrl":"https://foursquare.com/v/the-garage-bar/4c05c9ae191f20a12aace314","category":"Bar","checkinsCount":268,"usersCount":106,"tipCount":4,"visitsCount":311,"tier":"","message":"","currency":"","rating":6.9},{"name":"Top Hat Bar & Lounge","phone":"6053328171","address":"508 S 1st Ave","lat":43.54217299658767,"lng":-96.72530330096629,"city_fetched":"Sioux Falls","state":"SD","country":"United States","canonicalUrl":"https://foursquare.com/v/top-hat-bar--lounge/4b6cfc73f964a520a9612ce3","category":"Dive Bar","checkinsCount":950,"usersCount":383,"tipCount":8,"visitsCount":1136,"tier":"","message":"","currency":"","rating":6.9}]