[{"name":"Buffalo Alice","phone":"7122554822","address":"1022 4th St","lat":42.494228979999995,"lng":-96.396648,"neighborhood":"Downtown Sioux City","city_fetched":"Sioux City","state":"IA","country":"United States","canonicalUrl":"https://foursquare.com/v/buffalo-alice/4bb527f5ef159c74765c74f7","category":"Bar","checkinsCount":2217,"usersCount":805,"tipCount":14,"visitsCount":2431,"url":"http://buffaloalice.com","tier":"","message":"","currency":"","rating":9},{"name":"Miles Inn","phone":"7122769825","address":"2622 Leech Ave","lat":42.48761943466353,"lng":-96.37451284086347,"neighborhood":"Morningside","city_fetched":"Sioux City","state":"IA","country":"United States","canonicalUrl":"https://foursquare.com/v/miles-inn/4bd7416d35aad13aea7e8ef3","category":"Bar","checkinsCount":861,"usersCount":502,"tipCount":9,"visitsCount":1085,"tier":2,"message":"Moderate","currency":"$","rating":8.7},{"name":"Town House Pizza","phone":"7122525166","address":"2701 Floyd Blvd","lat":42.51779675978544,"lng":-96.38301507153858,"city_fetched":"Sioux City","state":"IA","country":"United States","canonicalUrl":"https://foursquare.com/v/town-house-pizza/4baa986af964a520fd773ae3","category":"Pizza Place","checkinsCount":593,"usersCount":259,"tipCount":6,"visitsCount":682,"url":"http://www.townhousepizza.com","tier":"","message":"","currency":"","rating":8.1},{"name":"Prince's Tavern","phone":"7122555127","address":"1920 Center St","lat":42.51147119,"lng":-96.4209966,"neighborhood":"West Side","city_fetched":"Sioux City","state":"IA","country":"United States","canonicalUrl":"https://foursquare.com/v/princes-tavern/4ca6bf4d97c8a1cd7cdd73a5","category":"Bar","checkinsCount":1322,"usersCount":137,"tipCount":5,"visitsCount":1396,"tier":"","message":"","currency":"","rating":8.1},{"name":"Stoney Creek Inn","phone":"7122341100","address":"300 3rd St","lat":42.4924720330232,"lng":-96.4068648823522,"neighborhood":"Downtown Sioux City","city_fetched":"Sioux City","state":"IA","country":"United States","canonicalUrl":"https://foursquare.com/v/stoney-creek-inn/4bdee1e2fe0e62b500060606","category":"Hotel","checkinsCount":1271,"usersCount":790,"tipCount":6,"visitsCount":1562,"tier":"","message":"","currency":"","rating":8},{"name":"McCarthy & Bailey's Irish Pub","phone":"7125604146","twitter":"mccarthybaileys","address":"423 Pearl St","lat":42.495188266666666,"lng":-96.4081115,"neighborhood":"Downtown Sioux City","city_fetched":"Sioux City","state":"IA","country":"United States","canonicalUrl":"https://foursquare.com/v/mccarthy--baileys-irish-pub/4ded51b38877aa0c3c9c66e5","category":"Irish Pub","checkinsCount":1137,"usersCount":594,"tipCount":17,"visitsCount":1274,"url":"http://mccarthyandbaileys.com","tier":2,"message":"Moderate","currency":"$","rating":8},{"name":"Main + Abbey","twitter":"hardrockhotelsc","address":"111 3rd St","lat":42.49399139613882,"lng":-96.40915781076248,"neighborhood":"Downtown Sioux City","city_fetched":"Sioux City","state":"IA","country":"United States","canonicalUrl":"https://foursquare.com/v/main--abbey/53c56f99498ef9cf328390ab","category":"Gastropub","checkinsCount":76,"usersCount":45,"tipCount":2,"visitsCount":78,"tier":"","message":"","currency":"","rating":7.9},{"name":"Old Chicago","phone":"7122240700","address":"5030 Sergeant Rd","lat":42.44544922086499,"lng":-96.34064010494464,"neighborhood":"Southern Hills","city_fetched":"Sioux City","state":"IA","country":"United States","canonicalUrl":"https://foursquare.com/v/old-chicago/54b2eebb498e210dbe194208","category":"Italian Restaurant","checkinsCount":731,"usersCount":246,"tipCount":3,"visitsCount":1059,"url":"http://www.oldchicago.com/locations/sioux-city-iowa","tier":"","message":"","currency":"","rating":7.7},{"name":"Bob Roe's Point After","phone":"7122763689","address":"2320 Transit Ave","lat":42.476845483333335,"lng":-96.37844901666666,"neighborhood":"Morningside","city_fetched":"Sioux City","state":"IA","country":"United States","canonicalUrl":"https://foursquare.com/v/bob-roes-point-after/4ba8dc74f964a520faf439e3","category":"Bar","checkinsCount":1472,"usersCount":686,"tipCount":22,"visitsCount":1747,"url":"http://bobroespointafter.com","tier":2,"message":"Moderate","currency":"$","rating":7.7},{"name":"SoHo Kitchen & Bar","phone":"7122583434","address":"1024 4th St","lat":42.494040008659084,"lng":-96.396532,"neighborhood":"Downtown Sioux City","city_fetched":"Sioux City","state":"IA","country":"United States","canonicalUrl":"https://foursquare.com/v/soho-kitchen--bar/4ebf130377c885a64e22149a","category":"Bar","checkinsCount":1178,"usersCount":478,"tipCount":26,"visitsCount":1219,"url":"http://sohokitchenbar.wordpress.com/home-2/","tier":2,"message":"Moderate","currency":"$","rating":7.7},{"name":"Firehouse Bar","phone":"7122241020","address":"1211 5th St","lat":42.49566169036258,"lng":-96.3943046548836,"neighborhood":"Downtown Sioux City","city_fetched":"Sioux City","state":"IA","country":"United States","canonicalUrl":"https://foursquare.com/v/firehouse-bar/4c4a52bcc668e21e315d72f8","category":"Bar","checkinsCount":2744,"usersCount":863,"tipCount":16,"visitsCount":3433,"tier":"","message":"","currency":"","rating":7.6},{"name":"DOXX Warehouse Bar","phone":"7122243650","address":"1219 5th St","lat":42.49558362002013,"lng":-96.39394597666738,"neighborhood":"Downtown Sioux City","city_fetched":"Sioux City","state":"IA","country":"United States","canonicalUrl":"https://foursquare.com/v/doxx-warehouse-bar/525ee2f311d250677e33414f","category":"Bar","checkinsCount":191,"usersCount":70,"tipCount":8,"visitsCount":199,"tier":"","message":"","currency":"","rating":7.5},{"name":"The Diving Elk","phone":"7122340000","twitter":"thedivingelk","address":"1101 4th Street","lat":42.49438135016162,"lng":-96.39620724315921,"neighborhood":"Downtown Sioux City","city_fetched":"Sioux City","state":"IA","country":"United States","canonicalUrl":"https://foursquare.com/thedivingelk","category":"Bar","checkinsCount":182,"usersCount":51,"tipCount":6,"visitsCount":192,"tier":"","message":"","currency":"","rating":7.5},{"name":"Skyline Bar and Casino","phone":"6052329126","address":"103 N Highway 105","lat":42.52932602536913,"lng":-96.48266315460205,"city_fetched":"Sioux City","state":"SD","country":"United States","canonicalUrl":"https://foursquare.com/v/skyline-bar-and-casino/4cf837a3d1dd721e02c4a19b","category":"Bar","checkinsCount":271,"usersCount":133,"tipCount":2,"visitsCount":330,"url":"http://www.theskylinebar.com","tier":"","message":"","currency":"","rating":7.4},{"name":"Jolly Rogers","phone":"7122242626","address":"1132 Larsen Park Rd","lat":42.48913339944976,"lng":-96.41943802098157,"neighborhood":"West Side","city_fetched":"Sioux City","state":"IA","country":"United States","canonicalUrl":"https://foursquare.com/v/jolly-rogers/4b99ef2ff964a5209e9735e3","category":"Bar","checkinsCount":198,"usersCount":138,"tipCount":2,"visitsCount":219,"tier":"","message":"","currency":"","rating":7.3},{"name":"Texas Roadhouse","phone":"7122747427","twitter":"texasroadhouse","address":"5130 Sergeant Rd","lat":42.44611,"lng":-96.33914,"neighborhood":"Southern Hills","city_fetched":"Sioux City","state":"IA","country":"United States","canonicalUrl":"https://foursquare.com/v/texas-roadhouse/4bb66ef42f70c9b6a6698530","category":"Steakhouse","checkinsCount":1968,"usersCount":1067,"tipCount":14,"visitsCount":2289,"url":"http://www.texasroadhouse.com/restaurant-locations/iowa/sioux-city","tier":3,"message":"Expensive","currency":"$","rating":7.2},{"name":"Pearl's Wine And Booze","address":"417 Pearl St","lat":42.49488093306769,"lng":-96.40802433456393,"neighborhood":"Downtown Sioux City","city_fetched":"Sioux City","state":"IA","country":"United States","canonicalUrl":"https://foursquare.com/v/pearls-wine-and-booze/4ed586c102d570286d0ff3fa","category":"Cocktail Bar","checkinsCount":302,"usersCount":174,"tipCount":8,"visitsCount":304,"url":"http://pearlswineandbooze.com","tier":"","message":"","currency":"","rating":7.1},{"name":"PBR Bar","lat":42.49473364181383,"lng":-96.40796714135247,"neighborhood":"Downtown Sioux City","city_fetched":"Sioux City","state":"IA","country":"United States","canonicalUrl":"https://foursquare.com/v/pbr-bar/51d0bac0498e7a115a43c97d","category":"Bar","checkinsCount":254,"usersCount":128,"tipCount":4,"visitsCount":301,"tier":"","message":"","currency":"","rating":7},{"name":"The Huddle","phone":"4024945903","address":"110 E 8th St","lat":42.48168465591781,"lng":-96.41227237581761,"city_fetched":"Sioux City","state":"NE","country":"United States","canonicalUrl":"https://foursquare.com/v/the-huddle/4d978407daec224b09bc323e","category":"Lounge","checkinsCount":152,"usersCount":82,"tipCount":5,"visitsCount":158,"tier":"","message":"","currency":"","rating":6.9},{"name":"Jim's Lounge","phone":"7122747200","address":"4505 Stone Ave","lat":42.479491784436945,"lng":-96.34914815425873,"city_fetched":"Sioux City","state":"IA","country":"United States","canonicalUrl":"https://foursquare.com/v/jims-lounge/4c8aee77a92fa0938d5396bf","category":"Lounge","checkinsCount":265,"usersCount":109,"tipCount":3,"visitsCount":283,"tier":"","message":"","currency":"","rating":6.8},{"name":"Chesterfield","phone":"7125604125","address":"1225 4th St","lat":42.49464403212969,"lng":-96.3939303820088,"neighborhood":"Downtown Sioux City","city_fetched":"Sioux City","state":"IA","country":"United States","canonicalUrl":"https://foursquare.com/v/chesterfield/4bca744a937ca5936306a892","category":"Bar","checkinsCount":1015,"usersCount":381,"tipCount":8,"visitsCount":1093,"url":"http://www.chesterfieldlive.com","tier":"","message":"","currency":"","rating":6.7},{"name":"Marty's Tap","phone":"7122779568","address":"1306 Court St","lat":42.50437629993422,"lng":-96.3962584733963,"city_fetched":"Sioux City","state":"IA","country":"United States","canonicalUrl":"https://foursquare.com/v/martys-tap/4c3800620a71c9b6e20740c9","category":"Bar","checkinsCount":365,"usersCount":111,"tipCount":3,"visitsCount":438,"tier":"","message":"","currency":"","rating":6.7},{"name":"Ickey Nickel","phone":"7122392772","address":"4700 41st St","lat":42.540268774195106,"lng":-96.35054546387522,"city_fetched":"Sioux City","state":"IA","country":"United States","canonicalUrl":"https://foursquare.com/v/ickey-nickel/4bdb7e483904a59338c94a9e","category":"Bar","checkinsCount":928,"usersCount":464,"tipCount":6,"visitsCount":1112,"tier":"","message":"","currency":"","rating":6.7},{"name":"Mike's Saloon","phone":"7122393362","address":"5605 Hamilton Blvd","lat":42.56357118288657,"lng":-96.3999491930008,"city_fetched":"Sioux City","state":"IA","country":"United States","canonicalUrl":"https://foursquare.com/v/mikes-saloon/4c263271f1272d7f2f1286c5","category":"Bar","checkinsCount":247,"usersCount":161,"tipCount":5,"visitsCount":361,"tier":"","message":"","currency":"","rating":6.7},{"name":"Jones Street Station Night Club","phone":"7122586338","address":"412 Jones St","lat":42.494812893597626,"lng":-96.40056610107422,"neighborhood":"Downtown Sioux City","city_fetched":"Sioux City","state":"IA","country":"United States","canonicalUrl":"https://foursquare.com/v/jones-street-station-night-club/4bb7c3193db7b713c484209a","category":"Nightclub","checkinsCount":296,"usersCount":136,"tipCount":0,"visitsCount":296,"url":"http://www.jonesstreetstationnightclub.com","tier":"","message":"","currency":"","rating":6.4},{"name":"Castle Pub & Grille","phone":"7122718699","address":"4400 Singing Hills Blvd","lat":42.43779473,"lng":-96.35118108,"city_fetched":"Sioux City","state":"IA","country":"United States","canonicalUrl":"https://foursquare.com/v/castle-pub--grille/4bcbc404fb84c9b6918a1f3e","category":"Bar","checkinsCount":610,"usersCount":334,"tipCount":6,"visitsCount":683,"url":"http://castlepub1.com","tier":"","message":"","currency":"","rating":6.3},{"name":"Petes 20th","phone":"7122740228","address":"3118 Jay Ave","lat":42.48287551666667,"lng":-96.3677107,"neighborhood":"Morningside","city_fetched":"Sioux City","state":"IA","country":"United States","canonicalUrl":"https://foursquare.com/v/petes-20th/4b9871eff964a5208c4235e3","category":"Bar","checkinsCount":917,"usersCount":143,"tipCount":3,"visitsCount":996,"tier":"","message":"","currency":"","rating":6.3},{"name":"Mac Behrs","phone":"7122244644","address":"1201 4th St","lat":42.4945022561063,"lng":-96.39468412827051,"neighborhood":"Downtown Sioux City","city_fetched":"Sioux City","state":"IA","country":"United States","canonicalUrl":"https://foursquare.com/v/mac-behrs/4bc92acf0687ef3b7f9ad9cc","category":"Sports Bar","checkinsCount":2579,"usersCount":516,"tipCount":10,"visitsCount":2591,"url":"http://www.macbehrs.com","tier":"","message":"","currency":"","rating":6.1},{"name":"Sooz's Saloon","address":"401-499 S Prospect St","lat":42.487534,"lng":-96.38521913,"city_fetched":"Sioux City","state":"IA","country":"United States","canonicalUrl":"https://foursquare.com/v/soozs-saloon/4c4b69d2f7cc1b8d9204d83f","category":"Dive Bar","checkinsCount":167,"usersCount":75,"tipCount":5,"visitsCount":179,"tier":"","message":"","currency":"","rating":6.1},{"name":"Clyde's Grill & Pub","phone":"7122221609","address":"3828 Stadium Dr","lat":42.44131399089135,"lng":-96.3638191296448,"city_fetched":"Sioux City","state":"IA","country":"United States","canonicalUrl":"https://foursquare.com/v/clydes-grill--pub/4c2ebef016adc928aa88bc9c","category":"Bowling Alley","checkinsCount":402,"usersCount":205,"tipCount":13,"visitsCount":419,"tier":"","message":"","currency":"","rating":5.9},{"name":"blue ribbon tap","lat":42.49470520019531,"lng":-96.40824127197266,"neighborhood":"Downtown Sioux City","city_fetched":"Sioux City","state":"IA","country":"United States","canonicalUrl":"https://foursquare.com/v/blue-ribbon-tap/519fe5a5498e042305850497","category":"Bar","checkinsCount":121,"usersCount":68,"tipCount":3,"visitsCount":121,"tier":"","message":"","currency":"","rating":5.8},{"name":"4th Street Sports Bar & Grill","phone":"7122340000","address":"1107 4th St","lat":42.49431747879689,"lng":-96.39599427580833,"neighborhood":"Downtown Sioux City","city_fetched":"Sioux City","state":"IA","country":"United States","canonicalUrl":"https://foursquare.com/v/4th-street-sports-bar--grill/4caff7f1ef1b370441303700","category":"Bar","checkinsCount":848,"usersCount":369,"tipCount":9,"visitsCount":855,"tier":"","message":"","currency":"","rating":5.6}]