[{"name":"Sophie's Bistro","phone":"7325457778","twitter":"sophiesbistronj","address":"700 Hamilton St","lat":40.491494,"lng":-74.472303,"city_fetched":"Somerset","state":"NJ","country":"United States","canonicalUrl":"https://foursquare.com/v/sophies-bistro/4b887adcf964a520fffa31e3","category":"French Restaurant","checkinsCount":809,"usersCount":427,"tipCount":15,"visitsCount":958,"url":"http://sophiesbistro-hub.com","tier":3,"message":"Expensive","currency":"$","rating":9.2},{"name":"Stage House Tavern","phone":"7328733990","address":"1719 Amwell Rd","lat":40.4973333204744,"lng":-74.52672254936036,"city_fetched":"Somerset","state":"NJ","country":"United States","canonicalUrl":"https://foursquare.com/v/stage-house-tavern/4d56b24d143ca093647fbefc","category":"Bar","checkinsCount":10646,"usersCount":3865,"tipCount":71,"visitsCount":13537,"url":"http://www.stagehousetavern.com","tier":2,"message":"Moderate","currency":"$","rating":8.7},{"name":"Freddy's","phone":"7323563334","address":"149 Pierce St","lat":40.52915293680039,"lng":-74.52035373194312,"city_fetched":"Somerset","state":"NJ","country":"United States","canonicalUrl":"https://foursquare.com/v/freddys/4be5c3b8cf200f4737b1133c","category":"Bar","checkinsCount":4051,"usersCount":1423,"tipCount":21,"visitsCount":4750,"url":"http://freddyssportsbar.com","tier":2,"message":"Moderate","currency":"$","rating":7.2},{"name":"King Tut's","phone":"7325458090","address":"880-898 Livingston Ave.","lat":40.47120667131177,"lng":-74.46741433950312,"city_fetched":"Somerset","state":"NJ","country":"United States","canonicalUrl":"https://foursquare.com/v/king-tuts/4c0c5e91d64c0f47b035255d","category":"Hookah Bar","checkinsCount":319,"usersCount":154,"tipCount":5,"visitsCount":475,"tier":"","message":"","currency":"","rating":6.9},{"name":"TGI Fridays","phone":"7322495339","twitter":"tgifridays","address":"993 US Highway 1","lat":40.46029505,"lng":-74.46673214,"city_fetched":"Somerset","state":"NJ","country":"United States","canonicalUrl":"https://foursquare.com/v/tgi-fridays/4aa7e045f964a520cb4d20e3","category":"American Restaurant","checkinsCount":4966,"usersCount":2307,"tipCount":34,"visitsCount":5464,"url":"http://tgifridays.com","tier":2,"message":"Moderate","currency":"$","rating":6.1},{"name":"Den Nightclub","phone":"7325457329","twitter":"dennightclub","address":"700 Hamilton St","lat":40.491386,"lng":-74.472076,"city_fetched":"Somerset","state":"NJ","country":"United States","canonicalUrl":"https://foursquare.com/dennightclub","category":"Gay Bar","checkinsCount":1701,"usersCount":540,"tipCount":13,"visitsCount":1881,"url":"http://www.dennightclub.com","tier":"","message":"","currency":"","rating":5.9},{"name":"Jersey's Sports Bar","address":"Holiday Inn","lat":40.53828472106454,"lng":-74.52408463971715,"city_fetched":"Somerset","state":"New Jersey","country":"United States","canonicalUrl":"https://foursquare.com/v/jerseys-sports-bar/4cb2501275ebb60c5113d4ad","category":"Hotel Bar","checkinsCount":299,"usersCount":160,"tipCount":7,"visitsCount":299,"tier":"","message":"","currency":"","rating":4.7}]