[{"name":"Crooked Ewe Brewery and Ale House","address":"1047 Lincoln Way E","lat":41.66428023614403,"lng":-86.2359407544136,"city_fetched":"South Bend","state":"IN","country":"United States","canonicalUrl":"https://foursquare.com/v/crooked-ewe-brewery-and-ale-house/5573595b498ef7e23f250e5e","category":"Brewery","checkinsCount":362,"usersCount":392,"tipCount":9,"visitsCount":757,"tier":2,"message":"Moderate","currency":"$","rating":8.5},{"name":"Wings Etc. South Bend","phone":"5742910077","twitter":"wingsetcbuzz","address":"2051 E Ireland Rd","lat":41.630326707598336,"lng":-86.21627402837798,"city_fetched":"South Bend","state":"IN","country":"United States","canonicalUrl":"https://foursquare.com/v/wings-etc-south-bend/4b631836f964a52090622ae3","category":"Wings Joint","checkinsCount":2507,"usersCount":690,"tipCount":19,"visitsCount":2653,"url":"http://www.wingsetc.com","tier":"","message":"","currency":"","rating":8.2},{"name":"The View","phone":"5742888439","address":"515 E Jefferson Blvd","lat":41.67517550643066,"lng":-86.2434840616005,"neighborhood":"Northeast South Bend","city_fetched":"South Bend","state":"IN","country":"United States","canonicalUrl":"https://foursquare.com/v/the-view/4cabf7dc97c8a1cd5a0c9da5","category":"Bar","checkinsCount":222,"usersCount":140,"tipCount":4,"visitsCount":330,"tier":"","message":"","currency":"","rating":8.1},{"name":"South Bend Brew Werks","phone":"5742147272","address":"216 S Michigan St","lat":41.67442779532992,"lng":-86.25009926181554,"city_fetched":"South Bend","state":"IN","country":"United States","canonicalUrl":"https://foursquare.com/v/south-bend-brew-werks/50f193dce4b0c0d3a815125a","category":"Brewery","checkinsCount":581,"usersCount":304,"tipCount":6,"visitsCount":791,"url":"http://southbendbrewwerks.com","tier":"","message":"","currency":"","rating":8.1},{"name":"LaSalle Grill","phone":"5742881155","address":"115 W Colfax Ave","lat":41.67785492881318,"lng":-86.25133574591439,"city_fetched":"South Bend","state":"IN","country":"United States","canonicalUrl":"https://foursquare.com/v/lasalle-grill/4b7d8d20f964a52020c62fe3","category":"Steakhouse","checkinsCount":910,"usersCount":530,"tipCount":25,"visitsCount":920,"url":"http://lasallegrill.com","tier":2,"message":"Moderate","currency":"$","rating":8.1},{"name":"Legends of Notre Dame","phone":"5746312582","address":"54801 Juniper Road","lat":41.69617940404149,"lng":-86.23495638370514,"city_fetched":"South Bend","state":"IN","country":"United States","canonicalUrl":"https://foursquare.com/v/legends-of-notre-dame/4b4bbc2af964a520c3a526e3","category":"American Restaurant","checkinsCount":3227,"usersCount":2334,"tipCount":16,"visitsCount":3807,"url":"http://www.legendsofnotredame.org","tier":2,"message":"Moderate","currency":"$","rating":8},{"name":"The Exchange","address":"112 W Jefferson Blvd","lat":41.67505,"lng":-86.251261,"city_fetched":"South Bend","state":"IN","country":"United States","canonicalUrl":"https://foursquare.com/v/the-exchange/525473c7498e3ef9409fbe10","category":"Whisky Bar","checkinsCount":214,"usersCount":113,"tipCount":5,"visitsCount":219,"url":"http://exchangewhiskeybar.com","tier":"","message":"","currency":"","rating":7.9},{"name":"Matuba","phone":"5742510674","address":"2930 McKinley Ave","lat":41.6793018579483,"lng":-86.20567099,"city_fetched":"South Bend","state":"IN","country":"United States","canonicalUrl":"https://foursquare.com/v/matuba/4b8062fbf964a520b06d30e3","category":"Sushi Restaurant","checkinsCount":288,"usersCount":144,"tipCount":14,"visitsCount":298,"tier":"","message":"","currency":"","rating":7.9},{"name":"The Galley At Tradewinds","lat":41.67981271120439,"lng":-86.19369216051271,"city_fetched":"South Bend","state":"IN","country":"United States","canonicalUrl":"https://foursquare.com/v/the-galley-at-tradewinds/4ec59509722eeaa24bd7bde7","category":"Bar","checkinsCount":500,"usersCount":132,"tipCount":8,"visitsCount":519,"tier":"","message":"","currency":"","rating":7.7},{"name":"Frank's Place","twitter":"franksplacesb","address":"327 W Marion St","lat":41.68181184645669,"lng":-86.25520906104572,"city_fetched":"South Bend","state":"IN","country":"United States","canonicalUrl":"https://foursquare.com/v/franks-place/4b32d13bf964a520751425e3","category":"Bar","checkinsCount":785,"usersCount":224,"tipCount":10,"visitsCount":990,"url":"http://franksplace.com","tier":"","message":"","currency":"","rating":7.6},{"name":"Mitch's Corner Sports Bar","phone":"5748552365","address":"1516 N Ironwood Dr","lat":41.695963,"lng":-86.216174,"city_fetched":"South Bend","state":"IN","country":"United States","canonicalUrl":"https://foursquare.com/v/mitchs-corner-sports-bar/4c4cb6cf4237be9a9704cd12","category":"Sports Bar","checkinsCount":1544,"usersCount":442,"tipCount":15,"visitsCount":1750,"tier":"","message":"","currency":"","rating":7.5},{"name":"TGI Fridays","phone":"5742919070","twitter":"tgifridays","address":"1240 E Ireland Rd","lat":41.62926126,"lng":-86.23150332,"neighborhood":"Scottdale","city_fetched":"South Bend","state":"IN","country":"United States","canonicalUrl":"https://foursquare.com/v/tgi-fridays/509d636d5d2463e871547fab","category":"American Restaurant","checkinsCount":1399,"usersCount":658,"tipCount":18,"visitsCount":1594,"url":"http://tgifridays.com","tier":2,"message":"Moderate","currency":"$","rating":7.3},{"name":"South Bend Firefighters Union Hall","phone":"5742323473","address":"4025 Lincoln Way W","lat":41.69517219799306,"lng":-86.3052776343409,"city_fetched":"South Bend","state":"IN","country":"United States","canonicalUrl":"https://foursquare.com/v/south-bend-firefighters-union-hall/4d2260df5c4ca1cdce42b13d","category":"Bar","checkinsCount":490,"usersCount":130,"tipCount":3,"visitsCount":529,"tier":"","message":"","currency":"","rating":7.1},{"name":"Club Landing","phone":"5742894122","twitter":"clublandingsb","address":"1717 Lincoln Way E","lat":41.658975,"lng":-86.22162765,"city_fetched":"South Bend","state":"IN","country":"United States","canonicalUrl":"https://foursquare.com/clublandingsb","category":"Bar","checkinsCount":823,"usersCount":369,"tipCount":4,"visitsCount":830,"url":"http://www.clublanding.com","tier":"","message":"","currency":"","rating":7.1},{"name":"Simeri's Old Town Tap","phone":"5742891361","address":"1505 W Indiana Ave","lat":41.65743376254341,"lng":-86.27160662312043,"neighborhood":"Rum Village","city_fetched":"South Bend","state":"IN","country":"United States","canonicalUrl":"https://foursquare.com/v/simeris-old-town-tap/4bf19b587077952183953e7c","category":"Bar","checkinsCount":282,"usersCount":207,"tipCount":2,"visitsCount":341,"url":"http://www.simerisoldtowntap.com","tier":"","message":"","currency":"","rating":7.1},{"name":"Brother's Bar And Grill","phone":"5742872767","address":"1234 N Eddy St","lat":41.69148192835254,"lng":-86.23546744592257,"neighborhood":"Northeast South Bend","city_fetched":"South Bend","state":"IN","country":"United States","canonicalUrl":"https://foursquare.com/v/brothers-bar-and-grill/4ea9c0326c250fcc73e3eb5e","category":"Sports Bar","checkinsCount":5431,"usersCount":2589,"tipCount":29,"visitsCount":6539,"url":"http://brothersbar.com","tier":1,"message":"Cheap","currency":"$","rating":7.1},{"name":"Cheers Pub","phone":"5743874642","twitter":"cheerspub1","address":"103 S Dixie Way","lat":41.71563989599092,"lng":-86.25068603160628,"city_fetched":"South Bend","state":"IN","country":"United States","canonicalUrl":"https://foursquare.com/v/cheers-pub/4ba166c1f964a520cfb337e3","category":"Pub","checkinsCount":740,"usersCount":373,"tipCount":12,"visitsCount":841,"url":"http://www.cheerspub.info","tier":1,"message":"Cheap","currency":"$","rating":7},{"name":"Corby's","phone":"5742335326","address":"441 E Lasalle Ave","lat":41.67930344051045,"lng":-86.24458029506737,"neighborhood":"Northeast South Bend","city_fetched":"South Bend","state":"IN","country":"United States","canonicalUrl":"https://foursquare.com/v/corbys/4bcfe98b9854d13a2ff6f64d","category":"Dive Bar","checkinsCount":1856,"usersCount":1204,"tipCount":9,"visitsCount":2627,"tier":2,"message":"Moderate","currency":"$","rating":7},{"name":"Club Fever","phone":"5742345200","address":"222 S Michigan St","lat":41.67418647803481,"lng":-86.25002142974712,"city_fetched":"South Bend","state":"IN","country":"United States","canonicalUrl":"https://foursquare.com/v/club-fever/4becdf91bbe62d7fa1827f2b","category":"Nightclub","checkinsCount":1528,"usersCount":579,"tipCount":7,"visitsCount":1560,"url":"http://ticketsus.at/yahooinc/41398.html","tier":"","message":"","currency":"","rating":6.9}]