[{"name":"Hub City Tap House: Home of Ciclops Cyderi","phone":"8647049080","twitter":"ciclopscyderi","address":"197 E Saint John St","lat":34.952575368748874,"lng":-81.92942147905973,"city_fetched":"Spartanburg,US","state":"SC","country":"United States","canonicalUrl":"https://foursquare.com/v/hub-city-tap-house-home-of-ciclops-cyderi/5502534d498e6dd512c5287d","categoryId":"4bf58dd8d48988d117941735","category":"Beer Garden","checkinsCount":197,"usersCount":96,"tipCount":4,"visitsCount":272,"tier":"","message":"","currency":"","rating":8.8},{"name":"RJ Rockers Brewing Co.","address":"226 - A West Main St","lat":34.948647363735866,"lng":-81.9359921010787,"city_fetched":"Spartanburg,US","state":"SC","country":"United States","canonicalUrl":"https://foursquare.com/v/rj-rockers-brewing-co/4bce237b29d4b7132607a8dc","categoryId":"50327c8591d4c4b30a586d5d","category":"Brewery","checkinsCount":659,"usersCount":392,"tipCount":8,"visitsCount":724,"tier":"","message":"","currency":"","rating":8.2},{"name":"Delaney's Irish Pub","phone":"8645833100","address":"117 W Main St","lat":34.94942305,"lng":-81.932055,"city_fetched":"Spartanburg,US","state":"SC","country":"United States","canonicalUrl":"https://foursquare.com/v/delaneys-irish-pub/4b4927e7f964a5201c6826e3","categoryId":"4bf58dd8d48988d11b941735","category":"Pub","checkinsCount":2601,"usersCount":876,"tipCount":31,"visitsCount":2730,"url":"http://delaneyspub.com","tier":2,"message":"Moderate","currency":"$","rating":8},{"name":"Main Street Pub","phone":"8645731165","address":"252 W Main St","lat":34.94839616666667,"lng":-81.93616527,"city_fetched":"Spartanburg,US","state":"SC","country":"United States","canonicalUrl":"https://foursquare.com/v/main-street-pub/4bda55b4c79cc928ba9a7ee9","categoryId":"4bf58dd8d48988d11b941735","category":"Pub","checkinsCount":1873,"usersCount":592,"tipCount":11,"visitsCount":2140,"tier":"","message":"","currency":"","rating":7.9},{"name":"Growler Haus","twitter":"growlerhaus","address":"113 N Church St","lat":34.95003613961534,"lng":-81.93170767542573,"city_fetched":"Spartanburg,US","state":"SC","country":"United States","canonicalUrl":"https://foursquare.com/v/growler-haus/51b11cea498ed92f17bfdf5e","categoryId":"4bf58dd8d48988d117941735","category":"Beer Garden","checkinsCount":551,"usersCount":166,"tipCount":9,"visitsCount":622,"url":"http://growlerhaus.com","tier":"","message":"","currency":"","rating":7.6},{"name":"Refuel Wine Bar and Retail","phone":"8648046770","twitter":"refuelwinebar","address":"129 N Spring St","lat":34.94986,"lng":-81.933897,"city_fetched":"Spartanburg,US","state":"SC","country":"United States","canonicalUrl":"https://foursquare.com/refuelwinebar","categoryId":"4bf58dd8d48988d123941735","category":"Wine Bar","checkinsCount":129,"usersCount":75,"tipCount":5,"visitsCount":129,"url":"http://www.refuelwinebarandretail.com","tier":"","message":"","currency":"","rating":7.6},{"name":"Nu-Way Restaurant & Lounge","phone":"8645421211","address":"373 E Kennedy St","lat":34.94930309,"lng":-81.9220054,"city_fetched":"Spartanburg,US","state":"SC","country":"United States","canonicalUrl":"https://foursquare.com/v/nuway-restaurant--lounge/4b9564a1f964a52038a034e3","categoryId":"4bf58dd8d48988d118941735","category":"Dive Bar","checkinsCount":1022,"usersCount":336,"tipCount":12,"visitsCount":1161,"tier":1,"message":"Cheap","currency":"$","rating":7.2},{"name":"Club South 29","phone":"8645746087","address":"9112 Warren H Abernathy Hwy","lat":34.939035,"lng":-82.030433,"city_fetched":"Spartanburg,US","state":"SC","country":"United States","canonicalUrl":"https://foursquare.com/v/club-south-29/4cddafbb825e721ed5936545","categoryId":"4bf58dd8d48988d1d8941735","category":"Gay Bar","checkinsCount":496,"usersCount":246,"tipCount":5,"visitsCount":679,"url":"http://www.clubsouth29.com","tier":"","message":"","currency":"","rating":6.7}]