[{"name":"Crow Peak Brewing Co","phone":"6057170006","twitter":"crowpeakbrewing","address":"125 W Highway 14","lat":44.51750332128901,"lng":-103.87028935308183,"city_fetched":"Spearfish","state":"SD","country":"United States","canonicalUrl":"https://foursquare.com/v/crow-peak-brewing-co/4b43df93f964a520d6ec25e3","category":"Brewery","checkinsCount":1538,"usersCount":549,"tipCount":28,"visitsCount":1780,"url":"http://www.crowpeakbrewing.com","tier":"","message":"","currency":"","rating":8.4},{"name":"Flanagan's Irish Pub","phone":"6057223526","address":"729 N 7th St","lat":44.490754,"lng":-103.85805130004883,"city_fetched":"Spearfish","state":"SD","country":"United States","canonicalUrl":"https://foursquare.com/v/flanagans-irish-pub/4b5cc225f964a520914229e3","category":"Pub","checkinsCount":659,"usersCount":185,"tipCount":2,"visitsCount":693,"url":"http://www.flanagansirishpub.us","tier":"","message":"","currency":"","rating":7.8},{"name":"Stadium Sports Grill","phone":"6056429521","address":"744 N Main St","lat":44.49098101195634,"lng":-103.85893933891134,"city_fetched":"Spearfish","state":"SD","country":"United States","canonicalUrl":"https://foursquare.com/v/stadium-sports-grill/4b5ccef5f964a520124529e3","category":"Sports Bar","checkinsCount":1039,"usersCount":395,"tipCount":11,"visitsCount":1142,"url":"http://stadiumsportsgrill.net","tier":"","message":"","currency":"","rating":7.1},{"name":"Lucky's 13 Pub","phone":"6056421582","twitter":"luckys13pub","address":"305 N 27th St","lat":44.48068990507989,"lng":-103.81648293031742,"city_fetched":"Spearfish","state":"SD","country":"United States","canonicalUrl":"https://foursquare.com/v/luckys-13-pub/4ba02745f964a520105e37e3","category":"American Restaurant","checkinsCount":1157,"usersCount":491,"tipCount":16,"visitsCount":1310,"url":"http://www.luckys13spearfish.com","tier":2,"message":"Moderate","currency":"$","rating":6.5},{"name":"Zbar","address":"529 N Main St","lat":44.48845114303255,"lng":-103.85906038782242,"city_fetched":"Spearfish","state":"SD","country":"United States","canonicalUrl":"https://foursquare.com/v/zbar/4c6a09fd3bad2d7ff697b1ee","category":"Bar","checkinsCount":335,"usersCount":110,"tipCount":5,"visitsCount":338,"tier":"","message":"","currency":"","rating":6}]