[{"name":"The Boynton Restaurant & Spirits","phone":"5087568458","twitter":"manta","address":"117 Highland St","lat":42.27081,"lng":-71.80727,"city_fetched":"Spencer,US","state":"MA","country":"United States","canonicalUrl":"https://foursquare.com/v/the-boynton-restaurant--spirits/4bd0f1ab9854d13ab8d9f84d","categoryId":"4bf58dd8d48988d116941735","category":"Bar","checkinsCount":6198,"usersCount":2813,"tipCount":79,"visitsCount":7047,"url":"http://boyntonrestaurant.com","tier":2,"message":"Moderate","currency":"$","rating":9.1},{"name":"Vincent's Bar","phone":"5087529439","address":"49 Suffolk St","lat":42.25837041341894,"lng":-71.7870579470684,"city_fetched":"Spencer,US","state":"MA","country":"United States","canonicalUrl":"https://foursquare.com/v/vincents-bar/4a7332a5f964a520cddb1fe3","categoryId":"4bf58dd8d48988d116941735","category":"Bar","checkinsCount":1705,"usersCount":447,"tipCount":16,"visitsCount":1901,"tier":"","message":"","currency":"","rating":8.9},{"name":"Wormtown Brewing","address":"72 Shrewsbury St","lat":42.26340611927713,"lng":-71.79118742622798,"neighborhood":"Shrewsbury Street","city_fetched":"Spencer,US","state":"MA","country":"United States","canonicalUrl":"https://foursquare.com/v/wormtown-brewing/55087fc5498e1ad7cf06d6e4","categoryId":"50327c8591d4c4b30a586d5d","category":"Brewery","checkinsCount":663,"usersCount":463,"tipCount":6,"visitsCount":926,"url":"http://wormtownbrewery.com","tier":"","message":"","currency":"","rating":8.7},{"name":"The Dive Bar","phone":"5087525802","address":"34 Green St","lat":42.25937286253884,"lng":-71.79801571892,"neighborhood":"Central Business District","city_fetched":"Spencer,US","state":"MA","country":"United States","canonicalUrl":"https://foursquare.com/v/the-dive-bar/42951180f964a5204b241fe3","categoryId":"4bf58dd8d48988d116941735","category":"Bar","checkinsCount":1821,"usersCount":813,"tipCount":24,"visitsCount":2107,"url":"http://thedivebarworcester.com","tier":"","message":"","currency":"","rating":8.5},{"name":"The Citizen Wine Bar","phone":"5084599090","twitter":"nichedining","address":"1 Exchange St","lat":42.26569045154397,"lng":-71.79941147582979,"neighborhood":"Central Business District","city_fetched":"Spencer,US","state":"MA","country":"United States","canonicalUrl":"https://foursquare.com/v/the-citizen-wine-bar/4b5afedbf964a520f2dd28e3","categoryId":"4bf58dd8d48988d123941735","category":"Wine Bar","checkinsCount":1434,"usersCount":721,"tipCount":22,"visitsCount":1458,"url":"http://www.1nichexchange.com/citizen-wine-bar.php","tier":2,"message":"Moderate","currency":"$","rating":8.5},{"name":"Michael's Cigar Bar","address":"1 Exchange St","lat":42.2658769423806,"lng":-71.79943464186817,"neighborhood":"Central Business District","city_fetched":"Spencer,US","state":"MA","country":"United States","canonicalUrl":"https://foursquare.com/v/michaels-cigar-bar/5290157d498e38fe0d88ceca","categoryId":"4bf58dd8d48988d116941735","category":"Bar","checkinsCount":174,"usersCount":97,"tipCount":3,"visitsCount":197,"url":"http://michaelscigar.com","tier":"","message":"","currency":"","rating":8.4},{"name":"Rapscallion Brewery","address":"195 Arnold Rd","lat":42.139748693285505,"lng":-72.10995308533558,"city_fetched":"Spencer,US","state":"MA","country":"United States","canonicalUrl":"https://foursquare.com/v/rapscallion-brewery/52360a6311d25a1cc4431308","categoryId":"50327c8591d4c4b30a586d5d","category":"Brewery","checkinsCount":694,"usersCount":262,"tipCount":6,"visitsCount":928,"tier":"","message":"","currency":"","rating":8.3},{"name":"Beatnik's","phone":"5089268877","twitter":"beatniksbeyou","address":"433 Park Ave","lat":42.255889,"lng":-71.824075,"city_fetched":"Spencer,US","state":"MA","country":"United States","canonicalUrl":"https://foursquare.com/beatniksbeyou","categoryId":"4bf58dd8d48988d121941735","category":"Lounge","checkinsCount":811,"usersCount":258,"tipCount":9,"visitsCount":848,"url":"http://www.beatniksbeyou.com","tier":"","message":"","currency":"","rating":8.3},{"name":"The Banner Bar & Grille","phone":"5087550879","address":"112 Green St","lat":42.2573979,"lng":-71.7980318,"neighborhood":"Green Island","city_fetched":"Spencer,US","state":"MA","country":"United States","canonicalUrl":"https://foursquare.com/v/the-banner-bar--grille/4bb7fbbd98c7ef3b94ae3002","categoryId":"4bf58dd8d48988d11b941735","category":"Pub","checkinsCount":1773,"usersCount":747,"tipCount":7,"visitsCount":1984,"url":"http://www.thebannerbar.com","tier":1,"message":"Cheap","currency":"$","rating":8.3},{"name":"Bennies Cafe Pub & Deli","phone":"5088533303","address":"13 E Mountain St","lat":42.32409771950056,"lng":-71.79256583800698,"neighborhood":"Greendale","city_fetched":"Spencer,US","state":"MA","country":"United States","canonicalUrl":"https://foursquare.com/v/bennies-cafe-pub--deli/4b6c186df964a5209b232ce3","categoryId":"4bf58dd8d48988d116941735","category":"Bar","checkinsCount":478,"usersCount":73,"tipCount":7,"visitsCount":487,"tier":"","message":"","currency":"","rating":8.1},{"name":"Cigar Masters","phone":"5084599035","twitter":"cigarmasterswor","address":"130 Commercial St","lat":42.265839,"lng":-71.799275,"neighborhood":"Central Business District","city_fetched":"Spencer,US","state":"MA","country":"United States","canonicalUrl":"https://foursquare.com/v/cigar-masters/4ada781ff964a520d92221e3","categoryId":"4bf58dd8d48988d121941735","category":"Lounge","checkinsCount":825,"usersCount":444,"tipCount":8,"visitsCount":834,"tier":"","message":"","currency":"","rating":8},{"name":"Still & Stir","address":"57 Exchange St.","lat":42.265839,"lng":-71.799464,"neighborhood":"Central Business District","city_fetched":"Spencer,US","state":"MA","country":"United States","canonicalUrl":"https://foursquare.com/v/still--stir/4e0527f545ddb2875c3c06a0","categoryId":"4bf58dd8d48988d1d4941735","category":"Speakeasy","checkinsCount":299,"usersCount":169,"tipCount":7,"visitsCount":299,"tier":"","message":"","currency":"","rating":8},{"name":"Nick's Bar & Restaurant","phone":"5087534030","address":"124 Millbury St","lat":42.25200849657279,"lng":-71.79977416992188,"neighborhood":"Green Island","city_fetched":"Spencer,US","state":"MA","country":"United States","canonicalUrl":"https://foursquare.com/v/nicks-bar--restaurant/4b75fb41f964a52009342ee3","categoryId":"4bf58dd8d48988d1d4941735","category":"Speakeasy","checkinsCount":1348,"usersCount":557,"tipCount":8,"visitsCount":1578,"url":"http://www.nicksworcester.com","tier":2,"message":"Moderate","currency":"$","rating":7.8},{"name":"Dark Horse Tavern","address":"12 Crane St","lat":42.08074081926654,"lng":-72.03523959664102,"city_fetched":"Spencer,US","state":"MA","country":"United States","canonicalUrl":"https://foursquare.com/v/dark-horse-tavern/4b9327a6f964a520333834e3","categoryId":"4bf58dd8d48988d11b941735","category":"Pub","checkinsCount":322,"usersCount":147,"tipCount":4,"visitsCount":326,"tier":"","message":"","currency":"","rating":7.7},{"name":"Greendale's Pub","phone":"5088531350","address":"404 W Boylston St","lat":42.30516141353339,"lng":-71.80043657142258,"neighborhood":"Greendale","city_fetched":"Spencer,US","state":"MA","country":"United States","canonicalUrl":"https://foursquare.com/v/greendales-pub/4b8d7bf1f964a5207ffe32e3","categoryId":"4bf58dd8d48988d11b941735","category":"Pub","checkinsCount":288,"usersCount":197,"tipCount":7,"visitsCount":542,"url":"http://greendalespub.com","tier":"","message":"","currency":"","rating":7.7},{"name":"Keepers Pub","phone":"5088351100","address":"175 W Boylston St","lat":42.35123906317151,"lng":-71.78472387012263,"city_fetched":"Spencer,US","state":"MA","country":"United States","canonicalUrl":"https://foursquare.com/v/keepers-pub/4b520533f964a520c96127e3","categoryId":"4bf58dd8d48988d11b941735","category":"Pub","checkinsCount":864,"usersCount":340,"tipCount":5,"visitsCount":944,"url":"http://finderspub.com","tier":1,"message":"Cheap","currency":"$","rating":7.5},{"name":"Funky Murphy's","phone":"5087532995","address":"305 Shrewsbury St","lat":42.26875700600068,"lng":-71.77989928511165,"neighborhood":"Shrewsbury Street","city_fetched":"Spencer,US","state":"MA","country":"United States","canonicalUrl":"https://foursquare.com/v/funky-murphys/4a835846f964a520e1fa1fe3","categoryId":"4bf58dd8d48988d116941735","category":"Bar","checkinsCount":2230,"usersCount":1255,"tipCount":14,"visitsCount":2790,"url":"http://funkyandjosemurphys.com","tier":1,"message":"Cheap","currency":"$","rating":7.5},{"name":"Victory Bar & Cigar","phone":"5087564747","twitter":"worcesterscene","address":"56 Shrewsbury St","lat":42.263045,"lng":-71.791851,"neighborhood":"Central Business District","city_fetched":"Spencer,US","state":"MA","country":"United States","canonicalUrl":"https://foursquare.com/v/victory-bar--cigar/4b6313ccf964a5205c612ae3","categoryId":"4bf58dd8d48988d116941735","category":"Bar","checkinsCount":364,"usersCount":199,"tipCount":5,"visitsCount":372,"url":"http://worcesterscene.com","tier":"","message":"","currency":"","rating":7.5},{"name":"The Muse","phone":"5087566873","address":"536 Main St","lat":42.26132122523779,"lng":-71.80336126111466,"neighborhood":"Central Business District","city_fetched":"Spencer,US","state":"MA","country":"United States","canonicalUrl":"https://foursquare.com/v/the-muse/55ea69cb498e2b63ae53faa0","categoryId":"4bf58dd8d48988d11e941735","category":"Cocktail Bar","checkinsCount":107,"usersCount":78,"tipCount":3,"visitsCount":185,"tier":"","message":"","currency":"","rating":7.3},{"name":"Stake's Sports Pub","phone":"5087552925","address":"1281 Pleasant St","lat":42.28034590175246,"lng":-71.86922045266223,"neighborhood":"West Tatnuck","city_fetched":"Spencer,US","state":"MA","country":"United States","canonicalUrl":"https://foursquare.com/v/stakes-sports-pub/4c2c1739d1a10f473c11f964","categoryId":"4bf58dd8d48988d11d941735","category":"Sports Bar","checkinsCount":172,"usersCount":56,"tipCount":4,"visitsCount":173,"url":"http://stakessportspub.com","tier":"","message":"","currency":"","rating":7.3},{"name":"Hyland Orchard Brewing","phone":"5083477500","address":"195 Arnold Rd","lat":42.140126003948964,"lng":-72.11011508284372,"city_fetched":"Spencer,US","state":"MA","country":"United States","canonicalUrl":"https://foursquare.com/v/hyland-orchard-brewing/4bad282af964a520b4333be3","categoryId":"50327c8591d4c4b30a586d5d","category":"Brewery","checkinsCount":361,"usersCount":216,"tipCount":3,"visitsCount":371,"tier":"","message":"","currency":"","rating":7.3},{"name":"Spiritual Haze","phone":"5087990629","address":"482 Park Ave","lat":42.253985,"lng":-71.82702443,"city_fetched":"Spencer,US","state":"MA","country":"United States","canonicalUrl":"https://foursquare.com/v/spiritual-haze/4c526ed42543a593b49e8385","categoryId":"4bf58dd8d48988d119941735","category":"Hookah Bar","checkinsCount":535,"usersCount":250,"tipCount":8,"visitsCount":548,"url":"http://www.spiritualhaze.com","tier":"","message":"","currency":"","rating":7.2},{"name":"Blackstone Tap","phone":"5087529360","address":"81 Water St","lat":42.25659370422363,"lng":-71.79570257663727,"neighborhood":"Green Island","city_fetched":"Spencer,US","state":"MA","country":"United States","canonicalUrl":"https://foursquare.com/v/blackstone-tap/4b6c189af964a520a9232ce3","categoryId":"4bf58dd8d48988d116941735","category":"Bar","checkinsCount":934,"usersCount":559,"tipCount":4,"visitsCount":992,"url":"http://www.blackstonetap.com","tier":"","message":"","currency":"","rating":7.1},{"name":"The Ranch","phone":"5084591127","twitter":"theranchworc","address":"70 James St","lat":42.23230859714409,"lng":-71.84986889947217,"neighborhood":"Hadwen Park","city_fetched":"Spencer,US","state":"MA","country":"United States","canonicalUrl":"https://foursquare.com/theranchworc","categoryId":"4bf58dd8d48988d11f941735","category":"Nightclub","checkinsCount":428,"usersCount":248,"tipCount":9,"visitsCount":613,"tier":2,"message":"Moderate","currency":"$","rating":7.1},{"name":"Days End Tavern","phone":"5089871006","address":"287 Main St","lat":42.11648655,"lng":-71.86503767967224,"city_fetched":"Spencer,US","state":"MA","country":"United States","canonicalUrl":"https://foursquare.com/v/days-end-tavern/4b6b7ab4f964a5206e0b2ce3","categoryId":"4bf58dd8d48988d116941735","category":"Bar","checkinsCount":314,"usersCount":94,"tipCount":9,"visitsCount":318,"url":"http://daysendtavern.com","tier":"","message":"","currency":"","rating":7},{"name":"Blarney Stone","phone":"6174368223","address":"77 Maywood St.","lat":42.2525308,"lng":-71.827753,"neighborhood":"Webster Square","city_fetched":"Spencer,US","state":"MA","country":"United States","canonicalUrl":"https://foursquare.com/v/blarney-stone/4b0c4fa0f964a520f43a23e3","categoryId":"4bf58dd8d48988d116941735","category":"Bar","checkinsCount":990,"usersCount":393,"tipCount":6,"visitsCount":1086,"tier":"","message":"","currency":"","rating":7},{"name":"Ye Olde Tavern","phone":"5088679709","twitter":"wbtavern","address":"7 East Main Street, Route 9","lat":42.23468331,"lng":-72.1416943,"city_fetched":"Spencer,US","state":"MA","country":"United States","canonicalUrl":"https://foursquare.com/wbtavern","categoryId":"4bf58dd8d48988d116941735","category":"Bar","checkinsCount":268,"usersCount":88,"tipCount":3,"visitsCount":269,"url":"http://www.westbrookfieldtavern.com","tier":"","message":"","currency":"","rating":6.9},{"name":"Tweeds Pub","phone":"5087558047","address":"231 Grove St","lat":42.28078165843917,"lng":-71.80559456348419,"city_fetched":"Spencer,US","state":"MA","country":"United States","canonicalUrl":"https://foursquare.com/v/tweeds-pub/4b5cce60f964a520fb4429e3","categoryId":"4bf58dd8d48988d11b941735","category":"Pub","checkinsCount":708,"usersCount":312,"tipCount":5,"visitsCount":800,"url":"http://www.tweedspub.com","tier":2,"message":"Moderate","currency":"$","rating":6.9},{"name":"3cross Brewing Company","twitter":"3crossbrewing","address":"26 Cambridge St","lat":42.24409631774217,"lng":-71.83038875660499,"neighborhood":"Webster Square","city_fetched":"Spencer,US","state":"MA","country":"United States","canonicalUrl":"https://foursquare.com/v/3cross-brewing-company/541f4d88498e35d27025d7e0","categoryId":"50327c8591d4c4b30a586d5d","category":"Brewery","checkinsCount":153,"usersCount":96,"tipCount":5,"visitsCount":221,"url":"http://3crossbrewing.com","tier":"","message":"","currency":"","rating":6.9},{"name":"Sinni's Pub","address":"3 Cross St","lat":42.046209,"lng":-71.887776,"city_fetched":"Spencer,US","state":"MA","country":"United States","canonicalUrl":"https://foursquare.com/v/sinnis-pub/4baeb8abf964a5201ed23be3","categoryId":"4bf58dd8d48988d11f941735","category":"Nightclub","checkinsCount":276,"usersCount":120,"tipCount":2,"visitsCount":300,"tier":"","message":"","currency":"","rating":6.9},{"name":"Loft 266","phone":"5087965177","address":"266 Park Ave","lat":42.264252724462274,"lng":-71.81959424925506,"neighborhood":"Newton Square","city_fetched":"Spencer,US","state":"MA","country":"United States","canonicalUrl":"https://foursquare.com/v/loft-266/4baa8079f964a5207d6f3ae3","categoryId":"4bf58dd8d48988d11d941735","category":"Sports Bar","checkinsCount":1178,"usersCount":501,"tipCount":13,"visitsCount":1296,"tier":"","message":"","currency":"","rating":6.8},{"name":"Herbie's","phone":"5087575083","address":"1030 Southbridge St","lat":42.2316346,"lng":-71.8189472,"neighborhood":"College Hill","city_fetched":"Spencer,US","state":"MA","country":"United States","canonicalUrl":"https://foursquare.com/v/herbies/4b8076cff964a520c37430e3","categoryId":"4bf58dd8d48988d118941735","category":"Dive Bar","checkinsCount":938,"usersCount":295,"tipCount":8,"visitsCount":1046,"tier":"","message":"","currency":"","rating":6.8},{"name":"Park Grill & Spirits","phone":"5087567995","twitter":"parkgrillworc","address":"257 Park Ave","lat":42.26461969579208,"lng":-71.81876032354606,"neighborhood":"Newton Square","city_fetched":"Spencer,US","state":"MA","country":"United States","canonicalUrl":"https://foursquare.com/v/park-grill--spirits/503be99de4b03dc3d3821dfa","categoryId":"4bf58dd8d48988d116941735","category":"Bar","checkinsCount":240,"usersCount":139,"tipCount":2,"visitsCount":245,"tier":"","message":"","currency":"","rating":6.8},{"name":"Ritual","phone":"5087629501","address":"281 Main St","lat":42.266493012269265,"lng":-71.80091726483397,"neighborhood":"Central Business District","city_fetched":"Spencer,US","state":"MA","country":"United States","canonicalUrl":"https://foursquare.com/v/ritual/4d769a2d18a160fccb3e8f16","categoryId":"4bf58dd8d48988d11e941735","category":"Cocktail Bar","checkinsCount":767,"usersCount":370,"tipCount":20,"visitsCount":774,"url":"http://www.ritualworcester.com","tier":"","message":"","currency":"","rating":6.6},{"name":"Boston Discount Liquors","phone":"5087540531","address":"566 SW Cutoff","lat":42.213062543425096,"lng":-71.79849062444436,"city_fetched":"Spencer,US","state":"MA","country":"United States","canonicalUrl":"https://foursquare.com/v/boston-discount-liquors/4d85410c5ad3a09359f1e1fd","categoryId":"50327c8591d4c4b30a586d5d","category":"Brewery","checkinsCount":250,"usersCount":83,"tipCount":4,"visitsCount":251,"url":"http://bdliquors.com","tier":"","message":"","currency":"","rating":6.5},{"name":"Moynihan's Pub","address":"897 Main St","lat":42.252386,"lng":-71.817969,"city_fetched":"Spencer,US","state":"MA","country":"United States","canonicalUrl":"https://foursquare.com/v/moynihans-pub/4c3fec99cc410f47d1f9a861","categoryId":"4bf58dd8d48988d116941735","category":"Bar","checkinsCount":296,"usersCount":99,"tipCount":2,"visitsCount":311,"tier":"","message":"","currency":"","rating":6.5},{"name":"Admiral T.J. O'Brien's","phone":"5083472838","address":"407 Main St","lat":42.1111755,"lng":-72.09649316,"city_fetched":"Spencer,US","state":"MA","country":"United States","canonicalUrl":"https://foursquare.com/v/admiral-tj-obriens/4babd8a4f964a520a6ce3ae3","categoryId":"4bf58dd8d48988d11b941735","category":"Pub","checkinsCount":563,"usersCount":335,"tipCount":15,"visitsCount":668,"tier":"","message":"","currency":"","rating":6.4},{"name":"MB Lounge","phone":"5087994521","address":"40 Grafton St","lat":42.26008422052605,"lng":-71.79378207876991,"neighborhood":"Green Island","city_fetched":"Spencer,US","state":"MA","country":"United States","canonicalUrl":"https://foursquare.com/v/mb-lounge/4ba2dfa2f964a520a61f38e3","categoryId":"4bf58dd8d48988d1d8941735","category":"Gay Bar","checkinsCount":1047,"usersCount":220,"tipCount":13,"visitsCount":1124,"tier":"","message":"","currency":"","rating":6.3},{"name":"The Shisha Room","address":"86 Shrewsbury St","lat":42.263288,"lng":-71.790443,"neighborhood":"Shrewsbury Street","city_fetched":"Spencer,US","state":"MA","country":"United States","canonicalUrl":"https://foursquare.com/v/the-shisha-room/4cca1ab7177c37049e211434","categoryId":"4bf58dd8d48988d119941735","category":"Hookah Bar","checkinsCount":176,"usersCount":116,"tipCount":3,"visitsCount":178,"tier":"","message":"","currency":"","rating":6.3},{"name":"Perfect Game Sports Grill & Lounge","phone":"5087924263","address":"64 Water St","lat":42.256959781364095,"lng":-71.79563283920288,"neighborhood":"Green Island","city_fetched":"Spencer,US","state":"MA","country":"United States","canonicalUrl":"https://foursquare.com/v/perfect-game-sports-grill--lounge/4bf4a09998ac0f477c4a64a8","categoryId":"4bf58dd8d48988d11d941735","category":"Sports Bar","checkinsCount":1231,"usersCount":736,"tipCount":13,"visitsCount":1386,"url":"http://www.perfectgameworcester.com","tier":"","message":"","currency":"","rating":6},{"name":"Mahoney's Pub","phone":"5087558876","address":"413 Park Ave","lat":42.256860697191954,"lng":-71.82303416967102,"city_fetched":"Spencer,US","state":"MA","country":"United States","canonicalUrl":"https://foursquare.com/v/mahoneys-pub/4bb66655ef159c748ee375f7","categoryId":"4bf58dd8d48988d116941735","category":"Bar","checkinsCount":306,"usersCount":177,"tipCount":3,"visitsCount":326,"tier":"","message":"","currency":"","rating":5.9},{"name":"Bentley Pub II","phone":"7742410005","address":"362 Main St","lat":42.112374894179666,"lng":-72.08845869339099,"city_fetched":"Spencer,US","state":"MA","country":"United States","canonicalUrl":"https://foursquare.com/v/bentley-pub-ii/51929582498e6750b7bd1ee4","categoryId":"4bf58dd8d48988d11b941735","category":"Pub","checkinsCount":252,"usersCount":266,"tipCount":6,"visitsCount":346,"tier":"","message":"","currency":"","rating":5.8},{"name":"Canal Bar And Grill","lat":42.25688309058003,"lng":-71.79527051951412,"neighborhood":"Green Island","city_fetched":"Spencer,US","state":"MA","country":"United States","canonicalUrl":"https://foursquare.com/v/canal-bar-and-grill/514ce0f7e4b06eb4a8a182dc","categoryId":"4bf58dd8d48988d116941735","category":"Bar","checkinsCount":64,"usersCount":53,"tipCount":2,"visitsCount":64,"tier":"","message":"","currency":"","rating":5.7},{"name":"All Star Pub","address":"51 Thompson Rd","lat":42.055550736162054,"lng":-71.862306838979,"city_fetched":"Spencer,US","state":"MA","country":"United States","canonicalUrl":"https://foursquare.com/v/all-star-pub/512e8401e4b05f7d4a42bc09","categoryId":"4bf58dd8d48988d11b941735","category":"Pub","checkinsCount":160,"usersCount":70,"tipCount":6,"visitsCount":165,"tier":"","message":"","currency":"","rating":5.4},{"name":"Picadilly's Bar And Grille","phone":"5087551808","address":"480 Shrewsbury St","lat":42.27296520162533,"lng":-71.77278100775133,"neighborhood":"Shrewsbury Street","city_fetched":"Spencer,US","state":"MA","country":"United States","canonicalUrl":"https://foursquare.com/v/picadillys-bar-and-grille/4fcf54ffe4b01a254a54f93a","categoryId":"4bf58dd8d48988d116941735","category":"Bar","checkinsCount":299,"usersCount":140,"tipCount":15,"visitsCount":307,"tier":"","message":"","currency":"","rating":5.3},{"name":"Leitrim's Pub","address":"265 Park Ave","lat":42.26395166612469,"lng":-71.81936839459156,"neighborhood":"Newton Square","city_fetched":"Spencer,US","state":"MA","country":"United States","canonicalUrl":"https://foursquare.com/v/leitrims-pub/4c1ac685b9f876b0a4467946","categoryId":"4bf58dd8d48988d11b941735","category":"Pub","checkinsCount":324,"usersCount":188,"tipCount":3,"visitsCount":328,"tier":"","message":"","currency":"","rating":5.3}]