[{"name":"Elk Public House","phone":"5093631973","address":"1931 W Pacific Ave","lat":47.65534711851084,"lng":-117.44138749335183,"city_fetched":"Spokane,US","state":"WA","country":"United States","canonicalUrl":"https://foursquare.com/v/elk-public-house/4a89a47df964a5209b0820e3","categoryId":"4bf58dd8d48988d11b941735","category":"Pub","checkinsCount":2890,"usersCount":1341,"tipCount":41,"visitsCount":3275,"url":"http://www.wedonthaveone.com","tier":2,"message":"Moderate","currency":"$","rating":9.3},{"name":"The Flying Goat","phone":"5093278277","twitter":"flyinggoatpub","address":"3318 W Northwest Blvd","lat":47.69045358898554,"lng":-117.46009111404419,"neighborhood":"Northwest Spokane","city_fetched":"Spokane,US","state":"WA","country":"United States","canonicalUrl":"https://foursquare.com/flyinggoatpub","categoryId":"4bf58dd8d48988d11b941735","category":"Pub","checkinsCount":4353,"usersCount":1088,"tipCount":37,"visitsCount":4781,"url":"http://www.theflyinggoat.com","tier":2,"message":"Moderate","currency":"$","rating":9.3},{"name":"Waddell's Neighborhood Pub & Grille","phone":"5094436500","address":"4318 S Regal St","lat":47.61445105075836,"lng":-117.36936807632446,"neighborhood":"Moran Prairie","city_fetched":"Spokane,US","state":"WA","country":"United States","canonicalUrl":"https://foursquare.com/v/waddells-neighborhood-pub--grille/4b7c7c1cf964a52044962fe3","categoryId":"4bf58dd8d48988d11b941735","category":"Pub","checkinsCount":2179,"usersCount":811,"tipCount":34,"visitsCount":2431,"url":"http://waddellspubandgrill.com","tier":2,"message":"Moderate","currency":"$","rating":8.7},{"name":"Satellite Diner & Lounge","phone":"5096243952","address":"425 W Sprague Ave","lat":47.657265337382995,"lng":-117.41932153701782,"neighborhood":"Riverside","city_fetched":"Spokane,US","state":"WA","country":"United States","canonicalUrl":"https://foursquare.com/v/satellite-diner--lounge/4b7a2cf8f964a52083252fe3","categoryId":"4bf58dd8d48988d116941735","category":"Bar","checkinsCount":3766,"usersCount":1193,"tipCount":52,"visitsCount":4009,"url":"http://www.satellitediner.com","tier":2,"message":"Moderate","currency":"$","rating":8.7},{"name":"Nectar Tasting Room","phone":"5098691572","twitter":"nectarwine","address":"120 N Stevens St","lat":47.658978,"lng":-117.419599,"neighborhood":"Riverside","city_fetched":"Spokane,US","state":"WA","country":"United States","canonicalUrl":"https://foursquare.com/v/nectar-tasting-room/4ce4331fc46e6dcb5b6cda15","categoryId":"4bf58dd8d48988d123941735","category":"Wine Bar","checkinsCount":639,"usersCount":232,"tipCount":11,"visitsCount":649,"url":"http://www.nectartastingroom.com","tier":"","message":"","currency":"","rating":8.6},{"name":"The Boiler Room","phone":"5098639213","address":"6501 N Cedar Rd","lat":47.716841,"lng":-117.433609,"city_fetched":"Spokane,US","state":"WA","country":"United States","canonicalUrl":"https://foursquare.com/v/the-boiler-room/52b6716411d2d4113bbe8c0e","categoryId":"4bf58dd8d48988d116941735","category":"Bar","checkinsCount":237,"usersCount":155,"tipCount":9,"visitsCount":327,"tier":2,"message":"Moderate","currency":"$","rating":8.6},{"name":"Press","phone":"5097477737","address":"909 S Grand Blvd","lat":47.64677132138263,"lng":-117.41273403167725,"city_fetched":"Spokane,US","state":"WA","country":"United States","canonicalUrl":"https://foursquare.com/v/press/4ba446f0f964a5204a9238e3","categoryId":"4bf58dd8d48988d11e941735","category":"Cocktail Bar","checkinsCount":1514,"usersCount":388,"tipCount":9,"visitsCount":1583,"tier":"","message":"","currency":"","rating":8.5},{"name":"Andy's","phone":"5097441111","address":"1401 W 1st Ave","lat":47.65648294104247,"lng":-117.4325695999925,"neighborhood":"Riverside","city_fetched":"Spokane,US","state":"WA","country":"United States","canonicalUrl":"https://foursquare.com/v/andys/4b6cebc1f964a520f45d2ce3","categoryId":"4bf58dd8d48988d116941735","category":"Bar","checkinsCount":1507,"usersCount":317,"tipCount":15,"visitsCount":1570,"tier":"","message":"","currency":"","rating":8.5},{"name":"Steam Plant Brewing Company","lat":47.655211327727635,"lng":-117.4243648874817,"neighborhood":"Riverside","city_fetched":"Spokane,US","state":"WA","country":"United States","canonicalUrl":"https://foursquare.com/v/steam-plant-brewing-company/5525c815498e2c1d63f7823a","categoryId":"50327c8591d4c4b30a586d5d","category":"Brewery","checkinsCount":84,"usersCount":76,"tipCount":2,"visitsCount":91,"tier":"","message":"","currency":"","rating":8.4},{"name":"No-Li Brewhouse","phone":"5092422739","twitter":"nolibrewhouse","address":"1003 E Trent Ave","lat":47.662804588553996,"lng":-117.3939667432948,"city_fetched":"Spokane,US","state":"WA","country":"United States","canonicalUrl":"https://foursquare.com/v/noli-brewhouse/4b627bb9f964a5203d492ae3","categoryId":"50327c8591d4c4b30a586d5d","category":"Brewery","checkinsCount":1880,"usersCount":1372,"tipCount":28,"visitsCount":2487,"url":"http://www.nolibrewhouse.com","tier":"","message":"","currency":"","rating":8.4},{"name":"Fizzie Mulligans","phone":"5094665354","address":"331 W Hastings Rd","lat":47.76829151323964,"lng":-117.41883873939514,"city_fetched":"Spokane,US","state":"WA","country":"United States","canonicalUrl":"https://foursquare.com/v/fizzie-mulligans/4b6b6957f964a520f7062ce3","categoryId":"4bf58dd8d48988d11b941735","category":"Pub","checkinsCount":575,"usersCount":255,"tipCount":3,"visitsCount":698,"tier":"","message":"","currency":"","rating":8.3},{"name":"Perry Street Brewing","twitter":"perrystreetbrew","address":"1025 S Perry St","lat":47.64552447479348,"lng":-117.38968580961229,"neighborhood":"East Central","city_fetched":"Spokane,US","state":"WA","country":"United States","canonicalUrl":"https://foursquare.com/v/perry-street-brewing/53115da3498edad466d65d42","categoryId":"50327c8591d4c4b30a586d5d","category":"Brewery","checkinsCount":455,"usersCount":229,"tipCount":4,"visitsCount":721,"url":"http://perrystreetbrewing.com","tier":"","message":"","currency":"","rating":8.3},{"name":"Zola","phone":"5096242416","address":"22 W Main Ave","lat":47.65921072305241,"lng":-117.41226959146131,"neighborhood":"Riverside","city_fetched":"Spokane,US","state":"WA","country":"United States","canonicalUrl":"https://foursquare.com/v/zola/4b2fd3f5f964a520bcf024e3","categoryId":"4bf58dd8d48988d121941735","category":"Lounge","checkinsCount":2534,"usersCount":980,"tipCount":27,"visitsCount":2595,"url":"http://www.zolainspokane.com","tier":2,"message":"Moderate","currency":"$","rating":8.3},{"name":"The Lantern Tap House","phone":"5093159531","twitter":"lanterntavern","address":"1004 S Perry St","lat":47.646132,"lng":-117.39003956666667,"neighborhood":"East Central","city_fetched":"Spokane,US","state":"WA","country":"United States","canonicalUrl":"https://foursquare.com/v/the-lantern-tap-house/4b46e89cf964a520782926e3","categoryId":"4bf58dd8d48988d11b941735","category":"Pub","checkinsCount":2178,"usersCount":398,"tipCount":15,"visitsCount":2496,"url":"http://lanterntaphouse.com","tier":2,"message":"Moderate","currency":"$","rating":8.2},{"name":"Bistango Martini Lounge","phone":"5096248464","twitter":"bistango","address":"108 N Post St","lat":47.658277045645455,"lng":-117.42329120635986,"neighborhood":"Riverside","city_fetched":"Spokane,US","state":"WA","country":"United States","canonicalUrl":"https://foursquare.com/v/bistango-martini-lounge/4bc90a0c937ca5934a1ea592","categoryId":"4bf58dd8d48988d121941735","category":"Lounge","checkinsCount":544,"usersCount":302,"tipCount":12,"visitsCount":551,"url":"http://www.bistangolounge.com","tier":"","message":"","currency":"","rating":8.2},{"name":"The Bar At Pizza Pipeline","lat":47.670798,"lng":-117.411392,"city_fetched":"Spokane,US","state":"WA","country":"United States","canonicalUrl":"https://foursquare.com/v/the-bar-at-pizza-pipeline/505bb764e4b05434c00d5874","categoryId":"4bf58dd8d48988d11d941735","category":"Sports Bar","checkinsCount":196,"usersCount":104,"tipCount":5,"visitsCount":222,"tier":"","message":"","currency":"","rating":8.2},{"name":"Nyne Bar & Bistro","phone":"5094741621","address":"232 W Sprague Ave","lat":47.6574478,"lng":-117.414807,"neighborhood":"Riverside","city_fetched":"Spokane,US","state":"WA","country":"United States","canonicalUrl":"https://foursquare.com/v/nyne-bar--bistro/4c197b386a21c9b64cb7ca97","categoryId":"4bf58dd8d48988d116941735","category":"Bar","checkinsCount":1461,"usersCount":561,"tipCount":16,"visitsCount":1760,"url":"http://www.nynebar.com","tier":"","message":"","currency":"","rating":8.2},{"name":"LeftBank Wine Bar","phone":"5093158623","address":"108 N Washington St #105","lat":47.658616,"lng":-117.417935,"neighborhood":"Riverside","city_fetched":"Spokane,US","state":"WA","country":"United States","canonicalUrl":"https://foursquare.com/v/leftbank-wine-bar/4b529da2f964a520018427e3","categoryId":"4bf58dd8d48988d123941735","category":"Wine Bar","checkinsCount":359,"usersCount":210,"tipCount":5,"visitsCount":368,"url":"http://www.leftbankwinebar.com","tier":"","message":"","currency":"","rating":8.1},{"name":"The Viking Bar and Grill","phone":"5093262942","address":"1221 N Stevens St","lat":47.6686034327992,"lng":-117.41893857317177,"city_fetched":"Spokane,US","state":"WA","country":"United States","canonicalUrl":"https://foursquare.com/v/the-viking-bar-and-grill/4b703e56f964a5209f0d2de3","categoryId":"4bf58dd8d48988d116941735","category":"Bar","checkinsCount":1400,"usersCount":528,"tipCount":27,"visitsCount":1662,"url":"http://www.thevikingtavern.com","tier":2,"message":"Moderate","currency":"$","rating":8.1},{"name":"The Screaming Yak","phone":"5094643641","address":"118 W Francis Ave","lat":47.71531346983174,"lng":-117.41328323806259,"city_fetched":"Spokane,US","state":"WA","country":"United States","canonicalUrl":"https://foursquare.com/v/the-screaming-yak/4bcf83bab221c9b62635d2d0","categoryId":"4bf58dd8d48988d116941735","category":"Bar","checkinsCount":572,"usersCount":290,"tipCount":8,"visitsCount":741,"url":"http://screamingyak.com","tier":"","message":"","currency":"","rating":8.1},{"name":"The Globe Bar & Kitchen","address":"204 N Division St","lat":47.65925223702177,"lng":-117.41100644302962,"neighborhood":"East Central","city_fetched":"Spokane,US","state":"WA","country":"United States","canonicalUrl":"https://foursquare.com/v/the-globe-bar--kitchen/54f22444498e6f1f6dbc4f27","categoryId":"4bf58dd8d48988d11d941735","category":"Sports Bar","checkinsCount":166,"usersCount":76,"tipCount":1,"visitsCount":175,"tier":"","message":"","currency":"","rating":8},{"name":"Monterey Cafe","phone":"5098680284","address":"9 N Washington St","lat":47.657541,"lng":-117.417978,"neighborhood":"Riverside","city_fetched":"Spokane,US","state":"WA","country":"United States","canonicalUrl":"https://foursquare.com/v/monterey-cafe/4b7f4b3cf964a5208e2530e3","categoryId":"4bf58dd8d48988d120941735","category":"Karaoke Bar","checkinsCount":2249,"usersCount":644,"tipCount":29,"visitsCount":2322,"url":"http://spokanemontereycafe.com","tier":1,"message":"Cheap","currency":"$","rating":8},{"name":"Maxwell House Restaurant","phone":"5093266890","twitter":"spokane7","address":"1425 N Ash St","lat":47.670633,"lng":-117.43732403333334,"neighborhood":"West Central","city_fetched":"Spokane,US","state":"WA","country":"United States","canonicalUrl":"https://foursquare.com/v/maxwell-house-restaurant/4b6a499af964a520ddd02be3","categoryId":"4bf58dd8d48988d116941735","category":"Bar","checkinsCount":112,"usersCount":76,"tipCount":2,"visitsCount":142,"tier":"","message":"","currency":"","rating":7.9},{"name":"Safari Room Fresh Grill And Bar","phone":"5097896800","twitter":"davenporthotel","address":"111 S Post St Ste E","lat":47.656656,"lng":-117.423168,"neighborhood":"Riverside","city_fetched":"Spokane,US","state":"WA","country":"United States","canonicalUrl":"https://foursquare.com/v/safari-room-fresh-grill-and-bar/4b7ca36bf964a520ee9e2fe3","categoryId":"4bf58dd8d48988d1d5941735","category":"Hotel Bar","checkinsCount":1825,"usersCount":908,"tipCount":25,"visitsCount":1858,"url":"http://www.thedavenporthotel.com/tower/safari","tier":"","message":"","currency":"","rating":7.9},{"name":"The Steelhead Bar And Grille","phone":"5097471303","twitter":"steelheadgrille","address":"218 N Howard St","lat":47.65950552218073,"lng":-117.42110252380371,"neighborhood":"Riverside","city_fetched":"Spokane,US","state":"WA","country":"United States","canonicalUrl":"https://foursquare.com/v/the-steelhead-bar-and-grille/4b651133f964a52073e22ae3","categoryId":"4bf58dd8d48988d116941735","category":"Bar","checkinsCount":2426,"usersCount":1059,"tipCount":45,"visitsCount":2447,"url":"http://www.steelheadbarandgrille.com/index.html","tier":2,"message":"Moderate","currency":"$","rating":7.9},{"name":"Saranac Public House","phone":"5094433865","twitter":"saranacpub","address":"21 W Main Ave","lat":47.65891296651943,"lng":-117.41221904754639,"neighborhood":"Riverside","city_fetched":"Spokane,US","state":"WA","country":"United States","canonicalUrl":"https://foursquare.com/v/saranac-public-house/4e278b1b1850679fa412a875","categoryId":"4bf58dd8d48988d11b941735","category":"Pub","checkinsCount":1365,"usersCount":675,"tipCount":21,"visitsCount":1449,"url":"http://www.saranacpub.com","tier":"","message":"","currency":"","rating":7.9},{"name":"Birdys Sports Bar","address":"12908 State Route 395","lat":47.774227148021794,"lng":-117.40081121789584,"city_fetched":"Spokane,US","state":"WA","country":"United States","canonicalUrl":"https://foursquare.com/v/birdys-sports-bar/4ba17c6cf964a52029bb37e3","categoryId":"4bf58dd8d48988d11d941735","category":"Sports Bar","checkinsCount":896,"usersCount":195,"tipCount":14,"visitsCount":975,"tier":2,"message":"Moderate","currency":"$","rating":7.9},{"name":"Rusty Moose Bar and Grill","phone":"5097475579","twitter":"rustyrestaurant","address":"9105 W. Sunset Hwy","lat":47.64253684207701,"lng":-117.5388557071033,"city_fetched":"Spokane,US","state":"WA","country":"United States","canonicalUrl":"https://foursquare.com/v/rusty-moose-bar-and-grill/4b6b922ff964a5207e102ce3","categoryId":"50327c8591d4c4b30a586d5d","category":"Brewery","checkinsCount":876,"usersCount":741,"tipCount":25,"visitsCount":1047,"url":"http://rustymooserestaurant.com","tier":"","message":"","currency":"","rating":7.8},{"name":"Jones Radiator","phone":"5097476005","address":"120 E Sprague Ave","lat":47.65714554209946,"lng":-117.4088158397871,"neighborhood":"East Central","city_fetched":"Spokane,US","state":"WA","country":"United States","canonicalUrl":"https://foursquare.com/v/jones-radiator/4cdf38fe69136dcb55fddbe6","categoryId":"4bf58dd8d48988d11b941735","category":"Pub","checkinsCount":1454,"usersCount":306,"tipCount":9,"visitsCount":1517,"url":"http://jonesradiator.com","tier":1,"message":"Cheap","currency":"$","rating":7.8},{"name":"Revolver North","address":"633 W Garland Ave","lat":47.6932,"lng":-117.42148876190186,"city_fetched":"Spokane,US","state":"WA","country":"United States","canonicalUrl":"https://foursquare.com/v/revolver-north/4d78292f930ef04d9cc8b24f","categoryId":"4bf58dd8d48988d116941735","category":"Bar","checkinsCount":345,"usersCount":132,"tipCount":4,"visitsCount":465,"tier":"","message":"","currency":"","rating":7.8},{"name":"Pints Alehouse","phone":"5093669671","address":"10111 N Newport Hwy","lat":47.748626,"lng":-117.403448,"city_fetched":"Spokane,US","state":"WA","country":"United States","canonicalUrl":"https://foursquare.com/v/pints-alehouse/4f5a7540e4b04e1264a30b62","categoryId":"4bf58dd8d48988d11b941735","category":"Pub","checkinsCount":483,"usersCount":99,"tipCount":5,"visitsCount":513,"tier":"","message":"","currency":"","rating":7.7},{"name":"Park Inn","phone":"5097474425","address":"103 W 9th Ave","lat":47.647192,"lng":-117.41417706012726,"city_fetched":"Spokane,US","state":"WA","country":"United States","canonicalUrl":"https://foursquare.com/v/park-inn/4b0e281af964a5206e5523e3","categoryId":"4bf58dd8d48988d116941735","category":"Bar","checkinsCount":1183,"usersCount":365,"tipCount":11,"visitsCount":1417,"tier":"","message":"","currency":"","rating":7.7},{"name":"Steam Plant Grill","phone":"5097773900","twitter":"the_steamplant","address":"159 S Lincoln St","lat":47.65521004140182,"lng":-117.42437881160393,"neighborhood":"Riverside","city_fetched":"Spokane,US","state":"WA","country":"United States","canonicalUrl":"https://foursquare.com/v/steam-plant-grill/4b523fb3f964a520967227e3","categoryId":"50327c8591d4c4b30a586d5d","category":"Brewery","checkinsCount":1360,"usersCount":1026,"tipCount":31,"visitsCount":1510,"url":"http://www.steamplantspokane.com","tier":"","message":"","currency":"","rating":7.6},{"name":"Jack & Dan's Bar and Grill","phone":"5094876546","address":"1226 N Hamilton St","lat":47.66934514045715,"lng":-117.396449,"city_fetched":"Spokane,US","state":"WA","country":"United States","canonicalUrl":"https://foursquare.com/v/jack--dans-bar-and-grill/4b7e18cdf964a520a2e22fe3","categoryId":"4bf58dd8d48988d116941735","category":"Bar","checkinsCount":2536,"usersCount":695,"tipCount":7,"visitsCount":2612,"url":"http://www.jackanddans.com","tier":2,"message":"Moderate","currency":"$","rating":7.6},{"name":"Bon Bon","phone":"5094131745","address":"924 W Garland Ave","lat":47.693663,"lng":-117.425676,"city_fetched":"Spokane,US","state":"WA","country":"United States","canonicalUrl":"https://foursquare.com/v/bon-bon/4c6601fa8e9120a1ee11d764","categoryId":"4bf58dd8d48988d121941735","category":"Lounge","checkinsCount":479,"usersCount":222,"tipCount":9,"visitsCount":488,"tier":"","message":"","currency":"","rating":7.6},{"name":"The Peacock Room Lounge","phone":"5094558888","twitter":"davenporthotel","address":"10 S Post St","lat":47.657068,"lng":-117.42454012,"neighborhood":"Riverside","city_fetched":"Spokane,US","state":"WA","country":"United States","canonicalUrl":"https://foursquare.com/v/the-peacock-room-lounge/4bbfb6d9b492d13abd29a360","categoryId":"4bf58dd8d48988d121941735","category":"Lounge","checkinsCount":1169,"usersCount":730,"tipCount":11,"visitsCount":1173,"url":"http://www.thedavenporthotel.com/dining/peacock","tier":"","message":"","currency":"","rating":7.5},{"name":"Post Street Ale House","phone":"5096241133","twitter":"poststalehouse","address":"1 N Post St","lat":47.657234054353566,"lng":-117.4235384713545,"neighborhood":"Riverside","city_fetched":"Spokane,US","state":"WA","country":"United States","canonicalUrl":"https://foursquare.com/v/post-street-ale-house/4b523e3df964a520347227e3","categoryId":"4bf58dd8d48988d116941735","category":"Bar","checkinsCount":2717,"usersCount":1403,"tipCount":43,"visitsCount":2781,"url":"http://www.hotellusso.com","tier":2,"message":"Moderate","currency":"$","rating":7.4},{"name":"Rain Lounge","phone":"5094565656","address":"1007 W 1st Ave","lat":47.65649660026993,"lng":-117.4268849061544,"neighborhood":"Riverside","city_fetched":"Spokane,US","state":"WA","country":"United States","canonicalUrl":"https://foursquare.com/v/rain-lounge/4b63d6a3f964a520b3932ae3","categoryId":"4bf58dd8d48988d121941735","category":"Lounge","checkinsCount":581,"usersCount":271,"tipCount":10,"visitsCount":590,"tier":"","message":"","currency":"","rating":7.4},{"name":"The Volstead Act","phone":"5098082516","address":"12 N Post St","lat":47.65776612150686,"lng":-117.42359392252727,"neighborhood":"Riverside","city_fetched":"Spokane,US","state":"WA","country":"United States","canonicalUrl":"https://foursquare.com/v/the-volstead-act/5236791311d23f066b4b314d","categoryId":"4bf58dd8d48988d11e941735","category":"Cocktail Bar","checkinsCount":223,"usersCount":151,"tipCount":6,"visitsCount":229,"tier":"","message":"","currency":"","rating":7.4},{"name":"Sapphire Lounge","phone":"5097471041","address":"at Hotel Ruby","lat":47.65648486332888,"lng":-117.42509365081787,"neighborhood":"Riverside","city_fetched":"Spokane,US","state":"WA","country":"United States","canonicalUrl":"https://foursquare.com/v/sapphire-lounge/4e30b9b5483bb3fdc437d97e","categoryId":"4bf58dd8d48988d121941735","category":"Lounge","checkinsCount":1036,"usersCount":243,"tipCount":5,"visitsCount":1038,"url":"http://www.hotelrubyspokane.com/sapphire/","tier":"","message":"","currency":"","rating":7.4},{"name":"O'Doherty's Irish Grille","phone":"5097470322","address":"525 W Spokane Falls Blvd","lat":47.660145699999994,"lng":-117.420602,"neighborhood":"Riverside","city_fetched":"Spokane,US","state":"WA","country":"United States","canonicalUrl":"https://foursquare.com/v/odohertys-irish-grille/4b6b677bf964a5207a062ce3","categoryId":"4bf58dd8d48988d11b941735","category":"Pub","checkinsCount":1698,"usersCount":882,"tipCount":28,"visitsCount":1740,"url":"http://www.odohertyspub.com","tier":"","message":"","currency":"","rating":7.4},{"name":"JJ's Grill & Brewhouse","phone":"5094674267","address":"8810 N Indian Trail Rd.","lat":47.73842649099067,"lng":-117.48529775531586,"neighborhood":"North Indian Trail","city_fetched":"Spokane,US","state":"WA","country":"United States","canonicalUrl":"https://foursquare.com/v/jjs-grill--brewhouse/4f2a2832e4b0027f9bbd6c89","categoryId":"4bf58dd8d48988d11d941735","category":"Sports Bar","checkinsCount":307,"usersCount":133,"tipCount":18,"visitsCount":430,"tier":"","message":"","currency":"","rating":7.4},{"name":"Morty's Tap And Grille","phone":"5094439123","twitter":"mortystap","address":"5517 S Regal St","lat":47.60339972517063,"lng":-117.36801624298096,"neighborhood":"Moran Prairie","city_fetched":"Spokane,US","state":"WA","country":"United States","canonicalUrl":"https://foursquare.com/v/mortys-tap-and-grille/4bcb9a5f937ca593b8f8a992","categoryId":"4bf58dd8d48988d116941735","category":"Bar","checkinsCount":1516,"usersCount":314,"tipCount":13,"visitsCount":1652,"url":"http://www.mortystapandgrille.com","tier":2,"message":"Moderate","currency":"$","rating":7.4},{"name":"Mootsy's","phone":"5098381570","address":"406 W Sprague Ave","lat":47.657217752996296,"lng":-117.41835127239051,"neighborhood":"Riverside","city_fetched":"Spokane,US","state":"WA","country":"United States","canonicalUrl":"https://foursquare.com/v/mootsys/4dbcc0fb6a23e294ba374cb9","categoryId":"4bf58dd8d48988d116941735","category":"Bar","checkinsCount":436,"usersCount":126,"tipCount":3,"visitsCount":455,"tier":"","message":"","currency":"","rating":7.4},{"name":"Webster's Saloon","lat":47.67536466361205,"lng":-117.42653271132711,"city_fetched":"Spokane,US","state":"WA","country":"United States","canonicalUrl":"https://foursquare.com/v/websters-saloon/5257117411d28554b5b488ac","categoryId":"4bf58dd8d48988d116941735","category":"Bar","checkinsCount":96,"usersCount":54,"tipCount":2,"visitsCount":115,"tier":"","message":"","currency":"","rating":7.1},{"name":"Off regal Lounge","phone":"5094739401","lat":47.627205,"lng":-117.371036,"neighborhood":"Lincoln Heights","city_fetched":"Spokane,US","state":"WA","country":"United States","canonicalUrl":"https://foursquare.com/v/off-regal-lounge/5035c370e4b0a45ed2e469d4","categoryId":"4bf58dd8d48988d116941735","category":"Bar","checkinsCount":110,"usersCount":39,"tipCount":5,"visitsCount":116,"tier":"","message":"","currency":"","rating":7.1},{"name":"Snoops Saloon","phone":"5094876013","address":"805 E Rosewood Ave","lat":47.71644422400469,"lng":-117.39776827867811,"neighborhood":"Nevada - Lidgerwood","city_fetched":"Spokane,US","state":"WA","country":"United States","canonicalUrl":"https://foursquare.com/v/snoops-saloon/4c13c56d7f7f2d7fe0a4df68","categoryId":"4bf58dd8d48988d116941735","category":"Bar","checkinsCount":660,"usersCount":73,"tipCount":0,"visitsCount":679,"tier":"","message":"","currency":"","rating":7},{"name":"Tonicx Bar And Patio","phone":"5093246453","address":"6314 N Ash St","lat":47.716043709617,"lng":-117.43594189746788,"city_fetched":"Spokane,US","state":"WA","country":"United States","canonicalUrl":"https://foursquare.com/v/tonicx-bar-and-patio/4c218cf199282d7f05da65b0","categoryId":"4bf58dd8d48988d11e941735","category":"Cocktail Bar","checkinsCount":1248,"usersCount":238,"tipCount":13,"visitsCount":1253,"tier":"","message":"","currency":"","rating":7},{"name":"Lion's Lair","phone":"5094565678","address":"205 W Riverside Ave","lat":47.657868752973215,"lng":-117.41365608688596,"neighborhood":"Riverside","city_fetched":"Spokane,US","state":"WA","country":"United States","canonicalUrl":"https://foursquare.com/v/lions-lair/4d9418605241a1cd431c584b","categoryId":"4bf58dd8d48988d116941735","category":"Bar","checkinsCount":370,"usersCount":139,"tipCount":4,"visitsCount":376,"tier":"","message":"","currency":"","rating":7},{"name":"Whiskey Dick's Irish Pub & Grille","phone":"5094749387","address":"3027 E Liberty Ave","lat":47.68748092406755,"lng":-117.36543640716403,"city_fetched":"Spokane,US","state":"WA","country":"United States","canonicalUrl":"https://foursquare.com/v/whiskey-dicks-irish-pub--grille/4c06e9b43cbed13a1cdc0bc0","categoryId":"4bf58dd8d48988d122941735","category":"Whisky Bar","checkinsCount":781,"usersCount":208,"tipCount":1,"visitsCount":826,"tier":"","message":"","currency":"","rating":6.9},{"name":"Rick's Ringside Pub","phone":"5093249718","address":"921 W Garland Ave","lat":47.69337024259291,"lng":-117.4253544050568,"city_fetched":"Spokane,US","state":"WA","country":"United States","canonicalUrl":"https://foursquare.com/v/ricks-ringside-pub/4bb196a9f964a520e19a3ce3","categoryId":"4bf58dd8d48988d11b941735","category":"Pub","checkinsCount":388,"usersCount":140,"tipCount":5,"visitsCount":400,"tier":"","message":"","currency":"","rating":6.9},{"name":"The Swamp Tavern","phone":"5094582337","address":"1904 W 5th Ave","lat":47.65169648333333,"lng":-117.440351,"neighborhood":"Riverside","city_fetched":"Spokane,US","state":"WA","country":"United States","canonicalUrl":"https://foursquare.com/v/the-swamp-tavern/4b4808b2f964a520b44626e3","categoryId":"4bf58dd8d48988d11b941735","category":"Pub","checkinsCount":664,"usersCount":257,"tipCount":5,"visitsCount":729,"tier":1,"message":"Cheap","currency":"$","rating":6.9},{"name":"Iron Goat Brewing Co.","twitter":"irongoatbrewing","address":"2204 E Mallon Ave Ste B","lat":47.66519393870576,"lng":-117.37815375755991,"city_fetched":"Spokane,US","state":"WA","country":"United States","canonicalUrl":"https://foursquare.com/v/iron-goat-brewing-co/4f4aa960e4b0a34d39dfc02e","categoryId":"50327c8591d4c4b30a586d5d","category":"Brewery","checkinsCount":419,"usersCount":204,"tipCount":5,"visitsCount":510,"url":"http://www.irongoatbrewing.com","tier":"","message":"","currency":"","rating":6.9},{"name":"Stir Restaurant & Lounge","phone":"5094665999","address":"7115 N Division St #A","lat":47.72291568944074,"lng":-117.41170224647674,"city_fetched":"Spokane,US","state":"WA","country":"United States","canonicalUrl":"https://foursquare.com/v/stir-restaurant--lounge/4cd344a5558a3704d93cc0a6","categoryId":"4bf58dd8d48988d11e941735","category":"Cocktail Bar","checkinsCount":716,"usersCount":165,"tipCount":9,"visitsCount":717,"url":"http://stirfood.com","tier":"","message":"","currency":"","rating":6.8},{"name":"Budge Brothers Brewery","phone":"5094263340","address":"2018 E Riverside Ave","lat":47.65787604674351,"lng":-117.37992926274194,"neighborhood":"East Central","city_fetched":"Spokane,US","state":"WA","country":"United States","canonicalUrl":"https://foursquare.com/v/budge-brothers-brewery/4ddc3bdcfa766a6d79383a9d","categoryId":"50327c8591d4c4b30a586d5d","category":"Brewery","checkinsCount":208,"usersCount":118,"tipCount":5,"visitsCount":234,"url":"http://budgebrothers.com","tier":1,"message":"Cheap","currency":"$","rating":6.8},{"name":"Hills' Restaurant and Lounge","phone":"5097473946","address":"401 W Main Ave","lat":47.65900399343009,"lng":-117.41805539111799,"neighborhood":"Riverside","city_fetched":"Spokane,US","state":"WA","country":"United States","canonicalUrl":"https://foursquare.com/v/hills-restaurant-and-lounge/4b7241e0f964a520da752de3","categoryId":"4bf58dd8d48988d121941735","category":"Lounge","checkinsCount":587,"usersCount":275,"tipCount":12,"visitsCount":608,"url":"http://hillsrestaurantandlounge.com","tier":"","message":"","currency":"","rating":6.7},{"name":"Baby Bar","phone":"5098471234","address":"827 W 1st Ave","lat":47.65651376998337,"lng":-117.42451429367065,"neighborhood":"Riverside","city_fetched":"Spokane,US","state":"WA","country":"United States","canonicalUrl":"https://foursquare.com/v/baby-bar/4b10ca82f964a520c57523e3","categoryId":"4bf58dd8d48988d121941735","category":"Lounge","checkinsCount":1463,"usersCount":423,"tipCount":10,"visitsCount":1481,"tier":"","message":"","currency":"","rating":6.7},{"name":"The Blind Buck","lat":47.659432,"lng":-117.411242,"neighborhood":"Riverside","city_fetched":"Spokane,US","state":"WA","country":"United States","canonicalUrl":"https://foursquare.com/v/the-blind-buck/51f0785e498e2673496c3ff0","categoryId":"4bf58dd8d48988d116941735","category":"Bar","checkinsCount":183,"usersCount":115,"tipCount":3,"visitsCount":192,"tier":"","message":"","currency":"","rating":6.7},{"name":"Pj's Pub","phone":"5099193788","twitter":"pjsbartenders","address":"1717 N Monroe St","lat":47.67364716666667,"lng":-117.426853,"neighborhood":"West Central","city_fetched":"Spokane,US","state":"WA","country":"United States","canonicalUrl":"https://foursquare.com/pjsbartenders","categoryId":"4bf58dd8d48988d116941735","category":"Bar","checkinsCount":473,"usersCount":148,"tipCount":4,"visitsCount":488,"url":"http://pjspubspokane.com","tier":"","message":"","currency":"","rating":6.7},{"name":"Black Label Brewing","lat":47.65883870627345,"lng":-117.41208720496807,"neighborhood":"Riverside","city_fetched":"Spokane,US","state":"WA","country":"United States","canonicalUrl":"https://foursquare.com/v/black-label-brewing/54cd64f1498ef7ae81e24ccc","categoryId":"50327c8591d4c4b30a586d5d","category":"Brewery","checkinsCount":103,"usersCount":59,"tipCount":0,"visitsCount":108,"tier":"","message":"","currency":"","rating":6.7},{"name":"Waddell's Brewpub & Grille","phone":"5093217818","address":"6501 N Cedar Rd","lat":47.71687097216255,"lng":-117.43279901835876,"city_fetched":"Spokane,US","state":"WA","country":"United States","canonicalUrl":"https://foursquare.com/v/waddells-brewpub--grille/52b4d1e9498e5399b79ee8e8","categoryId":"50327c8591d4c4b30a586d5d","category":"Brewery","checkinsCount":370,"usersCount":252,"tipCount":7,"visitsCount":521,"url":"http://waddellsbrewery.com","tier":2,"message":"Moderate","currency":"$","rating":6.6},{"name":"River City Brewing","phone":"5094132388","twitter":"rivercityred","address":"121 S. Cedar Street Spokane","lat":47.65633161895767,"lng":-117.43242862117523,"neighborhood":"Riverside","city_fetched":"Spokane,US","state":"WA","country":"United States","canonicalUrl":"https://foursquare.com/v/river-city-brewing/515a19c9e4b0e7d053305357","categoryId":"50327c8591d4c4b30a586d5d","category":"Brewery","checkinsCount":260,"usersCount":123,"tipCount":3,"visitsCount":275,"tier":"","message":"","currency":"","rating":6.5},{"name":"The Garland Avenue Drinkery","phone":"5093155327","address":"828 W Garland Ave","lat":47.693548,"lng":-117.424291,"city_fetched":"Spokane,US","state":"WA","country":"United States","canonicalUrl":"https://foursquare.com/v/the-garland-avenue-drinkery/4dabb796fa8cc7649753a952","categoryId":"4bf58dd8d48988d116941735","category":"Bar","checkinsCount":404,"usersCount":164,"tipCount":10,"visitsCount":412,"tier":"","message":"","currency":"","rating":6.5},{"name":"The Riff","phone":"5092792921","address":"215 W Main Ave","lat":47.6587684397282,"lng":-117.41417169570923,"neighborhood":"Riverside","city_fetched":"Spokane,US","state":"WA","country":"United States","canonicalUrl":"https://foursquare.com/v/the-riff/4bff0a68e584c92824ab6d25","categoryId":"4bf58dd8d48988d116941735","category":"Bar","checkinsCount":379,"usersCount":197,"tipCount":4,"visitsCount":410,"tier":"","message":"","currency":"","rating":6.5},{"name":"The Hop Shop","phone":"5097479700","twitter":"thehopshop","address":"3803 S Grand Blvd","lat":47.61975289,"lng":-117.401555,"neighborhood":"Moran Prairie","city_fetched":"Spokane,US","state":"WA","country":"United States","canonicalUrl":"https://foursquare.com/v/the-hop-shop/4bbe95ff4e7bd13a86499b7f","categoryId":"4bf58dd8d48988d11b941735","category":"Pub","checkinsCount":475,"usersCount":140,"tipCount":8,"visitsCount":492,"tier":"","message":"","currency":"","rating":6.4},{"name":"Vintage Washington","twitter":"hmshost","address":"Spokane International Airport, 9000 West Airport Drive","lat":47.62558684696539,"lng":-117.53583995684293,"city_fetched":"Spokane,US","state":"WA","country":"United States","canonicalUrl":"https://foursquare.com/v/vintage-washington/4bfedeccca1920a10bf8eb81","categoryId":"4bf58dd8d48988d123941735","category":"Wine Bar","checkinsCount":287,"usersCount":211,"tipCount":9,"visitsCount":289,"tier":"","message":"","currency":"","rating":6.4},{"name":"Jimmyz Gastropub & Red Room Lounge","phone":"5098387613","address":"521 W Sprague Ave","lat":47.657106352873704,"lng":-117.42078065872192,"neighborhood":"Riverside","city_fetched":"Spokane,US","state":"WA","country":"United States","canonicalUrl":"https://foursquare.com/v/jimmyz-gastropub--red-room-lounge/4bbeb99598f49521d7bcd163","categoryId":"4bf58dd8d48988d116941735","category":"Bar","checkinsCount":718,"usersCount":281,"tipCount":9,"visitsCount":731,"url":"http://www.redroomloungespokane.com","tier":"","message":"","currency":"","rating":6.4},{"name":"The Roadhouse","lat":47.657981352178055,"lng":-117.26353854562606,"city_fetched":"Spokane,US","state":"WA","country":"United States","canonicalUrl":"https://foursquare.com/v/the-roadhouse/50a461e8e4b060f23e56a70b","categoryId":"4bf58dd8d48988d116941735","category":"Bar","checkinsCount":385,"usersCount":133,"tipCount":3,"visitsCount":458,"tier":"","message":"","currency":"","rating":6.3},{"name":"Revolver Bar & Lounge","phone":"5092916816","address":"221 N Division St","lat":47.65973980569421,"lng":-117.41128842569768,"neighborhood":"Riverside","city_fetched":"Spokane,US","state":"WA","country":"United States","canonicalUrl":"https://foursquare.com/v/revolver-bar--lounge/4b63be2af964a5205f8f2ae3","categoryId":"4bf58dd8d48988d116941735","category":"Bar","checkinsCount":1695,"usersCount":358,"tipCount":8,"visitsCount":1720,"tier":"","message":"","currency":"","rating":6.3},{"name":"Fast Eddie's All-Purpose Pub","phone":"5094558752","address":"1 W Spokane Falls Blvd","lat":47.66005391666667,"lng":-117.41129714,"neighborhood":"Riverside","city_fetched":"Spokane,US","state":"WA","country":"United States","canonicalUrl":"https://foursquare.com/v/fast-eddies-allpurpose-pub/4b5804cbf964a520bb4828e3","categoryId":"4bf58dd8d48988d116941735","category":"Bar","checkinsCount":1779,"usersCount":841,"tipCount":14,"visitsCount":1934,"tier":2,"message":"Moderate","currency":"$","rating":6.2},{"name":"O'Doherty's Irish Pub","address":"10208 N Division St","lat":47.75089214960244,"lng":-117.41012994837604,"city_fetched":"Spokane,US","state":"WA","country":"United States","canonicalUrl":"https://foursquare.com/v/odohertys-irish-pub/4e15184118384368edcd177b","categoryId":"4bf58dd8d48988d11b941735","category":"Pub","checkinsCount":268,"usersCount":159,"tipCount":6,"visitsCount":268,"tier":"","message":"","currency":"","rating":6.1},{"name":"Checkerboard Tavern","phone":"5095689004","address":"1716 E Sprague Ave","lat":47.657126,"lng":-117.385063,"neighborhood":"East Central","city_fetched":"Spokane,US","state":"WA","country":"United States","canonicalUrl":"https://foursquare.com/v/checkerboard-tavern/4bb535ed46d4a59365bfc4c0","categoryId":"4bf58dd8d48988d116941735","category":"Bar","checkinsCount":106,"usersCount":66,"tipCount":2,"visitsCount":126,"tier":"","message":"","currency":"","rating":6.1},{"name":"The Ref","phone":"5093159637","address":"14210 E Sprague Ave","lat":47.65668578782066,"lng":-117.21426486404783,"city_fetched":"Spokane,US","state":"WA","country":"United States","canonicalUrl":"https://foursquare.com/v/the-ref/4e94aaa3cc21f8b814495738","categoryId":"4bf58dd8d48988d11d941735","category":"Sports Bar","checkinsCount":584,"usersCount":188,"tipCount":11,"visitsCount":637,"tier":"","message":"","currency":"","rating":6.1},{"name":"The Star Restaurant & Lounge","phone":"5094871530","twitter":"savoryspokane","address":"1329 N Hamilton St","lat":47.6704422458855,"lng":-117.39697041873683,"city_fetched":"Spokane,US","state":"WA","country":"United States","canonicalUrl":"https://foursquare.com/v/the-star-restaurant--lounge/4c4a9d6142b4d13a14c77a7d","categoryId":"4bf58dd8d48988d116941735","category":"Bar","checkinsCount":916,"usersCount":229,"tipCount":4,"visitsCount":991,"tier":"","message":"","currency":"","rating":6},{"name":"Ramblin Road Craft Brewery","phone":"5099953901","twitter":"ramblinroad","address":"730 N Columbus St","lat":47.6641769553521,"lng":-117.39507895916496,"city_fetched":"Spokane,US","state":"WA","country":"United States","canonicalUrl":"https://foursquare.com/v/ramblin-road-craft-brewery/5113e30ef136616ef8b80878","categoryId":"50327c8591d4c4b30a586d5d","category":"Brewery","checkinsCount":116,"usersCount":66,"tipCount":5,"visitsCount":118,"tier":"","message":"","currency":"","rating":6},{"name":"Lucky's Irish Pub","address":"408 W Sprague Ave","lat":47.65742432140821,"lng":-117.41859197616577,"neighborhood":"Riverside","city_fetched":"Spokane,US","state":"WA","country":"United States","canonicalUrl":"https://foursquare.com/v/luckys-irish-pub/4ff7afc9e4b0b8fdaa441702","categoryId":"4bf58dd8d48988d11b941735","category":"Pub","checkinsCount":487,"usersCount":123,"tipCount":4,"visitsCount":494,"tier":"","message":"","currency":"","rating":5.7},{"name":"Litz's Bar and Grill","phone":"5093269690","address":"204 E Ermina Ave","lat":47.676849,"lng":-117.407564,"city_fetched":"Spokane,US","state":"WA","country":"United States","canonicalUrl":"https://foursquare.com/v/litzs-bar-and-grill/4bf5cb765e800f47ba40e6d4","categoryId":"4bf58dd8d48988d116941735","category":"Bar","checkinsCount":726,"usersCount":169,"tipCount":9,"visitsCount":766,"url":"http://myspace.com/litzsbarandgrill","tier":"","message":"","currency":"","rating":5.7},{"name":"Studio K Bar & Grill","phone":"5095349417","address":"2810 E 29th Ave","lat":47.62759053333333,"lng":-117.36986350000001,"neighborhood":"Lincoln Heights","city_fetched":"Spokane,US","state":"WA","country":"United States","canonicalUrl":"https://foursquare.com/v/studio-k-bar--grill/4b52ba4af964a520e38627e3","categoryId":"4bf58dd8d48988d120941735","category":"Karaoke Bar","checkinsCount":384,"usersCount":134,"tipCount":8,"visitsCount":391,"tier":"","message":"","currency":"","rating":5.6}]