[{"name":"Mother's Brewing Company","phone":"4178620423","twitter":"mothersbrewing","address":"215 S Grant Ave","lat":37.20803406181347,"lng":-93.29943881884058,"neighborhood":"West Central","city_fetched":"Springfield","state":"MO","country":"United States","canonicalUrl":"https://foursquare.com/v/mothers-brewing-company/50392764e4b0bd2ec47b875f","category":"Brewery","checkinsCount":1141,"usersCount":590,"tipCount":19,"visitsCount":1418,"url":"http://mothersbrewing.com","tier":1,"message":"Cheap","currency":"$","rating":9.3},{"name":"Mother's Brewing Company","phone":"4178620423","twitter":"mothersbrewing","address":"215 S Grant Ave","lat":37.207541986770785,"lng":-93.29921763587966,"neighborhood":"West Central","city_fetched":"Springfield","state":"MO","country":"United States","canonicalUrl":"https://foursquare.com/v/mothers-brewing-company/4d63f50ad6b26ea80634557a","category":"Brewery","checkinsCount":1781,"usersCount":586,"tipCount":16,"visitsCount":1863,"url":"http://www.mothersbrewing.com","tier":2,"message":"Moderate","currency":"$","rating":9},{"name":"Mud Lounge","phone":"4178656964","address":"321 E Walnut St","lat":37.20718279068271,"lng":-93.29054313524347,"neighborhood":"Downtown Springfield","city_fetched":"Springfield","state":"MO","country":"United States","canonicalUrl":"https://foursquare.com/v/mud-lounge/4aebb1b7f964a5206fc421e3","category":"Pub","checkinsCount":4165,"usersCount":1169,"tipCount":40,"visitsCount":4312,"url":"http://www.mudhousecoffee.com/mudlounge","tier":2,"message":"Moderate","currency":"$","rating":8.8},{"name":"Kai","phone":"4178320077","address":"306 S Campbell Ave","lat":37.20795881666667,"lng":-93.2941533,"neighborhood":"Downtown Springfield","city_fetched":"Springfield","state":"MO","country":"United States","canonicalUrl":"https://foursquare.com/v/kai/4b4d2721f964a520c7cc26e3","category":"Sushi Restaurant","checkinsCount":2687,"usersCount":1323,"tipCount":31,"visitsCount":2848,"url":"http://www.kaiafterdark.com","tier":2,"message":"Moderate","currency":"$","rating":8.8},{"name":"Lindberg's","phone":"4178688900","twitter":"lindbergsbar","address":"318 W Commercial St","lat":37.229342217431,"lng":-93.29350163104681,"city_fetched":"Springfield","state":"MO","country":"United States","canonicalUrl":"https://foursquare.com/v/lindbergs/4b52868cf964a520098127e3","category":"Bar","checkinsCount":1164,"usersCount":538,"tipCount":11,"visitsCount":1419,"url":"http://www.lindbergsbar.com","tier":1,"message":"Cheap","currency":"$","rating":8.8},{"name":"Tropical Liqueurs","phone":"4178329067","twitter":"tropsdowntown","address":"420 S Campbell Ave","lat":37.206414407709396,"lng":-93.29391896724701,"neighborhood":"Downtown Springfield","city_fetched":"Springfield","state":"MO","country":"United States","canonicalUrl":"https://foursquare.com/v/tropical-liqueurs/4b4fa1d9f964a520620e27e3","category":"Bar","checkinsCount":4403,"usersCount":1246,"tipCount":19,"visitsCount":4640,"url":"http://tropicalliqueurs.bzlnk.com","tier":"","message":"","currency":"","rating":8.8},{"name":"Skinny Slim's Public House","phone":"4178885555","address":"323 S Patton Ave","lat":37.207518,"lng":-93.293266,"neighborhood":"Downtown Springfield","city_fetched":"Springfield","state":"MO","country":"United States","canonicalUrl":"https://foursquare.com/v/skinny-slims-public-house/4d3b98f76e0aa1cda63fdb2c","category":"Bar","checkinsCount":1459,"usersCount":388,"tipCount":6,"visitsCount":1475,"url":"http://skinnyslims.com","tier":"","message":"","currency":"","rating":8.6},{"name":"Patton Alley Pub","phone":"4178651188","address":"313 S Patton Ave","lat":37.207635196697446,"lng":-93.2934082538667,"neighborhood":"Downtown Springfield","city_fetched":"Springfield","state":"MO","country":"United States","canonicalUrl":"https://foursquare.com/v/patton-alley-pub/4af3613af964a52012ed21e3","category":"Bar","checkinsCount":5355,"usersCount":1291,"tipCount":27,"visitsCount":5765,"url":"http://www.pattonalleypub.com","tier":1,"message":"Cheap","currency":"$","rating":8.5},{"name":"Martha's Vineyard","phone":"4178644572","address":"221 W Olive St.","lat":37.21004585902488,"lng":-93.2930101741988,"neighborhood":"Downtown Springfield","city_fetched":"Springfield","state":"MO","country":"United States","canonicalUrl":"https://foursquare.com/v/marthas-vineyard/4b4d5584f964a520e4d026e3","category":"Bar","checkinsCount":3776,"usersCount":643,"tipCount":16,"visitsCount":3982,"url":"http://www.marthascomplex.com","tier":"","message":"","currency":"","rating":8.4},{"name":"Ebbets Field","phone":"4178655050","address":"1027 E Walnut St","lat":37.20684166213281,"lng":-93.2793653011322,"neighborhood":"Walnut Street","city_fetched":"Springfield","state":"MO","country":"United States","canonicalUrl":"https://foursquare.com/v/ebbets-field/4b4fa9c9f964a520c50f27e3","category":"Sports Bar","checkinsCount":2304,"usersCount":1271,"tipCount":17,"visitsCount":2681,"tier":"","message":"","currency":"","rating":8.4},{"name":"Arris' Pizza","phone":"4178817260","address":"1332 E Republic Rd","lat":37.13729604084376,"lng":-93.27420090969379,"city_fetched":"Springfield","state":"MO","country":"United States","canonicalUrl":"https://foursquare.com/v/arris-pizza/4b5a5442f964a520acbd28e3","category":"Pizza Place","checkinsCount":1010,"usersCount":625,"tipCount":16,"visitsCount":1079,"url":"http://www.arrispizzaonline.com","tier":"","message":"","currency":"","rating":8.3},{"name":"The Albatross","phone":"4178622522","address":"320 E Walnut St","lat":37.20698578532317,"lng":-93.29050873517932,"neighborhood":"Downtown Springfield","city_fetched":"Springfield","state":"MO","country":"United States","canonicalUrl":"https://foursquare.com/v/the-albatross/4baeaf5af964a520a7ce3be3","category":"Hookah Bar","checkinsCount":3011,"usersCount":440,"tipCount":32,"visitsCount":3033,"url":"http://thealbatrosshookahlounge.com","tier":"","message":"","currency":"","rating":8.3},{"name":"The Roost Bar & Grill","phone":"4178654000","address":"2025 W Sunshine St","lat":37.18309065837165,"lng":-93.31943280994892,"city_fetched":"Springfield","state":"MO","country":"United States","canonicalUrl":"https://foursquare.com/v/the-roost-bar--grill/4b6f4af8f964a520b2e92ce3","category":"Sports Bar","checkinsCount":3346,"usersCount":983,"tipCount":32,"visitsCount":3482,"url":"http://roostbarandgrill.com","tier":1,"message":"Cheap","currency":"$","rating":8.2},{"name":"Missouri Spirits","phone":"4175014674","twitter":"missourispirits","address":"507 W Walnut St","lat":37.20742,"lng":-93.296267,"neighborhood":"Downtown Springfield","city_fetched":"Springfield","state":"MO","country":"United States","canonicalUrl":"https://foursquare.com/v/missouri-spirits/54c31e47498e44dbbd73f77b","category":"Distillery","checkinsCount":115,"usersCount":73,"tipCount":3,"visitsCount":147,"tier":"","message":"","currency":"","rating":8.2},{"name":"Vino Cellars","address":"2137 W Republic Rd","lat":37.139663,"lng":-93.322939,"city_fetched":"Springfield","state":"MO","country":"United States","canonicalUrl":"https://foursquare.com/v/vino-cellars/5009e5d3e4b0baf2d6d01c85","category":"Wine Bar","checkinsCount":118,"usersCount":50,"tipCount":4,"visitsCount":123,"tier":"","message":"","currency":"","rating":8.1},{"name":"Touch","phone":"4178238383","address":"1620 E Republic Rd","lat":37.137201473206545,"lng":-93.26680183410645,"city_fetched":"Springfield","state":"MO","country":"United States","canonicalUrl":"https://foursquare.com/v/touch/4b74a8f3f964a520d9ea2de3","category":"Steakhouse","checkinsCount":1453,"usersCount":755,"tipCount":16,"visitsCount":1570,"url":"http://http://touch-restaurant.com","tier":3,"message":"Expensive","currency":"$","rating":8.1},{"name":"Springfield Brewing Company","phone":"4178328277","twitter":"springfieldbrew","address":"305 S Market Ave","lat":37.20775597847177,"lng":-93.29572677612305,"neighborhood":"Downtown Springfield","city_fetched":"Springfield","state":"MO","country":"United States","canonicalUrl":"https://foursquare.com/v/springfield-brewing-company/4b2421adf964a520d36124e3","category":"Brewery","checkinsCount":6111,"usersCount":3371,"tipCount":68,"visitsCount":7010,"url":"http://www.springfieldbrewingco.com","tier":2,"message":"Moderate","currency":"$","rating":8.1},{"name":"Galloway Grill","phone":"4178825300","address":"4211 S Lone Pine Ave","lat":37.13589571977327,"lng":-93.2379638308828,"city_fetched":"Springfield","state":"MO","country":"United States","canonicalUrl":"https://foursquare.com/v/galloway-grill/52a10c0f498ed2386671fcd4","category":"Bar","checkinsCount":233,"usersCount":253,"tipCount":5,"visitsCount":503,"url":"http://www.gallowaygrill.com","tier":1,"message":"Cheap","currency":"$","rating":8.1},{"name":"Avanzare Italian Dining","phone":"4175673463","address":"1908 S Glenstone Ave","lat":37.179511,"lng":-93.26156079769135,"neighborhood":"Southeast Springfield","city_fetched":"Springfield","state":"MO","country":"United States","canonicalUrl":"https://foursquare.com/v/avanzare-italian-dining/4b5a5498f964a520c6bd28e3","category":"Italian Restaurant","checkinsCount":368,"usersCount":289,"tipCount":6,"visitsCount":482,"url":"http://www.avanzareitaliandining.com","tier":4,"message":"Very Expensive","currency":"$","rating":8},{"name":"The J.O.B. Public House","phone":"4178311158","address":"319 E Walnut St","lat":37.20712145,"lng":-93.290672,"neighborhood":"Downtown Springfield","city_fetched":"Springfield","state":"MO","country":"United States","canonicalUrl":"https://foursquare.com/v/the-job-public-house/4cca1082177c37044ed01334","category":"Bar","checkinsCount":1067,"usersCount":381,"tipCount":16,"visitsCount":1077,"tier":2,"message":"Moderate","currency":"$","rating":8},{"name":"W. F. Cody's","phone":"4178878083","address":"3138 E Sunshine St","lat":37.18014127953192,"lng":-93.23208318057445,"neighborhood":"Southern Hills","city_fetched":"Springfield","state":"MO","country":"United States","canonicalUrl":"https://foursquare.com/v/w-f-codys/4c23ad6cf1272d7f4cd181c5","category":"Bar","checkinsCount":317,"usersCount":207,"tipCount":10,"visitsCount":327,"tier":"","message":"","currency":"","rating":7.9},{"name":"Ocean Zen Pacific Rim","phone":"4178899596","address":"600 E Battlefield St","lat":37.159559839981085,"lng":-93.28861676882092,"city_fetched":"Springfield","state":"MO","country":"United States","canonicalUrl":"https://foursquare.com/v/ocean-zen-pacific-rim/4b5a58fcf964a52007bf28e3","category":"Asian Restaurant","checkinsCount":1994,"usersCount":999,"tipCount":29,"visitsCount":2138,"url":"http://oceanzen.bzzp.net","tier":3,"message":"Expensive","currency":"$","rating":7.9},{"name":"Farmers Gastropub","phone":"4178646994","twitter":"farmerspub","address":"2620 S Glenstone Ave","lat":37.16643704419889,"lng":-93.26194045111384,"neighborhood":"Southeast Springfield","city_fetched":"Springfield","state":"MO","country":"United States","canonicalUrl":"https://foursquare.com/v/farmers-gastropub/52c35eee498e5f721c891df0","category":"Gastropub","checkinsCount":282,"usersCount":193,"tipCount":5,"visitsCount":349,"url":"http://farmersgastropub.com","tier":2,"message":"Moderate","currency":"$","rating":7.9},{"name":"417 Taphouse","phone":"4172245195","twitter":"417tap","address":"431 S Jefferson Ave Ste 160","lat":37.205846046385616,"lng":-93.29055787813549,"neighborhood":"Downtown Springfield","city_fetched":"Springfield","state":"MO","country":"United States","canonicalUrl":"https://foursquare.com/417tap","category":"Bar","checkinsCount":164,"usersCount":99,"tipCount":5,"visitsCount":223,"url":"http://www.417tap.com","tier":"","message":"","currency":"","rating":7.8},{"name":"Big Whiskey's American Bar and Grill","phone":"4178835999","twitter":"bigwhiskeys","address":"1550 E Battlefield St","lat":37.15934180288347,"lng":-93.26678037643433,"city_fetched":"Springfield","state":"MO","country":"United States","canonicalUrl":"https://foursquare.com/v/big-whiskeys-american-bar-and-grill/509946b245b0a67dec01f5a4","category":"American Restaurant","checkinsCount":1921,"usersCount":927,"tipCount":14,"visitsCount":2152,"url":"http://www.bigwhiskeys.com","tier":2,"message":"Moderate","currency":"$","rating":7.8},{"name":"Maria's Mexican Restaurant","phone":"4178319339","twitter":"mariasdowntown","address":"406 South Ave","lat":37.206840986479065,"lng":-93.29233197183663,"neighborhood":"Downtown Springfield","city_fetched":"Springfield","state":"MO","country":"United States","canonicalUrl":"https://foursquare.com/v/marias-mexican-restaurant/4b303ddbf964a5202df824e3","category":"Mexican Restaurant","checkinsCount":2896,"usersCount":1344,"tipCount":33,"visitsCount":2920,"url":"http://mariasdowntown-hub.com","tier":2,"message":"Moderate","currency":"$","rating":7.8},{"name":"Billiards of Springfield","phone":"4178664319","address":"541 E Saint Louis St","lat":37.20907,"lng":-93.28659,"neighborhood":"Downtown Springfield","city_fetched":"Springfield","state":"MO","country":"United States","canonicalUrl":"https://foursquare.com/v/billiards-of-springfield/4c2d222f4e132d7f73ee9bdf","category":"Pool Hall","checkinsCount":605,"usersCount":280,"tipCount":9,"visitsCount":633,"tier":"","message":"","currency":"","rating":7.7},{"name":"Dublin's Pass Downtown","phone":"4178627625","address":"317 Park Central E","lat":37.208903407343534,"lng":-93.2905922782341,"neighborhood":"Downtown Springfield","city_fetched":"Springfield","state":"MO","country":"United States","canonicalUrl":"https://foursquare.com/v/dublins-pass-downtown/5063a59ae4b030dd868fff61","category":"Pub","checkinsCount":1249,"usersCount":584,"tipCount":17,"visitsCount":1331,"url":"http://dublinspass.com","tier":2,"message":"Moderate","currency":"$","rating":7.7},{"name":"Mix Ultralounge","phone":"4178667166","address":"1221 E Saint Louis St","lat":37.20954529088913,"lng":-93.27521292767163,"city_fetched":"Springfield","state":"MO","country":"United States","canonicalUrl":"https://foursquare.com/v/mix-ultralounge/4f20df05e4b053b1785aa0a1","category":"Gay Bar","checkinsCount":2042,"usersCount":203,"tipCount":5,"visitsCount":2166,"url":"http://www.springfieldmix.com","tier":"","message":"","currency":"","rating":7.7},{"name":"Finnegans Wake & Revival","phone":"4178691500","address":"305 & 307 South Ave.","lat":37.207973,"lng":-93.29237937926975,"neighborhood":"Downtown Springfield","city_fetched":"Springfield","state":"MO","country":"United States","canonicalUrl":"https://foursquare.com/v/finnegans-wake--revival/4b6e4656f964a520abb52ce3","category":"Pub","checkinsCount":4395,"usersCount":1145,"tipCount":20,"visitsCount":4468,"tier":2,"message":"Moderate","currency":"$","rating":7.6},{"name":"Coyote's Adobe Cafe","phone":"4178897120","address":"1742 S Glenstone Ave","lat":37.18305260321224,"lng":-93.26175872863597,"city_fetched":"Springfield","state":"MO","country":"United States","canonicalUrl":"https://foursquare.com/v/coyotes-adobe-cafe/4b4fab94f964a520201027e3","category":"Wings Joint","checkinsCount":1356,"usersCount":662,"tipCount":15,"visitsCount":1589,"url":"http://www.coyotes4wings.com","tier":2,"message":"Moderate","currency":"$","rating":7.6},{"name":"TymeOut Sports Bar","phone":"4177194526","twitter":"tymeoutmo","address":"2902 S Campbell Ste D","lat":37.161394343236395,"lng":-93.29460251225828,"city_fetched":"Springfield","state":"MO","country":"United States","canonicalUrl":"https://foursquare.com/v/tymeout-sports-bar/53b32a91498e580342ba3ad4","category":"Sports Bar","checkinsCount":188,"usersCount":118,"tipCount":3,"visitsCount":313,"tier":"","message":"","currency":"","rating":7.6},{"name":"Bair's All-American Sports Grill","address":"3821 S Campbell Ave","lat":37.14444546942509,"lng":-93.29692840576172,"city_fetched":"Springfield","state":"MO","country":"United States","canonicalUrl":"https://foursquare.com/v/bairs-allamerican-sports-grill/4d44dedabbb1a143ec354c72","category":"Sports Bar","checkinsCount":1370,"usersCount":676,"tipCount":17,"visitsCount":1447,"url":"http://bairsburgers.com","tier":1,"message":"Cheap","currency":"$","rating":7.6},{"name":"Harbell's Sports Grill and Bar","address":"315 Park Central W","lat":37.209051578372176,"lng":-93.29394394642094,"neighborhood":"Downtown Springfield","city_fetched":"Springfield","state":"MO","country":"United States","canonicalUrl":"https://foursquare.com/v/harbells-sports-grill-and-bar/4edfd9f2e300bf196bab204e","category":"Sports Bar","checkinsCount":1107,"usersCount":479,"tipCount":27,"visitsCount":1125,"tier":"","message":"","currency":"","rating":7.6},{"name":"Stepchild Lounge","phone":"4178905399","address":"1861 S Stewart Ave","lat":37.179801,"lng":-93.26044555,"neighborhood":"Southeast Springfield","city_fetched":"Springfield","state":"MO","country":"United States","canonicalUrl":"https://foursquare.com/v/stepchild-lounge/4b889bdff964a5202c0432e3","category":"Bar","checkinsCount":871,"usersCount":259,"tipCount":9,"visitsCount":970,"url":"http://www.stepchildlounge.com","tier":"","message":"","currency":"","rating":7.5},{"name":"Friends Karaoke Pub","phone":"4178821517","twitter":"friendskaraokep","address":"1211 W Battlefield St","lat":37.160703,"lng":-93.308214,"city_fetched":"Springfield","state":"MO","country":"United States","canonicalUrl":"https://foursquare.com/v/friends-karaoke-pub/52b5ddeb498e0addfe605a19","category":"Karaoke Bar","checkinsCount":82,"usersCount":70,"tipCount":2,"visitsCount":124,"url":"http://www.friendskaraokepub.com","tier":"","message":"","currency":"","rating":7.5},{"name":"Dublin's Pass","phone":"4178777625","address":"2767 W Republic Rd","lat":37.138933080114086,"lng":-93.33492946714216,"city_fetched":"Springfield","state":"MO","country":"United States","canonicalUrl":"https://foursquare.com/v/dublins-pass/4dd2e88f45dd45f71923611c","category":"Pub","checkinsCount":1697,"usersCount":652,"tipCount":23,"visitsCount":1815,"tier":2,"message":"Moderate","currency":"$","rating":7.5},{"name":"Parlor 88 Southside","phone":"4178828882","twitter":"parlor88","address":"1111 E Republic Rd","lat":37.13879274060019,"lng":-93.27978200702,"city_fetched":"Springfield","state":"MO","country":"United States","canonicalUrl":"https://foursquare.com/v/parlor-88-southside/4af9f635f964a520951522e3","category":"Lounge","checkinsCount":2687,"usersCount":678,"tipCount":11,"visitsCount":2938,"url":"http://www.parlor88.com","tier":"","message":"","currency":"","rating":7.5},{"name":"Scotch & Soda","phone":"4177194224","twitter":"thescotchsoda","address":"310 South Ave","lat":37.207899,"lng":-93.292128,"neighborhood":"Downtown Springfield","city_fetched":"Springfield","state":"MO","country":"United States","canonicalUrl":"https://foursquare.com/v/scotch--soda/50836b16e4b0607ce9711d7b","category":"Cocktail Bar","checkinsCount":1007,"usersCount":473,"tipCount":16,"visitsCount":1058,"url":"http://www.thescotchandsoda.com","tier":3,"message":"Expensive","currency":"$","rating":7.5},{"name":"Houlihan's Restaurant and Bar","phone":"4178627777","twitter":"houlihans","address":"2431 N Glenstone Ave","lat":37.240569594096854,"lng":-93.26234810128994,"city_fetched":"Springfield","state":"MO","country":"United States","canonicalUrl":"https://foursquare.com/v/houlihans-restaurant-and-bar/4b5124b8f964a520964427e3","category":"American Restaurant","checkinsCount":4735,"usersCount":1843,"tipCount":24,"visitsCount":4878,"url":"http://www.houlihans.com","tier":2,"message":"Moderate","currency":"$","rating":7.4},{"name":"The Bistro Bar","address":"400 South Ave, Springfield, MO 65806","lat":37.20682118070623,"lng":-93.29233688631275,"neighborhood":"Downtown Springfield","city_fetched":"Springfield","state":"MO","country":"United States","canonicalUrl":"https://foursquare.com/v/the-bistro-bar/4f9dbf30e4b020e610ba2b64","category":"Bar","checkinsCount":555,"usersCount":45,"tipCount":2,"visitsCount":556,"tier":"","message":"","currency":"","rating":7.3},{"name":"Ophelia's Wine and Tapas Bar","phone":"4173689970","address":"216 E Walnut St","lat":37.206955571169274,"lng":-93.29167835089987,"neighborhood":"Downtown Springfield","city_fetched":"Springfield","state":"MO","country":"United States","canonicalUrl":"https://foursquare.com/v/ophelias-wine-and-tapas-bar/4c42452a6c1a9521b3c6b96a","category":"Wine Bar","checkinsCount":863,"usersCount":335,"tipCount":10,"visitsCount":867,"tier":2,"message":"Moderate","currency":"$","rating":7.3},{"name":"Bugsy Malones","phone":"4178621870","address":"400 South Ave","lat":37.207012503311454,"lng":-93.29220419563003,"neighborhood":"Downtown Springfield","city_fetched":"Springfield","state":"MO","country":"United States","canonicalUrl":"https://foursquare.com/v/bugsy-malones/4b761b71f964a520233d2ee3","category":"Karaoke Bar","checkinsCount":616,"usersCount":349,"tipCount":8,"visitsCount":618,"tier":"","message":"","currency":"","rating":7.3},{"name":"TGI Fridays","phone":"4178832600","twitter":"tgifridays","address":"3242 S Stewart Ave","lat":37.15437383,"lng":-93.26172173,"city_fetched":"Springfield","state":"MO","country":"United States","canonicalUrl":"https://foursquare.com/v/tgi-fridays/4b4fab3bf964a520051027e3","category":"American Restaurant","checkinsCount":2920,"usersCount":1615,"tipCount":33,"visitsCount":3231,"url":"http://tgifridays.com","tier":2,"message":"Moderate","currency":"$","rating":7.2},{"name":"Dennis' Place","phone":"4178988373","address":"921 W Sunshine St","lat":37.18262198,"lng":-93.30252582,"city_fetched":"Springfield","state":"MO","country":"United States","canonicalUrl":"https://foursquare.com/v/dennis-place/4bb14e3ef964a520088b3ce3","category":"Bar","checkinsCount":1110,"usersCount":358,"tipCount":7,"visitsCount":1211,"tier":1,"message":"Cheap","currency":"$","rating":7.1},{"name":"The Red Room","phone":"4178624444","address":"314 W Walnut St","lat":37.207167,"lng":-93.293877,"neighborhood":"Downtown Springfield","city_fetched":"Springfield","state":"MO","country":"United States","canonicalUrl":"https://foursquare.com/v/the-red-room/4b451a4ff964a520b60426e3","category":"Lounge","checkinsCount":935,"usersCount":350,"tipCount":8,"visitsCount":940,"tier":"","message":"","currency":"","rating":7.1},{"name":"Big Whiskey's American Bar & Grill","phone":"4178822249","twitter":"bigwhiskeys","address":"1440 W Republic Rd","lat":37.13818505530402,"lng":-93.3127212524414,"city_fetched":"Springfield","state":"MO","country":"United States","canonicalUrl":"https://foursquare.com/v/big-whiskeys-american-bar--grill/5099437245b0a67dec01a0dc","category":"American Restaurant","checkinsCount":3465,"usersCount":1254,"tipCount":19,"visitsCount":3715,"url":"http://www.bigwhiskeys.com","tier":2,"message":"Moderate","currency":"$","rating":7.1},{"name":"Zan the Club","phone":"4178651700","twitter":"zan_the_club","address":"311 S Patton Ave","lat":37.20788075041996,"lng":-93.29349671645396,"neighborhood":"Downtown Springfield","city_fetched":"Springfield","state":"MO","country":"United States","canonicalUrl":"https://foursquare.com/v/zan-the-club/4b7649a6f964a520c5462ee3","category":"Nightclub","checkinsCount":966,"usersCount":373,"tipCount":8,"visitsCount":969,"url":"http://www.zannightclub.com","tier":"","message":"","currency":"","rating":7},{"name":"American Legion Post 639","lat":37.166917350106964,"lng":-93.33048804556873,"city_fetched":"Springfield","state":"MO","country":"United States","canonicalUrl":"https://foursquare.com/v/american-legion-post-639/4dd1782ae4cd130e16af4d08","category":"Bar","checkinsCount":186,"usersCount":114,"tipCount":4,"visitsCount":222,"tier":"","message":"","currency":"","rating":7},{"name":"Ernie Biggs Dueling Piano Bar","phone":"4178654782","address":"312 South Ave","lat":37.207756,"lng":-93.292099,"neighborhood":"Downtown Springfield","city_fetched":"Springfield","state":"MO","country":"United States","canonicalUrl":"https://foursquare.com/v/ernie-biggs-dueling-piano-bar/4b4faa0ef964a520d20f27e3","category":"Piano Bar","checkinsCount":2246,"usersCount":1029,"tipCount":15,"visitsCount":2256,"tier":"","message":"","currency":"","rating":7}]