[{"name":"Salty Pelican Bar and Grill","address":"12 N Front St","lat":30.67188102282857,"lng":-81.46446253786307,"city_fetched":"St. Marys,US","state":"FL","country":"United States","canonicalUrl":"https://foursquare.com/v/salty-pelican-bar-and-grill/4fa483dde4b00cad88930fee","categoryId":"4bf58dd8d48988d11d941735","category":"Sports Bar","checkinsCount":1744,"usersCount":1341,"tipCount":33,"visitsCount":2332,"url":"http://thesaltypelicanamelia.com","tier":"","message":"","currency":"","rating":8.7},{"name":"Green Turtle Tavern","phone":"9043212324","address":"14 S 3rd St","lat":30.670550710935412,"lng":-81.46289122852876,"city_fetched":"St. Marys,US","state":"FL","country":"United States","canonicalUrl":"https://foursquare.com/v/green-turtle-tavern/4b7db778f964a52031d02fe3","categoryId":"4bf58dd8d48988d116941735","category":"Bar","checkinsCount":1302,"usersCount":702,"tipCount":22,"visitsCount":1424,"url":"http://greenturtletavern.com","tier":"","message":"","currency":"","rating":8.5},{"name":"The Palace Saloon","phone":"9044913332","address":"117 Centre St","lat":30.67148613725877,"lng":-81.46389408159874,"city_fetched":"St. Marys,US","state":"FL","country":"United States","canonicalUrl":"https://foursquare.com/v/the-palace-saloon/4b588105f964a520f85a28e3","categoryId":"4bf58dd8d48988d116941735","category":"Bar","checkinsCount":2640,"usersCount":1512,"tipCount":34,"visitsCount":2830,"url":"http://thepalacesaloon.com","tier":"","message":"","currency":"","rating":8.1},{"name":"Dog Star Tavern","phone":"9042778010","address":"10 N 2nd St","lat":30.671672,"lng":-81.463621,"city_fetched":"St. Marys,US","state":"FL","country":"United States","canonicalUrl":"https://foursquare.com/v/dog-star-tavern/4c3fd63c3735be9a041516a4","categoryId":"4bf58dd8d48988d11b941735","category":"Pub","checkinsCount":1437,"usersCount":604,"tipCount":7,"visitsCount":1455,"tier":"","message":"","currency":"","rating":7.9},{"name":"Bar Zin","lat":30.58825435506342,"lng":-81.45633213446348,"city_fetched":"St. Marys,US","state":"FL","country":"United States","canonicalUrl":"https://foursquare.com/v/bar-zin/4e2c3d0bd164223a6989cb85","categoryId":"4bf58dd8d48988d123941735","category":"Wine Bar","checkinsCount":185,"usersCount":173,"tipCount":9,"visitsCount":243,"tier":"","message":"","currency":"","rating":7.9},{"name":"Hammerhead","address":"2045 S Fletcher Ave","lat":30.638192296028137,"lng":-81.437344,"city_fetched":"St. Marys,US","state":"FL","country":"United States","canonicalUrl":"https://foursquare.com/v/hammerhead/4d16cb9185fc6dcb20cba84e","categoryId":"4bf58dd8d48988d116941735","category":"Bar","checkinsCount":460,"usersCount":278,"tipCount":5,"visitsCount":581,"tier":"","message":"","currency":"","rating":7.4},{"name":"Halftime Sports Bar & Grill","phone":"9043210303","address":"320 S 8th St","lat":30.666102570208064,"lng":-81.45936236712912,"city_fetched":"St. Marys,US","state":"FL","country":"United States","canonicalUrl":"https://foursquare.com/v/halftime-sports-bar--grill/4c3a0ca5dfb0e21e3b79b1a8","categoryId":"4bf58dd8d48988d11b941735","category":"Pub","checkinsCount":262,"usersCount":109,"tipCount":8,"visitsCount":291,"tier":"","message":"","currency":"","rating":7.2},{"name":"Sandy Bottoms Bar","phone":"9043106904","address":"2910 Atlantic Ave","lat":30.667333552707724,"lng":-81.43097533125882,"city_fetched":"St. Marys,US","state":"FL","country":"United States","canonicalUrl":"https://foursquare.com/v/sandy-bottoms-bar/4b9ab109f964a52088cd35e3","categoryId":"4bf58dd8d48988d116941735","category":"Bar","checkinsCount":694,"usersCount":521,"tipCount":16,"visitsCount":761,"url":"http://sandybottomsamelia.com","tier":"","message":"","currency":"","rating":7.1},{"name":"O'Kane's Irish Pub","phone":"9042611000","address":"318 Centre St","lat":30.671133534463298,"lng":-81.46234421216025,"city_fetched":"St. Marys,US","state":"FL","country":"United States","canonicalUrl":"https://foursquare.com/v/okanes-irish-pub/4bbe6d334e7bd13abefc9a7f","categoryId":"4bf58dd8d48988d116941735","category":"Bar","checkinsCount":868,"usersCount":573,"tipCount":21,"visitsCount":868,"url":"http://www.okanes.com","tier":"","message":"","currency":"","rating":6.1},{"name":"Wee Pub South","phone":"9124674763","twitter":"weepub","address":"2603 Osborne Rd Ste P","lat":30.74998314499209,"lng":-81.57770359846145,"city_fetched":"St. Marys,US","state":"GA","country":"United States","canonicalUrl":"https://foursquare.com/v/wee-pub-south/4fe1edd3e4b0b93c90a9882a","categoryId":"4bf58dd8d48988d116941735","category":"Bar","checkinsCount":328,"usersCount":161,"tipCount":6,"visitsCount":413,"url":"http://weepubsouth-hub.com","tier":"","message":"","currency":"","rating":6},{"name":"Cotton Eyed Joe's","address":"4724 wade place","lat":30.623939682593704,"lng":-81.49065434932709,"city_fetched":"St. Marys,US","state":"FL","country":"United States","canonicalUrl":"https://foursquare.com/v/cotton-eyed-joes/4c1ac808b4e62d7f506fd893","categoryId":"4bf58dd8d48988d116941735","category":"Bar","checkinsCount":327,"usersCount":162,"tipCount":3,"visitsCount":327,"tier":"","message":"","currency":"","rating":5.8}]