[{"name":"4 Hands Brewing Co.","phone":"3144361559","twitter":"4handsbrewery","address":"1220 S 8th St","lat":38.61494238624505,"lng":-90.19771099090576,"city_fetched":"St. Louis,US","state":"MO","country":"United States","canonicalUrl":"https://foursquare.com/v/4-hands-brewing-co/4e31f5fb091a897b154d6e6e","categoryId":"50327c8591d4c4b30a586d5d","category":"Brewery","checkinsCount":6483,"usersCount":3791,"tipCount":51,"visitsCount":8156,"url":"http://4handsbrewery.com","tier":2,"message":"Moderate","currency":"$","rating":9.5},{"name":"Halo Bar At The Pageant","phone":"3147261414","twitter":"thepageantstl","address":"6161 Delmar Blvd","lat":38.65535322269195,"lng":-90.29798386091828,"city_fetched":"St. Louis,US","state":"MO","country":"United States","canonicalUrl":"https://foursquare.com/thepageantstl","categoryId":"4bf58dd8d48988d116941735","category":"Bar","checkinsCount":3947,"usersCount":1662,"tipCount":15,"visitsCount":3966,"url":"http://www.thepageant.com/halobar","tier":2,"message":"Moderate","currency":"$","rating":9.4},{"name":"Sasha's on Shaw","phone":"3147717274","address":"4065 Shaw Blvd","lat":38.61632600982823,"lng":-90.25045531821121,"neighborhood":"Shaw","city_fetched":"St. Louis,US","state":"MO","country":"United States","canonicalUrl":"https://foursquare.com/v/sashas-on-shaw/4ad8093cf964a5209a1021e3","categoryId":"4bf58dd8d48988d123941735","category":"Wine Bar","checkinsCount":7513,"usersCount":2789,"tipCount":61,"visitsCount":8388,"url":"http://sashaswinebar.com","tier":2,"message":"Moderate","currency":"$","rating":9.3},{"name":"The Schlafly Tap Room","phone":"3142412337","twitter":"schlafly","address":"2100 Locust St","lat":38.6329813675578,"lng":-90.20982417651024,"neighborhood":"Downtown West","city_fetched":"St. Louis,US","state":"MO","country":"United States","canonicalUrl":"https://foursquare.com/v/the-schlafly-tap-room/4b5133c1f964a5200e4727e3","categoryId":"50327c8591d4c4b30a586d5d","category":"Brewery","checkinsCount":14260,"usersCount":8346,"tipCount":146,"visitsCount":16118,"url":"http://schlafly.com/tap-room/","tier":2,"message":"Moderate","currency":"$","rating":9.3},{"name":"The Civil Life Brewing Co.","twitter":"thecivillife","address":"3714 Holt Ave","lat":38.590753183990934,"lng":-90.25804996490479,"neighborhood":"Tower Grove South","city_fetched":"St. Louis,US","state":"MO","country":"United States","canonicalUrl":"https://foursquare.com/v/the-civil-life-brewing-co/4c7fcf1400c68cfa32eb5536","categoryId":"50327c8591d4c4b30a586d5d","category":"Brewery","checkinsCount":4319,"usersCount":2104,"tipCount":59,"visitsCount":5235,"url":"http://www.thecivillifebrewingcompany.com","tier":1,"message":"Cheap","currency":"$","rating":9.2},{"name":"The Royale","phone":"3147723600","twitter":"theroyale","address":"3132 S Kingshighway Blvd","lat":38.60399746776081,"lng":-90.26921331882477,"neighborhood":"Tower Grove South","city_fetched":"St. Louis,US","state":"MO","country":"United States","canonicalUrl":"https://foursquare.com/v/the-royale/4acbc3faf964a520b8c520e3","categoryId":"4bf58dd8d48988d116941735","category":"Bar","checkinsCount":9525,"usersCount":3343,"tipCount":99,"visitsCount":10499,"url":"http://www.theroyale.com","tier":2,"message":"Moderate","currency":"$","rating":9.2},{"name":"Anheuser-Busch Brewery Experiences","phone":"3145772626","twitter":"homeofbud","address":"1127 Pestalozzi St","lat":38.59881388935144,"lng":-90.21456859203086,"neighborhood":"Soulard","city_fetched":"St. Louis,US","state":"MO","country":"United States","canonicalUrl":"https://foursquare.com/v/anheuserbusch-brewery-experiences/4acbc3fbf964a5200fc620e3","categoryId":"50327c8591d4c4b30a586d5d","category":"Brewery","checkinsCount":20901,"usersCount":15568,"tipCount":163,"visitsCount":22117,"url":"http://www.budweisertours.com","tier":1,"message":"Cheap","currency":"$","rating":9.2},{"name":"International Tap House","phone":"3146214333","twitter":"itapbeer","address":"1711 S 9th St","lat":38.61048915581998,"lng":-90.20328227612829,"neighborhood":"Soulard","city_fetched":"St. Louis,US","state":"MO","country":"United States","canonicalUrl":"https://foursquare.com/v/international-tap-house/4b92b3fff964a5203a1334e3","categoryId":"4bf58dd8d48988d116941735","category":"Bar","checkinsCount":13720,"usersCount":4501,"tipCount":55,"visitsCount":14398,"url":"http://internationaltaphouse.com","tier":2,"message":"Moderate","currency":"$","rating":9.2},{"name":"Urban Chestnut Brewing Company","phone":"3142220143","twitter":"urbanchestnut","address":"3229 Washington Ave","lat":38.63774588087759,"lng":-90.22558603164468,"neighborhood":"Grand Center","city_fetched":"St. Louis,US","state":"MO","country":"United States","canonicalUrl":"https://foursquare.com/v/urban-chestnut-brewing-company/4c601ff6b36eb71383c99ed2","categoryId":"50327c8591d4c4b30a586d5d","category":"Brewery","checkinsCount":7682,"usersCount":3987,"tipCount":71,"visitsCount":8630,"url":"http://urbanchestnut.com","tier":2,"message":"Moderate","currency":"$","rating":9.1},{"name":"Flying Saucer Draught Emporium","phone":"3149321456","address":"900 Spruce St","lat":38.62320175005932,"lng":-90.19578493971447,"neighborhood":"Downtown East","city_fetched":"St. Louis,US","state":"MO","country":"United States","canonicalUrl":"https://foursquare.com/v/flying-saucer-draught-emporium/50e9ea77d86c11272e020e9f","categoryId":"4bf58dd8d48988d116941735","category":"Bar","checkinsCount":10111,"usersCount":3531,"tipCount":67,"visitsCount":11405,"url":"http://www.beerknurd.com","tier":2,"message":"Moderate","currency":"$","rating":9.1},{"name":"Bridge Tap House & Wine Bar","phone":"3142418141","twitter":"bridgestl","address":"1004 Locust St","lat":38.62978724755841,"lng":-90.19453525543213,"neighborhood":"Downtown East","city_fetched":"St. Louis,US","state":"MO","country":"United States","canonicalUrl":"https://foursquare.com/v/bridge-tap-house--wine-bar/4b2d77def964a52054d724e3","categoryId":"4bf58dd8d48988d123941735","category":"Wine Bar","checkinsCount":7412,"usersCount":3944,"tipCount":99,"visitsCount":7949,"url":"http://www.thebridgestl.com","tier":2,"message":"Moderate","currency":"$","rating":9.1},{"name":"Perennial Artisan Ales","phone":"3146317300","twitter":"perennialbeer","address":"8125 Michigan Ave","lat":38.5456080849906,"lng":-90.26578891121135,"neighborhood":"Patch","city_fetched":"St. Louis,US","state":"MO","country":"United States","canonicalUrl":"https://foursquare.com/v/perennial-artisan-ales/4d10ff5371e8a1cd493a84bd","categoryId":"50327c8591d4c4b30a586d5d","category":"Brewery","checkinsCount":5703,"usersCount":1851,"tipCount":41,"visitsCount":7099,"url":"http://perennialbeer.com","tier":2,"message":"Moderate","currency":"$","rating":9.1},{"name":"Taste By Niche","phone":"3143611200","twitter":"tastebarstl","address":"4584 Laclede Ave","lat":38.64012845146803,"lng":-90.26196067766642,"neighborhood":"Central West End","city_fetched":"St. Louis,US","state":"MO","country":"United States","canonicalUrl":"https://foursquare.com/v/taste-by-niche/4d7c49f873ca548132a25c7c","categoryId":"4bf58dd8d48988d11e941735","category":"Cocktail Bar","checkinsCount":3701,"usersCount":1921,"tipCount":71,"visitsCount":3764,"url":"http://tastebarstl.com","tier":2,"message":"Moderate","currency":"$","rating":9.1},{"name":"John D. McGurk's Irish Pub","phone":"3147768309","twitter":"johndmcgurk","address":"1200 Russell Blvd","lat":38.60761521841518,"lng":-90.21003842353821,"neighborhood":"Soulard","city_fetched":"St. Louis,US","state":"MO","country":"United States","canonicalUrl":"https://foursquare.com/v/john-d-mcgurks-irish-pub/4acbc3f9f964a52098c520e3","categoryId":"4bf58dd8d48988d11b941735","category":"Pub","checkinsCount":19280,"usersCount":8531,"tipCount":89,"visitsCount":21557,"url":"http://mcgurks.com","tier":2,"message":"Moderate","currency":"$","rating":9.1},{"name":"Three Sixty Rooftop Bar","phone":"3144211776","twitter":"hiltonhotels","address":"1 S Broadway","lat":38.6249365249698,"lng":-90.19072345550774,"neighborhood":"Downtown East","city_fetched":"St. Louis,US","state":"MO","country":"United States","canonicalUrl":"https://foursquare.com/v/three-sixty-rooftop-bar/50ca02bf245f2d4aa8c2af77","categoryId":"4bf58dd8d48988d1d5941735","category":"Hotel Bar","checkinsCount":9196,"usersCount":6247,"tipCount":79,"visitsCount":9401,"url":"http://www.hilton.com","tier":"","message":"","currency":"","rating":9.1},{"name":"Olio","phone":"3149321088","twitter":"oliostl","address":"1634 Tower Grove Ave","lat":38.619259531773515,"lng":-90.25556087493896,"city_fetched":"St. Louis,US","state":"MO","country":"United States","canonicalUrl":"https://foursquare.com/v/olio/50983675011ccdd77f1f1450","categoryId":"4bf58dd8d48988d123941735","category":"Wine Bar","checkinsCount":1360,"usersCount":910,"tipCount":29,"visitsCount":1575,"url":"http://oliostl.com","tier":2,"message":"Moderate","currency":"$","rating":9},{"name":"Planter's House","phone":"3146966203","address":"1000 Mississippi Ave","lat":38.620724459181545,"lng":-90.21218667331111,"neighborhood":"Lafayette Square","city_fetched":"St. Louis,US","state":"MO","country":"United States","canonicalUrl":"https://foursquare.com/v/planters-house/529fd31b11d25fe504a7a4aa","categoryId":"4bf58dd8d48988d11e941735","category":"Cocktail Bar","checkinsCount":1197,"usersCount":901,"tipCount":23,"visitsCount":1592,"url":"http://plantershousestl.com","tier":2,"message":"Moderate","currency":"$","rating":9},{"name":"HandleBar","phone":"3146522212","twitter":"handlebarstl","address":"4127 Manchester Ave","lat":38.62792146898547,"lng":-90.25128029060714,"neighborhood":"Forest Park Southeast","city_fetched":"St. Louis,US","state":"MO","country":"United States","canonicalUrl":"https://foursquare.com/v/handlebar/4c51df5b384c76b0582aef2a","categoryId":"4bf58dd8d48988d116941735","category":"Bar","checkinsCount":9597,"usersCount":2838,"tipCount":47,"visitsCount":10014,"url":"http://www.handlebarstl.com","tier":2,"message":"Moderate","currency":"$","rating":8.9},{"name":"Seamus McDaniel's","phone":"3146456337","address":"1208 Tamm Ave","lat":38.62824554578307,"lng":-90.29266589575622,"neighborhood":"Clayton-Tamm","city_fetched":"St. Louis,US","state":"MO","country":"United States","canonicalUrl":"https://foursquare.com/v/seamus-mcdaniels/4acbc3f9f964a5209fc520e3","categoryId":"4bf58dd8d48988d11b941735","category":"Pub","checkinsCount":5771,"usersCount":2985,"tipCount":67,"visitsCount":6494,"url":"http://www.seamusmcdaniels.com","tier":2,"message":"Moderate","currency":"$","rating":8.9},{"name":"Sub Zero Vodka Bar","phone":"3143671200","twitter":"subzerovodka","address":"308 N Euclid Ave","lat":38.64503628929813,"lng":-90.26147014079325,"neighborhood":"Central West End","city_fetched":"St. Louis,US","state":"MO","country":"United States","canonicalUrl":"https://foursquare.com/v/sub-zero-vodka-bar/4acbc3faf964a520b2c520e3","categoryId":"4bf58dd8d48988d11e941735","category":"Cocktail Bar","checkinsCount":10610,"usersCount":4854,"tipCount":99,"visitsCount":10864,"url":"http://www.subzerovodkabar.com","tier":3,"message":"Expensive","currency":"$","rating":8.9},{"name":"Scottish Arms","phone":"3145350551","address":"6 S Sarah St","lat":38.636633463316386,"lng":-90.24685772631351,"neighborhood":"Central West End","city_fetched":"St. Louis,US","state":"MO","country":"United States","canonicalUrl":"https://foursquare.com/v/scottish-arms/4ad8e438f964a520bd1521e3","categoryId":"4bf58dd8d48988d11b941735","category":"Pub","checkinsCount":3766,"usersCount":2394,"tipCount":60,"visitsCount":4550,"url":"http://thescottisharms.com","tier":2,"message":"Moderate","currency":"$","rating":8.9},{"name":"Square One Brewery & Distillery","phone":"3142312537","twitter":"squareonebrews","address":"1727 Park Ave","lat":38.61686941607551,"lng":-90.21107643842697,"neighborhood":"Lafayette Square","city_fetched":"St. Louis,US","state":"MO","country":"United States","canonicalUrl":"https://foursquare.com/squareonebrews","categoryId":"50327c8591d4c4b30a586d5d","category":"Brewery","checkinsCount":8803,"usersCount":4943,"tipCount":94,"visitsCount":10242,"url":"http://www.squareonebrewery.com","tier":2,"message":"Moderate","currency":"$","rating":8.9},{"name":"Sanctuaria","phone":"3145359700","twitter":"sanctuariatapas","address":"4198 Manchester Ave","lat":38.62723089815539,"lng":-90.25395154953003,"neighborhood":"Forest Park Southeast","city_fetched":"St. Louis,US","state":"MO","country":"United States","canonicalUrl":"https://foursquare.com/sanctuariatapas","categoryId":"4bf58dd8d48988d121941735","category":"Lounge","checkinsCount":4495,"usersCount":1885,"tipCount":62,"visitsCount":4655,"url":"http://www.sanctuariastl.com","tier":3,"message":"Expensive","currency":"$","rating":8.8},{"name":"Robust Downtown at The MX","phone":"3142876300","address":"635 Washington Ave","lat":38.63042279278532,"lng":-90.19037567435365,"neighborhood":"Downtown East","city_fetched":"St. Louis,US","state":"MO","country":"United States","canonicalUrl":"https://foursquare.com/v/robust-downtown-at-the-mx/5058ccdae4b0479164bcb134","categoryId":"4bf58dd8d48988d123941735","category":"Wine Bar","checkinsCount":1756,"usersCount":918,"tipCount":21,"visitsCount":1791,"url":"http://robustwinebar.com","tier":2,"message":"Moderate","currency":"$","rating":8.8},{"name":"Urban Chestnut Brewing Company","phone":"3142220143","twitter":"urbanchestnut","address":"4465 Manchester Ave","lat":38.626668208893975,"lng":-90.26109880390322,"neighborhood":"Forest Park Southeast","city_fetched":"St. Louis,US","state":"MO","country":"United States","canonicalUrl":"https://foursquare.com/v/urban-chestnut-brewing-company/521e958d11d2448152633d94","categoryId":"50327c8591d4c4b30a586d5d","category":"Brewery","checkinsCount":4035,"usersCount":3228,"tipCount":52,"visitsCount":5897,"url":"http://urbanchestnut.com","tier":1,"message":"Cheap","currency":"$","rating":8.8},{"name":"Tick Tock Tavern","address":"3459 Magnolia Ave","lat":38.606174,"lng":-90.239125,"neighborhood":"Tower Grove East","city_fetched":"St. Louis,US","state":"MO","country":"United States","canonicalUrl":"https://foursquare.com/v/tick-tock-tavern/53f26c3f498e90701ae1bdd9","categoryId":"4bf58dd8d48988d116941735","category":"Bar","checkinsCount":497,"usersCount":208,"tipCount":5,"visitsCount":546,"url":"http://www.theticktock.com","tier":"","message":"","currency":"","rating":8.7},{"name":"33 Wine Shop & Bar","phone":"3142319463","twitter":"33wine","address":"1913 Park Ave","lat":38.617286360008606,"lng":-90.2127818986725,"neighborhood":"Lafayette Square","city_fetched":"St. Louis,US","state":"MO","country":"United States","canonicalUrl":"https://foursquare.com/v/33-wine-shop--bar/4acbc3faf964a520d0c520e3","categoryId":"4bf58dd8d48988d123941735","category":"Wine Bar","checkinsCount":2930,"usersCount":910,"tipCount":19,"visitsCount":2970,"url":"http://33wine.com","tier":2,"message":"Moderate","currency":"$","rating":8.7},{"name":"Molly's in Soulard","phone":"3142416200","twitter":"mollysinsoulard","address":"816 Geyer Ave","lat":38.608144,"lng":-90.204055,"neighborhood":"Soulard","city_fetched":"St. Louis,US","state":"MO","country":"United States","canonicalUrl":"https://foursquare.com/v/mollys-in-soulard/4aecf810f964a5207ecc21e3","categoryId":"4bf58dd8d48988d116941735","category":"Bar","checkinsCount":11790,"usersCount":5060,"tipCount":63,"visitsCount":13186,"url":"http://www.mollysinsoulard.com","tier":2,"message":"Moderate","currency":"$","rating":8.7},{"name":"The Gramophone","phone":"3145315700","twitter":"thegramophone","address":"4243 Manchester Ave","lat":38.62723014698053,"lng":-90.25592337796286,"neighborhood":"Forest Park Southeast","city_fetched":"St. Louis,US","state":"MO","country":"United States","canonicalUrl":"https://foursquare.com/v/the-gramophone/4e97ab85f5b9dd852f8ddaf9","categoryId":"4bf58dd8d48988d116941735","category":"Bar","checkinsCount":2804,"usersCount":1638,"tipCount":16,"visitsCount":3195,"url":"http://www.gramophonestl.com","tier":"","message":"","currency":"","rating":8.7},{"name":"International Tap House","phone":"3143674827","twitter":"itapcwe","address":"16 S Euclid Ave","lat":38.639679,"lng":-90.262146,"neighborhood":"Central West End","city_fetched":"St. Louis,US","state":"MO","country":"United States","canonicalUrl":"https://foursquare.com/v/international-tap-house/51d899b5498ee58ceef74b5c","categoryId":"4bf58dd8d48988d117941735","category":"Beer Garden","checkinsCount":2614,"usersCount":1246,"tipCount":18,"visitsCount":2862,"url":"http://www.internationaltaphouse.com","tier":1,"message":"Cheap","currency":"$","rating":8.7},{"name":"Baileys' Chocolate Bar","phone":"3142418100","twitter":"baileyschocobar","address":"1915 Park Ave","lat":38.61745830190635,"lng":-90.21279105605704,"neighborhood":"Lafayette Square","city_fetched":"St. Louis,US","state":"MO","country":"United States","canonicalUrl":"https://foursquare.com/v/baileys-chocolate-bar/4acbc3faf964a520cdc520e3","categoryId":"4bf58dd8d48988d116941735","category":"Bar","checkinsCount":5787,"usersCount":3137,"tipCount":82,"visitsCount":5874,"url":"http://baileyschocolatebar.com","tier":2,"message":"Moderate","currency":"$","rating":8.6},{"name":"Cardinals Nation","phone":"3143459880","twitter":"cardinals","address":"601 Clark Ave #102","lat":38.62378150918116,"lng":-90.19220156023334,"neighborhood":"Downtown East","city_fetched":"St. Louis,US","state":"MO","country":"United States","canonicalUrl":"https://foursquare.com/v/cardinals-nation/4e9b773f4690c213357b2d26","categoryId":"4bf58dd8d48988d11d941735","category":"Sports Bar","checkinsCount":2691,"usersCount":1406,"tipCount":12,"visitsCount":2728,"url":"http://www.stlballparkvillage.com/dining/drink/cardinals-nation","tier":"","message":"","currency":"","rating":8.5},{"name":"Venice Café","phone":"3147725994","address":"1903 Pestalozzi St","lat":38.59929803107158,"lng":-90.21742954897701,"neighborhood":"Benton Park","city_fetched":"St. Louis,US","state":"MO","country":"United States","canonicalUrl":"https://foursquare.com/v/venice-caf%C3%A9/4acbc3faf964a520c3c520e3","categoryId":"4bf58dd8d48988d116941735","category":"Bar","checkinsCount":2160,"usersCount":1532,"tipCount":19,"visitsCount":2394,"url":"http://www.thevenicecafe.com","tier":1,"message":"Cheap","currency":"$","rating":8.5},{"name":"Sandrina's","phone":"3146013456","address":"5098 Arsenal St","lat":38.605797,"lng":-90.275829,"neighborhood":"Southwest Garden","city_fetched":"St. Louis,US","state":"MO","country":"United States","canonicalUrl":"https://foursquare.com/v/sandrinas/4adbe7f0f964a5200e2b21e3","categoryId":"4bf58dd8d48988d116941735","category":"Bar","checkinsCount":4238,"usersCount":1503,"tipCount":40,"visitsCount":4574,"url":"http://www.sandrinasstl.com","tier":2,"message":"Moderate","currency":"$","rating":8.5},{"name":"Small Batch","phone":"3143802040","twitter":"smallbatchstl","address":"3001 Locust St","lat":38.635934697538,"lng":-90.22188082524859,"neighborhood":"Midtown","city_fetched":"St. Louis,US","state":"MO","country":"United States","canonicalUrl":"https://foursquare.com/v/small-batch/52afaced498e45d02f3576b2","categoryId":"4bf58dd8d48988d122941735","category":"Whisky Bar","checkinsCount":991,"usersCount":694,"tipCount":21,"visitsCount":1244,"url":"http://smallbatchstl.com","tier":2,"message":"Moderate","currency":"$","rating":8.5},{"name":"Just John's Nightclub","phone":"3143711333","address":"4112 Manchester Ave","lat":38.627574116915284,"lng":-90.25085405268631,"neighborhood":"Forest Park Southeast","city_fetched":"St. Louis,US","state":"MO","country":"United States","canonicalUrl":"https://foursquare.com/v/just-johns-nightclub/4af118e6f964a520b5e021e3","categoryId":"4bf58dd8d48988d1d8941735","category":"Gay Bar","checkinsCount":11672,"usersCount":2897,"tipCount":35,"visitsCount":12976,"url":"http://justjohnclub.com","tier":1,"message":"Cheap","currency":"$","rating":8.5},{"name":"The Famous Bar","phone":"3148322211","address":"5213 Chippewa St","lat":38.591992253517994,"lng":-90.27979382105202,"city_fetched":"St. Louis,US","state":"MO","country":"United States","canonicalUrl":"https://foursquare.com/v/the-famous-bar/4aeb5103f964a520d2c021e3","categoryId":"4bf58dd8d48988d116941735","category":"Bar","checkinsCount":1530,"usersCount":765,"tipCount":16,"visitsCount":1704,"url":"http://thefamousbar.com","tier":2,"message":"Moderate","currency":"$","rating":8.5},{"name":"Side Project Brewing","address":"8125 Michigan Ave","lat":38.54563830622232,"lng":-90.26597689404228,"neighborhood":"Patch","city_fetched":"St. Louis,US","state":"MO","country":"United States","canonicalUrl":"https://foursquare.com/v/side-project-brewing/5246d3b611d29dc47c2877ae","categoryId":"50327c8591d4c4b30a586d5d","category":"Brewery","checkinsCount":250,"usersCount":73,"tipCount":3,"visitsCount":268,"tier":"","message":"","currency":"","rating":8.4},{"name":"The Whiskey Ring","address":"2651 Cherokee St","lat":38.593626,"lng":-90.227607,"city_fetched":"St. Louis,US","state":"MO","country":"United States","canonicalUrl":"https://foursquare.com/v/the-whiskey-ring/52ad51b211d278d8f4e85828","categoryId":"4bf58dd8d48988d122941735","category":"Whisky Bar","checkinsCount":781,"usersCount":465,"tipCount":14,"visitsCount":957,"tier":"","message":"","currency":"","rating":8.4},{"name":"South Town Pub & Grill","phone":"3148329009","address":"3707 S Kingshighway Blvd","lat":38.59290681105738,"lng":-90.27251559276523,"city_fetched":"St. Louis,US","state":"MO","country":"United States","canonicalUrl":"https://foursquare.com/v/south-town-pub--grill/4bcad3efcc8cd13ad55fbecf","categoryId":"4bf58dd8d48988d11b941735","category":"Pub","checkinsCount":5167,"usersCount":1807,"tipCount":40,"visitsCount":5885,"url":"http://southtownpub.net","tier":1,"message":"Cheap","currency":"$","rating":8.4},{"name":"Atomic Cowboy","phone":"3147750775","twitter":"atomiccowboystl","address":"4140 Manchester Ave","lat":38.62748464814729,"lng":-90.25174319944189,"neighborhood":"Forest Park Southeast","city_fetched":"St. Louis,US","state":"MO","country":"United States","canonicalUrl":"https://foursquare.com/v/atomic-cowboy/4acbc3faf964a52007c620e3","categoryId":"4bf58dd8d48988d116941735","category":"Bar","checkinsCount":11780,"usersCount":4304,"tipCount":82,"visitsCount":13229,"url":"http://www.atomiccowboystl.com","tier":2,"message":"Moderate","currency":"$","rating":8.4},{"name":"The Shanti","phone":"3142414772","address":"825 Allen Ave","lat":38.60773542063061,"lng":-90.20476543746024,"neighborhood":"Soulard","city_fetched":"St. Louis,US","state":"MO","country":"United States","canonicalUrl":"https://foursquare.com/v/the-shanti/4adfcc83f964a5207f7d21e3","categoryId":"4bf58dd8d48988d118941735","category":"Dive Bar","checkinsCount":2015,"usersCount":1183,"tipCount":16,"visitsCount":2093,"url":"http://www.theshanti.com","tier":1,"message":"Cheap","currency":"$","rating":8.3},{"name":"Eclipse Rooftop Terrace Bar @ Moonrise Hotel","phone":"3147262222","address":"6177 Delmar Blvd","lat":38.655699581728776,"lng":-90.29860334311083,"city_fetched":"St. Louis,US","state":"MO","country":"United States","canonicalUrl":"https://foursquare.com/v/eclipse-rooftop-terrace-bar--moonrise-hotel/4bb57ca26edc76b0b4d52f1c","categoryId":"4bf58dd8d48988d11e941735","category":"Cocktail Bar","checkinsCount":3269,"usersCount":1968,"tipCount":18,"visitsCount":3331,"url":"http://eclipsestlouis.com","tier":2,"message":"Moderate","currency":"$","rating":8.3},{"name":"The Biergarten AB","phone":"3145772626","twitter":"biergartenab","address":"12th & Lynch St","lat":38.599163734120175,"lng":-90.21410465240479,"neighborhood":"Soulard","city_fetched":"St. Louis,US","state":"MO","country":"United States","canonicalUrl":"https://foursquare.com/v/the-biergarten-ab/51fab72b454a8496a0df646a","categoryId":"4bf58dd8d48988d117941735","category":"Beer Garden","checkinsCount":1811,"usersCount":1362,"tipCount":18,"visitsCount":1877,"url":"http://www.budweisertours.com","tier":2,"message":"Moderate","currency":"$","rating":8.3},{"name":"Paddy O's","phone":"3145887313","twitter":"paddyosstl","address":"618 S 7th St","lat":38.62089415551975,"lng":-90.19416025024167,"neighborhood":"Downtown East","city_fetched":"St. Louis,US","state":"MO","country":"United States","canonicalUrl":"https://foursquare.com/paddyosstl","categoryId":"4bf58dd8d48988d11d941735","category":"Sports Bar","checkinsCount":8631,"usersCount":4730,"tipCount":19,"visitsCount":9309,"url":"http://stlpaddyos.com","tier":2,"message":"Moderate","currency":"$","rating":8.3},{"name":"Amsterdam Tavern","phone":"3147728224","address":"3175 Morganford Rd","lat":38.60188039118731,"lng":-90.26191234588623,"neighborhood":"Tower Grove South","city_fetched":"St. Louis,US","state":"MO","country":"United States","canonicalUrl":"https://foursquare.com/v/amsterdam-tavern/4af4d475f964a520a2f621e3","categoryId":"4bf58dd8d48988d117941735","category":"Beer Garden","checkinsCount":3636,"usersCount":1488,"tipCount":30,"visitsCount":4011,"url":"http://www.amsterdamtavern.com","tier":1,"message":"Cheap","currency":"$","rating":8.3},{"name":"Larry J's","phone":"3146312921","address":"4000 Weber Rd","lat":38.55328812,"lng":-90.28299450874329,"city_fetched":"St. Louis,US","state":"MO","country":"United States","canonicalUrl":"https://foursquare.com/v/larry-js/4b58ff0bf964a520817728e3","categoryId":"4bf58dd8d48988d116941735","category":"Bar","checkinsCount":329,"usersCount":108,"tipCount":3,"visitsCount":459,"tier":"","message":"","currency":"","rating":8.3},{"name":"Gamlin Whiskey House","phone":"3148759500","twitter":"gamlinwh","address":"236 N Euclid Ave","lat":38.6445437383328,"lng":-90.26152515396687,"neighborhood":"Central West End","city_fetched":"St. Louis,US","state":"MO","country":"United States","canonicalUrl":"https://foursquare.com/v/gamlin-whiskey-house/5250d44f498e0a9b589b762b","categoryId":"4bf58dd8d48988d122941735","category":"Whisky Bar","checkinsCount":1924,"usersCount":1299,"tipCount":22,"visitsCount":2048,"url":"http://www.gamlinwhiskeyhouse.com","tier":2,"message":"Moderate","currency":"$","rating":8.3},{"name":"21st Street Brewers Bar","phone":"3142416969","address":"2017 Chouteau Ave","lat":38.62124599755106,"lng":-90.21307035732342,"neighborhood":"Downtown West","city_fetched":"St. Louis,US","state":"MO","country":"United States","canonicalUrl":"https://foursquare.com/v/21st-street-brewers-bar/531bc8f9498ed3c0d1194841","categoryId":"4bf58dd8d48988d11b941735","category":"Pub","checkinsCount":634,"usersCount":381,"tipCount":12,"visitsCount":660,"url":"http://21stbrew.com","tier":2,"message":"Moderate","currency":"$","rating":8.3},{"name":"Joanie's Pizzeria Soulard","phone":"3148651994","address":"2101 Menard St","lat":38.60713012664587,"lng":-90.20784180470318,"neighborhood":"Soulard","city_fetched":"St. Louis,US","state":"MO","country":"United States","canonicalUrl":"https://foursquare.com/v/joanies-pizzeria-soulard/4ada6cf2f964a5207d2221e3","categoryId":"4bf58dd8d48988d116941735","category":"Bar","checkinsCount":3303,"usersCount":1747,"tipCount":23,"visitsCount":3567,"url":"http://www.joanies.com","tier":2,"message":"Moderate","currency":"$","rating":8.3},{"name":"Sasha's Wine Bar & Market","phone":"3148637274","address":"706 DE Mun Ave","lat":38.63834834936818,"lng":-90.3077223394141,"city_fetched":"St. Louis,US","state":"MO","country":"United States","canonicalUrl":"https://foursquare.com/v/sashas-wine-bar--market/4af4e1a7f964a52036f721e3","categoryId":"4bf58dd8d48988d123941735","category":"Wine Bar","checkinsCount":3939,"usersCount":1685,"tipCount":35,"visitsCount":4162,"url":"http://sashaswinebar.com","tier":2,"message":"Moderate","currency":"$","rating":8.3},{"name":"O'Connell's Pub","phone":"3147736600","address":"4652 Shaw Ave","lat":38.6175065086238,"lng":-90.26652306318283,"neighborhood":"Southwest Garden","city_fetched":"St. Louis,US","state":"MO","country":"United States","canonicalUrl":"https://foursquare.com/v/oconnells-pub/4acbc3f9f964a52099c520e3","categoryId":"4bf58dd8d48988d11b941735","category":"Pub","checkinsCount":3704,"usersCount":2495,"tipCount":49,"visitsCount":4389,"url":"http://www.saucemagazine.com/oconnells","tier":2,"message":"Moderate","currency":"$","rating":8.3},{"name":"Scarlett's Wine Bar","lat":38.63818,"lng":-90.251035,"neighborhood":"Central West End","city_fetched":"St. Louis,US","state":"MO","country":"United States","canonicalUrl":"https://foursquare.com/v/scarletts-wine-bar/574e4c43498e9765f30b0759","categoryId":"4bf58dd8d48988d123941735","category":"Wine Bar","checkinsCount":87,"usersCount":64,"tipCount":0,"visitsCount":93,"tier":"","message":"","currency":"","rating":8.2},{"name":"Sportsman's Park","phone":"3149913381","address":"9901 Clayton Rd","lat":38.63769738170079,"lng":-90.39212440129283,"city_fetched":"St. Louis,US","state":"MO","country":"United States","canonicalUrl":"https://foursquare.com/v/sportsmans-park/4ad8a706f964a5204a1321e3","categoryId":"4bf58dd8d48988d11d941735","category":"Sports Bar","checkinsCount":2225,"usersCount":1007,"tipCount":21,"visitsCount":2684,"url":"http://sportsmansparkladue.com","tier":2,"message":"Moderate","currency":"$","rating":8.2},{"name":"Missouri Bar & Grill","phone":"3142312234","address":"701 N Tucker Blvd","lat":38.63253274205907,"lng":-90.19670028771469,"neighborhood":"Downtown West","city_fetched":"St. Louis,US","state":"MO","country":"United States","canonicalUrl":"https://foursquare.com/v/missouri-bar--grill/4b53ce51f964a520e8ab27e3","categoryId":"4bf58dd8d48988d116941735","category":"Bar","checkinsCount":1523,"usersCount":602,"tipCount":27,"visitsCount":1560,"url":"http://missouribarandgrille.com","tier":1,"message":"Cheap","currency":"$","rating":8.2},{"name":"Tropical Liqueurs","twitter":"tropsstl","address":"1800 S 10th St","lat":38.610242,"lng":-90.204218,"neighborhood":"Soulard","city_fetched":"St. Louis,US","state":"MO","country":"United States","canonicalUrl":"https://foursquare.com/v/tropical-liqueurs/55baadb4498e92cd8f83b23e","categoryId":"4bf58dd8d48988d116941735","category":"Bar","checkinsCount":480,"usersCount":584,"tipCount":5,"visitsCount":931,"url":"http://2trops.com","tier":"","message":"","currency":"","rating":8.2},{"name":"Anheuser-Busch Brew House and Clock Tower","lat":38.597511441150274,"lng":-90.2120310004916,"neighborhood":"Soulard","city_fetched":"St. Louis,US","state":"MO","country":"United States","canonicalUrl":"https://foursquare.com/v/anheuserbusch-brew-house-and-clock-tower/5038ff74e4b0cee4d5437d0f","categoryId":"50327c8591d4c4b30a586d5d","category":"Brewery","checkinsCount":273,"usersCount":249,"tipCount":2,"visitsCount":307,"tier":"","message":"","currency":"","rating":8.2},{"name":"Kicker's Corner Bar","phone":"3148327935","address":"6201 S Broadway","lat":38.5575881691724,"lng":-90.2464819460874,"neighborhood":"Carondelet","city_fetched":"St. Louis,US","state":"MO","country":"United States","canonicalUrl":"https://foursquare.com/v/kickers-corner-bar/4aefb31bf964a520f5d921e3","categoryId":"4bf58dd8d48988d116941735","category":"Bar","checkinsCount":745,"usersCount":196,"tipCount":13,"visitsCount":833,"tier":1,"message":"Cheap","currency":"$","rating":8.2},{"name":"Llywelyn's Pub","phone":"3144363255","address":"1732 S 9th St","lat":38.60988548022496,"lng":-90.20321361262528,"neighborhood":"Soulard","city_fetched":"St. Louis,US","state":"MO","country":"United States","canonicalUrl":"https://foursquare.com/v/llywelyns-pub/4af30ae0f964a52010ea21e3","categoryId":"4bf58dd8d48988d11b941735","category":"Pub","checkinsCount":9374,"usersCount":3975,"tipCount":40,"visitsCount":10004,"url":"https://www.facebook.com/LlywelynsWinghaven","tier":2,"message":"Moderate","currency":"$","rating":8.2},{"name":"Hammerstone's","phone":"3147735565","address":"2028 S 9th St","lat":38.60658398942137,"lng":-90.20527482032776,"neighborhood":"Soulard","city_fetched":"St. Louis,US","state":"MO","country":"United States","canonicalUrl":"https://foursquare.com/v/hammerstones/4ad73343f964a520f90821e3","categoryId":"4bf58dd8d48988d116941735","category":"Bar","checkinsCount":5940,"usersCount":2810,"tipCount":44,"visitsCount":6972,"url":"http://www.hammerstones.net","tier":1,"message":"Cheap","currency":"$","rating":8.2},{"name":"Meyer's Grove","phone":"3149327003","twitter":"meyersgrove","address":"4510 Manchester Ave","lat":38.62612099095377,"lng":-90.26202944501141,"neighborhood":"Forest Park Southeast","city_fetched":"St. Louis,US","state":"MO","country":"United States","canonicalUrl":"https://foursquare.com/v/meyers-grove/4df960bd18381da936299dd5","categoryId":"4bf58dd8d48988d1d8941735","category":"Gay Bar","checkinsCount":2368,"usersCount":705,"tipCount":13,"visitsCount":2702,"url":"http://meyersgrove.com","tier":1,"message":"Cheap","currency":"$","rating":8.2},{"name":"Ranoush","phone":"3147166874","address":"6501 Delmar Blvd","lat":38.655935,"lng":-90.30450875,"city_fetched":"St. Louis,US","state":"MO","country":"United States","canonicalUrl":"https://foursquare.com/v/ranoush/4adb7255f964a520952721e3","categoryId":"4bf58dd8d48988d119941735","category":"Hookah Bar","checkinsCount":2072,"usersCount":1338,"tipCount":33,"visitsCount":2089,"url":"http://www.ranoush.com","tier":2,"message":"Moderate","currency":"$","rating":8.2},{"name":"Twin Peaks Chesterfield","phone":"9729413150","address":"963 Chesterfield Center","lat":38.648174586970924,"lng":-90.56373872815753,"city_fetched":"St. Louis,US","state":"MO","country":"United States","canonicalUrl":"https://foursquare.com/v/twin-peaks-chesterfield/57217847498e74f6a7b8724c","categoryId":"4bf58dd8d48988d11d941735","category":"Sports Bar","checkinsCount":51,"usersCount":53,"tipCount":1,"visitsCount":82,"url":"http://www.twinpeaksrestaurant.com","tier":"","message":"","currency":"","rating":8.2},{"name":"Budweiser Sign","lat":38.63128675017867,"lng":-90.23133002893742,"neighborhood":"Midtown","city_fetched":"St. Louis,US","state":"MO","country":"United States","canonicalUrl":"https://foursquare.com/v/budweiser-sign/52031412498e588fab6567ff","categoryId":"4bf58dd8d48988d116941735","category":"Bar","checkinsCount":463,"usersCount":127,"tipCount":0,"visitsCount":522,"tier":"","message":"","currency":"","rating":8.1},{"name":"Cielo Restaurant & Bar","phone":"3148815800","twitter":"fourseasons","address":"999 N 2nd St","lat":38.63351443032066,"lng":-90.18471551731983,"neighborhood":"Downtown East","city_fetched":"St. Louis,US","state":"MO","country":"United States","canonicalUrl":"https://foursquare.com/v/cielo-restaurant--bar/4b830230f964a52056f230e3","categoryId":"4bf58dd8d48988d1d5941735","category":"Hotel Bar","checkinsCount":2777,"usersCount":1522,"tipCount":28,"visitsCount":2813,"url":"http://www.cielostlouis.com","tier":"","message":"","currency":"","rating":8.1},{"name":"Tigín Irish Pub and Restaurant","phone":"3142418666","twitter":"tiginstlouis","address":"333 Washington Ave","lat":38.62990601,"lng":-90.1866085,"neighborhood":"Downtown East","city_fetched":"St. Louis,US","state":"MO","country":"United States","canonicalUrl":"https://foursquare.com/v/tig%C3%ADn-irish-pub-and-restaurant/4b02203af964a520e54722e3","categoryId":"4bf58dd8d48988d11b941735","category":"Pub","checkinsCount":5508,"usersCount":2950,"tipCount":83,"visitsCount":5738,"url":"http://fadoirishpub.com","tier":2,"message":"Moderate","currency":"$","rating":8.1},{"name":"Brennan's","phone":"3143619444","address":"4659 Maryland Ave","lat":38.64474411120996,"lng":-90.2611950760904,"neighborhood":"Central West End","city_fetched":"St. Louis,US","state":"MO","country":"United States","canonicalUrl":"https://foursquare.com/v/brennans/4aecfd52f964a52097cc21e3","categoryId":"4bf58dd8d48988d122941735","category":"Whisky Bar","checkinsCount":3796,"usersCount":1541,"tipCount":19,"visitsCount":3821,"url":"http://cometobrennans.net","tier":"","message":"","currency":"","rating":8.1},{"name":"The Cigar Club at The Ritz-Carlton","phone":"3148636300","address":"100 Carondelet Plz","lat":38.64819682387987,"lng":-90.3317209191176,"city_fetched":"St. Louis,US","state":"MO","country":"United States","canonicalUrl":"https://foursquare.com/v/the-cigar-club-at-the-ritzcarlton/4e5888c21f6e2a1922e7506f","categoryId":"4bf58dd8d48988d11e941735","category":"Cocktail Bar","checkinsCount":770,"usersCount":223,"tipCount":3,"visitsCount":813,"url":"http://www.ritzcarlton.com/en/Properties/StLouis/Dining/cigar_club/Default.htm","tier":4,"message":"Very Expensive","currency":"$","rating":8.1},{"name":"SuWallers Bar And Grill","phone":"3144262600","twitter":"suwallersbar","address":"2101 N Warson Rd","lat":38.69576493080846,"lng":-90.3973178640902,"city_fetched":"St. Louis,US","state":"MO","country":"United States","canonicalUrl":"https://foursquare.com/v/suwallers-bar-and-grill/4d0446819d33a143b628ba78","categoryId":"4bf58dd8d48988d116941735","category":"Bar","checkinsCount":258,"usersCount":188,"tipCount":5,"visitsCount":425,"tier":"","message":"","currency":"","rating":8.1},{"name":"The Post Sports Bar and Grill - Maplewood","phone":"3146451109","address":"7372 Manchester Rd","lat":38.61257758574398,"lng":-90.319363967549,"city_fetched":"St. Louis,US","state":"MO","country":"United States","canonicalUrl":"https://foursquare.com/v/the-post-sports-bar-and-grill--maplewood/4ada88ecf964a5204e2321e3","categoryId":"4bf58dd8d48988d11d941735","category":"Sports Bar","checkinsCount":8047,"usersCount":2923,"tipCount":57,"visitsCount":8512,"url":"http://thepostsportsbar.com","tier":1,"message":"Cheap","currency":"$","rating":8.1},{"name":"Anheuser-Busch Mash Tanks","lat":38.59742348425084,"lng":-90.21169676390026,"neighborhood":"Soulard","city_fetched":"St. Louis,US","state":"MO","country":"United States","canonicalUrl":"https://foursquare.com/v/anheuserbusch-mash-tanks/4fbe95b8e4b09976862c3524","categoryId":"50327c8591d4c4b30a586d5d","category":"Brewery","checkinsCount":253,"usersCount":261,"tipCount":0,"visitsCount":291,"tier":"","message":"","currency":"","rating":8.1},{"name":"The Dark Room wine bar & photo gallery","phone":"3145313416","twitter":"thedarkroomstl","address":"615 N Grand Blvd","lat":38.639614495709964,"lng":-90.23114679422505,"neighborhood":"Grand Center","city_fetched":"St. Louis,US","state":"MO","country":"United States","canonicalUrl":"https://foursquare.com/v/the-dark-room-wine-bar--photo-gallery/5320f371498ef610a2cef854","categoryId":"4bf58dd8d48988d123941735","category":"Wine Bar","checkinsCount":270,"usersCount":184,"tipCount":5,"visitsCount":344,"url":"http://thedarkroomstl.com","tier":"","message":"","currency":"","rating":8.1},{"name":"Ernesto's","phone":"3146644511","twitter":"ernestoswb","address":"2730 McNair Ave","lat":38.60229241471529,"lng":-90.21956353340107,"neighborhood":"Benton Park","city_fetched":"St. Louis,US","state":"MO","country":"United States","canonicalUrl":"https://foursquare.com/v/ernestos/4cca1121c010f04d48f3eccc","categoryId":"4bf58dd8d48988d123941735","category":"Wine Bar","checkinsCount":1637,"usersCount":593,"tipCount":13,"visitsCount":1840,"url":"http://ernestoswinebar.com","tier":"","message":"","currency":"","rating":8.1},{"name":"Nara Cafe Hookah Bar","phone":"3145880051","address":"1326 Washington Ave","lat":38.632246099999996,"lng":-90.19939395,"neighborhood":"Downtown West","city_fetched":"St. Louis,US","state":"MO","country":"United States","canonicalUrl":"https://foursquare.com/v/nara-cafe-hookah-bar/4ae111ccf964a520078521e3","categoryId":"4bf58dd8d48988d119941735","category":"Hookah Bar","checkinsCount":2526,"usersCount":1073,"tipCount":24,"visitsCount":2553,"url":"http://naracafestl.com","tier":2,"message":"Moderate","currency":"$","rating":8.1},{"name":"Orbit Pinball Lounge","address":"2700 Sutton Blvd","lat":38.610951094069485,"lng":-90.32019498909419,"city_fetched":"St. Louis,US","state":"MO","country":"United States","canonicalUrl":"https://foursquare.com/v/orbit-pinball-lounge/4fac81fce4b07c3cb7533eea","categoryId":"4bf58dd8d48988d118941735","category":"Dive Bar","checkinsCount":1547,"usersCount":1029,"tipCount":6,"visitsCount":1738,"tier":"","message":"","currency":"","rating":8},{"name":"Grey Fox Pub","phone":"3147722150","address":"3503 S Spring Ave","lat":38.59405841987598,"lng":-90.24765054284012,"neighborhood":"Tower Grove South","city_fetched":"St. Louis,US","state":"MO","country":"United States","canonicalUrl":"https://foursquare.com/v/grey-fox-pub/4ae13ffef964a520c88521e3","categoryId":"4bf58dd8d48988d1d8941735","category":"Gay Bar","checkinsCount":1822,"usersCount":583,"tipCount":12,"visitsCount":2155,"url":"http://www.greyfoxstl.com","tier":1,"message":"Cheap","currency":"$","rating":8},{"name":"Dulany's","lat":38.50686062357447,"lng":-90.3770539013655,"city_fetched":"St. Louis,US","state":"MO","country":"United States","canonicalUrl":"https://foursquare.com/v/dulanys/4d823cbf6476a0931f861e53","categoryId":"4bf58dd8d48988d116941735","category":"Bar","checkinsCount":606,"usersCount":323,"tipCount":13,"visitsCount":691,"tier":2,"message":"Moderate","currency":"$","rating":8},{"name":"The Ambassador / Club Klymaxx","phone":"3148699090","address":"9800 Halls Ferry Rd","lat":38.740915752134036,"lng":-90.25047823387503,"city_fetched":"St. Louis,US","state":"MO","country":"United States","canonicalUrl":"https://foursquare.com/v/the-ambassador--club-klymaxx/4c82eb322f1c236ae7a43e43","categoryId":"4bf58dd8d48988d11f941735","category":"Nightclub","checkinsCount":376,"usersCount":209,"tipCount":5,"visitsCount":474,"url":"http://ambassadorstl.com","tier":"","message":"","currency":"","rating":8},{"name":"Humphrey's Restaurant & Tavern","phone":"3145350700","address":"3700 Laclede Ave","lat":38.63505417922388,"lng":-90.23754677823312,"neighborhood":"Midtown","city_fetched":"St. Louis,US","state":"MO","country":"United States","canonicalUrl":"https://foursquare.com/v/humphreys-restaurant--tavern/4b04bc51f964a5206b5622e3","categoryId":"4bf58dd8d48988d116941735","category":"Bar","checkinsCount":6668,"usersCount":2474,"tipCount":21,"visitsCount":7279,"url":"http://www.humphreysstl.com","tier":2,"message":"Moderate","currency":"$","rating":8},{"name":"The Heavy Anchor","phone":"3143525226","twitter":"theheavyanchor","address":"5226 Gravois Ave","lat":38.579438583333335,"lng":-90.269132,"neighborhood":"Bevo Mill","city_fetched":"St. Louis,US","state":"MO","country":"United States","canonicalUrl":"https://foursquare.com/v/the-heavy-anchor/4d4c554da09f2c0fc10f902f","categoryId":"4bf58dd8d48988d116941735","category":"Bar","checkinsCount":3245,"usersCount":941,"tipCount":15,"visitsCount":3617,"url":"http://www.theheavyanchor.com","tier":1,"message":"Cheap","currency":"$","rating":8},{"name":"Llywelyn's Pub","phone":"3143613003","address":"4747 McPherson Ave","lat":38.64838636508732,"lng":-90.26070913319488,"neighborhood":"Central West End","city_fetched":"St. Louis,US","state":"MO","country":"United States","canonicalUrl":"https://foursquare.com/v/llywelyns-pub/4b302ff1f964a52084f724e3","categoryId":"4bf58dd8d48988d11b941735","category":"Pub","checkinsCount":4802,"usersCount":2529,"tipCount":29,"visitsCount":4870,"url":"https://www.facebook.com/LlywelynsWinghaven","tier":2,"message":"Moderate","currency":"$","rating":8},{"name":"Shady Jack's Saloon","phone":"3142414644","address":"1432 N Broadway","lat":38.638997730975525,"lng":-90.18558740615845,"city_fetched":"St. Louis,US","state":"MO","country":"United States","canonicalUrl":"https://foursquare.com/v/shady-jacks-saloon/4b1a8389f964a52069eb23e3","categoryId":"4bf58dd8d48988d118941735","category":"Dive Bar","checkinsCount":939,"usersCount":467,"tipCount":10,"visitsCount":1059,"url":"http://shadyjackssaloon.com","tier":"","message":"","currency":"","rating":8},{"name":"Windows on Washington","phone":"3142415555","twitter":"windowsonwash","address":"1601 Washington Ave","lat":38.633081752497546,"lng":-90.20204177424645,"neighborhood":"Downtown West","city_fetched":"St. Louis,US","state":"MO","country":"United States","canonicalUrl":"https://foursquare.com/windowsonwash","categoryId":"4bf58dd8d48988d11a941735","category":"Other Nightlife","checkinsCount":1218,"usersCount":1110,"tipCount":3,"visitsCount":1323,"url":"http://www.wowbanquets.com","tier":"","message":"","currency":"","rating":8},{"name":"Anheuser-Busch Hospitality Room","address":"at Grant's Farm","lat":38.54972610552959,"lng":-90.35769939422607,"city_fetched":"St. Louis,US","state":"MO","country":"United States","canonicalUrl":"https://foursquare.com/v/anheuserbusch-hospitality-room/4c263462136d20a1a5dde461","categoryId":"4bf58dd8d48988d116941735","category":"Bar","checkinsCount":461,"usersCount":379,"tipCount":2,"visitsCount":465,"tier":"","message":"","currency":"","rating":7.9},{"name":"Frankie G's Bar & Grill","address":"Yeager","lat":38.478644000011805,"lng":-90.30485836907863,"city_fetched":"St. Louis,US","state":"MO","country":"United States","canonicalUrl":"https://foursquare.com/v/frankie-gs-bar--grill/516f2d32e4b0de55f10e82d6","categoryId":"4bf58dd8d48988d11d941735","category":"Sports Bar","checkinsCount":298,"usersCount":236,"tipCount":5,"visitsCount":450,"tier":"","message":"","currency":"","rating":7.9},{"name":"NBC BAR","address":"Dr M.L.K","lat":38.659750695704005,"lng":-90.25236653092519,"city_fetched":"St. Louis,US","state":"MO","country":"United States","canonicalUrl":"https://foursquare.com/v/nbc-bar/4d4394b94e5d3704bd6ee193","categoryId":"4bf58dd8d48988d121941735","category":"Lounge","checkinsCount":165,"usersCount":55,"tipCount":8,"visitsCount":265,"tier":"","message":"","currency":"","rating":7.9},{"name":"Pepper Lounge","phone":"3142412005","address":"2005 Locust St","lat":38.633183,"lng":-90.208274,"neighborhood":"Downtown West","city_fetched":"St. Louis,US","state":"MO","country":"United States","canonicalUrl":"https://foursquare.com/v/pepper-lounge/4acbc3faf964a520c9c520e3","categoryId":"4bf58dd8d48988d121941735","category":"Lounge","checkinsCount":2846,"usersCount":1448,"tipCount":16,"visitsCount":3119,"url":"http://thepepperlounge.com","tier":"","message":"","currency":"","rating":7.9},{"name":"Claudia's Pub","phone":"3146458899","address":"3322 Watson Rd","lat":38.60214304573091,"lng":-90.29904845860256,"neighborhood":"Lindenwood Park","city_fetched":"St. Louis,US","state":"MO","country":"United States","canonicalUrl":"https://foursquare.com/v/claudias-pub/4d3fb1adc1d4721e5cef09c7","categoryId":"4bf58dd8d48988d118941735","category":"Dive Bar","checkinsCount":522,"usersCount":80,"tipCount":3,"visitsCount":540,"url":"http://www.claudiasonwatson.com","tier":"","message":"","currency":"","rating":7.9},{"name":"Biggies","phone":"3147810060","address":"3332 Watson Rd","lat":38.601742,"lng":-90.29917444,"neighborhood":"Lindenwood Park","city_fetched":"St. Louis,US","state":"MO","country":"United States","canonicalUrl":"https://foursquare.com/v/biggies/4aeb6e5ef964a520f4c121e3","categoryId":"4bf58dd8d48988d116941735","category":"Bar","checkinsCount":1239,"usersCount":677,"tipCount":16,"visitsCount":1310,"url":"http://biggiesrestaurant.com","tier":1,"message":"Cheap","currency":"$","rating":7.9},{"name":"Horizon at Harry's","phone":"3144216969","twitter":"horizonatharrys","address":"2144 Market St","lat":38.62974570541884,"lng":-90.21226450995498,"neighborhood":"Downtown West","city_fetched":"St. Louis,US","state":"MO","country":"United States","canonicalUrl":"https://foursquare.com/horizonatharrys","categoryId":"4bf58dd8d48988d11f941735","category":"Nightclub","checkinsCount":894,"usersCount":359,"tipCount":4,"visitsCount":1041,"url":"http://horizonatharrys.com","tier":"","message":"","currency":"","rating":7.9},{"name":"Boogaloo","phone":"3146454803","address":"7344 Manchester Rd","lat":38.61285021530003,"lng":-90.31864315099915,"city_fetched":"St. Louis,US","state":"MO","country":"United States","canonicalUrl":"https://foursquare.com/v/boogaloo/4acbc3faf964a520c4c520e3","categoryId":"4bf58dd8d48988d11e941735","category":"Cocktail Bar","checkinsCount":4102,"usersCount":2366,"tipCount":54,"visitsCount":4282,"url":"http://www.boogalooswings.com","tier":2,"message":"Moderate","currency":"$","rating":7.9},{"name":"3 Of A Kind Bar & Grill","lat":38.68792680825772,"lng":-90.36182371436755,"city_fetched":"St. Louis,US","state":"MO","country":"United States","canonicalUrl":"https://foursquare.com/v/3-of-a-kind-bar--grill/5025c949e4b02a96b1c75ba9","categoryId":"4bf58dd8d48988d121941735","category":"Lounge","checkinsCount":189,"usersCount":72,"tipCount":1,"visitsCount":219,"tier":"","message":"","currency":"","rating":7.9},{"name":"Pink Slip","lat":38.657525856184286,"lng":-90.16808301305213,"city_fetched":"St. Louis,US","state":"Illinois","country":"United States","canonicalUrl":"https://foursquare.com/v/pink-slip/4bd29a08462cb7134cc2dc07","categoryId":"4bf58dd8d48988d1d6941735","category":"Strip Club","checkinsCount":250,"usersCount":231,"tipCount":7,"visitsCount":450,"tier":"","message":"","currency":"","rating":7.9},{"name":"The Coliseum","phone":"3145312920","twitter":"coliseumstl","address":"2619 Washington Ave","lat":38.63540603513417,"lng":-90.21432952732854,"neighborhood":"Midtown","city_fetched":"St. Louis,US","state":"MO","country":"United States","canonicalUrl":"https://foursquare.com/coliseumstl","categoryId":"4bf58dd8d48988d11f941735","category":"Nightclub","checkinsCount":583,"usersCount":384,"tipCount":4,"visitsCount":610,"url":"http://thecoliseumstl.com","tier":"","message":"","currency":"","rating":7.8},{"name":"Harlem Tap Room","lat":38.65382998,"lng":-90.23850202560425,"city_fetched":"St. Louis,US","state":"MO","country":"United States","canonicalUrl":"https://foursquare.com/v/harlem-tap-room/4cd49c1289eb6dcb3352231e","categoryId":"4bf58dd8d48988d116941735","category":"Bar","checkinsCount":255,"usersCount":115,"tipCount":9,"visitsCount":316,"tier":"","message":"","currency":"","rating":7.8},{"name":"The Crack Fox","phone":"3146216900","twitter":"crackfoxbar","address":"1114 Olive St","lat":38.6293225106468,"lng":-90.19650348607085,"neighborhood":"Downtown East","city_fetched":"St. Louis,US","state":"MO","country":"United States","canonicalUrl":"https://foursquare.com/v/the-crack-fox/4b18829df964a520acd323e3","categoryId":"4bf58dd8d48988d116941735","category":"Bar","checkinsCount":2978,"usersCount":884,"tipCount":26,"visitsCount":3241,"url":"http://www.crackfoxbar.com","tier":1,"message":"Cheap","currency":"$","rating":7.8},{"name":"SoHo Restaurant & Lounge","phone":"3149325554","twitter":"eatplaysoho","address":"4229 Manchester Ave","lat":38.62731795161631,"lng":-90.25561626624126,"neighborhood":"Forest Park Southeast","city_fetched":"St. Louis,US","state":"MO","country":"United States","canonicalUrl":"https://foursquare.com/v/soho-restaurant--lounge/4f9b3d48e4b03d83ebe384ea","categoryId":"4bf58dd8d48988d121941735","category":"Lounge","checkinsCount":654,"usersCount":387,"tipCount":13,"visitsCount":716,"url":"http://eatplaysoho.com","tier":"","message":"","currency":"","rating":7.8},{"name":"Joey B's On The Landing","phone":"3146219570","address":"710 N 2nd St","lat":38.630357175327745,"lng":-90.18450379371643,"neighborhood":"Downtown East","city_fetched":"St. Louis,US","state":"MO","country":"United States","canonicalUrl":"https://foursquare.com/v/joey-bs-on-the-landing/4b4e61f1f964a520a2eb26e3","categoryId":"4bf58dd8d48988d116941735","category":"Bar","checkinsCount":3625,"usersCount":2081,"tipCount":30,"visitsCount":3717,"url":"http://www.joeybslanding.com","tier":2,"message":"Moderate","currency":"$","rating":7.8},{"name":"Hair of the Dog","phone":"3144213644","address":"1212 Washington Ave","lat":38.63179921769777,"lng":-90.19740054352536,"neighborhood":"Downtown West","city_fetched":"St. Louis,US","state":"MO","country":"United States","canonicalUrl":"https://foursquare.com/v/hair-of-the-dog/4b513720f964a5208d4727e3","categoryId":"4bf58dd8d48988d116941735","category":"Bar","checkinsCount":4983,"usersCount":2250,"tipCount":34,"visitsCount":5286,"tier":2,"message":"Moderate","currency":"$","rating":7.8},{"name":"Earthbound Brewing","address":"2710 Cherokee St","lat":38.593645,"lng":-90.228093,"city_fetched":"St. Louis,US","state":"MO","country":"United States","canonicalUrl":"https://foursquare.com/v/earthbound-brewing/54700a38498ee71dab6a98a0","categoryId":"50327c8591d4c4b30a586d5d","category":"Brewery","checkinsCount":414,"usersCount":231,"tipCount":7,"visitsCount":436,"url":"http://earthboundbeer.com","tier":"","message":"","currency":"","rating":7.8},{"name":"Fortune Teller Bar","phone":"3147762337","address":"2635 Cherokee St","lat":38.593689065397854,"lng":-90.2270123986105,"city_fetched":"St. Louis,US","state":"MO","country":"United States","canonicalUrl":"https://foursquare.com/v/fortune-teller-bar/509dda70e4b035e93e330944","categoryId":"4bf58dd8d48988d117941735","category":"Beer Garden","checkinsCount":1648,"usersCount":996,"tipCount":15,"visitsCount":2076,"url":"http://thefortunetellerbar.com","tier":2,"message":"Moderate","currency":"$","rating":7.8},{"name":"Bar Napoli","phone":"3148635731","address":"7754 Forsyth Blvd","lat":38.6499086291017,"lng":-90.33650219069885,"city_fetched":"St. Louis,US","state":"MO","country":"United States","canonicalUrl":"https://foursquare.com/v/bar-napoli/4b120395f964a520308823e3","categoryId":"4bf58dd8d48988d116941735","category":"Bar","checkinsCount":4526,"usersCount":1703,"tipCount":44,"visitsCount":4689,"url":"http://www.cafenapoli.com","tier":2,"message":"Moderate","currency":"$","rating":7.7},{"name":"Lobby Bar @ Ritz-Carlton","lat":38.64858688545834,"lng":-90.33142698870586,"city_fetched":"St. Louis,US","state":"MO","country":"United States","canonicalUrl":"https://foursquare.com/v/lobby-bar--ritzcarlton/4e5811161f6e2a1922e00b11","categoryId":"4bf58dd8d48988d1d5941735","category":"Hotel Bar","checkinsCount":444,"usersCount":194,"tipCount":1,"visitsCount":445,"tier":"","message":"","currency":"","rating":7.7},{"name":"Lindner's Pub","phone":"3143510425","twitter":"lindnerspub","address":"2925 Mount Pleasant St","lat":38.573007639357726,"lng":-90.23780793094413,"neighborhood":"Mount Pleasant, St Louis, MO","city_fetched":"St. Louis,US","state":"MO","country":"United States","canonicalUrl":"https://foursquare.com/v/lindners-pub/51d98ec1498ed397b774ffc9","categoryId":"4bf58dd8d48988d11b941735","category":"Pub","checkinsCount":179,"usersCount":65,"tipCount":6,"visitsCount":280,"url":"http://lindnerspub.webs.com","tier":"","message":"","currency":"","rating":7.7},{"name":"The Cherry Lounge","phone":"3143524600","twitter":"stlcherrylounge","address":"4600 Gravois Ave","lat":38.58408606589075,"lng":-90.26355611132622,"neighborhood":"Bevo Mill","city_fetched":"St. Louis,US","state":"MO","country":"United States","canonicalUrl":"https://foursquare.com/stlcherrylounge","categoryId":"4bf58dd8d48988d121941735","category":"Lounge","checkinsCount":266,"usersCount":113,"tipCount":6,"visitsCount":316,"url":"http://www.cherrylounge.net","tier":1,"message":"Cheap","currency":"$","rating":7.7},{"name":"Fergies Bar and Grill","phone":"3146386387","address":"1699 Lemay Ferry Rd","lat":38.52897,"lng":-90.29170632362366,"city_fetched":"St. Louis,US","state":"MO","country":"United States","canonicalUrl":"https://foursquare.com/v/fergies-bar-and-grill/4bacd004f964a520470e3be3","categoryId":"4bf58dd8d48988d116941735","category":"Bar","checkinsCount":416,"usersCount":198,"tipCount":6,"visitsCount":536,"tier":"","message":"","currency":"","rating":7.7},{"name":"Lou C's Bar & Grill","phone":"3146468722","address":"5800 Southwest Ave","lat":38.607325825966974,"lng":-90.2856467400143,"neighborhood":"Southwest Garden","city_fetched":"St. Louis,US","state":"MO","country":"United States","canonicalUrl":"https://foursquare.com/v/lou-cs-bar--grill/54a1f3a2498e996545d7572d","categoryId":"4bf58dd8d48988d116941735","category":"Bar","checkinsCount":153,"usersCount":89,"tipCount":2,"visitsCount":333,"tier":"","message":"","currency":"","rating":7.7},{"name":"Llywelyn's Pub","phone":"3149621515","address":"17 W Moody Ave","lat":38.59387224773848,"lng":-90.35774249465231,"city_fetched":"St. Louis,US","state":"MO","country":"United States","canonicalUrl":"https://foursquare.com/v/llywelyns-pub/4ad78180f964a520910b21e3","categoryId":"4bf58dd8d48988d11b941735","category":"Pub","checkinsCount":7110,"usersCount":3162,"tipCount":49,"visitsCount":8415,"url":"https://www.facebook.com/LlywelynsWinghaven","tier":2,"message":"Moderate","currency":"$","rating":7.7},{"name":"Bar 101 Soulard","phone":"3146215400","address":"1724 S Broadway","lat":38.60804646828497,"lng":-90.19957919803993,"city_fetched":"St. Louis,US","state":"MO","country":"United States","canonicalUrl":"https://foursquare.com/v/bar-101-soulard/4b4d4c9cf964a52062d026e3","categoryId":"4bf58dd8d48988d116941735","category":"Bar","checkinsCount":4666,"usersCount":1339,"tipCount":14,"visitsCount":5397,"url":"http://www.bar101stlouis.com","tier":"","message":"","currency":"","rating":7.7},{"name":"Hilton Airport Hotel Bar","lat":38.7361476447122,"lng":-90.35981062728284,"city_fetched":"St. Louis,US","state":"MO","country":"United States","canonicalUrl":"https://foursquare.com/v/hilton-airport-hotel-bar/4d6c6d51acd6721e7b4bdba4","categoryId":"4bf58dd8d48988d116941735","category":"Bar","checkinsCount":294,"usersCount":191,"tipCount":1,"visitsCount":294,"tier":"","message":"","currency":"","rating":7.6},{"name":"Blarney Stone Bar & Grill","phone":"3144874488","address":"4331 Telegraph Rd","lat":38.4865447915746,"lng":-90.30489508531925,"city_fetched":"St. Louis,US","state":"MO","country":"United States","canonicalUrl":"https://foursquare.com/v/blarney-stone-bar--grill/4b74c8b5f964a520e1f12de3","categoryId":"4bf58dd8d48988d116941735","category":"Bar","checkinsCount":3041,"usersCount":1274,"tipCount":18,"visitsCount":3495,"tier":1,"message":"Cheap","currency":"$","rating":7.6},{"name":"Cafe Affton Sports Bar & Grill","phone":"3144578000","address":"8715 Gravois Rd","lat":38.556548,"lng":-90.30967,"city_fetched":"St. Louis,US","state":"MO","country":"United States","canonicalUrl":"https://foursquare.com/v/cafe-affton-sports-bar--grill/4b632118f964a5201d652ae3","categoryId":"4bf58dd8d48988d11d941735","category":"Sports Bar","checkinsCount":1534,"usersCount":621,"tipCount":24,"visitsCount":1886,"url":"http://cafeaffton.com","tier":"","message":"","currency":"","rating":7.6},{"name":"Tower Pub","phone":"3147717979","address":"3234 Morganford Rd","lat":38.599757093291416,"lng":-90.2617268696014,"neighborhood":"Tower Grove South","city_fetched":"St. Louis,US","state":"MO","country":"United States","canonicalUrl":"https://foursquare.com/v/tower-pub/4aebd1bbf964a520e1c421e3","categoryId":"4bf58dd8d48988d11b941735","category":"Pub","checkinsCount":3128,"usersCount":1017,"tipCount":11,"visitsCount":3522,"url":"http://www.towerpub.net","tier":1,"message":"Cheap","currency":"$","rating":7.6},{"name":"LongHorn Steakhouse","phone":"3148217797","address":"3642 S Lindbergh Blvd","lat":38.553806048722215,"lng":-90.40654726625061,"city_fetched":"St. Louis,US","state":"MO","country":"United States","canonicalUrl":"https://foursquare.com/v/longhorn-steakhouse/4b47d941f964a520704126e3","categoryId":"4bf58dd8d48988d116941735","category":"Bar","checkinsCount":1589,"usersCount":1023,"tipCount":19,"visitsCount":1808,"url":"http://www.longhornsteakhouse.com/locator_g/default.aspx?q=63127&restaurantid=5108&cmpid=lh_ll_%20foursquare","tier":2,"message":"Moderate","currency":"$","rating":7.6},{"name":"Fox & Hounds","phone":"3146477300","address":"6300 Clayton Rd","lat":38.63334656295378,"lng":-90.30682732614484,"city_fetched":"St. Louis,US","state":"MO","country":"United States","canonicalUrl":"https://foursquare.com/v/fox--hounds/4adf75d3f964a520cb7a21e3","categoryId":"4bf58dd8d48988d11b941735","category":"Pub","checkinsCount":1163,"usersCount":697,"tipCount":12,"visitsCount":1167,"url":"http://www.cheshirelodge.com","tier":2,"message":"Moderate","currency":"$","rating":7.6},{"name":"Modern Brewery","lat":38.624954,"lng":-90.273712,"city_fetched":"St. Louis,US","state":"MO","country":"United States","canonicalUrl":"https://foursquare.com/v/modern-brewery/540b5f0e498ebfc65c9bb3cf","categoryId":"50327c8591d4c4b30a586d5d","category":"Brewery","checkinsCount":168,"usersCount":195,"tipCount":4,"visitsCount":279,"tier":"","message":"","currency":"","rating":7.6},{"name":"The Upstairs Lounge","phone":"3147733388","address":"3131 S Grand Blvd","lat":38.60161208395466,"lng":-90.24268627166748,"neighborhood":"Tower Grove South","city_fetched":"St. Louis,US","state":"MO","country":"United States","canonicalUrl":"https://foursquare.com/v/the-upstairs-lounge/4acbc3faf964a520f4c520e3","categoryId":"4bf58dd8d48988d121941735","category":"Lounge","checkinsCount":2821,"usersCount":731,"tipCount":21,"visitsCount":2908,"url":"http://upstairslounge.net","tier":"","message":"","currency":"","rating":7.6},{"name":"Club Viva","address":"408 N Euclid Ave","lat":38.648466,"lng":-90.260932,"neighborhood":"Central West End","city_fetched":"St. Louis,US","state":"MO","country":"United States","canonicalUrl":"https://foursquare.com/v/club-viva/4acbc3faf964a520b6c520e3","categoryId":"4bf58dd8d48988d11f941735","category":"Nightclub","checkinsCount":455,"usersCount":291,"tipCount":7,"visitsCount":457,"url":"http://clubvivastl.com","tier":"","message":"","currency":"","rating":7.6},{"name":"Dominic's on the Hill","twitter":"dominicsstl","address":"5101 Wilson Ave","lat":38.615557,"lng":-90.271153,"neighborhood":"The Hill","city_fetched":"St. Louis,US","state":"MO","country":"United States","canonicalUrl":"https://foursquare.com/v/dominics-on-the-hill/4acbc3f9f964a52094c520e3","categoryId":"4bf58dd8d48988d123941735","category":"Wine Bar","checkinsCount":226,"usersCount":217,"tipCount":2,"visitsCount":239,"tier":"","message":"","currency":"","rating":7.6},{"name":"Henry's","lat":38.607653362168705,"lng":-90.20477001520645,"neighborhood":"Soulard","city_fetched":"St. Louis,US","state":"MO","country":"United States","canonicalUrl":"https://foursquare.com/v/henrys/54f134b5498ec36f93171a68","categoryId":"4bf58dd8d48988d116941735","category":"Bar","checkinsCount":172,"usersCount":184,"tipCount":5,"visitsCount":393,"tier":"","message":"","currency":"","rating":7.5},{"name":"Bauernhof","address":"at Grant's Farm","lat":38.549785,"lng":-90.357764,"city_fetched":"St. Louis,US","state":"MO","country":"United States","canonicalUrl":"https://foursquare.com/v/bauernhof/4debe8a488774880e342cd59","categoryId":"4bf58dd8d48988d117941735","category":"Beer Garden","checkinsCount":277,"usersCount":194,"tipCount":1,"visitsCount":279,"tier":"","message":"","currency":"","rating":7.5},{"name":"Global Brew Tap House","twitter":"gbrockhillmo","address":"9578 Manchester Rd","lat":38.60792506641206,"lng":-90.36527102103025,"city_fetched":"St. Louis,US","state":"MO","country":"United States","canonicalUrl":"https://foursquare.com/v/global-brew-tap-house/55edd632498eda2803f6a0ed","categoryId":"4bf58dd8d48988d116941735","category":"Bar","checkinsCount":278,"usersCount":173,"tipCount":3,"visitsCount":397,"tier":"","message":"","currency":"","rating":7.5},{"name":"The Angry Beaver","phone":"3142413444","twitter":"angrybeaver3","address":"730 S Broadway","lat":38.619036,"lng":-90.192225,"neighborhood":"Downtown East","city_fetched":"St. Louis,US","state":"MO","country":"United States","canonicalUrl":"https://foursquare.com/v/the-angry-beaver/4f878081e4b0202c047c298e","categoryId":"4bf58dd8d48988d116941735","category":"Bar","checkinsCount":690,"usersCount":495,"tipCount":7,"visitsCount":700,"url":"http://www.angrybeaverstl.com","tier":"","message":"","currency":"","rating":7.5},{"name":"River City VIP Club","lat":38.53141471176549,"lng":-90.2641337844495,"city_fetched":"St. Louis,US","state":"MO","country":"United States","canonicalUrl":"https://foursquare.com/v/river-city-vip-club/4cdee900c4f6a35d59f5cc6c","categoryId":"4bf58dd8d48988d121941735","category":"Lounge","checkinsCount":592,"usersCount":127,"tipCount":8,"visitsCount":621,"tier":"","message":"","currency":"","rating":7.5},{"name":"3500  Winehaus","phone":"3143539463","twitter":"3500winehaus","address":"3500 Watson Rd","lat":38.599091353041686,"lng":-90.2999937722405,"neighborhood":"Lindenwood Park","city_fetched":"St. Louis,US","state":"MO","country":"United States","canonicalUrl":"https://foursquare.com/v/3500--winehaus/4c9e8f42d3c2b60c27acccbc","categoryId":"4bf58dd8d48988d123941735","category":"Wine Bar","checkinsCount":811,"usersCount":500,"tipCount":3,"visitsCount":853,"url":"http://3500winehaus.com","tier":"","message":"","currency":"","rating":7.5},{"name":"St. Lupulin Carnival","lat":38.614793,"lng":-90.198172,"city_fetched":"St. Louis,US","state":"MO","country":"United States","canonicalUrl":"https://foursquare.com/v/st-lupulin-carnival/531b755e498e1a890db3ad0a","categoryId":"50327c8591d4c4b30a586d5d","category":"Brewery","checkinsCount":100,"usersCount":75,"tipCount":2,"visitsCount":105,"tier":"","message":"","currency":"","rating":7.5},{"name":"Envy At The Park","lat":38.623957487874705,"lng":-90.19728612177678,"neighborhood":"Downtown East","city_fetched":"St. Louis,US","state":"MO","country":"United States","canonicalUrl":"https://foursquare.com/v/envy-at-the-park/4f8a4619e4b0e67b85e9a861","categoryId":"4bf58dd8d48988d11a941735","category":"Other Nightlife","checkinsCount":192,"usersCount":106,"tipCount":5,"visitsCount":193,"tier":"","message":"","currency":"","rating":7.5},{"name":"Centennial Beer Festival","address":"Chouteau","lat":38.62118964885217,"lng":-90.21294215321392,"neighborhood":"Downtown West","city_fetched":"St. Louis,US","state":"MO","country":"United States","canonicalUrl":"https://foursquare.com/v/centennial-beer-festival/4f2457b8e4b04765799eb54e","categoryId":"4bf58dd8d48988d117941735","category":"Beer Garden","checkinsCount":86,"usersCount":70,"tipCount":0,"visitsCount":86,"tier":"","message":"","currency":"","rating":7.5},{"name":"Budweiser Brew House","twitter":"stlbudbrewhouse","address":"601 Clark Ave #101","lat":38.62366512020353,"lng":-90.19184003715125,"neighborhood":"Downtown East","city_fetched":"St. Louis,US","state":"MO","country":"United States","canonicalUrl":"https://foursquare.com/v/budweiser-brew-house/532d97b3498e7554ad93a859","categoryId":"4bf58dd8d48988d117941735","category":"Beer Garden","checkinsCount":2614,"usersCount":1859,"tipCount":23,"visitsCount":2692,"url":"http://www.stlballparkvillage.com/dining/dine/budweiser-brew-house","tier":3,"message":"Expensive","currency":"$","rating":7.5},{"name":"Hospitality Room (Free Beer)","lat":38.598730274858355,"lng":-90.21448978825909,"neighborhood":"Soulard","city_fetched":"St. Louis,US","state":"MO","country":"United States","canonicalUrl":"https://foursquare.com/v/hospitality-room-free-beer/4f78b565e4b0421083ffc077","categoryId":"50327c8591d4c4b30a586d5d","category":"Brewery","checkinsCount":1019,"usersCount":904,"tipCount":10,"visitsCount":1019,"tier":"","message":"","currency":"","rating":7.5},{"name":"JJ's Clubhouse & Bar","phone":"3145354100","address":"3858 Market St","lat":38.63189092902837,"lng":-90.24268627166748,"neighborhood":"Midtown","city_fetched":"St. Louis,US","state":"MO","country":"United States","canonicalUrl":"https://foursquare.com/v/jjs-clubhouse--bar/4adaadcff964a520062421e3","categoryId":"4bf58dd8d48988d1d8941735","category":"Gay Bar","checkinsCount":5151,"usersCount":1231,"tipCount":22,"visitsCount":6660,"url":"http://jjsclubhouse.com","tier":"","message":"","currency":"","rating":7.4},{"name":"Friendly's Sports Bar and Grill","phone":"3147712040","twitter":"friendlysbarstl","address":"3503 Roger Pl","lat":38.59445126410274,"lng":-90.2540373802185,"neighborhood":"Tower Grove South","city_fetched":"St. Louis,US","state":"MO","country":"United States","canonicalUrl":"https://foursquare.com/friendlysbarstl","categoryId":"4bf58dd8d48988d11d941735","category":"Sports Bar","checkinsCount":5238,"usersCount":2010,"tipCount":18,"visitsCount":5838,"url":"http://friendlyssportsbar.com","tier":1,"message":"Cheap","currency":"$","rating":7.4},{"name":"Gianino's Restaurant & Bar","phone":"3148214140","address":"3735 S Lindbergh Blvd","lat":38.55050980235653,"lng":-90.40749517379794,"city_fetched":"St. Louis,US","state":"MO","country":"United States","canonicalUrl":"https://foursquare.com/v/gianinos-restaurant--bar/4acbc3f9f964a52095c520e3","categoryId":"4bf58dd8d48988d123941735","category":"Wine Bar","checkinsCount":724,"usersCount":224,"tipCount":5,"visitsCount":738,"url":"http://www.gianinos.com","tier":2,"message":"Moderate","currency":"$","rating":7.4},{"name":"Grand Hall Lounge","lat":38.629197,"lng":-90.20734297286751,"neighborhood":"Downtown West","city_fetched":"St. Louis,US","state":"MO","country":"United States","canonicalUrl":"https://foursquare.com/v/grand-hall-lounge/4c915cc17f3b8cfa22369c1e","categoryId":"4bf58dd8d48988d121941735","category":"Lounge","checkinsCount":304,"usersCount":237,"tipCount":7,"visitsCount":306,"tier":"","message":"","currency":"","rating":7.4},{"name":"Thaxton Speakeasy","twitter":"thethaxtonstl","address":"1009 Olive St","lat":38.629159209868426,"lng":-90.19510301950261,"neighborhood":"Downtown East","city_fetched":"St. Louis,US","state":"MO","country":"United States","canonicalUrl":"https://foursquare.com/thethaxtonstl","categoryId":"4bf58dd8d48988d1d4941735","category":"Speakeasy","checkinsCount":1105,"usersCount":778,"tipCount":15,"visitsCount":1120,"url":"http://www.thaxtonspeakeasy.com","tier":2,"message":"Moderate","currency":"$","rating":7.4},{"name":"Pepper's","phone":"3143529909","address":"5452 Gravois Ave","lat":38.578225791720605,"lng":-90.27098398993843,"neighborhood":"Bevo Mill","city_fetched":"St. Louis,US","state":"MO","country":"United States","canonicalUrl":"https://foursquare.com/v/peppers/4adf0dfdf964a5204c7721e3","categoryId":"4bf58dd8d48988d116941735","category":"Bar","checkinsCount":3383,"usersCount":1162,"tipCount":15,"visitsCount":3827,"tier":2,"message":"Moderate","currency":"$","rating":7.4},{"name":"Riley's Pub","phone":"3146647474","address":"3458 Arsenal St","lat":38.60230901327471,"lng":-90.23997510793862,"neighborhood":"Tower Grove East","city_fetched":"St. Louis,US","state":"MO","country":"United States","canonicalUrl":"https://foursquare.com/v/rileys-pub/4af84bcff964a520f70b22e3","categoryId":"4bf58dd8d48988d11b941735","category":"Pub","checkinsCount":1792,"usersCount":725,"tipCount":13,"visitsCount":2204,"tier":"","message":"","currency":"","rating":7.4},{"name":"Great Grizzly Bear","phone":"3142310444","address":"1027 Geyer Ave","lat":38.60926383333333,"lng":-90.206818,"neighborhood":"Soulard","city_fetched":"St. Louis,US","state":"MO","country":"United States","canonicalUrl":"https://foursquare.com/v/great-grizzly-bear/4ae14190f964a520ce8521e3","categoryId":"4bf58dd8d48988d117941735","category":"Beer Garden","checkinsCount":2942,"usersCount":1760,"tipCount":12,"visitsCount":3435,"url":"http://greatgrizzlybearsoulard.com","tier":"","message":"","currency":"","rating":7.4},{"name":"The Mack","phone":"3148328199","address":"4615 Macklind Ave","lat":38.587298116174665,"lng":-90.28430342674255,"neighborhood":"The Southampton","city_fetched":"St. Louis,US","state":"MO","country":"United States","canonicalUrl":"https://foursquare.com/v/the-mack/4add03b1f964a5207a6321e3","categoryId":"4bf58dd8d48988d116941735","category":"Bar","checkinsCount":4224,"usersCount":1248,"tipCount":23,"visitsCount":4596,"url":"http://mackbarandgrill.com","tier":2,"message":"Moderate","currency":"$","rating":7.4},{"name":"The Doc Haus","phone":"3143524465","address":"6217 Morganford Rd","lat":38.57041453267235,"lng":-90.27347803115845,"neighborhood":"Bevo Mill","city_fetched":"St. Louis,US","state":"MO","country":"United States","canonicalUrl":"https://foursquare.com/v/the-doc-haus/4c2d5af5987f20a1d66a49aa","categoryId":"4bf58dd8d48988d116941735","category":"Bar","checkinsCount":445,"usersCount":128,"tipCount":2,"visitsCount":466,"tier":"","message":"","currency":"","rating":7.4},{"name":"Maggie O'Brien's","phone":"3144211388","address":"2000 Market St","lat":38.62987215815283,"lng":-90.20931140550188,"neighborhood":"Downtown West","city_fetched":"St. Louis,US","state":"MO","country":"United States","canonicalUrl":"https://foursquare.com/v/maggie-obriens/4acbc3faf964a520a5c520e3","categoryId":"4bf58dd8d48988d11b941735","category":"Pub","checkinsCount":3652,"usersCount":2949,"tipCount":24,"visitsCount":4349,"url":"http://www.maggieobriens.com","tier":2,"message":"Moderate","currency":"$","rating":7.4},{"name":"Puzzles Hookah Lounge","twitter":"puzzleshookah","address":"6165 Delmar Blvd","lat":38.65535723620812,"lng":-90.29852533370155,"city_fetched":"St. Louis,US","state":"MO","country":"United States","canonicalUrl":"https://foursquare.com/puzzleshookah","categoryId":"4bf58dd8d48988d119941735","category":"Hookah Bar","checkinsCount":154,"usersCount":95,"tipCount":5,"visitsCount":154,"url":"http://puzzleshookah.com","tier":"","message":"","currency":"","rating":7.4},{"name":"Rehab Bar & Grill","phone":"3146523700","address":"4054 Chouteau Ave","lat":38.627739431223624,"lng":-90.24996950931283,"neighborhood":"Forest Park Southeast","city_fetched":"St. Louis,US","state":"MO","country":"United States","canonicalUrl":"https://foursquare.com/v/rehab-bar--grill/4b4bc35ef964a520d6a626e3","categoryId":"4bf58dd8d48988d1d8941735","category":"Gay Bar","checkinsCount":6137,"usersCount":1576,"tipCount":33,"visitsCount":6865,"url":"http://rehabstl.com","tier":1,"message":"Cheap","currency":"$","rating":7.4},{"name":"Tavern of Fine Arts","phone":"3143677549","twitter":"tavernfinearts","address":"313 Belt Ave","lat":38.64837995,"lng":-90.27840246666666,"neighborhood":"DeBaliviere Place","city_fetched":"St. Louis,US","state":"MO","country":"United States","canonicalUrl":"https://foursquare.com/tavernfinearts","categoryId":"4bf58dd8d48988d11e941735","category":"Cocktail Bar","checkinsCount":721,"usersCount":333,"tipCount":18,"visitsCount":779,"url":"http://tavern-of-fine-arts.blogspot.com","tier":2,"message":"Moderate","currency":"$","rating":7.4},{"name":"Renee's Bar & Grill","phone":"3143612078","address":"5860 Delmar Blvd Ste 110","lat":38.654381,"lng":-90.289365,"city_fetched":"St. Louis,US","state":"MO","country":"United States","canonicalUrl":"https://foursquare.com/v/renees-bar--grill/50f9cd13e4b02622ae8fe1f3","categoryId":"4bf58dd8d48988d116941735","category":"Bar","checkinsCount":98,"usersCount":43,"tipCount":2,"visitsCount":128,"tier":"","message":"","currency":"","rating":7.4},{"name":"O'Leary's Restaurant & Bar","phone":"3148427678","twitter":"olearysstl","address":"3828 S Lindbergh Blvd","lat":38.54876328333334,"lng":-90.40467744,"city_fetched":"St. Louis,US","state":"MO","country":"United States","canonicalUrl":"https://foursquare.com/v/olearys-restaurant--bar/4ae0f23df964a520ed8321e3","categoryId":"4bf58dd8d48988d11d941735","category":"Sports Bar","checkinsCount":2247,"usersCount":1195,"tipCount":23,"visitsCount":2704,"url":"http://olearysrestaurant.com","tier":2,"message":"Moderate","currency":"$","rating":7.4},{"name":"Gian Tony's","address":"5356 Daggett Ave","lat":38.61702464327178,"lng":-90.2770190369722,"neighborhood":"The Hill","city_fetched":"St. Louis,US","state":"MO","country":"United States","canonicalUrl":"https://foursquare.com/v/gian-tonys/4acbc3faf964a520eac520e3","categoryId":"4bf58dd8d48988d116941735","category":"Bar","checkinsCount":776,"usersCount":639,"tipCount":12,"visitsCount":828,"tier":2,"message":"Moderate","currency":"$","rating":7.3},{"name":"Budweiser Beer School","lat":38.59918689341311,"lng":-90.21433868507818,"neighborhood":"Soulard","city_fetched":"St. Louis,US","state":"MO","country":"United States","canonicalUrl":"https://foursquare.com/v/budweiser-beer-school/4f36e24fe4b0d9574c73f055","categoryId":"4bf58dd8d48988d117941735","category":"Beer Garden","checkinsCount":237,"usersCount":211,"tipCount":5,"visitsCount":237,"tier":"","message":"","currency":"","rating":7.3},{"name":"Cat's Meow","phone":"3147768617","address":"2600 S 11th St","lat":38.601687545465246,"lng":-90.21099328994751,"neighborhood":"Soulard","city_fetched":"St. Louis,US","state":"MO","country":"United States","canonicalUrl":"https://foursquare.com/v/cats-meow/4af309e6f964a52004ea21e3","categoryId":"4bf58dd8d48988d118941735","category":"Dive Bar","checkinsCount":1849,"usersCount":597,"tipCount":9,"visitsCount":2051,"url":"http://catsmeowinc.com","tier":1,"message":"Cheap","currency":"$","rating":7.3},{"name":"J. McGraugh's Bar And Grill","phone":"3148638555","address":"8405 Maryland Ave","lat":38.653362,"lng":-90.34789860248566,"city_fetched":"St. Louis,US","state":"MO","country":"United States","canonicalUrl":"https://foursquare.com/v/j-mcgraughs-bar-and-grill/4bf6bf3c5efe2d7fdaad6734","categoryId":"4bf58dd8d48988d116941735","category":"Bar","checkinsCount":766,"usersCount":347,"tipCount":14,"visitsCount":773,"url":"http://www.jmcgraughs.com","tier":"","message":"","currency":"","rating":7.3},{"name":"Nick's Pub","phone":"3147817806","twitter":"nickspub","address":"6001 Manchester Ave","lat":38.62276977930037,"lng":-90.28657337977059,"neighborhood":"Clayton-Tamm","city_fetched":"St. Louis,US","state":"MO","country":"United States","canonicalUrl":"https://foursquare.com/v/nicks-pub/4adfba04f964a520077d21e3","categoryId":"4bf58dd8d48988d11b941735","category":"Pub","checkinsCount":9849,"usersCount":3409,"tipCount":44,"visitsCount":11417,"url":"http://www.nicksirishpub.com","tier":2,"message":"Moderate","currency":"$","rating":7.3},{"name":"The other place","lat":38.66388572775875,"lng":-90.2641658776519,"city_fetched":"St. Louis,US","state":"MO","country":"United States","canonicalUrl":"https://foursquare.com/v/the-other-place/4d3295b0f8c9224b43e6b2d2","categoryId":"4bf58dd8d48988d116941735","category":"Bar","checkinsCount":191,"usersCount":70,"tipCount":2,"visitsCount":254,"tier":"","message":"","currency":"","rating":7.3},{"name":"Malone's Grill And Pub","phone":"3148439904","address":"8742 Watson Rd","lat":38.56368541717529,"lng":-90.36338031291962,"city_fetched":"St. Louis,US","state":"MO","country":"United States","canonicalUrl":"https://foursquare.com/v/malones-grill-and-pub/4b1bf572f964a520a6ff23e3","categoryId":"4bf58dd8d48988d116941735","category":"Bar","checkinsCount":1002,"usersCount":423,"tipCount":9,"visitsCount":1137,"url":"http://malonesgrillandpub.com","tier":"","message":"","currency":"","rating":7.3},{"name":"Erney's 32 Degrees","phone":"3146527195","twitter":"erneys32","address":"4200 Manchester Ave","lat":38.62720303720935,"lng":-90.2542503359864,"neighborhood":"Forest Park Southeast","city_fetched":"St. Louis,US","state":"MO","country":"United States","canonicalUrl":"https://foursquare.com/v/erneys-32-degrees/4ad95b6af964a520ea1921e3","categoryId":"4bf58dd8d48988d11f941735","category":"Nightclub","checkinsCount":3026,"usersCount":966,"tipCount":20,"visitsCount":3081,"tier":1,"message":"Cheap","currency":"$","rating":7.3},{"name":"Iowa Buffet","phone":"3147768000","address":"2727 Winnebago St","lat":38.588456908839376,"lng":-90.22985043330883,"neighborhood":"Gravois Park","city_fetched":"St. Louis,US","state":"MO","country":"United States","canonicalUrl":"https://foursquare.com/v/iowa-buffet/4bbf3d0d82a2ef3bde672cd2","categoryId":"4bf58dd8d48988d116941735","category":"Bar","checkinsCount":168,"usersCount":87,"tipCount":4,"visitsCount":238,"tier":"","message":"","currency":"","rating":7.3},{"name":"Arena Bar and Grill","phone":"3146467171","address":"5760 W Park Ave","lat":38.626021,"lng":-90.28373276,"city_fetched":"St. Louis,US","state":"MO","country":"United States","canonicalUrl":"https://foursquare.com/v/arena-bar-and-grill/4af96a09f964a520aa1122e3","categoryId":"4bf58dd8d48988d116941735","category":"Bar","checkinsCount":202,"usersCount":111,"tipCount":5,"visitsCount":333,"tier":"","message":"","currency":"","rating":7.3},{"name":"CBGB","address":"3163 S Grand Blvd","lat":38.600421458508436,"lng":-90.24290084838866,"neighborhood":"Tower Grove South","city_fetched":"St. Louis,US","state":"MO","country":"United States","canonicalUrl":"https://foursquare.com/v/cbgb/4ae655e6f964a52083a621e3","categoryId":"4bf58dd8d48988d118941735","category":"Dive Bar","checkinsCount":2794,"usersCount":567,"tipCount":13,"visitsCount":2863,"tier":1,"message":"Cheap","currency":"$","rating":7.3},{"name":"Luna Lounge","phone":"3144815862","twitter":"thelunalounge","address":"4561 Gravois Ave","lat":38.58427060213333,"lng":-90.26397228240967,"neighborhood":"Bevo Mill","city_fetched":"St. Louis,US","state":"MO","country":"United States","canonicalUrl":"https://foursquare.com/v/luna-lounge/4b76198ef964a520a43c2ee3","categoryId":"4bf58dd8d48988d116941735","category":"Bar","checkinsCount":1363,"usersCount":443,"tipCount":8,"visitsCount":1456,"tier":"","message":"","currency":"","rating":7.2},{"name":"Alpha Brewing Company","phone":"3146212337","twitter":"alphabrewingco","address":"1409 Washington Ave","lat":38.63294693709297,"lng":-90.1998782157898,"neighborhood":"Downtown West","city_fetched":"St. Louis,US","state":"MO","country":"United States","canonicalUrl":"https://foursquare.com/v/alpha-brewing-company/51434c2ee0e2984bbe67b9d9","categoryId":"50327c8591d4c4b30a586d5d","category":"Brewery","checkinsCount":1438,"usersCount":925,"tipCount":15,"visitsCount":1617,"url":"http://alphabrewingcompany.com","tier":1,"message":"Cheap","currency":"$","rating":7.2},{"name":"The Over/Under Bar & Grill","phone":"3146218881","twitter":"theoverunderstl","address":"911 Washington Ave","lat":38.631137,"lng":-90.193655,"neighborhood":"Downtown East","city_fetched":"St. Louis,US","state":"MO","country":"United States","canonicalUrl":"https://foursquare.com/v/the-overunder-bar--grill/4adfa087f964a520477c21e3","categoryId":"4bf58dd8d48988d11d941735","category":"Sports Bar","checkinsCount":6774,"usersCount":3617,"tipCount":52,"visitsCount":7010,"url":"http://overunderstl-hub.com","tier":1,"message":"Cheap","currency":"$","rating":7.2},{"name":"The Hive","phone":"3145691769","address":"609 N New Ballas Rd","lat":38.66671874238817,"lng":-90.4437490294256,"city_fetched":"St. Louis,US","state":"MO","country":"United States","canonicalUrl":"https://foursquare.com/v/the-hive/4ae91f0bf964a5206ab421e3","categoryId":"4bf58dd8d48988d116941735","category":"Bar","checkinsCount":2211,"usersCount":782,"tipCount":7,"visitsCount":2451,"url":"http://thehivestlouis.com","tier":2,"message":"Moderate","currency":"$","rating":7.2},{"name":"Boxers N Briefs","phone":"6183326141","address":"55 Four Corners Ln","lat":38.556920402059774,"lng":-90.10176146984415,"city_fetched":"St. Louis,US","state":"IL","country":"United States","canonicalUrl":"https://foursquare.com/v/boxers-n-briefs/4bbbffe62d9ea593f337a0ce","categoryId":"4bf58dd8d48988d1d6941735","category":"Strip Club","checkinsCount":312,"usersCount":215,"tipCount":6,"visitsCount":362,"url":"http://www.boxersnbriefs.com","tier":"","message":"","currency":"","rating":7.2},{"name":"Helen Fitzgerald's Irish Grill & Pub","phone":"3149840026","twitter":"helensfitz","address":"3650 S Lindbergh Blvd","lat":38.552928964718575,"lng":-90.40643223047906,"city_fetched":"St. Louis,US","state":"MO","country":"United States","canonicalUrl":"https://foursquare.com/v/helen-fitzgeralds-irish-grill--pub/4acbc3f9f964a5209ac520e3","categoryId":"4bf58dd8d48988d11b941735","category":"Pub","checkinsCount":9155,"usersCount":4373,"tipCount":33,"visitsCount":10890,"url":"http://www.helenfitzgeralds.com","tier":2,"message":"Moderate","currency":"$","rating":7.2},{"name":"Crocs Sports Bar","phone":"3148940043","address":"5591 oakville center","lat":38.47094414871179,"lng":-90.30677224907446,"city_fetched":"St. Louis,US","state":"MO","country":"United States","canonicalUrl":"https://foursquare.com/v/crocs-sports-bar/4bad834ef964a520e4573be3","categoryId":"4bf58dd8d48988d11d941735","category":"Sports Bar","checkinsCount":1687,"usersCount":313,"tipCount":14,"visitsCount":1712,"url":"http://crusoerestaurant.com","tier":"","message":"","currency":"","rating":7.2},{"name":"Cork Wine Bar","phone":"3145219463","address":"423 S Florissant Rd","lat":38.738405,"lng":-90.30279994010925,"city_fetched":"St. Louis,US","state":"MO","country":"United States","canonicalUrl":"https://foursquare.com/v/cork-wine-bar/4b625c7cf964a5203f442ae3","categoryId":"4bf58dd8d48988d123941735","category":"Wine Bar","checkinsCount":1595,"usersCount":375,"tipCount":12,"visitsCount":1672,"url":"http://corkwinebarstl.com","tier":"","message":"","currency":"","rating":7.2},{"name":"Siam","phone":"3145337426","twitter":"siam_stl","address":"4121 Manchester Ave","lat":38.627988516468065,"lng":-90.2510648794617,"neighborhood":"Forest Park Southeast","city_fetched":"St. Louis,US","state":"MO","country":"United States","canonicalUrl":"https://foursquare.com/v/siam/53617397498ea8f09b0ee06f","categoryId":"4bf58dd8d48988d11f941735","category":"Nightclub","checkinsCount":547,"usersCount":269,"tipCount":5,"visitsCount":590,"url":"http://www.siamstl.com","tier":"","message":"","currency":"","rating":7.2},{"name":"Lester's Sports Bar & Grill","phone":"3149940055","address":"9906 Clayton Rd","lat":38.6365196795782,"lng":-90.39220259715597,"city_fetched":"St. Louis,US","state":"MO","country":"United States","canonicalUrl":"https://foursquare.com/v/lesters-sports-bar--grill/4afafe84f964a5202f1a22e3","categoryId":"4bf58dd8d48988d11d941735","category":"Sports Bar","checkinsCount":3773,"usersCount":2307,"tipCount":32,"visitsCount":4686,"url":"http://lestersrestaurant.com","tier":2,"message":"Moderate","currency":"$","rating":7.2},{"name":"Morgan Street Brewery","phone":"3142319970","address":"721 N 2nd St","lat":38.63077020331685,"lng":-90.18464688669883,"neighborhood":"Downtown East","city_fetched":"St. Louis,US","state":"MO","country":"United States","canonicalUrl":"https://foursquare.com/v/morgan-street-brewery/4ae24957f964a520df8c21e3","categoryId":"50327c8591d4c4b30a586d5d","category":"Brewery","checkinsCount":9035,"usersCount":6109,"tipCount":58,"visitsCount":9303,"url":"http://morganstreetbrewery.com","tier":2,"message":"Moderate","currency":"$","rating":7.1},{"name":"J Greene's Pub","phone":"3143942330","twitter":"jgreenespub","address":"10017 Manchester Rd","lat":38.603581939717856,"lng":-90.38562548843925,"city_fetched":"St. Louis,US","state":"MO","country":"United States","canonicalUrl":"https://foursquare.com/v/j-greenes-pub/516ec654e4b00b18176d0ced","categoryId":"4bf58dd8d48988d116941735","category":"Bar","checkinsCount":499,"usersCount":250,"tipCount":4,"visitsCount":571,"url":"http://www.jgreenespub.com","tier":1,"message":"Cheap","currency":"$","rating":7.1},{"name":"The Wine Press","address":"4436 Olive St","lat":38.64740252494812,"lng":-90.253515,"neighborhood":"Central West End","city_fetched":"St. Louis,US","state":"MO","country":"United States","canonicalUrl":"https://foursquare.com/v/the-wine-press/4aea5349f964a52005bb21e3","categoryId":"4bf58dd8d48988d123941735","category":"Wine Bar","checkinsCount":285,"usersCount":163,"tipCount":6,"visitsCount":291,"tier":"","message":"","currency":"","rating":7.1},{"name":"Stan's Bar","phone":"3144819990","address":"5007 Macklind Ave","lat":38.584763,"lng":-90.28477,"neighborhood":"The Southampton","city_fetched":"St. Louis,US","state":"MO","country":"United States","canonicalUrl":"https://foursquare.com/v/stans-bar/4cba73d390c9a143a9ef8ed6","categoryId":"4bf58dd8d48988d118941735","category":"Dive Bar","checkinsCount":610,"usersCount":270,"tipCount":4,"visitsCount":874,"tier":1,"message":"Cheap","currency":"$","rating":7.1},{"name":"Heavy Riff Brewing Company","twitter":"heavyriffbeer","address":"6413 Clayton Ave","lat":38.62882338881532,"lng":-90.29334783554077,"neighborhood":"Clayton-Tamm","city_fetched":"St. Louis,US","state":"MO","country":"United States","canonicalUrl":"https://foursquare.com/v/heavy-riff-brewing-company/51ba42fd8bbdaf7f9fd4d2ac","categoryId":"50327c8591d4c4b30a586d5d","category":"Brewery","checkinsCount":1111,"usersCount":641,"tipCount":18,"visitsCount":1230,"tier":2,"message":"Moderate","currency":"$","rating":7.1},{"name":"Tom's Bar & Grill","phone":"3143674900","address":"20 S Euclid Ave","lat":38.639575030858495,"lng":-90.26227242393574,"neighborhood":"Central West End","city_fetched":"St. Louis,US","state":"MO","country":"United States","canonicalUrl":"https://foursquare.com/v/toms-bar--grill/4acbc3f9f964a5209dc520e3","categoryId":"4bf58dd8d48988d11b941735","category":"Pub","checkinsCount":3781,"usersCount":1949,"tipCount":26,"visitsCount":3863,"url":"http://www.tomsbarandgrill.com","tier":1,"message":"Cheap","currency":"$","rating":7.1},{"name":"Start Bar","phone":"3143764453","twitter":"startbarstl","address":"1000 Spruce St Frnt 1W","lat":38.62363509178919,"lng":-90.19732475280762,"neighborhood":"Downtown East","city_fetched":"St. Louis,US","state":"MO","country":"United States","canonicalUrl":"https://foursquare.com/v/start-bar/577bdfaecd1001858738a8de","categoryId":"4bf58dd8d48988d116941735","category":"Bar","checkinsCount":146,"usersCount":142,"tipCount":4,"visitsCount":168,"tier":"","message":"","currency":"","rating":7.1},{"name":"The Dry Dock","phone":"3146315811","address":"780 Lemay Ferry Rd","lat":38.53795602,"lng":-90.28251177,"city_fetched":"St. Louis,US","state":"MO","country":"United States","canonicalUrl":"https://foursquare.com/v/the-dry-dock/4c0ab90aa1b32d7fa0dd99f0","categoryId":"4bf58dd8d48988d116941735","category":"Bar","checkinsCount":504,"usersCount":238,"tipCount":3,"visitsCount":635,"tier":"","message":"","currency":"","rating":7.1},{"name":"DD’s Irish Pub (Double D’s)","phone":"3149615646","address":"1750 S Brentwood Blvd","lat":38.62626080663022,"lng":-90.34649835673999,"city_fetched":"St. Louis,US","state":"MO","country":"United States","canonicalUrl":"https://foursquare.com/v/dds-irish-pub-double-ds/4ae673a1f964a520fea621e3","categoryId":"4bf58dd8d48988d120941735","category":"Karaoke Bar","checkinsCount":9197,"usersCount":2394,"tipCount":24,"visitsCount":9830,"tier":2,"message":"Moderate","currency":"$","rating":7.1},{"name":"Garvey's","phone":"3148468881","address":"5647 Telegraph Rd","lat":38.46737235654567,"lng":-90.30623066201544,"city_fetched":"St. Louis,US","state":"MO","country":"United States","canonicalUrl":"https://foursquare.com/v/garveys/4c16833cdaf42d7fa2484466","categoryId":"4bf58dd8d48988d11b941735","category":"Pub","checkinsCount":1691,"usersCount":427,"tipCount":15,"visitsCount":1737,"tier":"","message":"","currency":"","rating":7.1},{"name":"Patrick McKeane's Pub","phone":"3143512800","address":"3152 Osceola St","lat":38.57650259,"lng":-90.24042777,"city_fetched":"St. Louis,US","state":"MO","country":"United States","canonicalUrl":"https://foursquare.com/v/patrick-mckeanes-pub/4babacfef964a52056bf3ae3","categoryId":"4bf58dd8d48988d11b941735","category":"Pub","checkinsCount":2209,"usersCount":437,"tipCount":11,"visitsCount":2352,"tier":1,"message":"Cheap","currency":"$","rating":7.1},{"name":"Lloyd and Harry's Birdhouse","phone":"3142419000","twitter":"lloydandharrys","address":"800 S 7th St","lat":38.61924866904836,"lng":-90.19485588359537,"neighborhood":"Downtown East","city_fetched":"St. Louis,US","state":"MO","country":"United States","canonicalUrl":"https://foursquare.com/v/lloyd-and-harrys-birdhouse/4c65faa4aebea593fc2a72d0","categoryId":"4bf58dd8d48988d116941735","category":"Bar","checkinsCount":611,"usersCount":347,"tipCount":7,"visitsCount":632,"tier":"","message":"","currency":"","rating":7.1},{"name":"Brewhouse Historical Sports Bar","phone":"3142593270","address":"315 Chestnut St","lat":38.62636426496095,"lng":-90.1883531142409,"neighborhood":"Downtown East","city_fetched":"St. Louis,US","state":"MO","country":"United States","canonicalUrl":"https://foursquare.com/v/brewhouse-historical-sports-bar/4b2935dbf964a520039b24e3","categoryId":"4bf58dd8d48988d11d941735","category":"Sports Bar","checkinsCount":5433,"usersCount":3053,"tipCount":61,"visitsCount":5471,"tier":2,"message":"Moderate","currency":"$","rating":7},{"name":"Jack Patrick's Bar & Grill","phone":"3144368879","address":"1000 Olive St","lat":38.628911,"lng":-90.194814,"neighborhood":"Downtown East","city_fetched":"St. Louis,US","state":"MO","country":"United States","canonicalUrl":"https://foursquare.com/v/jack-patricks-bar--grill/4b08c804f964a5202e1223e3","categoryId":"4bf58dd8d48988d11d941735","category":"Sports Bar","checkinsCount":3887,"usersCount":1657,"tipCount":30,"visitsCount":3924,"url":"http://jackpatricks.samsbiz.com","tier":2,"message":"Moderate","currency":"$","rating":7},{"name":"The Racquet Club","phone":"3143612100","address":"476 N Kingshighway Blvd","lat":38.64882080253252,"lng":-90.26383012533188,"neighborhood":"Central West End","city_fetched":"St. Louis,US","state":"MO","country":"United States","canonicalUrl":"https://foursquare.com/v/the-racquet-club/4b142bb8f964a520789e23e3","categoryId":"4bf58dd8d48988d1d4941735","category":"Speakeasy","checkinsCount":472,"usersCount":181,"tipCount":4,"visitsCount":548,"tier":"","message":"","currency":"","rating":7},{"name":"O'Shay's","phone":"3149325232","twitter":"oshayspub1","address":"4353 Manchester Ave","lat":38.626809,"lng":-90.258811,"neighborhood":"Forest Park Southeast","city_fetched":"St. Louis,US","state":"MO","country":"United States","canonicalUrl":"https://foursquare.com/v/oshays/4f28acc8e4b022d416f12042","categoryId":"4bf58dd8d48988d11b941735","category":"Pub","checkinsCount":1152,"usersCount":624,"tipCount":13,"visitsCount":1357,"tier":1,"message":"Cheap","currency":"$","rating":7},{"name":"Soulard Bastille Bar and Cobalt Grill","phone":"3146644408","address":"1027 Russell Blvd","lat":38.6072849467795,"lng":-90.20769988358556,"neighborhood":"Soulard","city_fetched":"St. Louis,US","state":"MO","country":"United States","canonicalUrl":"https://foursquare.com/v/soulard-bastille-bar-and-cobalt-grill/4c1857c0fe5a76b06c010215","categoryId":"4bf58dd8d48988d118941735","category":"Dive Bar","checkinsCount":2873,"usersCount":630,"tipCount":14,"visitsCount":2970,"url":"http://www.soulardbastille.com","tier":1,"message":"Cheap","currency":"$","rating":7},{"name":"DB's Sports Bar","phone":"3145882141","twitter":"dbssportsbar","address":"1615 S Broadway","lat":38.60946113753707,"lng":-90.19942357580072,"city_fetched":"St. Louis,US","state":"MO","country":"United States","canonicalUrl":"https://foursquare.com/v/dbs-sports-bar/4b4914e7f964a520156526e3","categoryId":"4bf58dd8d48988d116941735","category":"Bar","checkinsCount":2562,"usersCount":1275,"tipCount":23,"visitsCount":2806,"url":"http://dbssportsbar.com","tier":2,"message":"Moderate","currency":"$","rating":7},{"name":"Rosie's Place","phone":"3143616423","address":"4573 Laclede Ave","lat":38.64035558,"lng":-90.26142381666666,"neighborhood":"Central West End","city_fetched":"St. Louis,US","state":"MO","country":"United States","canonicalUrl":"https://foursquare.com/v/rosies-place/4b28127bf964a520908e24e3","categoryId":"4bf58dd8d48988d118941735","category":"Dive Bar","checkinsCount":1302,"usersCount":325,"tipCount":10,"visitsCount":1314,"tier":"","message":"","currency":"","rating":7},{"name":"D's Place","phone":"3147731019","address":"900 Barton St","lat":38.60275581212803,"lng":-90.20720087474498,"neighborhood":"Soulard","city_fetched":"St. Louis,US","state":"MO","country":"United States","canonicalUrl":"https://foursquare.com/v/ds-place/4aed140bf964a52010cd21e3","categoryId":"4bf58dd8d48988d118941735","category":"Dive Bar","checkinsCount":2938,"usersCount":848,"tipCount":16,"visitsCount":3324,"url":"http://www.dsplacesoulard.com","tier":1,"message":"Cheap","currency":"$","rating":7},{"name":"JP's Corner","phone":"3148421996","twitter":"jpscorner","address":"11890 Gravois Rd","lat":38.52908620922623,"lng":-90.38928645661434,"city_fetched":"St. Louis,US","state":"MO","country":"United States","canonicalUrl":"https://foursquare.com/v/jps-corner/4b5bbb42f964a520e41229e3","categoryId":"4bf58dd8d48988d120941735","category":"Karaoke Bar","checkinsCount":634,"usersCount":412,"tipCount":6,"visitsCount":875,"url":"http://www.jpscornerstl.com","tier":"","message":"","currency":"","rating":7},{"name":"Penthouse Club St. Louis","phone":"6182740380","twitter":"penthousestl","address":"1401 Mississippi Ave","lat":38.60302402193421,"lng":-90.17462354686097,"city_fetched":"St. Louis,US","state":"IL","country":"United States","canonicalUrl":"https://foursquare.com/v/penthouse-club-st-louis/4b07d116f964a520370023e3","categoryId":"4bf58dd8d48988d1d6941735","category":"Strip Club","checkinsCount":2825,"usersCount":1473,"tipCount":10,"visitsCount":3531,"url":"http://penthousestlouis.com","tier":"","message":"","currency":"","rating":6.9},{"name":"The Pat Connolly Tavern","phone":"3146477287","twitter":"thepatconnolly","address":"6400 Oakland Ave","lat":38.63128068,"lng":-90.292593,"neighborhood":"Clayton-Tamm","city_fetched":"St. Louis,US","state":"MO","country":"United States","canonicalUrl":"https://foursquare.com/thepatconnolly","categoryId":"4bf58dd8d48988d116941735","category":"Bar","checkinsCount":2124,"usersCount":1203,"tipCount":23,"visitsCount":2316,"url":"http://www.patconnollytavern.com","tier":"","message":"","currency":"","rating":6.9},{"name":"Double Apple Cafe & Hookah Lounge","phone":"3143716700","address":"3131 Olive St","lat":38.635755,"lng":-90.22481383,"neighborhood":"Midtown","city_fetched":"St. Louis,US","state":"MO","country":"United States","canonicalUrl":"https://foursquare.com/v/double-apple-cafe--hookah-lounge/4d263ba273913704216cfe35","categoryId":"4bf58dd8d48988d119941735","category":"Hookah Bar","checkinsCount":911,"usersCount":452,"tipCount":16,"visitsCount":924,"url":"http://doubleapplecafe.com","tier":2,"message":"Moderate","currency":"$","rating":6.9},{"name":"Time-Out Sports Bar & Grill","phone":"3147713610","address":"4140 Gravois Ave","lat":38.58897535588194,"lng":-90.25691348597326,"neighborhood":"Dutchtown South","city_fetched":"St. Louis,US","state":"MO","country":"United States","canonicalUrl":"https://foursquare.com/v/timeout-sports-bar--grill/4b4221ccf964a52055cd25e3","categoryId":"4bf58dd8d48988d120941735","category":"Karaoke Bar","checkinsCount":862,"usersCount":311,"tipCount":15,"visitsCount":905,"tier":"","message":"","currency":"","rating":6.9},{"name":"Nadine's Gin Joint","phone":"3144363045","address":"1931 S 12th St","lat":38.60890068671445,"lng":-90.2093297186355,"neighborhood":"Soulard","city_fetched":"St. Louis,US","state":"MO","country":"United States","canonicalUrl":"https://foursquare.com/v/nadines-gin-joint/4ae8e08ff964a52010b321e3","categoryId":"4bf58dd8d48988d116941735","category":"Bar","checkinsCount":2286,"usersCount":1027,"tipCount":12,"visitsCount":2596,"url":"http://www.nadinesginjoint.com","tier":"","message":"","currency":"","rating":6.9},{"name":"Keetons Double Play","phone":"3143516000","address":"4944 Christy Blvd","lat":38.584175055763836,"lng":-90.27620269179641,"neighborhood":"Bevo Mill","city_fetched":"St. Louis,US","state":"MO","country":"United States","canonicalUrl":"https://foursquare.com/v/keetons-double-play/4afcac36f964a520fa2422e3","categoryId":"4bf58dd8d48988d116941735","category":"Bar","checkinsCount":1919,"usersCount":517,"tipCount":12,"visitsCount":2471,"tier":1,"message":"Cheap","currency":"$","rating":6.9},{"name":"The Side Bar","phone":"3146217376","twitter":"sidebarstl","address":"1317 Washington Ave","lat":38.63238555645025,"lng":-90.19896128989103,"neighborhood":"Downtown West","city_fetched":"St. Louis,US","state":"MO","country":"United States","canonicalUrl":"https://foursquare.com/v/the-side-bar/4ad8740df964a5207e1121e3","categoryId":"4bf58dd8d48988d116941735","category":"Bar","checkinsCount":7316,"usersCount":3008,"tipCount":39,"visitsCount":7340,"url":"http://thesidebarstl.com","tier":1,"message":"Cheap","currency":"$","rating":6.8},{"name":"Crafted","address":"3200 Shenandoah Ave","lat":38.60895142952327,"lng":-90.23403284127379,"neighborhood":"Tower Grove East","city_fetched":"St. Louis,US","state":"MO","country":"United States","canonicalUrl":"https://foursquare.com/v/crafted/569ae48b498e0dda523d9a16","categoryId":"4bf58dd8d48988d11e941735","category":"Cocktail Bar","checkinsCount":86,"usersCount":72,"tipCount":3,"visitsCount":100,"tier":"","message":"","currency":"","rating":6.8},{"name":"Stella Blues","phone":"3147723533","address":"3269 Morganford Rd","lat":38.598849177360535,"lng":-90.262214,"neighborhood":"Tower Grove South","city_fetched":"St. Louis,US","state":"MO","country":"United States","canonicalUrl":"https://foursquare.com/v/stella-blues/4d4ccd1980cb6dcb31330801","categoryId":"4bf58dd8d48988d116941735","category":"Bar","checkinsCount":1584,"usersCount":823,"tipCount":22,"visitsCount":2008,"url":"http://stellabluesstl.com","tier":"","message":"","currency":"","rating":6.8},{"name":"Little Bar","phone":"3143511665","address":"6343 Alabama Ave","lat":38.55958223877575,"lng":-90.25392031975586,"neighborhood":"Carondelet","city_fetched":"St. Louis,US","state":"MO","country":"United States","canonicalUrl":"https://foursquare.com/v/little-bar/4c3bb0a35810a593c116bb3c","categoryId":"4bf58dd8d48988d118941735","category":"Dive Bar","checkinsCount":214,"usersCount":114,"tipCount":2,"visitsCount":284,"tier":"","message":"","currency":"","rating":6.8},{"name":"Lilly's","address":"2321 Arsenal St","lat":38.59893304743155,"lng":-90.22405627442993,"neighborhood":"Benton Park","city_fetched":"St. Louis,US","state":"MO","country":"United States","canonicalUrl":"https://foursquare.com/v/lillys/558e2d7d498e05995947306d","categoryId":"4bf58dd8d48988d1d8941735","category":"Gay Bar","checkinsCount":93,"usersCount":79,"tipCount":1,"visitsCount":137,"tier":"","message":"","currency":"","rating":6.8},{"name":"Boogie Nights at Hollywood Casino","phone":"8557854263","twitter":"hollywoodstl","address":"777 Casino Center Drive","lat":38.7541694018209,"lng":-90.4823919738752,"city_fetched":"St. Louis,US","state":"MO","country":"United States","canonicalUrl":"https://foursquare.com/v/boogie-nights-at-hollywood-casino/54878b1a498e2db911aac233","categoryId":"4bf58dd8d48988d11f941735","category":"Nightclub","checkinsCount":315,"usersCount":154,"tipCount":5,"visitsCount":325,"url":"http://www.hollywoodcasinostlouis.com","tier":"","message":"","currency":"","rating":6.7},{"name":"Trainwreck Saloon","phone":"3144347222","address":"314 West Port Plz","lat":38.70151805651622,"lng":-90.44653562428581,"city_fetched":"St. Louis,US","state":"MO","country":"United States","canonicalUrl":"https://foursquare.com/v/trainwreck-saloon/4acbc3f9f964a52084c520e3","categoryId":"4bf58dd8d48988d116941735","category":"Bar","checkinsCount":7822,"usersCount":3687,"tipCount":48,"visitsCount":8083,"url":"http://trainwrecksaloon.com","tier":2,"message":"Moderate","currency":"$","rating":6.7},{"name":"Pub 231","phone":"3142931815","twitter":"pub_231","address":"6070 Telegraph Rd Ste H","lat":38.456158134354865,"lng":-90.30574874763612,"city_fetched":"St. Louis,US","state":"MO","country":"United States","canonicalUrl":"https://foursquare.com/v/pub-231/506ccc35e4b067e34d4287bd","categoryId":"4bf58dd8d48988d11b941735","category":"Pub","checkinsCount":435,"usersCount":112,"tipCount":1,"visitsCount":490,"url":"http://www.pub231.com","tier":"","message":"","currency":"","rating":6.7},{"name":"Soulard's Restaurant and Bar","phone":"3142417956","address":"1731 S 7th St","lat":38.60890215,"lng":-90.20149456,"neighborhood":"Soulard","city_fetched":"St. Louis,US","state":"MO","country":"United States","canonicalUrl":"https://foursquare.com/v/soulards-restaurant-and-bar/4acbc3f9f964a52080c520e3","categoryId":"4bf58dd8d48988d123941735","category":"Wine Bar","checkinsCount":498,"usersCount":432,"tipCount":7,"visitsCount":596,"url":"http://www.soulards.com","tier":"","message":"","currency":"","rating":6.7},{"name":"Valerie's Sit & Sip","phone":"3145315085","address":"3701 Sullivan Ave","lat":38.65909695625305,"lng":-90.22046148777008,"neighborhood":"Jeff-Vander-Lou","city_fetched":"St. Louis,US","state":"MO","country":"United States","canonicalUrl":"https://foursquare.com/v/valeries-sit--sip/4cb78e0dbac937046186d57c","categoryId":"4bf58dd8d48988d11e941735","category":"Cocktail Bar","checkinsCount":102,"usersCount":53,"tipCount":2,"visitsCount":140,"url":"http://www.sitsip.com","tier":"","message":"","currency":"","rating":6.7},{"name":"Kilroy's","phone":"3146211960","address":"720 S 7th St","lat":38.619879267018575,"lng":-90.19444857044583,"neighborhood":"Downtown East","city_fetched":"St. Louis,US","state":"MO","country":"United States","canonicalUrl":"https://foursquare.com/v/kilroys/4bc34c5bb492d13a7785a860","categoryId":"4bf58dd8d48988d116941735","category":"Bar","checkinsCount":2244,"usersCount":1251,"tipCount":5,"visitsCount":2327,"tier":"","message":"","currency":"","rating":6.7},{"name":"Mike Talayna's Juke Box Restaurant","phone":"3146477600","address":"1115 Hampton Ave","lat":38.629252240699536,"lng":-90.28749086654872,"neighborhood":"Clayton-Tamm","city_fetched":"St. Louis,US","state":"MO","country":"United States","canonicalUrl":"https://foursquare.com/v/mike-talaynas-juke-box-restaurant/4b3598fef964a5201b2e25e3","categoryId":"4bf58dd8d48988d11f941735","category":"Nightclub","checkinsCount":3448,"usersCount":1838,"tipCount":24,"visitsCount":3909,"url":"http://www.talaynas.net","tier":1,"message":"Cheap","currency":"$","rating":6.6},{"name":"Babe's Tavern","address":"3215 Ivanhoe Ave","lat":38.60537377740766,"lng":-90.30391752717816,"neighborhood":"Lindenwood Park","city_fetched":"St. Louis,US","state":"MO","country":"United States","canonicalUrl":"https://foursquare.com/v/babes-tavern/4af84b91f964a520f20b22e3","categoryId":"4bf58dd8d48988d116941735","category":"Bar","checkinsCount":662,"usersCount":354,"tipCount":6,"visitsCount":783,"tier":"","message":"","currency":"","rating":6.6},{"name":"Europe Night Club","phone":"3146215111","address":"710 N 15th St","lat":38.63326,"lng":-90.19989967346191,"neighborhood":"Downtown West","city_fetched":"St. Louis,US","state":"MO","country":"United States","canonicalUrl":"https://foursquare.com/v/europe-night-club/4bad5bcdf964a520d6493be3","categoryId":"4bf58dd8d48988d11f941735","category":"Nightclub","checkinsCount":1098,"usersCount":679,"tipCount":9,"visitsCount":1136,"url":"http://www.europenightclub.com","tier":"","message":"","currency":"","rating":6.6},{"name":"Shelly's in Soulard","address":"2001 Menard St","lat":38.608079333470286,"lng":-90.20733363793838,"neighborhood":"Soulard","city_fetched":"St. Louis,US","state":"MO","country":"United States","canonicalUrl":"https://foursquare.com/v/shellys-in-soulard/55f0b9d0498edec0742fba37","categoryId":"4bf58dd8d48988d11d941735","category":"Sports Bar","checkinsCount":361,"usersCount":354,"tipCount":1,"visitsCount":801,"tier":"","message":"","currency":"","rating":6.6},{"name":"Big Daddy's on The Landing","phone":"3146216700","address":"118 Morgan St","lat":38.630583468920754,"lng":-90.18397808074951,"neighborhood":"Downtown East","city_fetched":"St. Louis,US","state":"MO","country":"United States","canonicalUrl":"https://foursquare.com/v/big-daddys-on-the-landing/4bdd13374ffaa5932fc46ef7","categoryId":"4bf58dd8d48988d116941735","category":"Bar","checkinsCount":5389,"usersCount":3392,"tipCount":33,"visitsCount":5454,"url":"http://lacledes-landing.bigdaddystl.com","tier":2,"message":"Moderate","currency":"$","rating":6.6},{"name":"C.W.'s Lounge","phone":"3145314059","address":"2600 Natural Bridge Ave","lat":38.6586066506393,"lng":-90.21195316431597,"neighborhood":"Jeff-Vander-Lou","city_fetched":"St. Louis,US","state":"MO","country":"United States","canonicalUrl":"https://foursquare.com/v/cws-lounge/4be86b77947820a185e1b4db","categoryId":"4bf58dd8d48988d116941735","category":"Bar","checkinsCount":227,"usersCount":135,"tipCount":4,"visitsCount":384,"tier":"","message":"","currency":"","rating":6.6},{"name":"Johnny Gitto's","phone":"3147818111","address":"6997 Chippewa St","lat":38.58751288252064,"lng":-90.31266593563195,"neighborhood":"Lindenwood Park","city_fetched":"St. Louis,US","state":"MO","country":"United States","canonicalUrl":"https://foursquare.com/v/johnny-gittos/4b9209edf964a52083e433e3","categoryId":"4bf58dd8d48988d120941735","category":"Karaoke Bar","checkinsCount":1426,"usersCount":508,"tipCount":12,"visitsCount":1429,"url":"http://www.charliegittos.com","tier":"","message":"","currency":"","rating":6.6},{"name":"Hide Away Piano Bar","address":"5900 Arsenal St","lat":38.60677182342369,"lng":-90.28806430673585,"neighborhood":"Southwest Garden","city_fetched":"St. Louis,US","state":"MO","country":"United States","canonicalUrl":"https://foursquare.com/v/hide-away-piano-bar/4acbc3f9f964a52090c520e3","categoryId":"4bf58dd8d48988d11e941735","category":"Cocktail Bar","checkinsCount":860,"usersCount":457,"tipCount":12,"visitsCount":1002,"tier":"","message":"","currency":"","rating":6.6},{"name":"34 Club","phone":"3143676674","address":"34 N Euclid Ave","lat":38.6413935496937,"lng":-90.26190566387784,"neighborhood":"Central West End","city_fetched":"St. Louis,US","state":"MO","country":"United States","canonicalUrl":"https://foursquare.com/v/34-club/4b36e344f964a520d63d25e3","categoryId":"4bf58dd8d48988d118941735","category":"Dive Bar","checkinsCount":828,"usersCount":313,"tipCount":14,"visitsCount":833,"tier":"","message":"","currency":"","rating":6.6},{"name":"John P Fields","phone":"3148621886","twitter":"johnpfields","address":"26 N Central Ave","lat":38.65102,"lng":-90.337868,"city_fetched":"St. Louis,US","state":"MO","country":"United States","canonicalUrl":"https://foursquare.com/v/john-p-fields/4ade4378f964a5206d7421e3","categoryId":"4bf58dd8d48988d116941735","category":"Bar","checkinsCount":4654,"usersCount":1458,"tipCount":26,"visitsCount":4732,"url":"http://www.jpfclayton.com","tier":1,"message":"Cheap","currency":"$","rating":6.6},{"name":"Taha'a Twisted Tiki","phone":"3142028302","twitter":"tahaatiki","address":"4199 Manchester Ave","lat":38.62760801161338,"lng":-90.25419533308707,"neighborhood":"Forest Park Southeast","city_fetched":"St. Louis,US","state":"MO","country":"United States","canonicalUrl":"https://foursquare.com/v/tahaa-twisted-tiki/526567b711d272b2a36a9a71","categoryId":"4bf58dd8d48988d11e941735","category":"Cocktail Bar","checkinsCount":798,"usersCount":477,"tipCount":11,"visitsCount":838,"url":"http://tahaatiki.com","tier":3,"message":"Expensive","currency":"$","rating":6.5},{"name":"Dulanys Pub and Grille","phone":"3148491554","twitter":"dulanys","address":"9940 Kennerly Rd","lat":38.506860240433,"lng":-90.37698952956382,"city_fetched":"St. Louis,US","state":"MO","country":"United States","canonicalUrl":"https://foursquare.com/v/dulanys-pub-and-grille/4bbcfc0d8ec3d13abd831b28","categoryId":"4bf58dd8d48988d11d941735","category":"Sports Bar","checkinsCount":340,"usersCount":213,"tipCount":5,"visitsCount":340,"url":"http://www.dulanys.com","tier":"","message":"","currency":"","rating":6.5},{"name":"Hustler Club","phone":"6188749334","address":"5420 Bunkum Rd","lat":38.6208769269831,"lng":-90.09364476042879,"city_fetched":"St. Louis,US","state":"IL","country":"United States","canonicalUrl":"https://foursquare.com/v/hustler-club/4bfe13744cf820a1f36eedf4","categoryId":"4bf58dd8d48988d1d6941735","category":"Strip Club","checkinsCount":2025,"usersCount":1132,"tipCount":7,"visitsCount":2453,"tier":"","message":"","currency":"","rating":6.5},{"name":"Trueman's Place","phone":"3148655900","twitter":"truemansplace","address":"1818 Sidney St","lat":38.60278281,"lng":-90.21526656,"neighborhood":"Benton Park","city_fetched":"St. Louis,US","state":"MO","country":"United States","canonicalUrl":"https://foursquare.com/truemansplace","categoryId":"4bf58dd8d48988d11d941735","category":"Sports Bar","checkinsCount":4127,"usersCount":1551,"tipCount":13,"visitsCount":4831,"url":"http://truemanssoulard.com","tier":1,"message":"Cheap","currency":"$","rating":6.5},{"name":"Pints And Rails","phone":"3148497665","address":"8924 Watson Rd","lat":38.56222826043022,"lng":-90.36499522535843,"city_fetched":"St. Louis,US","state":"MO","country":"United States","canonicalUrl":"https://foursquare.com/v/pints-and-rails/5052348ee4b02dee62d593f7","categoryId":"4bf58dd8d48988d11d941735","category":"Sports Bar","checkinsCount":409,"usersCount":117,"tipCount":2,"visitsCount":530,"url":"http://www.pintsandrails.com","tier":"","message":"","currency":"","rating":6.5},{"name":"Market Pub House","phone":"3147278880","twitter":"mphintheloop","address":"6655 Delmar Blvd","lat":38.65624612831909,"lng":-90.30725417607131,"city_fetched":"St. Louis,US","state":"MO","country":"United States","canonicalUrl":"https://foursquare.com/v/market-pub-house/4bdb4e95fed22d7f0e8257c9","categoryId":"4bf58dd8d48988d11d941735","category":"Sports Bar","checkinsCount":5044,"usersCount":2326,"tipCount":68,"visitsCount":5179,"url":"http://marketpubhouse.com","tier":2,"message":"Moderate","currency":"$","rating":6.5},{"name":"The Pour House","phone":"3142415999","address":"1933 Washington Ave","lat":38.63409463,"lng":-90.207687,"neighborhood":"Downtown West","city_fetched":"St. Louis,US","state":"MO","country":"United States","canonicalUrl":"https://foursquare.com/v/the-pour-house/4c0683408f8fa593cf65f30d","categoryId":"4bf58dd8d48988d116941735","category":"Bar","checkinsCount":3131,"usersCount":1061,"tipCount":25,"visitsCount":3249,"url":"http://pourhousestl.com","tier":"","message":"","currency":"","rating":6.4},{"name":"BBC Cafe & Bar","lat":38.644592,"lng":-90.26154707142857,"neighborhood":"Central West End","city_fetched":"St. Louis,US","state":"MO","country":"United States","canonicalUrl":"https://foursquare.com/v/bbc-cafe--bar/4dfac014e4cd567936070eed","categoryId":"4bf58dd8d48988d119941735","category":"Hookah Bar","checkinsCount":707,"usersCount":358,"tipCount":12,"visitsCount":707,"tier":"","message":"","currency":"","rating":6.4},{"name":"O.B. Clark's Restaurant & Bar","phone":"3149618900","address":"1921 S Brentwood Blvd","lat":38.62385869615268,"lng":-90.34804210958195,"city_fetched":"St. Louis,US","state":"MO","country":"United States","canonicalUrl":"https://foursquare.com/v/ob-clarks-restaurant--bar/4b2ad22af964a52049b024e3","categoryId":"4bf58dd8d48988d11d941735","category":"Sports Bar","checkinsCount":5048,"usersCount":1716,"tipCount":21,"visitsCount":5806,"url":"http://obclark.com","tier":1,"message":"Cheap","currency":"$","rating":6.4},{"name":"The Wicked Lady Pub","phone":"3144481978","address":"4534 Gravois Ave","lat":38.58464956283569,"lng":-90.26262044906616,"neighborhood":"Bevo Mill","city_fetched":"St. Louis,US","state":"MO","country":"United States","canonicalUrl":"https://foursquare.com/v/the-wicked-lady-pub/4c07f61effb8c9b6ac7e6761","categoryId":"4bf58dd8d48988d11b941735","category":"Pub","checkinsCount":436,"usersCount":154,"tipCount":11,"visitsCount":436,"tier":"","message":"","currency":"","rating":6.4},{"name":"Hilltop Inn","address":"6902 Morganford Rd","lat":38.565743962018566,"lng":-90.27715203864751,"city_fetched":"St. Louis,US","state":"MO","country":"United States","canonicalUrl":"https://foursquare.com/v/hilltop-inn/4af65b1ef964a5203b0322e3","categoryId":"4bf58dd8d48988d118941735","category":"Dive Bar","checkinsCount":533,"usersCount":200,"tipCount":1,"visitsCount":571,"tier":1,"message":"Cheap","currency":"$","rating":6.4},{"name":"Rustic Goat Bar & Eatery","address":"2617 Washington Ave","lat":38.63521190194553,"lng":-90.21392200965666,"neighborhood":"Midtown","city_fetched":"St. Louis,US","state":"MO","country":"United States","canonicalUrl":"https://foursquare.com/v/rustic-goat-bar--eatery/51e2301c498efea9481757bb","categoryId":"4bf58dd8d48988d121941735","category":"Lounge","checkinsCount":279,"usersCount":205,"tipCount":7,"visitsCount":305,"tier":"","message":"","currency":"","rating":6.4},{"name":"Danno's American Pub","phone":"3143953000","twitter":"dannospub","address":"7895 Watson Rd","lat":38.569739,"lng":-90.337858,"city_fetched":"St. Louis,US","state":"MO","country":"United States","canonicalUrl":"https://foursquare.com/v/dannos-american-pub/4b63ad2af964a5207b8b2ae3","categoryId":"4bf58dd8d48988d11b941735","category":"Pub","checkinsCount":3760,"usersCount":532,"tipCount":20,"visitsCount":3965,"tier":"","message":"","currency":"","rating":6.4},{"name":"The Dubliner","phone":"3144214300","twitter":"thedubliner_stl","address":"1025 Washington Ave","lat":38.631464,"lng":-90.194919,"neighborhood":"Downtown East","city_fetched":"St. Louis,US","state":"MO","country":"United States","canonicalUrl":"https://foursquare.com/v/the-dubliner/4acbc3faf964a520bec520e3","categoryId":"4bf58dd8d48988d116941735","category":"Bar","checkinsCount":10752,"usersCount":5700,"tipCount":82,"visitsCount":10926,"url":"http://dublinerstl.com","tier":2,"message":"Moderate","currency":"$","rating":6.4},{"name":"PBR St. Louis","twitter":"stlpbr","address":"601 Clark Ave #202","lat":38.624022673619656,"lng":-90.1917805463343,"neighborhood":"Downtown East","city_fetched":"St. Louis,US","state":"MO","country":"United States","canonicalUrl":"https://foursquare.com/v/pbr-st-louis/5334f8cb498e208173425a7d","categoryId":"4bf58dd8d48988d116941735","category":"Bar","checkinsCount":1059,"usersCount":710,"tipCount":12,"visitsCount":1070,"url":"http://www.stlballparkvillage.com/dining/drink/pbr-st-louis","tier":3,"message":"Expensive","currency":"$","rating":6.4},{"name":"Bobby's Place Downtown","phone":"3144368143","twitter":"bobbysplace_stl","address":"1130 Washington Ave","lat":38.631519466493685,"lng":-90.19623803427332,"neighborhood":"Downtown East","city_fetched":"St. Louis,US","state":"MO","country":"United States","canonicalUrl":"https://foursquare.com/v/bobbys-place-downtown/53225e14498e4d362ad0a55b","categoryId":"4bf58dd8d48988d11d941735","category":"Sports Bar","checkinsCount":1009,"usersCount":640,"tipCount":7,"visitsCount":1321,"url":"http://dt.bobbyspl.com","tier":1,"message":"Cheap","currency":"$","rating":6.3},{"name":"Geyer Inn","address":"220 south geyer, st louis, missouri, 63122","lat":38.579506198418116,"lng":-90.41536460726064,"city_fetched":"St. Louis,US","state":"MO","country":"United States","canonicalUrl":"https://foursquare.com/v/geyer-inn/4c3fbebce26920a1fefa5be7","categoryId":"4bf58dd8d48988d11d941735","category":"Sports Bar","checkinsCount":168,"usersCount":113,"tipCount":3,"visitsCount":196,"tier":"","message":"","currency":"","rating":6.3},{"name":"The Office","address":"5917 Delmar Blvd","lat":38.654873319201606,"lng":-90.29136289826354,"city_fetched":"St. Louis,US","state":"MO","country":"United States","canonicalUrl":"https://foursquare.com/v/the-office/50cbfcd7e4b0bc9a51bf363d","categoryId":"4bf58dd8d48988d121941735","category":"Lounge","checkinsCount":132,"usersCount":89,"tipCount":7,"visitsCount":153,"tier":"","message":"","currency":"","rating":6.3},{"name":"Mandarin Lounge","phone":"3143674447","twitter":"mandarinlounge","address":"44 Maryland Plaza","lat":38.64488353340332,"lng":-90.26302887745867,"neighborhood":"Central West End","city_fetched":"St. Louis,US","state":"MO","country":"United States","canonicalUrl":"https://foursquare.com/mandarinlounge","categoryId":"4bf58dd8d48988d11f941735","category":"Nightclub","checkinsCount":2597,"usersCount":1588,"tipCount":8,"visitsCount":2664,"url":"http://www.mandarinlounge.net","tier":"","message":"","currency":"","rating":6.3},{"name":"Hollywood Showclub","phone":"6188749000","address":"5841 Bunkum Rd","lat":38.620833488882695,"lng":-90.08708599387678,"city_fetched":"St. Louis,US","state":"IL","country":"United States","canonicalUrl":"https://foursquare.com/v/hollywood-showclub/4b9b4a7af964a5209ffe35e3","categoryId":"4bf58dd8d48988d1d6941735","category":"Strip Club","checkinsCount":1287,"usersCount":375,"tipCount":8,"visitsCount":1298,"url":"http://hollywoodshowclub.com","tier":"","message":"","currency":"","rating":6.3},{"name":"Barbarella","address":"3131 S Grand Blvd","lat":38.601943,"lng":-90.242938,"neighborhood":"Tower Grove South","city_fetched":"St. Louis,US","state":"MO","country":"United States","canonicalUrl":"https://foursquare.com/v/barbarella/4b2c86e4f964a5209cc724e3","categoryId":"4bf58dd8d48988d118941735","category":"Dive Bar","checkinsCount":815,"usersCount":127,"tipCount":2,"visitsCount":827,"tier":"","message":"","currency":"","rating":6.2},{"name":"Orlando Gardens","phone":"3146386660","twitter":"orlandobanquets","address":"4300 Hoffmeister Ave","lat":38.54252654599825,"lng":-90.2977466583252,"city_fetched":"St. Louis,US","state":"MO","country":"United States","canonicalUrl":"https://foursquare.com/v/orlando-gardens/4b087dd5f964a520fa0c23e3","categoryId":"4bf58dd8d48988d121941735","category":"Lounge","checkinsCount":823,"usersCount":546,"tipCount":0,"visitsCount":953,"url":"http://www.orlandogardens.com","tier":"","message":"","currency":"","rating":6.2},{"name":"Par Lounge","phone":"3146461300","address":"1001 McCausland Ave","lat":38.632687127027744,"lng":-90.30511870980263,"neighborhood":"Hi-Pointe","city_fetched":"St. Louis,US","state":"MO","country":"United States","canonicalUrl":"https://foursquare.com/v/par-lounge/4b500a7ef964a520ae1b27e3","categoryId":"4bf58dd8d48988d121941735","category":"Lounge","checkinsCount":4574,"usersCount":1051,"tipCount":21,"visitsCount":4606,"url":"http://www.parlounge.com","tier":2,"message":"Moderate","currency":"$","rating":6.2},{"name":"Hessler's Pub","phone":"3148424050","address":"11804 Tesson Ferry Rd","lat":38.520016492329034,"lng":-90.3620902952838,"city_fetched":"St. Louis,US","state":"MO","country":"United States","canonicalUrl":"https://foursquare.com/v/hesslers-pub/4bf76edd4a67c928cfbe23cf","categoryId":"4bf58dd8d48988d116941735","category":"Bar","checkinsCount":1279,"usersCount":712,"tipCount":13,"visitsCount":1445,"url":"http://www.hesslerspub.com","tier":1,"message":"Cheap","currency":"$","rating":6.2},{"name":"Colorado Bob's Ship of Fools","phone":"3147727564","address":"3457 Morganford Rd","lat":38.59557841628481,"lng":-90.26273546343964,"neighborhood":"Tower Grove South","city_fetched":"St. Louis,US","state":"MO","country":"United States","canonicalUrl":"https://foursquare.com/v/colorado-bobs-ship-of-fools/4b480d8af964a5201b4726e3","categoryId":"4bf58dd8d48988d118941735","category":"Dive Bar","checkinsCount":769,"usersCount":418,"tipCount":7,"visitsCount":882,"tier":"","message":"","currency":"","rating":6.2},{"name":"Mike Shannon's Outfield","phone":"3144211540","twitter":"shannonsteak","address":"620 Market St","lat":38.625233,"lng":-90.19245,"neighborhood":"Downtown East","city_fetched":"St. Louis,US","state":"MO","country":"United States","canonicalUrl":"https://foursquare.com/v/mike-shannons-outfield/4bd3a2c79854d13ac759fe4d","categoryId":"4bf58dd8d48988d11d941735","category":"Sports Bar","checkinsCount":4703,"usersCount":2960,"tipCount":33,"visitsCount":4827,"url":"http://www.shannonsteak.com/the-outfield-main.php","tier":"","message":"","currency":"","rating":6.2},{"name":"Cuz'","phone":"3142412400","address":"1530 S 7th St","lat":38.610599683305004,"lng":-90.19866835909791,"city_fetched":"St. Louis,US","state":"MO","country":"United States","canonicalUrl":"https://foursquare.com/v/cuz/4f386803e4b0a1f197e891fd","categoryId":"4bf58dd8d48988d120941735","category":"Karaoke Bar","checkinsCount":407,"usersCount":223,"tipCount":4,"visitsCount":421,"tier":"","message":"","currency":"","rating":6.2},{"name":"Livery Company","twitter":"liverycompany","address":"3211 Cherokee St","lat":38.59497582811949,"lng":-90.23739100376683,"city_fetched":"St. Louis,US","state":"MO","country":"United States","canonicalUrl":"https://foursquare.com/liverycompany","categoryId":"4bf58dd8d48988d116941735","category":"Bar","checkinsCount":735,"usersCount":260,"tipCount":7,"visitsCount":777,"tier":"","message":"","currency":"","rating":6.2},{"name":"City Bistro","lat":38.6032996608955,"lng":-90.22633719196624,"city_fetched":"St. Louis,US","state":"MO","country":"United States","canonicalUrl":"https://foursquare.com/v/city-bistro/50918a25e4b03a2b6bb46310","categoryId":"4bf58dd8d48988d11b941735","category":"Pub","checkinsCount":195,"usersCount":90,"tipCount":4,"visitsCount":213,"tier":"","message":"","currency":"","rating":6.2},{"name":"The Filling Station","phone":"3147729533","address":"1924 Pestalozzi St","lat":38.59936934654781,"lng":-90.21825382090603,"neighborhood":"Benton Park","city_fetched":"St. Louis,US","state":"MO","country":"United States","canonicalUrl":"https://foursquare.com/v/the-filling-station/4aff9becf964a520b93922e3","categoryId":"4bf58dd8d48988d120941735","category":"Karaoke Bar","checkinsCount":1234,"usersCount":423,"tipCount":12,"visitsCount":1319,"tier":"","message":"","currency":"","rating":6.2},{"name":"Attitudes Nightclub","phone":"3145340044","address":"4100 Manchester Ave","lat":38.62766674121979,"lng":-90.25041103363037,"neighborhood":"Forest Park Southeast","city_fetched":"St. Louis,US","state":"MO","country":"United States","canonicalUrl":"https://foursquare.com/v/attitudes-nightclub/4c08796ef23f95210c719628","categoryId":"4bf58dd8d48988d1d8941735","category":"Gay Bar","checkinsCount":2733,"usersCount":994,"tipCount":16,"visitsCount":2827,"tier":"","message":"","currency":"","rating":6.2},{"name":"Flannery's Irish Pub","phone":"3142418885","twitter":"flanneryspub","address":"1324 Washington Ave","lat":38.632308171700075,"lng":-90.19924506870716,"neighborhood":"Downtown West","city_fetched":"St. Louis,US","state":"MO","country":"United States","canonicalUrl":"https://foursquare.com/v/flannerys-irish-pub/4ad92abbf964a520c31821e3","categoryId":"4bf58dd8d48988d116941735","category":"Bar","checkinsCount":6971,"usersCount":3150,"tipCount":55,"visitsCount":7029,"url":"http://flanneryspub.com","tier":2,"message":"Moderate","currency":"$","rating":6.1},{"name":"Johnny's","phone":"3148650900","address":"1017 Russell Blvd","lat":38.60714793205261,"lng":-90.207222,"neighborhood":"Soulard","city_fetched":"St. Louis,US","state":"MO","country":"United States","canonicalUrl":"https://foursquare.com/v/johnnys/4adfa785f964a520827c21e3","categoryId":"4bf58dd8d48988d116941735","category":"Bar","checkinsCount":2442,"usersCount":1659,"tipCount":24,"visitsCount":2625,"url":"http://www.johnnysinsoulard.com","tier":1,"message":"Cheap","currency":"$","rating":6},{"name":"Molly Darcy’s","phone":"3148638400","address":"26 N Meramec Ave","lat":38.651079,"lng":-90.33953073333333,"city_fetched":"St. Louis,US","state":"MO","country":"United States","canonicalUrl":"https://foursquare.com/v/molly-darcys/4acbc3faf964a520f6c520e3","categoryId":"4bf58dd8d48988d11b941735","category":"Pub","checkinsCount":882,"usersCount":537,"tipCount":13,"visitsCount":916,"url":"http://www.mollydarcyspub.com","tier":"","message":"","currency":"","rating":6},{"name":"Super's Bungalow","address":"5623 Leona St","lat":38.573015,"lng":-90.264936,"neighborhood":"Bevo Mill","city_fetched":"St. Louis,US","state":"MO","country":"United States","canonicalUrl":"https://foursquare.com/v/supers-bungalow/4adb6636f964a520fb2621e3","categoryId":"4bf58dd8d48988d116941735","category":"Bar","checkinsCount":621,"usersCount":150,"tipCount":9,"visitsCount":646,"tier":"","message":"","currency":"","rating":6},{"name":"Cotter's","phone":"3143539943","address":"4600 Kingshighway","lat":38.586521266666665,"lng":-90.27608258,"neighborhood":"Bevo Mill","city_fetched":"St. Louis,US","state":"MO","country":"United States","canonicalUrl":"https://foursquare.com/v/cotters/4afe44ecf964a520092f22e3","categoryId":"4bf58dd8d48988d116941735","category":"Bar","checkinsCount":377,"usersCount":173,"tipCount":3,"visitsCount":399,"tier":"","message":"","currency":"","rating":5.9},{"name":"Howl at the Moon","phone":"3147364695","twitter":"_howlatthemoon","address":"601 Clark Ave #201","lat":38.62402274090095,"lng":-90.19190868051507,"neighborhood":"Downtown East","city_fetched":"St. Louis,US","state":"MO","country":"United States","canonicalUrl":"https://foursquare.com/v/howl-at-the-moon/5333751c11d2686446d2286a","categoryId":"4bf58dd8d48988d116941735","category":"Bar","checkinsCount":870,"usersCount":589,"tipCount":6,"visitsCount":886,"url":"http://www.howlatthemoon.com","tier":2,"message":"Moderate","currency":"$","rating":5.9},{"name":"honey.","address":"4170 Manchester Ave","lat":38.627293,"lng":-90.253051,"neighborhood":"Forest Park Southeast","city_fetched":"St. Louis,US","state":"MO","country":"United States","canonicalUrl":"https://foursquare.com/v/honey/509e8152e4b0548c5cab0928","categoryId":"4bf58dd8d48988d11f941735","category":"Nightclub","checkinsCount":849,"usersCount":302,"tipCount":6,"visitsCount":865,"tier":"","message":"","currency":"","rating":5.9},{"name":"Lumiere Place VIP Lounge","phone":"3148817777","address":"999 N 2nd St","lat":38.63272248119026,"lng":-90.18423968084873,"neighborhood":"Downtown East","city_fetched":"St. Louis,US","state":"MO","country":"United States","canonicalUrl":"https://foursquare.com/v/lumiere-place-vip-lounge/4c2bdcf4b34ad13aad81eace","categoryId":"4bf58dd8d48988d116941735","category":"Bar","checkinsCount":452,"usersCount":226,"tipCount":2,"visitsCount":453,"tier":"","message":"","currency":"","rating":5.8},{"name":"Fusion","phone":"3142413873","address":"710 N 2nd St","lat":38.630380702988035,"lng":-90.18450962582162,"neighborhood":"Downtown East","city_fetched":"St. Louis,US","state":"MO","country":"United States","canonicalUrl":"https://foursquare.com/v/fusion/4ba9b320f964a520d8343ae3","categoryId":"4bf58dd8d48988d11f941735","category":"Nightclub","checkinsCount":952,"usersCount":580,"tipCount":8,"visitsCount":959,"tier":"","message":"","currency":"","rating":5.8},{"name":"HotShots Sports Bar and Grill South County","phone":"3144168516","twitter":"hotshots_bar","address":"4021 Union Rd","lat":38.50917392035922,"lng":-90.33293340538225,"city_fetched":"St. Louis,US","state":"MO","country":"United States","canonicalUrl":"https://foursquare.com/v/hotshots-sports-bar-and-grill-south-county/4b9afa26f964a5209ee835e3","categoryId":"4bf58dd8d48988d11d941735","category":"Sports Bar","checkinsCount":2113,"usersCount":899,"tipCount":14,"visitsCount":2455,"url":"http://t.co/JofZIqVbEY","tier":2,"message":"Moderate","currency":"$","rating":5.6},{"name":"Missouri Vineyards","address":"airport","lat":38.74296426773071,"lng":-90.36633404,"city_fetched":"St. Louis,US","state":"MO","country":"United States","canonicalUrl":"https://foursquare.com/v/missouri-vineyards/4be5d678910020a16b93d314","categoryId":"4bf58dd8d48988d123941735","category":"Wine Bar","checkinsCount":265,"usersCount":211,"tipCount":6,"visitsCount":265,"tier":"","message":"","currency":"","rating":5.5},{"name":"Sundecker's","phone":"3142415915","address":"900 N 1st St","lat":38.6313973370357,"lng":-90.18296318688407,"neighborhood":"Downtown East","city_fetched":"St. Louis,US","state":"MO","country":"United States","canonicalUrl":"https://foursquare.com/v/sundeckers/4b633200f964a520c7692ae3","categoryId":"4bf58dd8d48988d116941735","category":"Bar","checkinsCount":1214,"usersCount":800,"tipCount":10,"visitsCount":1219,"url":"http://sundeckers.com","tier":"","message":"","currency":"","rating":5.4},{"name":"Ranoush Nights Hookah Lounge","address":"6237 McPherson Ave","lat":38.655745434730804,"lng":-90.30251319066942,"neighborhood":"Skinker DeBaliviere","city_fetched":"St. Louis,US","state":"MO","country":"United States","canonicalUrl":"https://foursquare.com/v/ranoush-nights-hookah-lounge/4dc4dd6d18387d1bd52f366c","categoryId":"4bf58dd8d48988d119941735","category":"Hookah Bar","checkinsCount":588,"usersCount":367,"tipCount":14,"visitsCount":590,"tier":"","message":"","currency":"","rating":5.4},{"name":"The Mad Magician Restaurant/ Bar/ Concert Venue","address":"5625 Manchester Ave","lat":38.623428742997504,"lng":-90.28090837666115,"city_fetched":"St. Louis,US","state":"MO","country":"United States","canonicalUrl":"https://foursquare.com/v/the-mad-magician-restaurant-bar-concert-venue/5109a4e5e4b0ee1340159744","categoryId":"4bf58dd8d48988d116941735","category":"Bar","checkinsCount":180,"usersCount":130,"tipCount":0,"visitsCount":185,"tier":"","message":"","currency":"","rating":5.4},{"name":"Carson's Sports Pub","phone":"3144362707","address":"1712 S 9th St","lat":38.610372171087846,"lng":-90.20286114188997,"neighborhood":"Soulard","city_fetched":"St. Louis,US","state":"MO","country":"United States","canonicalUrl":"https://foursquare.com/v/carsons-sports-pub/4bc9331f511f95210b70adc7","categoryId":"4bf58dd8d48988d116941735","category":"Bar","checkinsCount":2291,"usersCount":1169,"tipCount":14,"visitsCount":2364,"url":"http://www.ribs.com","tier":"","message":"","currency":"","rating":5.3},{"name":"Stadium Sports Bar & Grill","phone":"3148817595","twitter":"lumiereplace","address":"999 N 2nd St","lat":38.632096581135634,"lng":-90.18473839422053,"neighborhood":"Downtown East","city_fetched":"St. Louis,US","state":"MO","country":"United States","canonicalUrl":"https://foursquare.com/v/stadium-sports-bar--grill/4dc97b51fa76d5aaf7ac3fc5","categoryId":"4bf58dd8d48988d11d941735","category":"Sports Bar","checkinsCount":1556,"usersCount":980,"tipCount":17,"visitsCount":1565,"url":"http://www.lumiereplace.com/dining/stadium-sports-bar-and-grill/","tier":"","message":"","currency":"","rating":5.2},{"name":"The City Ultra Lounge","phone":"3144790663","address":"1917 Washington Ave","lat":38.63392347890471,"lng":-90.20700859782202,"neighborhood":"Downtown West","city_fetched":"St. Louis,US","state":"MO","country":"United States","canonicalUrl":"https://foursquare.com/v/the-city-ultra-lounge/4be4f9d0bcef2d7fc46103e5","categoryId":"4bf58dd8d48988d116941735","category":"Bar","checkinsCount":902,"usersCount":176,"tipCount":11,"visitsCount":906,"tier":"","message":"","currency":"","rating":5.2},{"name":"Library Annex","phone":"3146528484","twitter":"libraryannex","address":"3693 Forest Park Ave","lat":38.633963,"lng":-90.23747368,"neighborhood":"Midtown","city_fetched":"St. Louis,US","state":"MO","country":"United States","canonicalUrl":"https://foursquare.com/v/library-annex/4b18a70ef964a520fed423e3","categoryId":"4bf58dd8d48988d116941735","category":"Bar","checkinsCount":4118,"usersCount":1824,"tipCount":23,"visitsCount":4238,"url":"http://www.thelibraryannex.com","tier":"","message":"","currency":"","rating":5.2},{"name":"Korners","address":"7109 S Broadway","lat":38.55103,"lng":-90.25445127,"neighborhood":"Carondelet","city_fetched":"St. Louis,US","state":"MO","country":"United States","canonicalUrl":"https://foursquare.com/v/korners/4c65f44719f3c9b666ce9eff","categoryId":"4bf58dd8d48988d1d8941735","category":"Gay Bar","checkinsCount":163,"usersCount":97,"tipCount":4,"visitsCount":184,"tier":"","message":"","currency":"","rating":5.1},{"name":"Cusamano's Pizza","phone":"3146455599","address":"7147 Manchester Ave","lat":38.615428602026,"lng":-90.31182289123535,"city_fetched":"St. Louis,US","state":"MO","country":"United States","canonicalUrl":"https://foursquare.com/v/cusamanos-pizza/4ba5c5aef964a520572139e3","categoryId":"4bf58dd8d48988d116941735","category":"Bar","checkinsCount":780,"usersCount":416,"tipCount":22,"visitsCount":845,"tier":"","message":"","currency":"","rating":4.9}]