[{"name":"Norty's Bar & Grill","phone":"8163649043","address":"1117 Frederick Ave","lat":39.769633412361145,"lng":-94.8459861,"city_fetched":"St. Joseph,US","state":"MO","country":"United States","canonicalUrl":"https://foursquare.com/v/nortys-bar--grill/4b6b0d29f964a5206aef2be3","categoryId":"4bf58dd8d48988d116941735","category":"Bar","checkinsCount":735,"usersCount":284,"tipCount":2,"visitsCount":833,"tier":"","message":"","currency":"","rating":8.4},{"name":"The First Ward House","phone":"8167494035","address":"2101 Saint Joseph Ave","lat":39.782094955444336,"lng":-94.85127308,"city_fetched":"St. Joseph,US","state":"MO","country":"United States","canonicalUrl":"https://foursquare.com/v/the-first-ward-house/4c1d876d8b3aa59312d39a5f","categoryId":"4bf58dd8d48988d11d941735","category":"Sports Bar","checkinsCount":285,"usersCount":145,"tipCount":4,"visitsCount":372,"tier":"","message":"","currency":"","rating":8.1},{"name":"The Felix Street Pub","phone":"8163642775","address":"516 Felix St","lat":39.766431637609195,"lng":-94.85324095366165,"city_fetched":"St. Joseph,US","state":"MO","country":"United States","canonicalUrl":"https://foursquare.com/v/the-felix-street-pub/4cf098447e93f04d98414869","categoryId":"4bf58dd8d48988d120941735","category":"Karaoke Bar","checkinsCount":851,"usersCount":132,"tipCount":4,"visitsCount":894,"tier":"","message":"","currency":"","rating":7.8},{"name":"HI HO Bar & Grill","phone":"8162337363","address":"1817 Frederick Ave","lat":39.773608,"lng":-94.838231,"city_fetched":"St. Joseph,US","state":"MO","country":"United States","canonicalUrl":"https://foursquare.com/v/hi-ho-bar--grill/4b634b31f964a5204b702ae3","categoryId":"4bf58dd8d48988d11b941735","category":"Pub","checkinsCount":923,"usersCount":356,"tipCount":8,"visitsCount":1171,"url":"http://hiho-stjoe.com","tier":"","message":"","currency":"","rating":7.2},{"name":"Kelly Pub","lat":39.77182509,"lng":-94.84197248,"city_fetched":"St. Joseph,US","state":"MO","country":"United States","canonicalUrl":"https://foursquare.com/v/kelly-pub/4b9c5f4bf964a520ae6336e3","categoryId":"4bf58dd8d48988d116941735","category":"Bar","checkinsCount":691,"usersCount":115,"tipCount":3,"visitsCount":704,"tier":"","message":"","currency":"","rating":6.8},{"name":"Uncle D's Sports Bar & Grill","phone":"8162799389","twitter":"uncledstjoe","address":"621 S 36th St","lat":39.76153646773286,"lng":-94.80553308562152,"city_fetched":"St. Joseph,US","state":"MO","country":"United States","canonicalUrl":"https://foursquare.com/v/uncle-ds-sports-bar--grill/4c2d43307d85a5933a6752f3","categoryId":"4bf58dd8d48988d11d941735","category":"Sports Bar","checkinsCount":642,"usersCount":277,"tipCount":10,"visitsCount":806,"url":"http://stjoesportsbar.com","tier":"","message":"","currency":"","rating":6.6},{"name":"Fosters Martini Bar","phone":"8163644400","address":"726 Felix St","lat":39.766525,"lng":-94.85063903333334,"city_fetched":"St. Joseph,US","state":"MO","country":"United States","canonicalUrl":"https://foursquare.com/v/fosters-martini-bar/4b3d118ef964a5203f8d25e3","categoryId":"4bf58dd8d48988d11e941735","category":"Cocktail Bar","checkinsCount":326,"usersCount":150,"tipCount":5,"visitsCount":328,"tier":"","message":"","currency":"","rating":6.1}]