[{"name":"White Horse Bar & Restaurant","phone":"3202577775","address":"809 W Saint Germain St","lat":45.55964705032062,"lng":-94.16197299957275,"neighborhood":"Downtown St. Cloud","city_fetched":"St. Cloud","state":"MN","country":"United States","canonicalUrl":"https://foursquare.com/v/white-horse-bar--restaurant/4ab5b69ff964a520e87520e3","category":"Bar","checkinsCount":4387,"usersCount":1356,"tipCount":42,"visitsCount":4982,"url":"http://www.whitehorsemn.com","tier":2,"message":"Moderate","currency":"$","rating":9.1},{"name":"Old Capital Tavern","phone":"3202914541","address":"2 N Benton Dr","lat":45.58913899915074,"lng":-94.16609852378737,"city_fetched":"St. Cloud","state":"MN","country":"United States","canonicalUrl":"https://foursquare.com/v/old-capital-tavern/4f3d7806e4b075aab2ab9715","category":"Bar","checkinsCount":2519,"usersCount":770,"tipCount":34,"visitsCount":3065,"url":"http://oldcapitaltavern.com","tier":3,"message":"Expensive","currency":"$","rating":8.5},{"name":"Blue Line Sports Bar & Grill South","phone":"3202813911","twitter":"bluelinesbg","address":"1004 Sunridge Sr.","lat":45.520205469871065,"lng":-94.1621274454946,"city_fetched":"St. Cloud","state":"MN","country":"United States","canonicalUrl":"https://foursquare.com/v/blue-line-sports-bar--grill-south/50315f35e4b05159d61ca115","category":"Sports Bar","checkinsCount":976,"usersCount":465,"tipCount":10,"visitsCount":1363,"url":"http://www.bluelinebar.com","tier":2,"message":"Moderate","currency":"$","rating":8.4},{"name":"Ultimate Sports Bar & Grill","address":"1101 Division St","lat":45.55382788181305,"lng":-94.23100769519806,"city_fetched":"St. Cloud","state":"MN","country":"United States","canonicalUrl":"https://foursquare.com/v/ultimate-sports-bar--grill/4be60c1c2468c92895f90043","category":"Sports Bar","checkinsCount":874,"usersCount":400,"tipCount":5,"visitsCount":1122,"tier":"","message":"","currency":"","rating":7.9},{"name":"The Boulder Tap House","phone":"3202300100","address":"3950 2nd St S","lat":45.54911864214971,"lng":-94.20629110898044,"city_fetched":"St. Cloud","state":"MN","country":"United States","canonicalUrl":"https://foursquare.com/v/the-boulder-tap-house/4f147cdde4b067f672a7f532","category":"Restaurant","checkinsCount":2849,"usersCount":1443,"tipCount":43,"visitsCount":3345,"url":"http://www.bouldertaphouse.com","tier":2,"message":"Moderate","currency":"$","rating":7.8},{"name":"Granite City Food and Brewery - St. Cloud","phone":"3202039000","address":"3945 2nd St S","lat":45.55020937244822,"lng":-94.20638638521127,"city_fetched":"St. Cloud","state":"MN","country":"United States","canonicalUrl":"https://foursquare.com/v/granite-city-food-and-brewery--st-cloud/4a3161b5f964a520b9991fe3","category":"Brewery","checkinsCount":5156,"usersCount":2537,"tipCount":48,"visitsCount":5964,"url":"http://www.gcfb.net","tier":2,"message":"Moderate","currency":"$","rating":7.8},{"name":"Rollie's Rednecks & Longnecks","address":"3528 Highway 23 NE","lat":45.5805461406944,"lng":-94.08970836152633,"city_fetched":"St. Cloud","state":"MN","country":"United States","canonicalUrl":"https://foursquare.com/v/rollies-rednecks--longnecks/4b5a50f7f964a520a1bc28e3","category":"Bar","checkinsCount":1160,"usersCount":601,"tipCount":9,"visitsCount":1577,"tier":"","message":"","currency":"","rating":7.7},{"name":"Ducks Pub & Billiards","phone":"3202290909","address":"3606 W Division St","lat":45.552572950510175,"lng":-94.20257780864007,"city_fetched":"St. Cloud","state":"MN","country":"United States","canonicalUrl":"https://foursquare.com/v/ducks-pub--billiards/4c0834dfffb8c9b650e96761","category":"Bar","checkinsCount":546,"usersCount":229,"tipCount":3,"visitsCount":604,"url":"http://ducksbar.com","tier":"","message":"","currency":"","rating":7.6},{"name":"Veranda Lounge","phone":"3202580254","address":"22 5th Ave S","lat":45.560505,"lng":-94.157552,"neighborhood":"Downtown St. Cloud","city_fetched":"St. Cloud","state":"MN","country":"United States","canonicalUrl":"https://foursquare.com/v/veranda-lounge/4b772336f964a5201c812ee3","category":"Wine Bar","checkinsCount":1277,"usersCount":335,"tipCount":7,"visitsCount":1289,"url":"http://verandalounge.com","tier":"","message":"","currency":"","rating":7.6},{"name":"Shooters Saloon & Eatery","phone":"3202590365","address":"2223 Roosevelt Rd","lat":45.53558061501613,"lng":-94.16568196611009,"city_fetched":"St. Cloud","state":"MN","country":"United States","canonicalUrl":"https://foursquare.com/v/shooters-saloon--eatery/4c16eef074fb20a12ff45012","category":"Bar","checkinsCount":1216,"usersCount":334,"tipCount":6,"visitsCount":1651,"tier":2,"message":"Moderate","currency":"$","rating":7.6},{"name":"Jimmy's Pour House","phone":"3202530208","address":"22 2nd Ave N","lat":45.590532007314174,"lng":-94.16549558560561,"city_fetched":"St. Cloud","state":"MN","country":"United States","canonicalUrl":"https://foursquare.com/v/jimmys-pour-house/4b3a3cfff964a520c36225e3","category":"Bar","checkinsCount":3806,"usersCount":1077,"tipCount":23,"visitsCount":4517,"url":"http://jimmyspourhouse.net","tier":2,"message":"Moderate","currency":"$","rating":7.4},{"name":"Ace Bar & Grill","address":"423 E Saint Germain St","lat":45.565428563738855,"lng":-94.1515123942613,"city_fetched":"St. Cloud","state":"MN","country":"United States","canonicalUrl":"https://foursquare.com/v/ace-bar--grill/4d92827cd176a1cd0dce25f0","category":"American Restaurant","checkinsCount":1199,"usersCount":366,"tipCount":12,"visitsCount":1611,"tier":2,"message":"Moderate","currency":"$","rating":7.4},{"name":"Howie's Bar","phone":"3202596823","address":"101 9th Ave N","lat":45.560143,"lng":-94.163969,"neighborhood":"Downtown St. Cloud","city_fetched":"St. Cloud","state":"MN","country":"United States","canonicalUrl":"https://foursquare.com/v/howies-bar/4b510b90f964a520613f27e3","category":"Sports Bar","checkinsCount":1192,"usersCount":442,"tipCount":8,"visitsCount":1416,"url":"http://howiessportsbar.com","tier":"","message":"","currency":"","rating":7.3},{"name":"D.B. Searle's","phone":"3202530655","twitter":"dbsearles","address":"18 5th Ave S","lat":45.560443313512835,"lng":-94.1573166847229,"neighborhood":"Downtown St. Cloud","city_fetched":"St. Cloud","state":"MN","country":"United States","canonicalUrl":"https://foursquare.com/v/db-searles/4b47d6faf964a520134126e3","category":"Bar","checkinsCount":3575,"usersCount":1045,"tipCount":18,"visitsCount":3656,"url":"http://www.dbsearles.com","tier":2,"message":"Moderate","currency":"$","rating":7.2},{"name":"Beaudreau's","address":"414 E Saint Germain St","lat":45.56510264233806,"lng":-94.15180951033257,"city_fetched":"St. Cloud","state":"MN","country":"United States","canonicalUrl":"https://foursquare.com/v/beaudreaus/4cda05c2930af04d20ae8297","category":"Bar","checkinsCount":466,"usersCount":133,"tipCount":4,"visitsCount":469,"tier":"","message":"","currency":"","rating":7.1},{"name":"H.R. Pesty's","phone":"3202519774","address":"258 4th Ave N","lat":45.558682680130005,"lng":-94.221282,"city_fetched":"St. Cloud","state":"MN","country":"United States","canonicalUrl":"https://foursquare.com/v/hr-pestys/4c43ebaf74ffc9287bea74cc","category":"Bar","checkinsCount":925,"usersCount":461,"tipCount":6,"visitsCount":1263,"tier":"","message":"","currency":"","rating":7},{"name":"Red Carpet Martini Lounge","phone":"3202514047","address":"11 5th Ave S","lat":45.56054847950591,"lng":-94.15793895721436,"neighborhood":"Downtown St. Cloud","city_fetched":"St. Cloud","state":"MN","country":"United States","canonicalUrl":"https://foursquare.com/v/red-carpet-martini-lounge/4b80a048f964a520ec8130e3","category":"Cocktail Bar","checkinsCount":2338,"usersCount":886,"tipCount":9,"visitsCount":2351,"url":"http://redcarpetnightclub.com","tier":"","message":"","currency":"","rating":7},{"name":"Friends Bar & Grill","phone":"3202551792","twitter":"friends__bar","address":"236 south 2nd avenue","lat":45.54880820429991,"lng":-94.21846791354014,"city_fetched":"St. Cloud","state":"MN","country":"United States","canonicalUrl":"https://foursquare.com/friends__bar","category":"Bar","checkinsCount":1205,"usersCount":248,"tipCount":4,"visitsCount":1257,"tier":"","message":"","currency":"","rating":7},{"name":"MC's Dugout Bar & Grill","phone":"3202599862","address":"501 W Saint Germain St","lat":45.56119971671273,"lng":-94.15825727197732,"neighborhood":"Downtown St. Cloud","city_fetched":"St. Cloud","state":"MN","country":"United States","canonicalUrl":"https://foursquare.com/v/mcs-dugout-bar--grill/4b240f49f964a5201f6024e3","category":"Bar","checkinsCount":3005,"usersCount":1163,"tipCount":14,"visitsCount":3202,"url":"http://www.mcsdugout.com","tier":2,"message":"Moderate","currency":"$","rating":6.9},{"name":"Keller Bar At The Red Carpet","phone":"3202514047","address":"11 5th Ave S","lat":45.56067245478524,"lng":-94.15791939420568,"neighborhood":"Downtown St. Cloud","city_fetched":"St. Cloud","state":"MN","country":"United States","canonicalUrl":"https://foursquare.com/v/keller-bar-at-the-red-carpet/4e177881b0fb8567c6632ecd","category":"Dive Bar","checkinsCount":1374,"usersCount":292,"tipCount":10,"visitsCount":1406,"tier":"","message":"","currency":"","rating":6.8},{"name":"MT's On 8th","phone":"3202520800","twitter":"stcloudminn","address":"2022 Veterans Dr","lat":45.564980158467414,"lng":-94.18252506440615,"city_fetched":"St. Cloud","state":"MN","country":"United States","canonicalUrl":"https://foursquare.com/v/mts-on-8th/4c2d65ba987f20a1417d49aa","category":"Bar","checkinsCount":938,"usersCount":283,"tipCount":7,"visitsCount":1067,"url":"http://www.mtson8th.com","tier":"","message":"","currency":"","rating":6.7},{"name":"Red Carpet Nightclub","phone":"3202514047","twitter":"redcarpetnc","address":"11 5th Ave S","lat":45.560563425265734,"lng":-94.15795261795017,"neighborhood":"Downtown St. Cloud","city_fetched":"St. Cloud","state":"MN","country":"United States","canonicalUrl":"https://foursquare.com/v/red-carpet-nightclub/4ad76c24f964a520440a21e3","category":"Nightclub","checkinsCount":3648,"usersCount":1223,"tipCount":9,"visitsCount":3671,"url":"http://www.redcarpetnightclub.com","tier":3,"message":"Expensive","currency":"$","rating":6.7},{"name":"Brother's Bar & Grill","address":"119 5th Ave S","lat":45.55951070331264,"lng":-94.15709350719014,"neighborhood":"Downtown St. Cloud","city_fetched":"St. Cloud","state":"MN","country":"United States","canonicalUrl":"https://foursquare.com/v/brothers-bar--grill/4fbc13e6e4b0e32e56c9b121","category":"Bar","checkinsCount":2758,"usersCount":1133,"tipCount":29,"visitsCount":3087,"url":"http://brothersbar.com","tier":2,"message":"Moderate","currency":"$","rating":6.5},{"name":"pickled loon","address":"15 E St. Germain St.","lat":45.55983851949237,"lng":-94.16133697837479,"neighborhood":"Downtown St. Cloud","city_fetched":"St. Cloud","state":"MN","country":"United States","canonicalUrl":"https://foursquare.com/v/pickled-loon/54a5cdb1498e98a202219568","category":"Bar","checkinsCount":98,"usersCount":115,"tipCount":0,"visitsCount":173,"tier":"","message":"","currency":"","rating":6.4},{"name":"Club Almar","address":"24617 County Road 7","lat":45.48018171458867,"lng":-94.15378093885806,"city_fetched":"St. Cloud","state":"MN","country":"United States","canonicalUrl":"https://foursquare.com/v/club-almar/4b75fec5f964a5202a352ee3","category":"Bar","checkinsCount":306,"usersCount":110,"tipCount":3,"visitsCount":327,"tier":"","message":"","currency":"","rating":6.2},{"name":"Legends Bar - Holiday Inn","address":"75 37th Ave S","lat":45.551901314933815,"lng":-94.20409972384408,"city_fetched":"St. Cloud","state":"MN","country":"United States","canonicalUrl":"https://foursquare.com/v/legends-bar--holiday-inn/4be20fbc1dd22d7f154193bd","category":"Bar","checkinsCount":494,"usersCount":307,"tipCount":4,"visitsCount":529,"tier":"","message":"","currency":"","rating":6},{"name":"Cowboy Jacks","phone":"3202815205","twitter":"cowboyjacks","address":"506 W Saint Germain St","lat":45.56082484651197,"lng":-94.15841500475122,"neighborhood":"Downtown St. Cloud","city_fetched":"St. Cloud","state":"MN","country":"United States","canonicalUrl":"https://foursquare.com/v/cowboy-jacks/4e1ba3de62e11cdc743b893c","category":"American Restaurant","checkinsCount":3070,"usersCount":1166,"tipCount":31,"visitsCount":3165,"url":"http://www.theaftermidnightgroup.com","tier":2,"message":"Moderate","currency":"$","rating":5.9},{"name":"Days Inn Saint Cloud","address":"70 South 37th Ave. I-94 Exit 167B/70 37th Ave S","lat":45.5519178641058,"lng":-94.20249122728524,"city_fetched":"St. Cloud","state":"MN","country":"United States","canonicalUrl":"https://foursquare.com/v/days-inn-saint-cloud/4bd0583bfb2cce72f0e63bd2","category":"Hotel","checkinsCount":396,"usersCount":187,"tipCount":6,"visitsCount":460,"url":"http://www.daysinn.com/DaysInn/control/Booking/property_info?propertyId=15213","tier":"","message":"","currency":"","rating":5.8},{"name":"Le St. Germain Hotel","phone":"3206541661","address":"404 W Saint Germain St","lat":45.56095965817352,"lng":-94.15764846631947,"neighborhood":"Downtown St. Cloud","city_fetched":"St. Cloud","state":"MN","country":"United States","canonicalUrl":"https://foursquare.com/v/le-st-germain-hotel/4b66beddf964a52071292be3","category":"Hotel","checkinsCount":1073,"usersCount":539,"tipCount":4,"visitsCount":1081,"url":"http://www.lestgermainsuitehotel.com","tier":"","message":"","currency":"","rating":5.6},{"name":"The Press Bar and Parlor","phone":"3202515911","address":"502 W Saint Germain St","lat":45.560875,"lng":-94.15815456809872,"neighborhood":"Downtown St. Cloud","city_fetched":"St. Cloud","state":"MN","country":"United States","canonicalUrl":"https://foursquare.com/v/the-press-bar-and-parlor/4c145bcda1010f47b36b4c18","category":"Bar","checkinsCount":2587,"usersCount":830,"tipCount":17,"visitsCount":2593,"url":"http://www.pressbarandparlor.com","tier":"","message":"","currency":"","rating":5.4}]