[{"name":"Bin 612","phone":"6623246126","address":"612 University Dr","lat":33.460775,"lng":-88.802403,"city_fetched":"Starkville","state":"MS","country":"United States","canonicalUrl":"https://foursquare.com/v/bin-612/4b48ea79f964a5202b5d26e3","category":"Rock Club","checkinsCount":1441,"usersCount":563,"tipCount":7,"visitsCount":1624,"url":"http://www.bin612.net","tier":"","message":"","currency":"","rating":8.4},{"name":"The Veranda","phone":"6623231231","twitter":"the_veranda","address":"208 Lincoln Grn","lat":33.44845170489177,"lng":-88.80611658096313,"city_fetched":"Starkville","state":"MS","country":"United States","canonicalUrl":"https://foursquare.com/v/the-veranda/4b48efb7f964a5203c5e26e3","category":"Southern / Soul Food Restaurant","checkinsCount":1812,"usersCount":934,"tipCount":21,"visitsCount":2556,"url":"http://verandastarkville.com","tier":3,"message":"Expensive","currency":"$","rating":8.4},{"name":"Mugshots Grill & Bar","phone":"6623243965","address":"101 S Washington St","lat":33.463994632477906,"lng":-88.81653387713469,"city_fetched":"Starkville","state":"MS","country":"United States","canonicalUrl":"https://foursquare.com/v/mugshots-grill--bar/4b315f8ef964a520b00525e3","category":"Burger Joint","checkinsCount":1703,"usersCount":966,"tipCount":20,"visitsCount":1823,"url":"http://www.mugshotsgrillandbar.com","tier":2,"message":"Moderate","currency":"$","rating":8.2},{"name":"STAGger In Sports Grill","phone":"6623242447","address":"106 Maxwell St","lat":33.45979532736927,"lng":-88.80276986814887,"city_fetched":"Starkville","state":"MS","country":"United States","canonicalUrl":"https://foursquare.com/v/stagger-in-sports-grill/4d9d2a83baae548115b4ec64","category":"Sports Bar","checkinsCount":527,"usersCount":305,"tipCount":6,"visitsCount":688,"tier":"","message":"","currency":"","rating":8.1},{"name":"Dave's Dark Horse Tavern","phone":"6623243316","twitter":"davesdarkhorse","address":"410 Martin Luther King Jr Dr.","lat":33.46538713719669,"lng":-88.80875587463379,"city_fetched":"Starkville","state":"MS","country":"United States","canonicalUrl":"https://foursquare.com/v/daves-dark-horse-tavern/4b48ed90f964a520c95d26e3","category":"Dive Bar","checkinsCount":1807,"usersCount":587,"tipCount":18,"visitsCount":2081,"url":"http://www.davesdarkhorse.com","tier":1,"message":"Cheap","currency":"$","rating":8.1},{"name":"Rick's Cafe","phone":"6623237425","twitter":"ricksstarkville","address":"319-B Hwy 182 E","lat":33.46685138885962,"lng":-88.81162270090297,"city_fetched":"Starkville","state":"MS","country":"United States","canonicalUrl":"https://foursquare.com/v/ricks-cafe/4b48f265f964a520d15e26e3","category":"Rock Club","checkinsCount":539,"usersCount":340,"tipCount":4,"visitsCount":633,"url":"http://www.rickscafe.net","tier":"","message":"","currency":"","rating":7.5},{"name":"Restaurant Tyler","phone":"6623241014","address":"100 E Main St","lat":33.463561277175124,"lng":-88.81618022918701,"city_fetched":"Starkville","state":"MS","country":"United States","canonicalUrl":"https://foursquare.com/v/restaurant-tyler/4b5a53fcf964a5208ebd28e3","category":"Southern / Soul Food Restaurant","checkinsCount":637,"usersCount":359,"tipCount":11,"visitsCount":677,"url":"http://www.restauranttyler.com","tier":3,"message":"Expensive","currency":"$","rating":7.1},{"name":"the CAMPHOUSE","phone":"6627695665","twitter":"the_camphouse","address":"409 University Dr","lat":33.46393682,"lng":-88.808843,"city_fetched":"Starkville","state":"Mississippi","country":"United States","canonicalUrl":"https://foursquare.com/v/the-camphouse/4d44aa00e198721e2740be8b","category":"Pub","checkinsCount":671,"usersCount":287,"tipCount":4,"visitsCount":688,"tier":"","message":"","currency":"","rating":6.9}]