[{"name":"Otto's Pub & Brewery","phone":"8148676886","address":"2235 N Atherton St","lat":40.810840294268985,"lng":-77.91208259761333,"city_fetched":"State College,US","state":"PA","country":"United States","canonicalUrl":"https://foursquare.com/v/ottos-pub--brewery/4afcba70f964a5206c2522e3","categoryId":"50327c8591d4c4b30a586d5d","category":"Brewery","checkinsCount":8943,"usersCount":3822,"tipCount":126,"visitsCount":10609,"url":"http://ottospubandbrewery.com","tier":2,"message":"Moderate","currency":"$","rating":9},{"name":"Happy Valley Brewing Company","phone":"8142344406","address":"137 Elmwood St","lat":40.810820891802784,"lng":-77.82925422318077,"city_fetched":"State College,US","state":"PA","country":"United States","canonicalUrl":"https://foursquare.com/v/happy-valley-brewing-company/51efe8522fc65fccf9429efa","categoryId":"50327c8591d4c4b30a586d5d","category":"Brewery","checkinsCount":1892,"usersCount":1529,"tipCount":35,"visitsCount":3248,"url":"http://happyvalleybeer.com","tier":3,"message":"Expensive","currency":"$","rating":8.8},{"name":"Liberty Craft House","phone":"8149544923","twitter":"eatdantes","address":"346 E College Ave","lat":40.797423659909285,"lng":-77.85720975074317,"city_fetched":"State College,US","state":"PA","country":"United States","canonicalUrl":"https://foursquare.com/v/liberty-craft-house/54cc0a79498e4249446b659a","categoryId":"4bf58dd8d48988d11b941735","category":"Pub","checkinsCount":682,"usersCount":399,"tipCount":5,"visitsCount":823,"tier":"","message":"","currency":"","rating":8.5},{"name":"Local Whiskey","phone":"8142726831","address":"107 E Beaver Ave","lat":40.79367465663671,"lng":-77.86004008055524,"city_fetched":"State College,US","state":"PA","country":"United States","canonicalUrl":"https://foursquare.com/v/local-whiskey/50dfad0fe4b0b76a2aed7f83","categoryId":"4bf58dd8d48988d122941735","category":"Whisky Bar","checkinsCount":2409,"usersCount":913,"tipCount":24,"visitsCount":2589,"url":"http://localwhiskeybar.com","tier":2,"message":"Moderate","currency":"$","rating":8.5},{"name":"Caf√© 210 West","phone":"8142373449","address":"210 W College Ave","lat":40.793270608038505,"lng":-77.86309003829956,"city_fetched":"State College,US","state":"PA","country":"United States","canonicalUrl":"https://foursquare.com/v/caf%C3%A9-210-west/4b4582cbf964a520780d26e3","categoryId":"4bf58dd8d48988d116941735","category":"Bar","checkinsCount":16937,"usersCount":4276,"tipCount":45,"visitsCount":17553,"url":"http://www.cafe210.com","tier":2,"message":"Moderate","currency":"$","rating":8.3},{"name":"Sharkies Bar & Thrifty Bottle Shop","phone":"8142383566","address":"110 Sowers St","lat":40.79823326954656,"lng":-77.85584807395935,"city_fetched":"State College,US","state":"PA","country":"United States","canonicalUrl":"https://foursquare.com/v/sharkies-bar--thrifty-bottle-shop/4b92ffe2f964a520af2d34e3","categoryId":"4bf58dd8d48988d116941735","category":"Bar","checkinsCount":2155,"usersCount":832,"tipCount":11,"visitsCount":2267,"tier":1,"message":"Cheap","currency":"$","rating":8.2},{"name":"Zeno's Pub","phone":"8142374350","address":"100 W College Ave","lat":40.79435089163945,"lng":-77.86146998405457,"city_fetched":"State College,US","state":"PA","country":"United States","canonicalUrl":"https://foursquare.com/v/zenos-pub/4b871779f964a5201cb031e3","categoryId":"4bf58dd8d48988d118941735","category":"Dive Bar","checkinsCount":7560,"usersCount":1750,"tipCount":28,"visitsCount":7660,"url":"http://zenospub.com","tier":2,"message":"Moderate","currency":"$","rating":8.1},{"name":"All American Rathskeller","phone":"8142373858","twitter":"skellersc","address":"108 S Pugh St","lat":40.795049411527515,"lng":-77.86027908325195,"city_fetched":"State College,US","state":"PA","country":"United States","canonicalUrl":"https://foursquare.com/v/all-american-rathskeller/4b4953def964a520856d26e3","categoryId":"4bf58dd8d48988d116941735","category":"Bar","checkinsCount":4802,"usersCount":2475,"tipCount":26,"visitsCount":5191,"url":"http://site.theskeller.com","tier":2,"message":"Moderate","currency":"$","rating":8},{"name":"Bill Pickle's Tap Room","phone":"8142721172","address":"106 S Allen St","lat":40.79422014616314,"lng":-77.86134077956578,"city_fetched":"State College,US","state":"PA","country":"United States","canonicalUrl":"https://foursquare.com/v/bill-pickles-tap-room/4b0c2077f964a5206a3723e3","categoryId":"4bf58dd8d48988d116941735","category":"Bar","checkinsCount":6963,"usersCount":3066,"tipCount":43,"visitsCount":7074,"url":"http://www.billpicklestaproom.com","tier":2,"message":"Moderate","currency":"$","rating":7.8},{"name":"Chronic Town","phone":"8148676191","twitter":"chronictownusa","address":"224 W College Ave","lat":40.79286448183783,"lng":-77.86332607269287,"city_fetched":"State College,US","state":"PA","country":"United States","canonicalUrl":"https://foursquare.com/chronictownusa","categoryId":"4bf58dd8d48988d119941735","category":"Hookah Bar","checkinsCount":2787,"usersCount":638,"tipCount":15,"visitsCount":2792,"url":"http://www.chronictownusa.com","tier":1,"message":"Cheap","currency":"$","rating":7.8},{"name":"Phyrst","phone":"8142381406","address":"111 E Beaver Ave","lat":40.793671092864116,"lng":-77.86002891568994,"city_fetched":"State College,US","state":"PA","country":"United States","canonicalUrl":"https://foursquare.com/v/phyrst/4b22ff78f964a520db5124e3","categoryId":"4bf58dd8d48988d11b941735","category":"Pub","checkinsCount":8421,"usersCount":2439,"tipCount":50,"visitsCount":8632,"url":"http://phyrst.com","tier":1,"message":"Cheap","currency":"$","rating":7.7},{"name":"Chrome Bar & Hookah Lounge","phone":"8142310808","twitter":"chrome_lounge","address":"222 W Beaver Ave","lat":40.791881646152014,"lng":-77.8622317314148,"city_fetched":"State College,US","state":"PA","country":"United States","canonicalUrl":"https://foursquare.com/v/chrome-bar--hookah-lounge/505a7b3ee4b09069913fdf7f","categoryId":"4bf58dd8d48988d119941735","category":"Hookah Bar","checkinsCount":724,"usersCount":307,"tipCount":6,"visitsCount":853,"url":"http://www.chrome-bar.com","tier":"","message":"","currency":"","rating":7.6},{"name":"The Shandygaff","phone":"8142379632","address":"212 E College Ave","lat":40.795276835021404,"lng":-77.8596568107605,"city_fetched":"State College,US","state":"PA","country":"United States","canonicalUrl":"https://foursquare.com/v/the-shandygaff/4b524f55f964a5206c7627e3","categoryId":"4bf58dd8d48988d116941735","category":"Bar","checkinsCount":2798,"usersCount":1212,"tipCount":20,"visitsCount":2878,"url":"http://www.shandygaff.com","tier":1,"message":"Cheap","currency":"$","rating":7.5},{"name":"Champs Sports Grill","phone":"8149417700","address":"1611 N Atherton St","lat":40.80797882447336,"lng":-77.89291620254515,"city_fetched":"State College,US","state":"PA","country":"United States","canonicalUrl":"https://foursquare.com/v/champs-sports-grill/4b482922f964a5204b4926e3","categoryId":"4bf58dd8d48988d11d941735","category":"Sports Bar","checkinsCount":6912,"usersCount":2995,"tipCount":65,"visitsCount":8043,"url":"http://www.champssportsgrill.net","tier":2,"message":"Moderate","currency":"$","rating":7.5},{"name":"Adam's Apple","phone":"8142386116","address":"220 E Calder Way","lat":40.795328,"lng":-77.859482,"city_fetched":"State College,US","state":"PA","country":"United States","canonicalUrl":"https://foursquare.com/v/adams-apple/4b4573b2f964a520e00c26e3","categoryId":"4bf58dd8d48988d123941735","category":"Wine Bar","checkinsCount":1146,"usersCount":434,"tipCount":4,"visitsCount":1153,"url":"http://thetavern.com","tier":"","message":"","currency":"","rating":7.3},{"name":"Darkhorse Tavern","phone":"8142370490","twitter":"dhorsetavern","address":"127 E Calder Way","lat":40.79491945489552,"lng":-77.86035418510437,"city_fetched":"State College,US","state":"PA","country":"United States","canonicalUrl":"https://foursquare.com/v/darkhorse-tavern/4b27147df964a520a18424e3","categoryId":"4bf58dd8d48988d116941735","category":"Bar","checkinsCount":3813,"usersCount":1538,"tipCount":29,"visitsCount":3842,"url":"http://www.darkhorsetavern-hub.com","tier":1,"message":"Cheap","currency":"$","rating":7.2},{"name":"Kildare's Irish Pub","phone":"8142720038","twitter":"kildaresstateco","address":"538 E College Ave","lat":40.80013376507187,"lng":-77.85373985767365,"city_fetched":"State College,US","state":"PA","country":"United States","canonicalUrl":"https://foursquare.com/v/kildares-irish-pub/4c17bd1b838020a19621e361","categoryId":"4bf58dd8d48988d11b941735","category":"Pub","checkinsCount":5488,"usersCount":2658,"tipCount":44,"visitsCount":6294,"url":"http://www.kildaresirishpub.com","tier":2,"message":"Moderate","currency":"$","rating":7.2},{"name":"Beer Belly's Beverage","phone":"8142372739","twitter":"beerbellysinsc","address":"258 W Hamilton Ave","lat":40.787411207512555,"lng":-77.85684130005782,"city_fetched":"State College,US","state":"PA","country":"United States","canonicalUrl":"https://foursquare.com/v/beer-bellys-beverage/4bd617576f649521ed4b70ec","categoryId":"50327c8591d4c4b30a586d5d","category":"Brewery","checkinsCount":727,"usersCount":241,"tipCount":1,"visitsCount":727,"url":"http://beerbellysbeverage.com","tier":"","message":"","currency":"","rating":7.2},{"name":"Pletcher's Beer Distributor","phone":"8142350899","address":"330 W Aaron Dr","lat":40.80595868537733,"lng":-77.8929379845989,"city_fetched":"State College,US","state":"PA","country":"United States","canonicalUrl":"https://foursquare.com/v/pletchers-beer-distributor/4b6d9ba6f964a520e57f2ce3","categoryId":"50327c8591d4c4b30a586d5d","category":"Brewery","checkinsCount":822,"usersCount":440,"tipCount":6,"visitsCount":1120,"tier":"","message":"","currency":"","rating":7},{"name":"The Brewery, Inc.","phone":"8142372892","address":"223 E Beaver Ave.","lat":40.79500880010735,"lng":-77.85861611366272,"city_fetched":"State College,US","state":"PA","country":"United States","canonicalUrl":"https://foursquare.com/v/the-brewery-inc/4b4fb1a8f964a520421127e3","categoryId":"4bf58dd8d48988d118941735","category":"Dive Bar","checkinsCount":1976,"usersCount":898,"tipCount":16,"visitsCount":2306,"tier":2,"message":"Moderate","currency":"$","rating":7},{"name":"Arena Sports & Entertainment Bar & Grill","phone":"8142378833","address":"1521 Martin St","lat":40.805488821010115,"lng":-77.89165998512917,"city_fetched":"State College,US","state":"PA","country":"United States","canonicalUrl":"https://foursquare.com/v/arena-sports--entertainment-bar--grill/4b19d90bf964a52040e523e3","categoryId":"4bf58dd8d48988d116941735","category":"Bar","checkinsCount":2016,"usersCount":501,"tipCount":10,"visitsCount":2062,"tier":2,"message":"Moderate","currency":"$","rating":6.9},{"name":"Bar Bleu","phone":"8142370374","address":"114 S Garner St.","lat":40.797650521236605,"lng":-77.8567573428154,"city_fetched":"State College,US","state":"PA","country":"United States","canonicalUrl":"https://foursquare.com/v/bar-bleu/4b8b0dc7f964a5207b9032e3","categoryId":"4bf58dd8d48988d116941735","category":"Bar","checkinsCount":4320,"usersCount":1966,"tipCount":30,"visitsCount":4365,"url":"http://www.myspace.com/beulahsbarbleu","tier":"","message":"","currency":"","rating":6.9},{"name":"The Saloon","phone":"8142341344","twitter":"dantesnightlife","address":"101 Heister St","lat":40.797364221412394,"lng":-77.85750567913055,"city_fetched":"State College,US","state":"PA","country":"United States","canonicalUrl":"https://foursquare.com/v/the-saloon/4b47e90ef964a520ad4326e3","categoryId":"4bf58dd8d48988d116941735","category":"Bar","checkinsCount":5823,"usersCount":1937,"tipCount":43,"visitsCount":5876,"url":"http://dantesinc.com/locations/the-saloon/","tier":2,"message":"Moderate","currency":"$","rating":6.8},{"name":"Gigi's Restaurant and Bar","phone":"8148613463","twitter":"gigisdining","address":"2080 Cato Ave","lat":40.76255256800068,"lng":-77.88005126918965,"city_fetched":"State College,US","state":"PA","country":"United States","canonicalUrl":"https://foursquare.com/gigisdining","categoryId":"4bf58dd8d48988d123941735","category":"Wine Bar","checkinsCount":1044,"usersCount":440,"tipCount":7,"visitsCount":1483,"url":"http://www.gigisdining.com","tier":"","message":"","currency":"","rating":6.8},{"name":"Indigo","phone":"8142341031","twitter":"partyatindigo","address":"112 W College Ave","lat":40.7940016289394,"lng":-77.86189913749695,"city_fetched":"State College,US","state":"PA","country":"United States","canonicalUrl":"https://foursquare.com/v/indigo/4b53f207f964a52036af27e3","categoryId":"4bf58dd8d48988d11f941735","category":"Nightclub","checkinsCount":4829,"usersCount":1770,"tipCount":20,"visitsCount":4889,"tier":3,"message":"Expensive","currency":"$","rating":6.6},{"name":"Harrison's Wine Grill & Catering","phone":"8142374422","twitter":"harrisonsmenu","address":"1221 E College Ave","lat":40.8089939041495,"lng":-77.83515214920044,"city_fetched":"State College,US","state":"PA","country":"United States","canonicalUrl":"https://foursquare.com/v/harrisons-wine-grill--catering/4bf03dcac8d920a14f9e9430","categoryId":"4bf58dd8d48988d123941735","category":"Wine Bar","checkinsCount":737,"usersCount":241,"tipCount":10,"visitsCount":746,"url":"http://www.harrisonsmenu.com","tier":2,"message":"Moderate","currency":"$","rating":6.4},{"name":"Chumley's","phone":"8142384446","address":"108 W College Ave","lat":40.794253423163795,"lng":-77.86185622215271,"city_fetched":"State College,US","state":"PA","country":"United States","canonicalUrl":"https://foursquare.com/v/chumleys/4b25afe1f964a520617524e3","categoryId":"4bf58dd8d48988d1d8941735","category":"Gay Bar","checkinsCount":3000,"usersCount":563,"tipCount":12,"visitsCount":3005,"tier":2,"message":"Moderate","currency":"$","rating":6.4},{"name":"Lion's Den","phone":"8142375081","twitter":"lionsdenpsu","address":"118 S Garner St","lat":40.79752666118052,"lng":-77.8565776348114,"city_fetched":"State College,US","state":"PA","country":"United States","canonicalUrl":"https://foursquare.com/v/lions-den/4b45895bf964a520b40d26e3","categoryId":"4bf58dd8d48988d116941735","category":"Bar","checkinsCount":1996,"usersCount":1077,"tipCount":12,"visitsCount":2030,"tier":"","message":"","currency":"","rating":6.3},{"name":"Inferno Brick Oven & Bar","phone":"8142375718","twitter":"dantesnightlife","address":"340 E College Ave","lat":40.79737234341024,"lng":-77.85740375518799,"city_fetched":"State College,US","state":"PA","country":"United States","canonicalUrl":"https://foursquare.com/v/inferno-brick-oven--bar/4b51ff3cf964a520276027e3","categoryId":"4bf58dd8d48988d121941735","category":"Lounge","checkinsCount":4068,"usersCount":1892,"tipCount":33,"visitsCount":4093,"url":"http://dantes.com","tier":"","message":"","currency":"","rating":6.2},{"name":"Westside Stadium Bar & Grill","phone":"8143088959","address":"1301 W College Ave","lat":40.784237774595994,"lng":-77.87519216537476,"city_fetched":"State College,US","state":"PA","country":"United States","canonicalUrl":"https://foursquare.com/v/westside-stadium-bar--grill/4c570bce6418a593c4767e0e","categoryId":"4bf58dd8d48988d116941735","category":"Bar","checkinsCount":1226,"usersCount":476,"tipCount":13,"visitsCount":1407,"url":"http://www.westsidestadiumbarandgrill.com","tier":2,"message":"Moderate","currency":"$","rating":6.1},{"name":"Legends","phone":"8148635080","address":"215 Innovation Blvd","lat":40.83158961661277,"lng":-77.84532308578491,"city_fetched":"State College,US","state":"PA","country":"United States","canonicalUrl":"https://foursquare.com/v/legends/4b476393f964a5209d3026e3","categoryId":"4bf58dd8d48988d11b941735","category":"Pub","checkinsCount":763,"usersCount":442,"tipCount":8,"visitsCount":773,"tier":"","message":"","currency":"","rating":5.9},{"name":"The Autoport Bar and Grill","phone":"8142377666","twitter":"the_autoport","address":"1405 S Atherton St","lat":40.78493332589299,"lng":-77.84058915875477,"city_fetched":"State College,US","state":"PA","country":"United States","canonicalUrl":"https://foursquare.com/the_autoport","categoryId":"4bf58dd8d48988d116941735","category":"Bar","checkinsCount":1816,"usersCount":703,"tipCount":18,"visitsCount":1887,"url":"http://www.theautoport.com","tier":"","message":"","currency":"","rating":5.8},{"name":"Whiskers","phone":"8148658580","address":"200 W Park Ave","lat":40.796907,"lng":-77.870838,"city_fetched":"State College,US","state":"PA","country":"United States","canonicalUrl":"https://foursquare.com/v/whiskers/4b17168ef964a5201ac223e3","categoryId":"4bf58dd8d48988d116941735","category":"Bar","checkinsCount":852,"usersCount":475,"tipCount":9,"visitsCount":854,"tier":"","message":"","currency":"","rating":5.4}]