[{"name":"Millhouse Steak House","phone":"9128716474","address":"1601 Statesboro Place Circle","lat":32.40681542780651,"lng":-81.77666478341833,"city_fetched":"Statesboro","state":"GA","country":"United States","canonicalUrl":"https://foursquare.com/v/millhouse-steak-house/4b5659c9f964a520b60c28e3","category":"Steakhouse","checkinsCount":7054,"usersCount":1138,"tipCount":18,"visitsCount":7444,"url":"http://millhousesteakhouse.com","tier":1,"message":"Cheap","currency":"$","rating":8.2},{"name":"441 Public","phone":"9122439447","address":"441 S Main St","lat":32.435603186883554,"lng":-81.78521422111281,"city_fetched":"Statesboro","state":"GA","country":"United States","canonicalUrl":"https://foursquare.com/v/441-public/557a152c498eed2322cdb7d3","category":"Gastropub","checkinsCount":23,"usersCount":34,"tipCount":3,"visitsCount":50,"tier":2,"message":"Moderate","currency":"$","rating":7.7},{"name":"El Sombrero","phone":"9127642661","address":"879 Buckhead Dr","lat":32.43360279079445,"lng":-81.75859093666077,"city_fetched":"Statesboro","state":"GA","country":"United States","canonicalUrl":"https://foursquare.com/v/el-sombrero/4b66123af964a5200a122be3","category":"Mexican Restaurant","checkinsCount":3909,"usersCount":1282,"tipCount":19,"visitsCount":4039,"url":"http://elsomstatesboro.com","tier":1,"message":"Cheap","currency":"$","rating":7.7},{"name":"Locos Grill & Pub","phone":"9126812002","twitter":"locosgrill","address":"91 Briarwood Ln","lat":32.40782612086798,"lng":-81.7615232720167,"city_fetched":"Statesboro","state":"GA","country":"United States","canonicalUrl":"https://foursquare.com/v/locos-grill--pub/4b4a6a8ef964a520e88626e3","category":"American Restaurant","checkinsCount":2513,"usersCount":759,"tipCount":17,"visitsCount":2724,"url":"http://www.locosgrill.com","tier":"","message":"","currency":"","rating":7.5},{"name":"Shogun","address":"Brannen St.","lat":32.43489187434921,"lng":-81.76718501308545,"city_fetched":"Statesboro","state":"GA","country":"United States","canonicalUrl":"https://foursquare.com/v/shogun/4d6d6da8183a236a5d87603a","category":"Sushi Restaurant","checkinsCount":721,"usersCount":313,"tipCount":4,"visitsCount":830,"tier":"","message":"","currency":"","rating":7.3},{"name":"Dingus MaGee's","phone":"9126813207","address":"3 Georgia Ave","lat":32.42275588256045,"lng":-81.77856059087591,"city_fetched":"Statesboro","state":"GA","country":"United States","canonicalUrl":"https://foursquare.com/v/dingus-magees/4b806164f964a5200e6d30e3","category":"Sports Bar","checkinsCount":2067,"usersCount":524,"tipCount":9,"visitsCount":2079,"tier":"","message":"","currency":"","rating":6}]