[{"name":"Redbeard Brewing Co.","phone":"5404303532","twitter":"redbeardbrews","address":"120 S Lewis St","lat":38.14754,"lng":-79.074467,"city_fetched":"Staunton,US","state":"VA","country":"United States","canonicalUrl":"https://foursquare.com/v/redbeard-brewing-co/51bcf985498e2d7747f0073f","categoryId":"50327c8591d4c4b30a586d5d","category":"Brewery","checkinsCount":436,"usersCount":196,"tipCount":6,"visitsCount":508,"url":"http://redbeardbrews.com","tier":2,"message":"Moderate","currency":"$","rating":8.4},{"name":"Darjeeling Cafe","phone":"5408862851","twitter":"darjeelingcafe","address":"103 W Beverley St","lat":38.149455,"lng":-79.073648,"city_fetched":"Staunton,US","state":"VA","country":"United States","canonicalUrl":"https://foursquare.com/v/darjeeling-cafe/4b749dbef964a520fce72de3","categoryId":"4bf58dd8d48988d123941735","category":"Wine Bar","checkinsCount":207,"usersCount":67,"tipCount":11,"visitsCount":207,"url":"http://www.darjeelingcafe.com","tier":"","message":"","currency":"","rating":7.3},{"name":"Clock Tower Tavern","phone":"5402130665","address":"27 W Beverley St","lat":38.14950575,"lng":-79.073466,"city_fetched":"Staunton,US","state":"VA","country":"United States","canonicalUrl":"https://foursquare.com/v/clock-tower-tavern/4c14218777cea5933f28d060","categoryId":"4bf58dd8d48988d116941735","category":"Bar","checkinsCount":472,"usersCount":319,"tipCount":4,"visitsCount":524,"url":"http://www.clocktowerhistoricstaunton.com","tier":"","message":"","currency":"","rating":6.9},{"name":"The Pompeii Lounge","phone":"5408855553","twitter":"thepompeilounge","address":"23 E Beverley St","lat":38.14970771666667,"lng":-79.071779,"city_fetched":"Staunton,US","state":"VA","country":"United States","canonicalUrl":"https://foursquare.com/v/the-pompeii-lounge/4c78a19281bca093c8fafa14","categoryId":"4bf58dd8d48988d121941735","category":"Lounge","checkinsCount":569,"usersCount":172,"tipCount":7,"visitsCount":578,"url":"http://www.thepompeilounge.com","tier":1,"message":"Cheap","currency":"$","rating":6.8}]