[{"name":"Mahogany Ridge Brewery And Grill","phone":"9708793773","address":"435 Lincoln Avenue","lat":40.48389912993745,"lng":-106.83135708299268,"city_fetched":"Steamboat Springs,US","state":"CO","country":"United States","canonicalUrl":"https://foursquare.com/v/mahogany-ridge-brewery-and-grill/4b106e73f964a520487023e3","categoryId":"50327c8591d4c4b30a586d5d","category":"Brewery","checkinsCount":2157,"usersCount":1656,"tipCount":31,"visitsCount":2612,"url":"http://mahoganyridgesteamboat.com","tier":2,"message":"Moderate","currency":"$","rating":9},{"name":"Storm Peak Brewing Company","phone":"9708791999","twitter":"stormpeakbeer","address":"1744 Lincoln Ave Unit 3","lat":40.4970400916507,"lng":-106.8533677648444,"city_fetched":"Steamboat Springs,US","state":"CO","country":"United States","canonicalUrl":"https://foursquare.com/stormpeakbeer","categoryId":"50327c8591d4c4b30a586d5d","category":"Brewery","checkinsCount":240,"usersCount":224,"tipCount":3,"visitsCount":387,"url":"http://stormpeakbrewing.com","tier":1,"message":"Cheap","currency":"$","rating":8.5},{"name":"Butcherknife Brewing","phone":"9708792337","twitter":"drinkcolorado","address":"2875 Elk River Rd","lat":40.5108076306403,"lng":-106.85807556206359,"city_fetched":"Steamboat Springs,US","state":"CO","country":"United States","canonicalUrl":"https://foursquare.com/v/butcherknife-brewing/4bf959235efe2d7fff086c34","categoryId":"50327c8591d4c4b30a586d5d","category":"Brewery","checkinsCount":341,"usersCount":170,"tipCount":2,"visitsCount":458,"url":"http://butcherknifebrewing.com","tier":"","message":"","currency":"","rating":8.5},{"name":"BARley","phone":"9707612195","address":"635 S Lincoln Ave","lat":40.485107421875,"lng":-106.83345031738281,"city_fetched":"Steamboat Springs,US","state":"CO","country":"United States","canonicalUrl":"https://foursquare.com/v/barley/540652f3498ed3ee81b988b3","categoryId":"4bf58dd8d48988d11b941735","category":"Pub","checkinsCount":297,"usersCount":150,"tipCount":3,"visitsCount":320,"url":"http://www.thebarleycolorado.com","tier":"","message":"","currency":"","rating":8.3},{"name":"The Tap House Sports Grill","phone":"9708792431","address":"729 Lincoln Ave.","lat":40.48544501995498,"lng":-106.83417456143421,"city_fetched":"Steamboat Springs,US","state":"CO","country":"United States","canonicalUrl":"https://foursquare.com/v/the-tap-house-sports-grill/4b131d78f964a5204c9423e3","categoryId":"4bf58dd8d48988d11d941735","category":"Sports Bar","checkinsCount":2134,"usersCount":1273,"tipCount":82,"visitsCount":2291,"url":"http://thetaphouse.com","tier":"","message":"","currency":"","rating":8.1},{"name":"McKnights Irish Pub","phone":"9708797881","address":"685 Marketplace Plz","lat":40.45839458974947,"lng":-106.8192233132984,"city_fetched":"Steamboat Springs,US","state":"CO","country":"United States","canonicalUrl":"https://foursquare.com/v/mcknights-irish-pub/4ef4b9330aaf6577fe230370","categoryId":"4bf58dd8d48988d11b941735","category":"Pub","checkinsCount":752,"usersCount":352,"tipCount":15,"visitsCount":847,"tier":"","message":"","currency":"","rating":7.8},{"name":"Sunpie's Bistro","phone":"9708703360","address":"735 Yampa St.","lat":40.48508631602736,"lng":-106.83539605582969,"city_fetched":"Steamboat Springs,US","state":"CO","country":"United States","canonicalUrl":"https://foursquare.com/v/sunpies-bistro/4b8f3566f964a520d24d33e3","categoryId":"4bf58dd8d48988d117941735","category":"Beer Garden","checkinsCount":1454,"usersCount":752,"tipCount":14,"visitsCount":1588,"tier":1,"message":"Cheap","currency":"$","rating":7.6},{"name":"3 Saddles Bar & Grill","address":"2200 Village Inn Court","lat":40.45802391967252,"lng":-106.80403109455808,"city_fetched":"Steamboat Springs,US","state":"CO","country":"United States","canonicalUrl":"https://foursquare.com/v/3-saddles-bar--grill/4c09c81ebbc676b090e648d5","categoryId":"4bf58dd8d48988d1d5941735","category":"Hotel Bar","checkinsCount":193,"usersCount":113,"tipCount":2,"visitsCount":194,"tier":"","message":"","currency":"","rating":7},{"name":"Cantina Steamboat","phone":"9708790826","twitter":"steamboatcantin","address":"818 Lincoln Ave","lat":40.4865,"lng":-106.8350143,"city_fetched":"Steamboat Springs,US","state":"CO","country":"United States","canonicalUrl":"https://foursquare.com/v/cantina-steamboat/4b7f5c3ff964a520f02930e3","categoryId":"4bf58dd8d48988d116941735","category":"Bar","checkinsCount":1050,"usersCount":774,"tipCount":20,"visitsCount":1109,"url":"http://www.steamboatcantina.com","tier":"","message":"","currency":"","rating":6.6},{"name":"Gondola Pub & Grill","phone":"9708794448","address":"Gondola Square","lat":40.45743946324992,"lng":-106.8049528533615,"city_fetched":"Steamboat Springs,US","state":"CO","country":"United States","canonicalUrl":"https://foursquare.com/v/gondola-pub--grill/4b1597d9f964a520d4b023e3","categoryId":"4bf58dd8d48988d11b941735","category":"Pub","checkinsCount":1058,"usersCount":671,"tipCount":9,"visitsCount":1074,"url":"http://gondolapubandgrill.com","tier":2,"message":"Moderate","currency":"$","rating":5.9},{"name":"Old Town Pub","phone":"9708792101","address":"600 S Lincoln Ave","lat":40.48514708319488,"lng":-106.83255672454834,"city_fetched":"Steamboat Springs,US","state":"CO","country":"United States","canonicalUrl":"https://foursquare.com/v/old-town-pub/4b415473f964a52072c525e3","categoryId":"4bf58dd8d48988d11b941735","category":"Pub","checkinsCount":1334,"usersCount":943,"tipCount":15,"visitsCount":1432,"url":"http://oldtownpub.jimdo.com","tier":"","message":"","currency":"","rating":5.9},{"name":"Ghost Ranch Saloon","phone":"9708799898","address":"56 7th St","lat":40.485121066666665,"lng":-106.833729,"city_fetched":"Steamboat Springs,US","state":"CO","country":"United States","canonicalUrl":"https://foursquare.com/v/ghost-ranch-saloon/4b5cf69af964a520d04c29e3","categoryId":"4bf58dd8d48988d11b941735","category":"Pub","checkinsCount":464,"usersCount":338,"tipCount":10,"visitsCount":464,"tier":"","message":"","currency":"","rating":5.6}]