[{"name":"Johnny Black's East","address":"35000 Moravian Dr","lat":42.551885654747274,"lng":-82.98001594911388,"city_fetched":"Sterling","state":"MI","country":"United States","canonicalUrl":"https://foursquare.com/v/johnny-blacks-east/5656435e498ee88857da372d","category":"Bar","checkinsCount":337,"usersCount":335,"tipCount":4,"visitsCount":729,"tier":"","message":"","currency":"","rating":9},{"name":"Shamrock Irish Pub","phone":"5867316886","address":"7715 Auburn Rd","lat":42.62619439090346,"lng":-83.03436233050303,"city_fetched":"Sterling","state":"MI","country":"United States","canonicalUrl":"https://foursquare.com/v/shamrock-irish-pub/41326e00f964a5204b101fe3","category":"Pub","checkinsCount":2407,"usersCount":1104,"tipCount":30,"visitsCount":2786,"url":"http://shamrockutica.com","tier":1,"message":"Cheap","currency":"$","rating":8},{"name":"Island Bar and Grill","phone":"5868846283","address":"43711 Van Dyke Ave","lat":42.61513650676744,"lng":-83.03237982585077,"city_fetched":"Sterling","state":"MI","country":"United States","canonicalUrl":"https://foursquare.com/v/island-bar-and-grill/4c9d25a6542b224b0335e79f","category":"Bar","checkinsCount":1904,"usersCount":482,"tipCount":13,"visitsCount":2194,"tier":"","message":"","currency":"","rating":7.8},{"name":"MacKenzie Tavern","phone":"5869793012","address":"40860 Van Dyke Ave","lat":42.59476062172887,"lng":-83.02868213796201,"city_fetched":"Sterling","state":"MI","country":"United States","canonicalUrl":"https://foursquare.com/v/mackenzie-tavern/4cc25c3c306e224bf119906c","category":"Bar","checkinsCount":410,"usersCount":175,"tipCount":5,"visitsCount":464,"tier":"","message":"","currency":"","rating":7.4},{"name":"TGI Fridays","phone":"5867266363","twitter":"tgifridays","address":"45001 Schoenherr Rd","lat":42.62778702,"lng":-82.99388225,"city_fetched":"Sterling","state":"MI","country":"United States","canonicalUrl":"https://foursquare.com/v/tgi-fridays/509d636e5d2463e8715480dd","category":"American Restaurant","checkinsCount":4930,"usersCount":2173,"tipCount":33,"visitsCount":5477,"url":"http://tgifridays.com","tier":1,"message":"Cheap","currency":"$","rating":7.4},{"name":"Gator Jake's Bar & Grill","phone":"5869833700","address":"36863 Van Dyke Ave","lat":42.56463993013789,"lng":-83.03015649318695,"city_fetched":"Sterling","state":"MI","country":"United States","canonicalUrl":"https://foursquare.com/v/gator-jakes-bar--grill/4a4ba117f964a52083ac1fe3","category":"Bar","checkinsCount":7374,"usersCount":1792,"tipCount":29,"visitsCount":7969,"url":"http://www.gatorjakes.net","tier":2,"message":"Moderate","currency":"$","rating":7.3},{"name":"Parrot Cove","phone":"2485856080","address":"33475 Dequindre Rd","lat":42.538310302908826,"lng":-83.08785690363582,"city_fetched":"Sterling","state":"MI","country":"United States","canonicalUrl":"https://foursquare.com/v/parrot-cove/4c804ce62f1c236addc62543","category":"Bar","checkinsCount":774,"usersCount":392,"tipCount":18,"visitsCount":874,"url":"http://www.parrotcoveyachtclub.com","tier":"","message":"","currency":"","rating":7.2},{"name":"Loon River Cafe","phone":"5869791400","twitter":"loonrivercafe","address":"34911 Van Dyke Ave","lat":42.55017023828039,"lng":-83.02947938750442,"city_fetched":"Sterling","state":"MI","country":"United States","canonicalUrl":"https://foursquare.com/v/loon-river-cafe/4c75442d604a370489238249","category":"American Restaurant","checkinsCount":456,"usersCount":278,"tipCount":9,"visitsCount":459,"url":"http://www.sterlinginn.com/loon%20river/loon.htm","tier":2,"message":"Moderate","currency":"$","rating":7},{"name":"Dooley's","phone":"5863233501","address":"12414 Hall Rd","lat":42.627170235387254,"lng":-83.00870418548584,"city_fetched":"Sterling","state":"MI","country":"United States","canonicalUrl":"https://foursquare.com/v/dooleys/4743de45f964a5207e4c1fe3","category":"Bar","checkinsCount":5391,"usersCount":1854,"tipCount":30,"visitsCount":5609,"url":"http://www.dooleysirish.com","tier":2,"message":"Moderate","currency":"$","rating":6.9},{"name":"Club54","phone":"5867950054","address":"37722 Van Dyke Ave","lat":42.57133607799996,"lng":-83.02871360852151,"city_fetched":"Sterling","state":"MI","country":"United States","canonicalUrl":"https://foursquare.com/v/club54/50f6153d19a9e56d4c396a60","category":"Nightclub","checkinsCount":214,"usersCount":148,"tipCount":5,"visitsCount":214,"url":"http://nightclub54.com","tier":"","message":"","currency":"","rating":6.8},{"name":"Jamboozies Sports Bar & Grill","phone":"5867312000","twitter":"jambooziesgrill","address":"42066 Van Dyke Ave","lat":42.60255245461781,"lng":-83.03029236230387,"city_fetched":"Sterling","state":"MI","country":"United States","canonicalUrl":"https://foursquare.com/v/jamboozies-sports-bar--grill/41326e00f964a520030f1fe3","category":"Sports Bar","checkinsCount":2685,"usersCount":864,"tipCount":24,"visitsCount":2951,"url":"http://www.jamboozies.com","tier":"","message":"","currency":"","rating":6.7},{"name":"Cafe Mocha","phone":"5862760000","address":"33166 Ryan Rd","lat":42.5366481739204,"lng":-83.06805577671207,"city_fetched":"Sterling","state":"MI","country":"United States","canonicalUrl":"https://foursquare.com/v/cafe-mocha/4dd1f8f752b15d0acc743aa8","category":"Hookah Bar","checkinsCount":547,"usersCount":172,"tipCount":9,"visitsCount":561,"url":"http://cafemochausa.com","tier":"","message":"","currency":"","rating":6.6},{"name":"Clancy's Irish Pub","phone":"5862860008","address":"42012 Hayes Rd","lat":42.60468400572354,"lng":-82.97175407409668,"city_fetched":"Sterling","state":"MI","country":"United States","canonicalUrl":"https://foursquare.com/v/clancys-irish-pub/4c6a07f91a6620a1cd46658c","category":"Bar","checkinsCount":1906,"usersCount":706,"tipCount":13,"visitsCount":2022,"url":"http://clancysirishpub1.com","tier":"","message":"","currency":"","rating":6.6},{"name":"TGI Fridays","phone":"5862645801","twitter":"tgifridays","address":"33703 Van Dyke Ave","lat":42.54180787466676,"lng":-83.02958428804206,"city_fetched":"Sterling","state":"MI","country":"United States","canonicalUrl":"https://foursquare.com/v/tgi-fridays/509d636d5d2463e871547fd5","category":"American Restaurant","checkinsCount":2526,"usersCount":1574,"tipCount":27,"visitsCount":2940,"url":"http://tgifridays.com","tier":2,"message":"Moderate","currency":"$","rating":6.6},{"name":"Roger's Roost","phone":"5869797550","twitter":"rogersroost1","address":"33626 Schoenherr Rd","lat":42.54278641101995,"lng":-82.98893333237828,"city_fetched":"Sterling","state":"MI","country":"United States","canonicalUrl":"https://foursquare.com/v/rogers-roost/42dd9400f964a5204e261fe3","category":"Sports Bar","checkinsCount":4892,"usersCount":2275,"tipCount":41,"visitsCount":5870,"url":"http://rogersroost1.com","tier":2,"message":"Moderate","currency":"$","rating":6.1},{"name":"17th Street Bar & Grill","phone":"5862648644","address":"3905 17 Mile Rd","lat":42.57949730908047,"lng":-83.07142626852873,"city_fetched":"Sterling","state":"MI","country":"United States","canonicalUrl":"https://foursquare.com/v/17th-street-bar--grill/4cd4c478dfb4a1cd5d60555c","category":"Bar","checkinsCount":914,"usersCount":366,"tipCount":3,"visitsCount":921,"tier":"","message":"","currency":"","rating":5.9},{"name":"Hatchy's","phone":"5869910407","address":"7759 Auburn Rd","lat":42.626172967491605,"lng":-83.03396898114927,"city_fetched":"Sterling","state":"MI","country":"United States","canonicalUrl":"https://foursquare.com/v/hatchys/4b3ed759f964a5208aa225e3","category":"Sports Bar","checkinsCount":3206,"usersCount":913,"tipCount":22,"visitsCount":3317,"url":"http://www.hatchys.com","tier":2,"message":"Moderate","currency":"$","rating":5.8},{"name":"Rosie O'Gradys","address":"36759 Mound Rd","lat":42.56347574934468,"lng":-83.04937078658442,"city_fetched":"Sterling","state":"MI","country":"United States","canonicalUrl":"https://foursquare.com/v/rosie-ogradys/4b8703b7f964a5207cab31e3","category":"Pub","checkinsCount":1826,"usersCount":1041,"tipCount":15,"visitsCount":1958,"url":"http://www.rosieogradysirishpub.com","tier":"","message":"","currency":"","rating":5.7},{"name":"Muldoon's","phone":"5867396946","twitter":"muldoonstavern","address":"7636 Auburn Rd","lat":42.62581825025301,"lng":-83.0353640495841,"city_fetched":"Sterling","state":"MI","country":"United States","canonicalUrl":"https://foursquare.com/v/muldoons/4b9c77c0f964a520c66a36e3","category":"Bar","checkinsCount":3398,"usersCount":987,"tipCount":21,"visitsCount":3641,"url":"http://muldoonstavern.com","tier":2,"message":"Moderate","currency":"$","rating":5.7}]