[{"name":"Stevens Point Brewery","phone":"7153449310","address":"2617 Water St","lat":44.510231404658455,"lng":-89.57415878507373,"city_fetched":"Stevens Point,US","state":"WI","country":"United States","canonicalUrl":"https://foursquare.com/v/stevens-point-brewery/4abe4a8bf964a520768c20e3","categoryId":"50327c8591d4c4b30a586d5d","category":"Brewery","checkinsCount":1056,"usersCount":806,"tipCount":10,"visitsCount":1225,"url":"http://pointbeer.com","tier":"","message":"","currency":"","rating":8.9},{"name":"Final Score","phone":"7153430533","address":"908 Maria Dr","lat":44.534037,"lng":-89.585400223732,"city_fetched":"Stevens Point,US","state":"WI","country":"United States","canonicalUrl":"https://foursquare.com/v/final-score/4b818675f964a52067ac30e3","categoryId":"4bf58dd8d48988d11d941735","category":"Sports Bar","checkinsCount":1326,"usersCount":422,"tipCount":8,"visitsCount":1581,"url":"http://www.fatboyinvitational.com","tier":1,"message":"Cheap","currency":"$","rating":8.4},{"name":"Hilltop Pub & Grill","phone":"7153413037","address":"4901 US Highway 10 E","lat":44.52300862457055,"lng":-89.53312397003174,"city_fetched":"Stevens Point,US","state":"WI","country":"United States","canonicalUrl":"https://foursquare.com/v/hilltop-pub--grill/4abd8592f964a520d08a20e3","categoryId":"4bf58dd8d48988d11b941735","category":"Pub","checkinsCount":2322,"usersCount":1675,"tipCount":29,"visitsCount":2879,"url":"http://hilltoppubandgrill.com","tier":1,"message":"Cheap","currency":"$","rating":8.4},{"name":"O'So Brewing Company","phone":"7152542163","twitter":"osobrewing","address":"3028 Village Park Dr","lat":44.451681017184335,"lng":-89.52484550596716,"city_fetched":"Stevens Point,US","state":"WI","country":"United States","canonicalUrl":"https://foursquare.com/v/oso-brewing-company/4eb44b5e93ad23656fab6c11","categoryId":"50327c8591d4c4b30a586d5d","category":"Brewery","checkinsCount":1726,"usersCount":828,"tipCount":8,"visitsCount":1999,"url":"http://osobrewing.com","tier":2,"message":"Moderate","currency":"$","rating":8},{"name":"Rustys Backwater Saloon","address":"1715 W River Dr W","lat":44.462535249949795,"lng":-89.64285034993638,"city_fetched":"Stevens Point,US","state":"WI","country":"United States","canonicalUrl":"https://foursquare.com/v/rustys-backwater-saloon/4b9eb930f964a520aefc36e3","categoryId":"4bf58dd8d48988d116941735","category":"Bar","checkinsCount":649,"usersCount":237,"tipCount":3,"visitsCount":679,"tier":"","message":"","currency":"","rating":8},{"name":"Point After Pub & Grill","phone":"7153447222","address":"801 2nd St","lat":44.52779690628584,"lng":-89.58560943603516,"city_fetched":"Stevens Point,US","state":"WI","country":"United States","canonicalUrl":"https://foursquare.com/v/point-after-pub--grill/4c09c61f009a0f473372e8bf","categoryId":"4bf58dd8d48988d116941735","category":"Bar","checkinsCount":916,"usersCount":397,"tipCount":5,"visitsCount":1203,"url":"http://pointafterpub.com","tier":1,"message":"Cheap","currency":"$","rating":7.8},{"name":"Guu's on Main","phone":"7153443200","address":"1140 Main St","lat":44.52360223530775,"lng":-89.58266088477065,"city_fetched":"Stevens Point,US","state":"WI","country":"United States","canonicalUrl":"https://foursquare.com/v/guus-on-main/4bad51a3f964a520be453be3","categoryId":"4bf58dd8d48988d116941735","category":"Bar","checkinsCount":2618,"usersCount":783,"tipCount":20,"visitsCount":2906,"url":"http://guusonmaintavern.com","tier":2,"message":"Moderate","currency":"$","rating":7.7},{"name":"Club Forest Bar and Grill","phone":"7153451220","address":"1176 Club Forest Dr","lat":44.43952316558017,"lng":-89.64090633770385,"city_fetched":"Stevens Point,US","state":"WI","country":"United States","canonicalUrl":"https://foursquare.com/v/club-forest-bar-and-grill/4c0d4259336220a17374ca77","categoryId":"4bf58dd8d48988d11b941735","category":"Pub","checkinsCount":2506,"usersCount":161,"tipCount":5,"visitsCount":2686,"tier":"","message":"","currency":"","rating":7.6},{"name":"Rookies Sports Pub","phone":"7153447640","address":"3425 Church St","lat":44.49884533882141,"lng":-89.56176996231079,"city_fetched":"Stevens Point,US","state":"WI","country":"United States","canonicalUrl":"https://foursquare.com/v/rookies-sports-pub/4b887f12f964a52037fc31e3","categoryId":"4bf58dd8d48988d11d941735","category":"Sports Bar","checkinsCount":1185,"usersCount":268,"tipCount":6,"visitsCount":1336,"tier":2,"message":"Moderate","currency":"$","rating":7.3},{"name":"Partners Pub & Grill","phone":"7155440661","address":"2600 Stanley St","lat":44.530816587397084,"lng":-89.56207224677813,"city_fetched":"Stevens Point,US","state":"WI","country":"United States","canonicalUrl":"https://foursquare.com/v/partners-pub--grill/4b6cadd8f964a520994b2ce3","categoryId":"4bf58dd8d48988d11b941735","category":"Pub","checkinsCount":1957,"usersCount":683,"tipCount":11,"visitsCount":2353,"url":"http://www.partners-pub.com","tier":"","message":"","currency":"","rating":7.3},{"name":"Big Todd's","phone":"7153419669","address":"1109 Park Steet","lat":44.513967633247375,"lng":-89.57592129707336,"city_fetched":"Stevens Point,US","state":"WI","country":"United States","canonicalUrl":"https://foursquare.com/v/big-todds/4c00656aceabb713a2d88752","categoryId":"4bf58dd8d48988d116941735","category":"Bar","checkinsCount":254,"usersCount":64,"tipCount":3,"visitsCount":261,"tier":1,"message":"Cheap","currency":"$","rating":7.2},{"name":"Sugar Bar","address":"835 Main St","lat":44.52306579465132,"lng":-89.58592866486119,"city_fetched":"Stevens Point,US","state":"WI","country":"United States","canonicalUrl":"https://foursquare.com/v/sugar-bar/4b80d46bf964a520258e30e3","categoryId":"4bf58dd8d48988d116941735","category":"Bar","checkinsCount":1167,"usersCount":344,"tipCount":10,"visitsCount":1188,"tier":"","message":"","currency":"","rating":7.1},{"name":"Butter's Brickhause","address":"1343 2nd St","lat":44.522754549980164,"lng":-89.58563616,"city_fetched":"Stevens Point,US","state":"WI","country":"United States","canonicalUrl":"https://foursquare.com/v/butters-brickhause/4b725361f964a520ce772de3","categoryId":"4bf58dd8d48988d118941735","category":"Dive Bar","checkinsCount":1234,"usersCount":259,"tipCount":10,"visitsCount":1266,"tier":"","message":"","currency":"","rating":7},{"name":"Buffy's Lampoon","phone":"7153449909","address":"1331 2nd St","lat":44.5228532,"lng":-89.58581255,"city_fetched":"Stevens Point,US","state":"WI","country":"United States","canonicalUrl":"https://foursquare.com/v/buffys-lampoon/4b932ca7f964a520543934e3","categoryId":"4bf58dd8d48988d116941735","category":"Bar","checkinsCount":753,"usersCount":228,"tipCount":7,"visitsCount":761,"tier":"","message":"","currency":"","rating":6.7},{"name":"Springville Eatery & Pub","phone":"7155440336","address":"1800 Post Rd","lat":44.47131,"lng":-89.54708218574524,"city_fetched":"Stevens Point,US","state":"WI","country":"United States","canonicalUrl":"https://foursquare.com/v/springville-eatery--pub/4bbe1a6fb42aef3b2f694bc3","categoryId":"4bf58dd8d48988d11b941735","category":"Pub","checkinsCount":147,"usersCount":96,"tipCount":4,"visitsCount":148,"url":"http://www.springvilleeateryandpub.webs.com","tier":"","message":"","currency":"","rating":6.7},{"name":"Papa Joe's Bar","phone":"7153424824","address":"233 Division St","lat":44.53258216381073,"lng":-89.57469326666667,"city_fetched":"Stevens Point,US","state":"WI","country":"United States","canonicalUrl":"https://foursquare.com/v/papa-joes-bar/4b874dbcf964a520dbba31e3","categoryId":"4bf58dd8d48988d116941735","category":"Bar","checkinsCount":394,"usersCount":136,"tipCount":4,"visitsCount":398,"url":"http://www.papajohns.com","tier":"","message":"","currency":"","rating":6.7},{"name":"The Outfit","phone":"7153442867","address":"804 Main St","lat":44.523516219303346,"lng":-89.5861955983074,"city_fetched":"Stevens Point,US","state":"WI","country":"United States","canonicalUrl":"https://foursquare.com/v/the-outfit/4b932c5df964a520433934e3","categoryId":"4bf58dd8d48988d116941735","category":"Bar","checkinsCount":1349,"usersCount":306,"tipCount":5,"visitsCount":1370,"tier":"","message":"","currency":"","rating":6.6},{"name":"Elbow Room Bar","phone":"7153449840","address":"1321 2nd St","lat":44.52301982356232,"lng":-89.58550064711343,"city_fetched":"Stevens Point,US","state":"WI","country":"United States","canonicalUrl":"https://foursquare.com/v/elbow-room-bar/4c0b222f7e3fc9289af0f482","categoryId":"4bf58dd8d48988d116941735","category":"Bar","checkinsCount":466,"usersCount":188,"tipCount":4,"visitsCount":476,"tier":"","message":"","currency":"","rating":6.5},{"name":"Joe's Bar","phone":"7153449827","address":"831 Main St","lat":44.52292,"lng":-89.5861566066742,"city_fetched":"Stevens Point,US","state":"WI","country":"United States","canonicalUrl":"https://foursquare.com/v/joes-bar/4c6df6aac524370424eb29eb","categoryId":"4bf58dd8d48988d116941735","category":"Bar","checkinsCount":1123,"usersCount":251,"tipCount":4,"visitsCount":1141,"tier":"","message":"","currency":"","rating":6.5},{"name":"The Cabin","phone":"7153452323","address":"1338 2nd St","lat":44.52287342450114,"lng":-89.58588264167048,"city_fetched":"Stevens Point,US","state":"WI","country":"United States","canonicalUrl":"https://foursquare.com/v/the-cabin/4c662e8daebea5939c9d72d0","categoryId":"4bf58dd8d48988d116941735","category":"Bar","checkinsCount":755,"usersCount":253,"tipCount":2,"visitsCount":762,"tier":"","message":"","currency":"","rating":6.1},{"name":"Mugshots","phone":"7153449970","address":"1327 2nd St","lat":44.52303369144587,"lng":-89.5856111037514,"city_fetched":"Stevens Point,US","state":"WI","country":"United States","canonicalUrl":"https://foursquare.com/v/mugshots/4b932b88f964a520103934e3","categoryId":"4bf58dd8d48988d116941735","category":"Bar","checkinsCount":793,"usersCount":196,"tipCount":6,"visitsCount":793,"tier":"","message":"","currency":"","rating":5.9},{"name":"Pete's Sports Bar","phone":"7153412266","address":"200 Division St","lat":44.53310486079767,"lng":-89.57599639892578,"city_fetched":"Stevens Point,US","state":"WI","country":"United States","canonicalUrl":"https://foursquare.com/v/petes-sports-bar/4c26ccf8f1272d7fbe5187c5","categoryId":"4bf58dd8d48988d11d941735","category":"Sports Bar","checkinsCount":626,"usersCount":179,"tipCount":7,"visitsCount":644,"url":"http://www.petessportsbar.com/bar.html","tier":"","message":"","currency":"","rating":5.8},{"name":"Graffiti's Sports Pub","phone":"7153444450","address":"912 Main St","lat":44.52352877646351,"lng":-89.58550214767456,"city_fetched":"Stevens Point,US","state":"WI","country":"United States","canonicalUrl":"https://foursquare.com/v/graffitis-sports-pub/4b84412df964a5209f2a31e3","categoryId":"4bf58dd8d48988d11d941735","category":"Sports Bar","checkinsCount":1747,"usersCount":667,"tipCount":10,"visitsCount":1846,"url":"http://www.graffitissportspub.com","tier":2,"message":"Moderate","currency":"$","rating":5.7}]