[{"name":"Finnegan's Public House","address":"716 S Main St","lat":36.113919794485085,"lng":-97.0588640096791,"city_fetched":"Stillwater","state":"OK","country":"United States","canonicalUrl":"https://foursquare.com/v/finnegans-public-house/4cf0846f7bf3b60c68495a7f","category":"Pub","checkinsCount":850,"usersCount":279,"tipCount":9,"visitsCount":867,"tier":1,"message":"Cheap","currency":"$","rating":8.1},{"name":"Louie's Grill & Bar","phone":"4057077200","address":"720 S Main St","lat":36.113797,"lng":-97.058788,"city_fetched":"Stillwater","state":"OK","country":"United States","canonicalUrl":"https://foursquare.com/v/louies-grill--bar/4b47b5d1f964a520733b26e3","category":"Bar","checkinsCount":2121,"usersCount":862,"tipCount":18,"visitsCount":2392,"url":"http://louiesgrillfusionrestaurant.net","tier":2,"message":"Moderate","currency":"$","rating":8},{"name":"Stonewall Tavern","phone":"4057430366","address":"115 S Knoblock St","lat":36.1215893,"lng":-97.0647644,"city_fetched":"Stillwater","state":"OK","country":"United States","canonicalUrl":"https://foursquare.com/v/stonewall-tavern/4b467c51f964a520692226e3","category":"Pub","checkinsCount":1882,"usersCount":670,"tipCount":14,"visitsCount":2046,"tier":"","message":"","currency":"","rating":7.7},{"name":"Zannotti's Wine Bar","phone":"4057077037","twitter":"zannottis","address":"113 W 7th Ave","lat":36.11439064953282,"lng":-97.05931568664896,"city_fetched":"Stillwater","state":"OK","country":"United States","canonicalUrl":"https://foursquare.com/v/zannottis-wine-bar/4b75dc5af964a5201b2a2ee3","category":"Wine Bar","checkinsCount":608,"usersCount":229,"tipCount":9,"visitsCount":615,"url":"http://zannottiswinebar.com","tier":"","message":"","currency":"","rating":7.6},{"name":"Outlaws","phone":"4055331999","address":"501 S Washington St","lat":36.116452878193726,"lng":-97.06910133361816,"city_fetched":"Stillwater","state":"OK","country":"United States","canonicalUrl":"https://foursquare.com/v/outlaws/4cfb2981ee9cb60ceaec8ead","category":"Bar","checkinsCount":1164,"usersCount":489,"tipCount":9,"visitsCount":1255,"tier":"","message":"","currency":"","rating":7.4},{"name":"The College Bar","phone":"4055333217","address":"319 S Washington St","lat":36.11825014,"lng":-97.069306,"city_fetched":"Stillwater","state":"OK","country":"United States","canonicalUrl":"https://foursquare.com/v/the-college-bar/4ba7f80ef964a520d2c239e3","category":"Bar","checkinsCount":1423,"usersCount":450,"tipCount":11,"visitsCount":1470,"tier":"","message":"","currency":"","rating":7.1},{"name":"JR Murphy's","phone":"4057432983","address":"306 S Washington St","lat":36.118425,"lng":-97.06957876682281,"city_fetched":"Stillwater","state":"OK","country":"United States","canonicalUrl":"https://foursquare.com/v/jr-murphys/4b9c77a6f964a520c06a36e3","category":"Bar","checkinsCount":1988,"usersCount":655,"tipCount":13,"visitsCount":2107,"tier":"","message":"","currency":"","rating":7.1},{"name":"Tumbleweed Dancehall","phone":"4056016276","address":"1312 S Sangre Rd","lat":36.145758250959105,"lng":-97.12646583560814,"city_fetched":"Stillwater","state":"OK","country":"United States","canonicalUrl":"https://foursquare.com/v/tumbleweed-dancehall/4bd8f8fe0115c9b6af207680","category":"Bar","checkinsCount":473,"usersCount":296,"tipCount":3,"visitsCount":555,"url":"http://www.tumbleweedok.com","tier":"","message":"","currency":"","rating":7.1},{"name":"Willies Saloon","phone":"4053777716","address":"323 S Washington St","lat":36.11809557233982,"lng":-97.0692848742762,"city_fetched":"Stillwater","state":"OK","country":"United States","canonicalUrl":"https://foursquare.com/v/willies-saloon/4b80c930f964a520018c30e3","category":"Dive Bar","checkinsCount":447,"usersCount":248,"tipCount":3,"visitsCount":460,"tier":"","message":"","currency":"","rating":6.3},{"name":"The Crosseyed Cricket Saloon","phone":"4053729278","address":"412 S Washington St","lat":36.11689462475049,"lng":-97.06973662210002,"city_fetched":"Stillwater","state":"OK","country":"United States","canonicalUrl":"https://foursquare.com/v/the-crosseyed-cricket-saloon/4ba7f5d9f964a52011c239e3","category":"Bar","checkinsCount":929,"usersCount":291,"tipCount":6,"visitsCount":990,"url":"http://cricketstillwater.com","tier":"","message":"","currency":"","rating":6.2},{"name":"Copper Penny","phone":"4056249799","address":"408 S Washington St","lat":36.117281,"lng":-97.06958413124084,"city_fetched":"Stillwater","state":"OK","country":"United States","canonicalUrl":"https://foursquare.com/v/copper-penny/4ba7f683f964a52042c239e3","category":"Bar","checkinsCount":1099,"usersCount":520,"tipCount":8,"visitsCount":1197,"tier":"","message":"","currency":"","rating":5.9}]