[{"name":"The Abbey Trappist Pub","address":"2353 Pacific Ave","lat":37.972603,"lng":-121.301397,"neighborhood":"Pacific","city_fetched":"Stockton","state":"CA","country":"United States","canonicalUrl":"https://foursquare.com/v/the-abbey-trappist-pub/4de1abf7d164df8574e9cb15","category":"Pub","checkinsCount":2654,"usersCount":446,"tipCount":25,"visitsCount":2865,"url":"http://abbeytrappistpub.com","tier":2,"message":"Moderate","currency":"$","rating":8.4},{"name":"Fat's Grill And Bar","phone":"2094733281","address":"4555 N Pershing Ave","lat":37.9871146,"lng":-121.32164597511292,"neighborhood":"Pacific","city_fetched":"Stockton","state":"CA","country":"United States","canonicalUrl":"https://foursquare.com/v/fats-grill-and-bar/4b6f460df964a52089e82ce3","category":"Sports Bar","checkinsCount":717,"usersCount":227,"tipCount":9,"visitsCount":752,"url":"http://www.fatsgrill.com","tier":"","message":"","currency":"","rating":8.3},{"name":"BJ's Restaurant and Brewhouse","phone":"2093734660","twitter":"bjsrestaurants","address":"5733 Pacific Ave","lat":38.00197940687665,"lng":-121.31738662719727,"city_fetched":"Stockton","state":"CA","country":"United States","canonicalUrl":"https://foursquare.com/v/bjs-restaurant-and-brewhouse/4b551e95f964a520cbdb27e3","category":"American Restaurant","checkinsCount":3736,"usersCount":1822,"tipCount":29,"visitsCount":4400,"url":"http://t.co/bl46gcjDLN","tier":2,"message":"Moderate","currency":"$","rating":8.1},{"name":"Mile Wine Company","phone":"2094659463","twitter":"milewinecompany","address":"2113 Pacific Ave","lat":37.971294216028014,"lng":-121.30053460272133,"neighborhood":"Pacific","city_fetched":"Stockton","state":"CA","country":"United States","canonicalUrl":"https://foursquare.com/milewinecompany","category":"Wine Bar","checkinsCount":243,"usersCount":108,"tipCount":3,"visitsCount":277,"url":"http://milewinecompany.com","tier":"","message":"","currency":"","rating":7.8},{"name":"Angelina's Spaghetti House","phone":"2099486609","twitter":"angelinasca","address":"1563 E Fremont St","lat":37.96123168,"lng":-121.27156559,"city_fetched":"Stockton","state":"CA","country":"United States","canonicalUrl":"https://foursquare.com/v/angelinas-spaghetti-house/4ba45394f964a5202a9638e3","category":"Italian Restaurant","checkinsCount":385,"usersCount":311,"tipCount":5,"visitsCount":573,"url":"http://www.angelinas.com","tier":2,"message":"Moderate","currency":"$","rating":7.8},{"name":"Windmill Cove Bar & Grill","address":"7600 Windmill Cv","lat":37.99072334,"lng":-121.407363,"city_fetched":"Stockton","state":"CA","country":"United States","canonicalUrl":"https://foursquare.com/v/windmill-cove-bar--grill/4be123790365c9b60801b338","category":"Bar","checkinsCount":332,"usersCount":251,"tipCount":5,"visitsCount":422,"url":"http://windmillcove.com","tier":"","message":"","currency":"","rating":7.6},{"name":"Whisky Barrel Tavern","address":"151 W Alder St","lat":37.969444733158944,"lng":-121.29869097310663,"neighborhood":"Pacific","city_fetched":"Stockton","state":"CA","country":"United States","canonicalUrl":"https://foursquare.com/v/whisky-barrel-tavern/5269aa79498e522cef6167ee","category":"Bar","checkinsCount":187,"usersCount":75,"tipCount":5,"visitsCount":197,"tier":"","message":"","currency":"","rating":7.5},{"name":"Basil's","phone":"2094786290","twitter":"basilsstockton","address":"2324 Grand Canal Blvd","lat":37.983905504677956,"lng":-121.33608863143726,"neighborhood":"Pacific","city_fetched":"Stockton","state":"CA","country":"United States","canonicalUrl":"https://foursquare.com/v/basils/4bab0c2ef964a52009933ae3","category":"Bar","checkinsCount":474,"usersCount":225,"tipCount":6,"visitsCount":610,"tier":"","message":"","currency":"","rating":7.5},{"name":"Pepperonis Pizza and Hookah Cafe","phone":"2099430055","address":"4641 Pacific Ave","lat":37.97004025942763,"lng":-121.30458489933457,"neighborhood":"Pacific","city_fetched":"Stockton","state":"CA","country":"United States","canonicalUrl":"https://foursquare.com/v/pepperonis-pizza-and-hookah-cafe/4d781dce109eb1f72fc44a06","category":"Hookah Bar","checkinsCount":458,"usersCount":59,"tipCount":2,"visitsCount":475,"url":"http://pepperonishookah.com","tier":"","message":"","currency":"","rating":7.4},{"name":"AVE on the Mile","phone":"2094625283","address":"2333 Pacific Ave","lat":37.972253,"lng":-121.30121579,"neighborhood":"Pacific","city_fetched":"Stockton","state":"CA","country":"United States","canonicalUrl":"https://foursquare.com/v/ave-on-the-mile/4bbfd1d4b492d13a6568a360","category":"Lounge","checkinsCount":830,"usersCount":381,"tipCount":13,"visitsCount":839,"url":"http://aveonthemile.com","tier":"","message":"","currency":"","rating":7.2},{"name":"French 25","phone":"2094510617","address":"110 N El Dorado St","lat":37.95401902875384,"lng":-121.29009257239139,"neighborhood":"Civic Center","city_fetched":"Stockton","state":"CA","country":"United States","canonicalUrl":"https://foursquare.com/v/french-25/51840857498e1080b3729b8e","category":"Cajun / Creole Restaurant","checkinsCount":311,"usersCount":230,"tipCount":7,"visitsCount":353,"url":"http://french-25.com","tier":2,"message":"Moderate","currency":"$","rating":7},{"name":"Finnegans Irish Pub and Restaurant","phone":"2099514782","twitter":"finnpub","address":"6002 Pacific Ave","lat":38.004986106727515,"lng":-121.31765662589432,"city_fetched":"Stockton","state":"CA","country":"United States","canonicalUrl":"https://foursquare.com/v/finnegans-irish-pub-and-restaurant/4b552206f964a52051dc27e3","category":"Irish Pub","checkinsCount":1849,"usersCount":384,"tipCount":13,"visitsCount":2019,"url":"http://www.finnpub.com","tier":"","message":"","currency":"","rating":6.9},{"name":"Paradise Nightclub","phone":"2094774724","address":"10114 Lower Sacramento Rd","lat":38.04505785273894,"lng":-121.31952166557312,"city_fetched":"Stockton","state":"CA","country":"United States","canonicalUrl":"https://foursquare.com/v/paradise-nightclub/4ba19da0f964a5200bc437e3","category":"Gay Bar","checkinsCount":1138,"usersCount":268,"tipCount":5,"visitsCount":1218,"url":"http://paradisenightclub.net","tier":"","message":"","currency":"","rating":6.8},{"name":"Valley Brewing Company","phone":"2094642739","address":"157 W Adams St","lat":37.97271601016212,"lng":-121.30043404185322,"neighborhood":"Pacific","city_fetched":"Stockton","state":"CA","country":"United States","canonicalUrl":"https://foursquare.com/v/valley-brewing-company/4b3eb668f964a52040a125e3","category":"Brewery","checkinsCount":1530,"usersCount":648,"tipCount":18,"visitsCount":1667,"url":"http://valleybrew.com","tier":2,"message":"Moderate","currency":"$","rating":6.6},{"name":"The Old Spaghetti Factory","phone":"2094733695","twitter":"oldspaghfactory","address":"2702 W March Ln","lat":37.9838716309453,"lng":-121.3443813025947,"neighborhood":"Brookside","city_fetched":"Stockton","state":"CA","country":"United States","canonicalUrl":"https://foursquare.com/v/the-old-spaghetti-factory/4bb54c051344b713232d9c04","category":"Italian Restaurant","checkinsCount":863,"usersCount":538,"tipCount":7,"visitsCount":947,"url":"http://www.osf.com","tier":2,"message":"Moderate","currency":"$","rating":6.5},{"name":"Rebels Whiskeyhouse","address":"6252 Pacific Ave","lat":38.007341255171895,"lng":-121.31863415365156,"city_fetched":"Stockton","state":"CA","country":"United States","canonicalUrl":"https://foursquare.com/v/rebels-whiskeyhouse/4fea66aee4b0232fd643fb03","category":"Bar","checkinsCount":386,"usersCount":70,"tipCount":0,"visitsCount":414,"tier":"","message":"","currency":"","rating":6.2},{"name":"Canal Street Sports Bar & Grill","address":"2323 Grand Canal Blvd","lat":37.98443725814698,"lng":-121.33556922379522,"neighborhood":"Pacific","city_fetched":"Stockton","state":"CA","country":"United States","canonicalUrl":"https://foursquare.com/v/canal-street-sports-bar--grill/4e1778f2d1648b834828f3d2","category":"Sports Bar","checkinsCount":208,"usersCount":57,"tipCount":2,"visitsCount":211,"tier":"","message":"","currency":"","rating":5.2}]