[{"name":"Easyriders Saloon","phone":"6055612400","twitter":"easyridersbarsd","address":"888 Junction Ave","lat":44.41560553691296,"lng":-103.50826382300168,"city_fetched":"Sturgis","state":"SD","country":"United States","canonicalUrl":"https://foursquare.com/v/easyriders-saloon/4e3d89c0a809ba757c0b64ec","category":"Bar","checkinsCount":1027,"usersCount":752,"tipCount":13,"visitsCount":1209,"tier":"","message":"","currency":"","rating":8.2},{"name":"One Eyed Jacks Saloon","phone":"6054234120","twitter":"oneeyedsturgis","address":"1304 Main St","lat":44.414398260709426,"lng":-103.51477190043204,"city_fetched":"Sturgis","state":"SD","country":"United States","canonicalUrl":"https://foursquare.com/v/one-eyed-jacks-saloon/4c589f4fb05c1b8de7dbd3b1","category":"Bar","checkinsCount":1023,"usersCount":698,"tipCount":11,"visitsCount":1175,"url":"http://www.oneeyedjackssaloon.com","tier":"","message":"","currency":"","rating":7.9},{"name":"Knuckle Saloon","phone":"6053470106","address":"931 1st St","lat":44.41532916623918,"lng":-103.51155281066895,"city_fetched":"Sturgis","state":"SD","country":"United States","canonicalUrl":"https://foursquare.com/v/knuckle-saloon/4bdda4d4e75c0f47e107c503","category":"Bar","checkinsCount":1549,"usersCount":1305,"tipCount":18,"visitsCount":1974,"tier":"","message":"","currency":"","rating":7.8},{"name":"Loud American Roadhouse","phone":"6057201500","twitter":"loud_american","address":"1305 Main St","lat":44.4148540303077,"lng":-103.514433503151,"city_fetched":"Sturgis","state":"SD","country":"United States","canonicalUrl":"https://foursquare.com/v/loud-american-roadhouse/4b71b8b7f964a52071582de3","category":"Restaurant","checkinsCount":1153,"usersCount":857,"tipCount":13,"visitsCount":1446,"url":"http://www.loudamericanroadhouse.com","tier":1,"message":"Cheap","currency":"$","rating":6.7},{"name":"Side Hack Saloon","address":"1027 Lazelle St","lat":44.415585869740106,"lng":-103.50983744721678,"city_fetched":"Sturgis","state":"SD","country":"United States","canonicalUrl":"https://foursquare.com/v/side-hack-saloon/4c681b761c91a5934923ef07","category":"Bar","checkinsCount":201,"usersCount":148,"tipCount":1,"visitsCount":204,"tier":"","message":"","currency":"","rating":6.3}]