[{"name":"Ice House","phone":"8438755500","address":"104 E Doty Ave","lat":33.019626213283864,"lng":-80.17429490159726,"city_fetched":"Summerville","state":"SC","country":"United States","canonicalUrl":"https://foursquare.com/v/ice-house/4b4ff95af964a5209b1a27e3","category":"Bar","checkinsCount":2074,"usersCount":682,"tipCount":28,"visitsCount":2391,"tier":1,"message":"Cheap","currency":"$","rating":9.1},{"name":"Oscar's Restaurant","phone":"8438713800","twitter":"oscarsofsville","address":"207 W 5th North St","lat":33.0280858,"lng":-80.17261,"city_fetched":"Summerville","state":"SC","country":"United States","canonicalUrl":"https://foursquare.com/v/oscars-restaurant/4c617ed3cd522d7f99a5d03f","category":"American Restaurant","checkinsCount":682,"usersCount":596,"tipCount":21,"visitsCount":988,"url":"http://www.oscarsofsummerville.com","tier":"","message":"","currency":"","rating":8.9},{"name":"Wasabi Japanese Steakhouse & Sushi Bar","phone":"8438219292","twitter":"wasabisummervil","address":"202 Berkeley Cir","lat":33.03635956373521,"lng":-80.16209229897126,"city_fetched":"Summerville","state":"SC","country":"United States","canonicalUrl":"https://foursquare.com/v/wasabi-japanese-steakhouse--sushi-bar/4b63c00ff964a520ba8f2ae3","category":"Sushi Restaurant","checkinsCount":2482,"usersCount":1237,"tipCount":45,"visitsCount":2909,"url":"http://wasabiofsummerville.com","tier":2,"message":"Moderate","currency":"$","rating":8.5},{"name":"Coastal Coffee Roasters","phone":"8433764559","twitter":"coastalcoffee","address":"108 E 3rd North St","lat":33.023574,"lng":-80.171622,"city_fetched":"Summerville","state":"SC","country":"United States","canonicalUrl":"https://foursquare.com/v/coastal-coffee-roasters/4d3b427f687ca35d952f92c4","category":"Caf√©","checkinsCount":1127,"usersCount":310,"tipCount":23,"visitsCount":1357,"url":"http://www.coastalcoffeeroasters.com","tier":"","message":"","currency":"","rating":8.3},{"name":"Homegrown Brewhouse","phone":"8438734237","twitter":"hgbrewhouse","address":"117 S Main St","lat":33.01957010240029,"lng":-80.17510144371816,"city_fetched":"Summerville","state":"SC","country":"United States","canonicalUrl":"https://foursquare.com/v/homegrown-brewhouse/5154d5bbe4b0c7af42a92c80","category":"Pub","checkinsCount":593,"usersCount":269,"tipCount":10,"visitsCount":692,"url":"http://homegrownbrewhouse.com","tier":"","message":"","currency":"","rating":8.2},{"name":"Montreux Bar & Grill","phone":"8432611200","address":"127 W Richardson Ave","lat":33.01957886979313,"lng":-80.17676899991173,"city_fetched":"Summerville","state":"SC","country":"United States","canonicalUrl":"https://foursquare.com/v/montreux-bar--grill/4bdb44aac79cc9282eea81e9","category":"Pub","checkinsCount":1921,"usersCount":886,"tipCount":20,"visitsCount":2140,"url":"http://montreuxbarandgrill.net","tier":2,"message":"Moderate","currency":"$","rating":8.1},{"name":"Dog & Duck","phone":"8438213056","address":"1580 Old Trolley Rd","lat":32.9661315,"lng":-80.16760653,"city_fetched":"Summerville","state":"SC","country":"United States","canonicalUrl":"https://foursquare.com/v/dog--duck/4b6dd78df964a520c7942ce3","category":"Bar","checkinsCount":1676,"usersCount":730,"tipCount":19,"visitsCount":1842,"url":"http://dogandduckpubs.com","tier":2,"message":"Moderate","currency":"$","rating":7.5},{"name":"Oak Road Brewery","phone":"8438733055","twitter":"oakroadbrewery","address":"108 E 3rd North St","lat":33.02381144857923,"lng":-80.17184253083178,"city_fetched":"Summerville","state":"SC","country":"United States","canonicalUrl":"https://foursquare.com/v/oak-road-brewery/53f8b283498e4466790c8007","category":"Brewery","checkinsCount":76,"usersCount":57,"tipCount":4,"visitsCount":89,"tier":"","message":"","currency":"","rating":7},{"name":"Carolina Ale House","lat":33.03934997455686,"lng":-80.14404953359359,"city_fetched":"Summerville","state":"SC","country":"United States","canonicalUrl":"https://foursquare.com/v/carolina-ale-house/53cdc1b6498ecbbc03610aa1","category":"Gastropub","checkinsCount":587,"usersCount":555,"tipCount":10,"visitsCount":1010,"tier":"","message":"","currency":"","rating":6.6},{"name":"Ruby Tuesday","phone":"8438323128","twitter":"rubytuesday","address":"1320 N Main St","lat":33.03724978333333,"lng":-80.154538,"city_fetched":"Summerville","state":"SC","country":"United States","canonicalUrl":"https://foursquare.com/v/ruby-tuesday/4b942725f964a520816b34e3","category":"American Restaurant","checkinsCount":1023,"usersCount":625,"tipCount":9,"visitsCount":1084,"url":"http://www.facebook.com/rubytuesday","tier":2,"message":"Moderate","currency":"$","rating":6.6},{"name":"T.J.'s Beef And Brew","address":"1585 Central Ave Unit C10","lat":33.01167054967365,"lng":-80.23577731531508,"city_fetched":"Summerville","state":"SC","country":"United States","canonicalUrl":"https://foursquare.com/v/tjs-beef-and-brew/519d448c498e5974d87bf40e","category":"Sports Bar","checkinsCount":105,"usersCount":64,"tipCount":3,"visitsCount":108,"tier":"","message":"","currency":"","rating":5.7}]