[{"name":"Lucky 13","phone":"8014874418","twitter":"lucky13slc","address":"135 W 1300 S","lat":40.7414364926775,"lng":-111.89511926896124,"city_fetched":"Summit Park,US","state":"UT","country":"United States","canonicalUrl":"https://foursquare.com/v/lucky-13/4b6e1b92f964a52003ab2ce3","categoryId":"4bf58dd8d48988d116941735","category":"Bar","checkinsCount":6782,"usersCount":2768,"tipCount":107,"visitsCount":8050,"url":"http://lucky13slc.com","tier":2,"message":"Moderate","currency":"$","rating":9.2},{"name":"Bohemian Brewery","phone":"8015665474","twitter":"bohemianbrewery","address":"94 E Fort Union Blvd","lat":40.6206267327051,"lng":-111.88810351946498,"city_fetched":"Summit Park,US","state":"UT","country":"United States","canonicalUrl":"https://foursquare.com/v/bohemian-brewery/4ade12d7f964a520d97221e3","categoryId":"50327c8591d4c4b30a586d5d","category":"Brewery","checkinsCount":2940,"usersCount":2014,"tipCount":58,"visitsCount":3758,"url":"http://www.bohemianbrewery.com","tier":2,"message":"Moderate","currency":"$","rating":9},{"name":"Copper Common","phone":"8013550543","address":"111 E Broadway","lat":40.76280820186884,"lng":-111.88673530139364,"neighborhood":"Central City","city_fetched":"Summit Park,US","state":"UT","country":"United States","canonicalUrl":"https://foursquare.com/v/copper-common/5317e057498ed2edc75f44fe","categoryId":"4bf58dd8d48988d11e941735","category":"Cocktail Bar","checkinsCount":645,"usersCount":478,"tipCount":16,"visitsCount":789,"tier":2,"message":"Moderate","currency":"$","rating":8.9},{"name":"Squatters Pub Brewery","phone":"8013632739","twitter":"squattersbeers","address":"147 W Broadway","lat":40.762552336133,"lng":-111.89547300338744,"neighborhood":"Rio Grande","city_fetched":"Summit Park,US","state":"UT","country":"United States","canonicalUrl":"https://foursquare.com/v/squatters-pub-brewery/4ae7198ef964a52067a821e3","categoryId":"50327c8591d4c4b30a586d5d","category":"Brewery","checkinsCount":13649,"usersCount":9084,"tipCount":172,"visitsCount":15725,"url":"http://www.squatters.com","tier":2,"message":"Moderate","currency":"$","rating":8.8},{"name":"The Bayou","phone":"8019618400","twitter":"utahbayou","address":"645 S State St","lat":40.75512452312348,"lng":-111.88781261444092,"neighborhood":"Central City","city_fetched":"Summit Park,US","state":"UT","country":"United States","canonicalUrl":"https://foursquare.com/v/the-bayou/4add36d0f964a520a46421e3","categoryId":"4bf58dd8d48988d116941735","category":"Bar","checkinsCount":5730,"usersCount":3646,"tipCount":74,"visitsCount":6789,"url":"http://www.utahbayou.com","tier":2,"message":"Moderate","currency":"$","rating":8.8},{"name":"Beer Bar","phone":"8013553618","address":"161 E 200 S","lat":40.765317,"lng":-111.886161,"neighborhood":"Central City","city_fetched":"Summit Park,US","state":"UT","country":"United States","canonicalUrl":"https://foursquare.com/v/beer-bar/532b9ee611d29cb042b0af32","categoryId":"56aa371ce4b08b9a8d57356c","category":"Beer Bar","checkinsCount":1420,"usersCount":887,"tipCount":21,"visitsCount":1706,"url":"http://www.beerbarslc.com","tier":2,"message":"Moderate","currency":"$","rating":8.7},{"name":"Piper Down","phone":"8014681492","address":"1492 S State St","lat":40.737028196663466,"lng":-111.88853436251088,"city_fetched":"Summit Park,US","state":"UT","country":"United States","canonicalUrl":"https://foursquare.com/v/piper-down/4ad81328f964a520ac1021e3","categoryId":"4bf58dd8d48988d116941735","category":"Bar","checkinsCount":6172,"usersCount":1943,"tipCount":51,"visitsCount":7150,"url":"http://www.piperdownpub.com","tier":2,"message":"Moderate","currency":"$","rating":8.7},{"name":"Porcupine Pub & Grille","phone":"8019425555","twitter":"porcupinepubslc","address":"3698 E Fort Union Blvd","lat":40.61894416809082,"lng":-111.790956,"city_fetched":"Summit Park,US","state":"UT","country":"United States","canonicalUrl":"https://foursquare.com/v/porcupine-pub--grille/4ad4f28ef964a52014fd20e3","categoryId":"4bf58dd8d48988d11b941735","category":"Pub","checkinsCount":4084,"usersCount":2731,"tipCount":59,"visitsCount":5114,"url":"http://www.porcupinepub.com","tier":2,"message":"Moderate","currency":"$","rating":8.7},{"name":"Whiskey Street","phone":"8014331371","address":"323 S Main St","lat":40.76213167213173,"lng":-111.89065946607982,"neighborhood":"Rio Grande","city_fetched":"Summit Park,US","state":"UT","country":"United States","canonicalUrl":"https://foursquare.com/v/whiskey-street/528954aa11d27852674d0669","categoryId":"4bf58dd8d48988d122941735","category":"Whisky Bar","checkinsCount":2032,"usersCount":1490,"tipCount":34,"visitsCount":2533,"url":"http://whiskeystreet.com","tier":2,"message":"Moderate","currency":"$","rating":8.6},{"name":"Red Rock Brewing Co.","phone":"8015217446","twitter":"redrockbrewing","address":"254 S 200 W","lat":40.76366156082589,"lng":-111.89703941345215,"neighborhood":"Rio Grande","city_fetched":"Summit Park,US","state":"UT","country":"United States","canonicalUrl":"https://foursquare.com/v/red-rock-brewing-co/4ad4f28ef964a52013fd20e3","categoryId":"50327c8591d4c4b30a586d5d","category":"Brewery","checkinsCount":7742,"usersCount":5804,"tipCount":112,"visitsCount":8835,"url":"http://redrockbrewing.com","tier":2,"message":"Moderate","currency":"$","rating":8.6},{"name":"No Name Saloon & Grill","phone":"4356496667","address":"447 Main St","lat":40.64384103880438,"lng":-111.49608538591997,"city_fetched":"Summit Park,US","state":"UT","country":"United States","canonicalUrl":"https://foursquare.com/v/no-name-saloon--grill/4b0586a5f964a520fd6822e3","categoryId":"4bf58dd8d48988d116941735","category":"Bar","checkinsCount":8864,"usersCount":6338,"tipCount":100,"visitsCount":9808,"url":"http://nonamesaloon.net","tier":3,"message":"Expensive","currency":"$","rating":8.5},{"name":"Red Rock Brewing Co.","phone":"8012622337","address":"6227 S State St Ste 10","lat":40.63502758286059,"lng":-111.88612396977261,"city_fetched":"Summit Park,US","state":"UT","country":"United States","canonicalUrl":"https://foursquare.com/v/red-rock-brewing-co/4e2a0d0c52b1b8f198527a95","categoryId":"50327c8591d4c4b30a586d5d","category":"Brewery","checkinsCount":2945,"usersCount":1833,"tipCount":30,"visitsCount":3626,"url":"http://redrockbrewing.com/locations/red-rock-fashion-place","tier":2,"message":"Moderate","currency":"$","rating":8.4},{"name":"Poplar Street Pub","phone":"8015322715","twitter":"poplarstreetpub","address":"242 S 200 W","lat":40.76388779590591,"lng":-111.89748890117204,"neighborhood":"Rio Grande","city_fetched":"Summit Park,US","state":"UT","country":"United States","canonicalUrl":"https://foursquare.com/poplarstreetpub","categoryId":"4bf58dd8d48988d116941735","category":"Bar","checkinsCount":5888,"usersCount":1967,"tipCount":63,"visitsCount":6207,"url":"http://www.poplarstreetpub.com","tier":2,"message":"Moderate","currency":"$","rating":8.3},{"name":"The Cabin","address":"825 S Main Street","lat":40.647677172684986,"lng":-111.49845507952477,"city_fetched":"Summit Park,US","state":"UT","country":"United States","canonicalUrl":"https://foursquare.com/v/the-cabin/54939d98498e505982c01798","categoryId":"4bf58dd8d48988d116941735","category":"Bar","checkinsCount":263,"usersCount":200,"tipCount":3,"visitsCount":300,"url":"http://thecabinparkcity.com","tier":"","message":"","currency":"","rating":8.3},{"name":"The Garage","phone":"8015213904","address":"1199 N Beck St","lat":40.79392211187776,"lng":-111.90379432856312,"city_fetched":"Summit Park,US","state":"UT","country":"United States","canonicalUrl":"https://foursquare.com/v/the-garage/4c3ce5cab36ac9285cbd0486","categoryId":"4bf58dd8d48988d116941735","category":"Bar","checkinsCount":2093,"usersCount":1166,"tipCount":26,"visitsCount":2572,"url":"http://garageonbeck.com","tier":2,"message":"Moderate","currency":"$","rating":8.3},{"name":"Under Current","address":"270 South","lat":40.763294665385786,"lng":-111.8827237999252,"neighborhood":"Central City","city_fetched":"Summit Park,US","state":"UT","country":"United States","canonicalUrl":"https://foursquare.com/v/under-current/555e8e24498eea0c41298a11","categoryId":"4bf58dd8d48988d11e941735","category":"Cocktail Bar","checkinsCount":167,"usersCount":113,"tipCount":1,"visitsCount":189,"tier":"","message":"","currency":"","rating":8.2},{"name":"The Rest","phone":"8015324452","address":"331 S Main St","lat":40.761923,"lng":-111.890777,"neighborhood":"Rio Grande","city_fetched":"Summit Park,US","state":"UT","country":"United States","canonicalUrl":"https://foursquare.com/v/the-rest/51cb98c8498ed6ec740c065e","categoryId":"4bf58dd8d48988d1d4941735","category":"Speakeasy","checkinsCount":230,"usersCount":173,"tipCount":9,"visitsCount":232,"url":"http://bodega331.com/theRest.html","tier":"","message":"","currency":"","rating":8.2},{"name":"Epic Brewing Company","phone":"8019060123","twitter":"epicbrewing","address":"825 S State St","lat":40.751113053139996,"lng":-111.88779494266188,"neighborhood":"Central City","city_fetched":"Summit Park,US","state":"UT","country":"United States","canonicalUrl":"https://foursquare.com/v/epic-brewing-company/4bef1066d1b7d13aa246cdec","categoryId":"50327c8591d4c4b30a586d5d","category":"Brewery","checkinsCount":2223,"usersCount":1187,"tipCount":37,"visitsCount":2456,"url":"http://www.epicbrewing.com","tier":"","message":"","currency":"","rating":8.1},{"name":"High West Saloon","phone":"8013226274","twitter":"hmshost","address":"Salt Lake City International Airport","lat":40.78635723283814,"lng":-111.98497792149242,"city_fetched":"Summit Park,US","state":"UT","country":"United States","canonicalUrl":"https://foursquare.com/v/high-west-saloon/500d98fef2e7fc81af7406b6","categoryId":"4bf58dd8d48988d11e941735","category":"Cocktail Bar","checkinsCount":376,"usersCount":315,"tipCount":9,"visitsCount":376,"url":"http://www.highwest.com","tier":"","message":"","currency":"","rating":8.1},{"name":"St Regis Bar","address":"2300 Deer Valley Drive East","lat":40.63810360847932,"lng":-111.47514244754184,"city_fetched":"Summit Park,US","state":"UT","country":"United States","canonicalUrl":"https://foursquare.com/v/st-regis-bar/508c7902e4b0b2a6166569d5","categoryId":"4bf58dd8d48988d1d5941735","category":"Hotel Bar","checkinsCount":290,"usersCount":251,"tipCount":3,"visitsCount":293,"url":"http://stregisdeervalley.com","tier":"","message":"","currency":"","rating":8.1},{"name":"Bodega","phone":"8015324042","address":"331 S Main St","lat":40.761893419954234,"lng":-111.89102626466926,"neighborhood":"Rio Grande","city_fetched":"Summit Park,US","state":"UT","country":"United States","canonicalUrl":"https://foursquare.com/v/bodega/51bd2b08498eecb520c6fed5","categoryId":"4bf58dd8d48988d116941735","category":"Bar","checkinsCount":504,"usersCount":350,"tipCount":9,"visitsCount":534,"url":"http://bodega331.com","tier":"","message":"","currency":"","rating":8.1},{"name":"O.P. Rockwell","address":"268 Main Street","lat":40.64208200260689,"lng":-111.49471713560605,"city_fetched":"Summit Park,US","state":"UT","country":"United States","canonicalUrl":"https://foursquare.com/v/op-rockwell/54bc95c5498eb31c0cb4d4c6","categoryId":"4bf58dd8d48988d11e941735","category":"Cocktail Bar","checkinsCount":106,"usersCount":91,"tipCount":4,"visitsCount":109,"tier":"","message":"","currency":"","rating":8.1},{"name":"BeerHive Pub & Grill","phone":"8013644268","address":"128 S Main St","lat":40.76648446574971,"lng":-111.8911601752574,"neighborhood":"Rio Grande","city_fetched":"Summit Park,US","state":"UT","country":"United States","canonicalUrl":"https://foursquare.com/v/beerhive-pub--grill/4aef5fccf964a520f1d721e3","categoryId":"4bf58dd8d48988d116941735","category":"Bar","checkinsCount":5460,"usersCount":3589,"tipCount":65,"visitsCount":6397,"tier":2,"message":"Moderate","currency":"$","rating":8.1},{"name":"Utah Brewers Cooperative","phone":"8014668855","twitter":"utahbeers","address":"1763 S 300 W","lat":40.73237327,"lng":-111.899355,"city_fetched":"Summit Park,US","state":"UT","country":"United States","canonicalUrl":"https://foursquare.com/v/utah-brewers-cooperative/4c80219fd4e237042fdf5188","categoryId":"50327c8591d4c4b30a586d5d","category":"Brewery","checkinsCount":351,"usersCount":200,"tipCount":10,"visitsCount":358,"url":"http://utahbeers.com","tier":"","message":"","currency":"","rating":8},{"name":"Uinta Brewery","phone":"8014670909","address":"1722 S Fremont Dr","lat":40.73281830020437,"lng":-111.95368427098924,"city_fetched":"Summit Park,US","state":"UT","country":"United States","canonicalUrl":"https://foursquare.com/v/uinta-brewery/4b8ebab8f964a520913333e3","categoryId":"50327c8591d4c4b30a586d5d","category":"Brewery","checkinsCount":929,"usersCount":610,"tipCount":19,"visitsCount":1283,"url":"http://uintabrewing.com","tier":3,"message":"Expensive","currency":"$","rating":8},{"name":"The Green Pig Pub","phone":"8015327441","twitter":"thegreenpigpub","address":"31 E 400 S","lat":40.76084978,"lng":-111.889803,"neighborhood":"Rio Grande","city_fetched":"Summit Park,US","state":"UT","country":"United States","canonicalUrl":"https://foursquare.com/thegreenpigpub","categoryId":"4bf58dd8d48988d116941735","category":"Bar","checkinsCount":4792,"usersCount":2757,"tipCount":68,"visitsCount":5573,"url":"http://thegreenpigpub.com","tier":2,"message":"Moderate","currency":"$","rating":7.9},{"name":"Bar Deluxe","phone":"8015322911","address":"666 S State St","lat":40.75466576367334,"lng":-111.8884703182771,"neighborhood":"Downtown Salt Lake City","city_fetched":"Summit Park,US","state":"UT","country":"United States","canonicalUrl":"https://foursquare.com/v/bar-deluxe/4b330906f964a520341725e3","categoryId":"4bf58dd8d48988d116941735","category":"Bar","checkinsCount":729,"usersCount":452,"tipCount":10,"visitsCount":742,"url":"http://bardeluxeslc.com","tier":"","message":"","currency":"","rating":7.9},{"name":"Campfire Lounge","phone":"8014673325","address":"837 E 2100 S","lat":40.725567,"lng":-111.867043,"neighborhood":"Sugar House","city_fetched":"Summit Park,US","state":"UT","country":"United States","canonicalUrl":"https://foursquare.com/v/campfire-lounge/51303799e4b0cfae4092d057","categoryId":"4bf58dd8d48988d116941735","category":"Bar","checkinsCount":641,"usersCount":478,"tipCount":12,"visitsCount":925,"url":"http://campfirelounge.com","tier":"","message":"","currency":"","rating":7.9},{"name":"Boneyard","address":"1251 Kearns Blvd","lat":40.661094,"lng":-111.503951,"city_fetched":"Summit Park,US","state":"UT","country":"United States","canonicalUrl":"https://foursquare.com/v/boneyard/528ee4df11d29d5c36f3bae3","categoryId":"4bf58dd8d48988d11e941735","category":"Cocktail Bar","checkinsCount":389,"usersCount":367,"tipCount":5,"visitsCount":570,"tier":"","message":"","currency":"","rating":7.9},{"name":"Area 51","phone":"8015340819","address":"451 S 400 W","lat":40.75922594341555,"lng":-111.90162847649782,"neighborhood":"Rio Grande","city_fetched":"Summit Park,US","state":"UT","country":"United States","canonicalUrl":"https://foursquare.com/v/area-51/4ad4f28ff964a52048fd20e3","categoryId":"4bf58dd8d48988d11f941735","category":"Nightclub","checkinsCount":1397,"usersCount":602,"tipCount":11,"visitsCount":1568,"url":"http://area51slc.com/freaky-for-free/","tier":"","message":"","currency":"","rating":7.8},{"name":"Desert Edge Brewery at The Pub","phone":"8015218917","address":"600 S 700 E","lat":40.75723178333333,"lng":-111.87303911,"neighborhood":"Central City","city_fetched":"Summit Park,US","state":"UT","country":"United States","canonicalUrl":"https://foursquare.com/v/desert-edge-brewery-at-the-pub/4ad4f28ef964a52021fd20e3","categoryId":"50327c8591d4c4b30a586d5d","category":"Brewery","checkinsCount":3225,"usersCount":1738,"tipCount":34,"visitsCount":3510,"url":"http://desertedgebrewery.com","tier":2,"message":"Moderate","currency":"$","rating":7.8},{"name":"Wasatch Brew Pub","phone":"4356490900","twitter":"wasatchbeers","address":"250 Main St","lat":40.64182060675772,"lng":-111.4946123334633,"city_fetched":"Summit Park,US","state":"UT","country":"United States","canonicalUrl":"https://foursquare.com/v/wasatch-brew-pub/4b0586a5f964a520026922e3","categoryId":"50327c8591d4c4b30a586d5d","category":"Brewery","checkinsCount":5855,"usersCount":5074,"tipCount":66,"visitsCount":7099,"url":"http://www.wasatchbeers.com","tier":2,"message":"Moderate","currency":"$","rating":7.8},{"name":"Lumpy's Downtown","phone":"8018838714","twitter":"lumpysdowntown","address":"145 W Pierpont Ave","lat":40.763686949861764,"lng":-111.89547442277029,"neighborhood":"Rio Grande","city_fetched":"Summit Park,US","state":"UT","country":"United States","canonicalUrl":"https://foursquare.com/v/lumpys-downtown/4ad7da35f964a520730f21e3","categoryId":"4bf58dd8d48988d11d941735","category":"Sports Bar","checkinsCount":3409,"usersCount":1559,"tipCount":33,"visitsCount":3650,"url":"http://www.lumpysdowntownslc.com","tier":"","message":"","currency":"","rating":7.8},{"name":"Duffy's Tavern","address":"932 S Main St","lat":40.7488675,"lng":-111.89138273333333,"city_fetched":"Summit Park,US","state":"UT","country":"United States","canonicalUrl":"https://foursquare.com/v/duffys-tavern/4b33f97bf964a5202d2325e3","categoryId":"4bf58dd8d48988d116941735","category":"Bar","checkinsCount":504,"usersCount":229,"tipCount":7,"visitsCount":648,"url":"http://duffystavernslc.com","tier":"","message":"","currency":"","rating":7.7},{"name":"The Red Door","phone":"8013636030","address":"57 W 200 S","lat":40.764922,"lng":-111.89232,"neighborhood":"Rio Grande","city_fetched":"Summit Park,US","state":"UT","country":"United States","canonicalUrl":"https://foursquare.com/v/the-red-door/4ad4f28ff964a52032fd20e3","categoryId":"4bf58dd8d48988d11e941735","category":"Cocktail Bar","checkinsCount":1294,"usersCount":901,"tipCount":26,"visitsCount":1321,"url":"http://www.behindthereddoor.com","tier":"","message":"","currency":"","rating":7.7},{"name":"BTG Wine Bar","address":"63 W 100 S","lat":40.76718515551175,"lng":-111.89315718917085,"neighborhood":"Rio Grande","city_fetched":"Summit Park,US","state":"UT","country":"United States","canonicalUrl":"https://foursquare.com/v/btg-wine-bar/52181b43498e9d325300f317","categoryId":"4bf58dd8d48988d123941735","category":"Wine Bar","checkinsCount":623,"usersCount":322,"tipCount":8,"visitsCount":672,"url":"http://btgwinebar.com","tier":"","message":"","currency":"","rating":7.7},{"name":"Dick & Dixie's","phone":"8015213556","address":"479 E 300 S","lat":40.76301805110696,"lng":-111.87699474058691,"neighborhood":"Central City","city_fetched":"Summit Park,US","state":"UT","country":"United States","canonicalUrl":"https://foursquare.com/v/dick--dixies/4bca8f3ffb84c9b65f871d3e","categoryId":"4bf58dd8d48988d11d941735","category":"Sports Bar","checkinsCount":3278,"usersCount":1018,"tipCount":34,"visitsCount":3572,"tier":"","message":"","currency":"","rating":7.7},{"name":"Bar X","phone":"8013552287","twitter":"barxsaltlake","address":"155 E 200 S","lat":40.76517,"lng":-111.88630221,"neighborhood":"Central City","city_fetched":"Summit Park,US","state":"UT","country":"United States","canonicalUrl":"https://foursquare.com/v/bar-x/4bdbc82b63c5c9b6f4ab2968","categoryId":"4bf58dd8d48988d116941735","category":"Bar","checkinsCount":3622,"usersCount":1785,"tipCount":55,"visitsCount":3836,"url":"http://www.barxsaltlake.com","tier":2,"message":"Moderate","currency":"$","rating":7.7},{"name":"Legends Sports Pub","phone":"8013553598","twitter":"whylegends","address":"677 S 200 W","lat":40.754585944405584,"lng":-111.89637686263903,"neighborhood":"Downtown Salt Lake City","city_fetched":"Summit Park,US","state":"UT","country":"United States","canonicalUrl":"https://foursquare.com/v/legends-sports-pub/4ad7997ff964a5209b0c21e3","categoryId":"4bf58dd8d48988d11d941735","category":"Sports Bar","checkinsCount":2233,"usersCount":1247,"tipCount":30,"visitsCount":2367,"url":"http://www.whylegends.com","tier":2,"message":"Moderate","currency":"$","rating":7.7},{"name":"Club Jam","phone":"8018911162","twitter":"clubjam_slc","address":"751 N 300 W","lat":40.785830177983286,"lng":-111.90015546354002,"city_fetched":"Summit Park,US","state":"UT","country":"United States","canonicalUrl":"https://foursquare.com/v/club-jam/4af1da5cf964a520c9e321e3","categoryId":"4bf58dd8d48988d1d8941735","category":"Gay Bar","checkinsCount":2832,"usersCount":979,"tipCount":15,"visitsCount":3350,"url":"http://jamslc.com","tier":2,"message":"Moderate","currency":"$","rating":7.6},{"name":"Fiddler's Elbow","phone":"8014639393","address":"1063 E 2100 S","lat":40.72597494384188,"lng":-111.86054694315894,"neighborhood":"Sugar House","city_fetched":"Summit Park,US","state":"UT","country":"United States","canonicalUrl":"https://foursquare.com/v/fiddlers-elbow/4ad4f28ef964a52020fd20e3","categoryId":"4bf58dd8d48988d116941735","category":"Bar","checkinsCount":2924,"usersCount":1374,"tipCount":29,"visitsCount":3144,"url":"http://www.fiddlerselbowslc.com","tier":2,"message":"Moderate","currency":"$","rating":7.6},{"name":"Bout Time Pub & Grub","phone":"8019681444","twitter":"bouttimepub","address":"5592 S Redwood Rd","lat":40.649568474321384,"lng":-111.94025265492066,"city_fetched":"Summit Park,US","state":"UT","country":"United States","canonicalUrl":"https://foursquare.com/v/bout-time-pub--grub/4cc78a160fa2721e50ee5eb1","categoryId":"4bf58dd8d48988d11d941735","category":"Sports Bar","checkinsCount":713,"usersCount":298,"tipCount":13,"visitsCount":768,"url":"http://www.bouttimepub.com","tier":"","message":"","currency":"","rating":7.6},{"name":"Hog Wallow","phone":"8017335567","address":"3200 E Big Cottonwood Canyon Rd","lat":40.62484689479819,"lng":-111.80103748955752,"city_fetched":"Summit Park,US","state":"UT","country":"United States","canonicalUrl":"https://foursquare.com/v/hog-wallow/4cae5e631168a09325021a23","categoryId":"4bf58dd8d48988d116941735","category":"Bar","checkinsCount":1072,"usersCount":771,"tipCount":12,"visitsCount":1311,"url":"http://thehogwallow.com","tier":"","message":"","currency":"","rating":7.6},{"name":"Bout Time Pub & Grub","phone":"4356580101","twitter":"bouttimepub","address":"1570 Newpark Blvd, Suite D5","lat":40.72207966923804,"lng":-111.54062640475395,"city_fetched":"Summit Park,US","state":"UT","country":"United States","canonicalUrl":"https://foursquare.com/v/bout-time-pub--grub/51c613ba498e59e2ed169ae3","categoryId":"4bf58dd8d48988d11d941735","category":"Sports Bar","checkinsCount":157,"usersCount":94,"tipCount":4,"visitsCount":160,"url":"http://www.bouttimepub.com","tier":"","message":"","currency":"","rating":7.5},{"name":"Cheers to you","phone":"8015660871","address":"7642 S State St","lat":40.612410977482796,"lng":-111.89077511429787,"city_fetched":"Summit Park,US","state":"UT","country":"United States","canonicalUrl":"https://foursquare.com/v/cheers-to-you/4dcb3fe581dc10365370ec33","categoryId":"4bf58dd8d48988d116941735","category":"Bar","checkinsCount":220,"usersCount":92,"tipCount":2,"visitsCount":220,"url":"http://www.cheerstoyoumidvale.com","tier":"","message":"","currency":"","rating":7.5},{"name":"Karamba","phone":"8014874604","address":"1051 E 2100 S","lat":40.725567587478615,"lng":-111.86099052429199,"neighborhood":"Sugar House","city_fetched":"Summit Park,US","state":"UT","country":"United States","canonicalUrl":"https://foursquare.com/v/karamba/4adbfb5ff964a520382b21e3","categoryId":"4bf58dd8d48988d11f941735","category":"Nightclub","checkinsCount":444,"usersCount":131,"tipCount":2,"visitsCount":460,"tier":2,"message":"Moderate","currency":"$","rating":7.5},{"name":"Lobby Lounge","phone":"8012585410","twitter":"grandamerica","address":"The Grand America Hotel","lat":40.75738131625488,"lng":-111.89051391107512,"neighborhood":"Downtown Salt Lake City","city_fetched":"Summit Park,US","state":"UT","country":"United States","canonicalUrl":"https://foursquare.com/v/lobby-lounge/4d719f2a3815f04d051b8167","categoryId":"4bf58dd8d48988d1d5941735","category":"Hotel Bar","checkinsCount":383,"usersCount":248,"tipCount":5,"visitsCount":385,"url":"http://t.co/s4CsBLXa7H","tier":"","message":"","currency":"","rating":7.4},{"name":"Cheers to you","phone":"8015756400","address":"315 S Main St","lat":40.76232712162494,"lng":-111.8908574208781,"neighborhood":"Rio Grande","city_fetched":"Summit Park,US","state":"UT","country":"United States","canonicalUrl":"https://foursquare.com/v/cheers-to-you/4aef5edff964a520edd721e3","categoryId":"4bf58dd8d48988d118941735","category":"Dive Bar","checkinsCount":2293,"usersCount":922,"tipCount":21,"visitsCount":2345,"url":"http://www.cheerstoyouslc.com","tier":1,"message":"Cheap","currency":"$","rating":7.4},{"name":"The Republican","phone":"8015951916","address":"917 S State St","lat":40.74922785841446,"lng":-111.88787645351772,"neighborhood":"Central City- Liberty Wells","city_fetched":"Summit Park,US","state":"UT","country":"United States","canonicalUrl":"https://foursquare.com/v/the-republican/4b3dae16f964a520499625e3","categoryId":"4bf58dd8d48988d11b941735","category":"Pub","checkinsCount":1753,"usersCount":487,"tipCount":9,"visitsCount":1890,"tier":"","message":"","currency":"","rating":7.4},{"name":"Bout Time Pub & Grub","phone":"8019750528","twitter":"bouttimepub","address":"3318 Decker Lake Dr","lat":40.699696,"lng":-111.94810039681623,"city_fetched":"Summit Park,US","state":"UT","country":"United States","canonicalUrl":"https://foursquare.com/v/bout-time-pub--grub/4dc9a20bd22d2af633017de3","categoryId":"4bf58dd8d48988d11d941735","category":"Sports Bar","checkinsCount":807,"usersCount":458,"tipCount":9,"visitsCount":1060,"url":"http://www.bouttimepub.com","tier":"","message":"","currency":"","rating":7.4},{"name":"The Jackalope Lounge","phone":"8013598054","address":"372 S State St","lat":40.76094635898695,"lng":-111.88841791844875,"neighborhood":"Rio Grande","city_fetched":"Summit Park,US","state":"UT","country":"United States","canonicalUrl":"https://foursquare.com/v/the-jackalope-lounge/4b6e30cef964a520aab02ce3","categoryId":"4bf58dd8d48988d116941735","category":"Bar","checkinsCount":1404,"usersCount":675,"tipCount":7,"visitsCount":1437,"tier":1,"message":"Cheap","currency":"$","rating":7.4},{"name":"Red Rock Restaurant & Brewing Co.","phone":"4355750295","address":"1640 Redstone Center Dr","lat":40.7200149234211,"lng":-111.540981569137,"city_fetched":"Summit Park,US","state":"UT","country":"United States","canonicalUrl":"https://foursquare.com/v/red-rock-restaurant--brewing-co/4c141d5fa5eb76b0913ec1b7","categoryId":"50327c8591d4c4b30a586d5d","category":"Brewery","checkinsCount":2182,"usersCount":1790,"tipCount":40,"visitsCount":2583,"url":"http://www.redrockbrewing.com","tier":2,"message":"Moderate","currency":"$","rating":7.4},{"name":"Bourbon House","phone":"8017461005","twitter":"bourbonhouseslc","address":"19 E 200 S","lat":40.765058756571364,"lng":-111.8899608020112,"neighborhood":"Rio Grande","city_fetched":"Summit Park,US","state":"UT","country":"United States","canonicalUrl":"https://foursquare.com/v/bourbon-house/4de8124b45dde4a28d472348","categoryId":"4bf58dd8d48988d122941735","category":"Whisky Bar","checkinsCount":3057,"usersCount":1511,"tipCount":38,"visitsCount":3539,"url":"http://www.bourbonhouseslc.com","tier":1,"message":"Cheap","currency":"$","rating":7.4},{"name":"Troll Hallen Lounge","phone":"4356493700","address":"7700 Stein Way","lat":40.62122646785051,"lng":-111.48993117240475,"city_fetched":"Summit Park,US","state":"UT","country":"United States","canonicalUrl":"https://foursquare.com/v/troll-hallen-lounge/4d97daec0caaa143b1ba9eb3","categoryId":"4bf58dd8d48988d121941735","category":"Lounge","checkinsCount":310,"usersCount":129,"tipCount":5,"visitsCount":311,"tier":"","message":"","currency":"","rating":7.3},{"name":"Gracie's","phone":"8018197565","twitter":"graciesbar","address":"326 S West Temple","lat":40.762099433521264,"lng":-111.89446136100467,"neighborhood":"Rio Grande","city_fetched":"Summit Park,US","state":"UT","country":"United States","canonicalUrl":"https://foursquare.com/v/gracies/4ae0f334f964a520f98321e3","categoryId":"4bf58dd8d48988d11d941735","category":"Sports Bar","checkinsCount":8159,"usersCount":4305,"tipCount":87,"visitsCount":9742,"url":"http://www.graciesslc.com","tier":2,"message":"Moderate","currency":"$","rating":7.3},{"name":"Try-Angles","phone":"8013643203","address":"251 W 900 S","lat":40.74958040094069,"lng":-111.89850778437918,"city_fetched":"Summit Park,US","state":"UT","country":"United States","canonicalUrl":"https://foursquare.com/v/tryangles/4af1d93bf964a520bde321e3","categoryId":"4bf58dd8d48988d1d8941735","category":"Gay Bar","checkinsCount":5005,"usersCount":702,"tipCount":16,"visitsCount":5557,"url":"http://www.clubtry-angles.com","tier":1,"message":"Cheap","currency":"$","rating":7.3},{"name":"Gibson Lounge","phone":"8012586000","twitter":"grandamerica","address":"555 S Main St","lat":40.75752726433263,"lng":-111.89038000046634,"neighborhood":"Downtown Salt Lake City","city_fetched":"Summit Park,US","state":"UT","country":"United States","canonicalUrl":"https://foursquare.com/v/gibson-lounge/4ae20fe7f964a520568a21e3","categoryId":"4bf58dd8d48988d11e941735","category":"Cocktail Bar","checkinsCount":214,"usersCount":161,"tipCount":4,"visitsCount":214,"url":"http://t.co/s4CsBLXa7H","tier":"","message":"","currency":"","rating":7.3},{"name":"Fletcher's","lat":40.645338,"lng":-111.496438,"city_fetched":"Summit Park,US","state":"UT","country":"United States","canonicalUrl":"https://foursquare.com/v/fletchers/5496508d498ebb1019d0f49d","categoryId":"4bf58dd8d48988d121941735","category":"Lounge","checkinsCount":223,"usersCount":225,"tipCount":3,"visitsCount":250,"tier":"","message":"","currency":"","rating":7.3},{"name":"The Vault","lat":40.76514259188079,"lng":-111.89178315054585,"neighborhood":"Rio Grande","city_fetched":"Summit Park,US","state":"UT","country":"United States","canonicalUrl":"https://foursquare.com/v/the-vault/4bc296d6abf49521d3ccc293","categoryId":"4bf58dd8d48988d1d5941735","category":"Hotel Bar","checkinsCount":608,"usersCount":345,"tipCount":5,"visitsCount":613,"tier":"","message":"","currency":"","rating":7.3},{"name":"The Sun Trapp","phone":"4357095786","twitter":"thesuntrapp","address":"102 S 600 W","lat":40.7668859275869,"lng":-111.90836906433105,"neighborhood":"Rio Grande","city_fetched":"Summit Park,US","state":"UT","country":"United States","canonicalUrl":"https://foursquare.com/v/the-sun-trapp/52f6fe8c11d2260115d77794","categoryId":"4bf58dd8d48988d1d8941735","category":"Gay Bar","checkinsCount":351,"usersCount":273,"tipCount":4,"visitsCount":657,"url":"http://www.suntrapp.com","tier":2,"message":"Moderate","currency":"$","rating":7.3},{"name":"Maggie McGee's Sports Bar","phone":"8012739899","address":"6253 S Highland Dr","lat":40.63744672666593,"lng":-111.83318234113844,"city_fetched":"Summit Park,US","state":"UT","country":"United States","canonicalUrl":"https://foursquare.com/v/maggie-mcgees-sports-bar/4bb56a852ea195218d7eaa2f","categoryId":"4bf58dd8d48988d11d941735","category":"Sports Bar","checkinsCount":1486,"usersCount":344,"tipCount":41,"visitsCount":1537,"url":"http://maggiemcgees.com","tier":"","message":"","currency":"","rating":7.3},{"name":"Junior's Tavern","phone":"8013220318","address":"30 E Broadway","lat":40.763006,"lng":-111.890006,"neighborhood":"Rio Grande","city_fetched":"Summit Park,US","state":"UT","country":"United States","canonicalUrl":"https://foursquare.com/v/juniors-tavern/4ad4f28ef964a5201ffd20e3","categoryId":"4bf58dd8d48988d11b941735","category":"Pub","checkinsCount":1408,"usersCount":436,"tipCount":17,"visitsCount":1434,"url":"http://juniorstavern.com","tier":"","message":"","currency":"","rating":7.2},{"name":"Squatters Roadhouse Grill and Pub","phone":"4356499868","twitter":"squatterspubs","address":"1900 Park Ave","lat":40.66086225246124,"lng":-111.51060049673252,"city_fetched":"Summit Park,US","state":"UT","country":"United States","canonicalUrl":"https://foursquare.com/v/squatters-roadhouse-grill-and-pub/4b1bde99f964a52065fe23e3","categoryId":"50327c8591d4c4b30a586d5d","category":"Brewery","checkinsCount":3538,"usersCount":2927,"tipCount":62,"visitsCount":4427,"url":"http://www.squatters.com","tier":2,"message":"Moderate","currency":"$","rating":7.2},{"name":"A Bar Named Sue","phone":"8012745578","address":"3928 S Highland Dr","lat":40.68630358,"lng":-111.845269,"city_fetched":"Summit Park,US","state":"UT","country":"United States","canonicalUrl":"https://foursquare.com/v/a-bar-named-sue/4aefb786f964a52002da21e3","categoryId":"4bf58dd8d48988d116941735","category":"Bar","checkinsCount":1939,"usersCount":739,"tipCount":23,"visitsCount":2063,"url":"http://abarnamedsue.net","tier":1,"message":"Cheap","currency":"$","rating":7.1},{"name":"Highlander Club","phone":"8012778251","twitter":"highlanderutah","address":"6194 S Highland Dr.","lat":40.638687705817595,"lng":-111.83510951259157,"city_fetched":"Summit Park,US","state":"UT","country":"United States","canonicalUrl":"https://foursquare.com/v/highlander-club/4ba43991f964a520998d38e3","categoryId":"4bf58dd8d48988d116941735","category":"Bar","checkinsCount":596,"usersCount":309,"tipCount":11,"visitsCount":712,"url":"http://highlanderutah.com","tier":"","message":"","currency":"","rating":7.1},{"name":"A Bar Named Sue","address":"8136 S State St","lat":40.603681,"lng":-111.891156,"city_fetched":"Summit Park,US","state":"UT","country":"United States","canonicalUrl":"https://foursquare.com/v/a-bar-named-sue/51b92bfe498e765e4436004f","categoryId":"4bf58dd8d48988d116941735","category":"Bar","checkinsCount":309,"usersCount":288,"tipCount":6,"visitsCount":512,"url":"http://abarnamedsue.net","tier":2,"message":"Moderate","currency":"$","rating":7.1},{"name":"Hoppers Grill & Brewing Co.","phone":"8015660424","address":"890 E Fort Union Blvd","lat":40.621817175835616,"lng":-111.86647397926711,"city_fetched":"Summit Park,US","state":"UT","country":"United States","canonicalUrl":"https://foursquare.com/v/hoppers-grill--brewing-co/4ad4f28ef964a52012fd20e3","categoryId":"50327c8591d4c4b30a586d5d","category":"Brewery","checkinsCount":2145,"usersCount":1268,"tipCount":49,"visitsCount":2485,"url":"http://hoppersbrewpub.com","tier":2,"message":"Moderate","currency":"$","rating":7.1},{"name":"Willie's Lounge","address":"1716 S Main St","lat":40.73316129916327,"lng":-111.8913745880127,"city_fetched":"Summit Park,US","state":"UT","country":"United States","canonicalUrl":"https://foursquare.com/v/willies-lounge/4b08e7e0f964a520491323e3","categoryId":"4bf58dd8d48988d118941735","category":"Dive Bar","checkinsCount":422,"usersCount":228,"tipCount":9,"visitsCount":558,"tier":"","message":"","currency":"","rating":7},{"name":"The Spot","phone":"8013557768","address":"870 S Main St","lat":40.75022553371013,"lng":-111.89136395223112,"neighborhood":"Downtown Salt Lake City","city_fetched":"Summit Park,US","state":"UT","country":"United States","canonicalUrl":"https://foursquare.com/v/the-spot/4aef5e76f964a520ebd721e3","categoryId":"4bf58dd8d48988d118941735","category":"Dive Bar","checkinsCount":324,"usersCount":188,"tipCount":10,"visitsCount":349,"tier":"","message":"","currency":"","rating":7},{"name":"The Bar in Sugarhouse","phone":"8014851232","twitter":"barinsugarhouse","address":"2168 S Highland Dr","lat":40.72354078896932,"lng":-111.859498939925,"neighborhood":"Sugar House","city_fetched":"Summit Park,US","state":"UT","country":"United States","canonicalUrl":"https://foursquare.com/v/the-bar-in-sugarhouse/4b75e927f964a5200a2e2ee3","categoryId":"4bf58dd8d48988d118941735","category":"Dive Bar","checkinsCount":339,"usersCount":153,"tipCount":4,"visitsCount":341,"url":"http://thebarinsugarhouse-hub.com","tier":"","message":"","currency":"","rating":7},{"name":"Cruzrs","address":"3939-3943 S Highland Dr","lat":40.686365881317855,"lng":-111.84471624791786,"city_fetched":"Summit Park,US","state":"UT","country":"United States","canonicalUrl":"https://foursquare.com/v/cruzrs/4baee86df964a52007e13be3","categoryId":"4bf58dd8d48988d116941735","category":"Bar","checkinsCount":517,"usersCount":147,"tipCount":6,"visitsCount":525,"tier":"","message":"","currency":"","rating":6.9},{"name":"Bistro 412","phone":"4356498211","address":"412 Main St","lat":40.64335,"lng":-111.4955082,"city_fetched":"Summit Park,US","state":"UT","country":"United States","canonicalUrl":"https://foursquare.com/v/bistro-412/4adab57bf964a520122421e3","categoryId":"4bf58dd8d48988d116941735","category":"Bar","checkinsCount":1441,"usersCount":1036,"tipCount":31,"visitsCount":1469,"url":"http://www.bistro412.com","tier":"","message":"","currency":"","rating":6.8},{"name":"Downstairs","phone":"4352265340","address":"625 Main St","lat":40.64619318073938,"lng":-111.49745363644917,"city_fetched":"Summit Park,US","state":"UT","country":"United States","canonicalUrl":"https://foursquare.com/v/downstairs/4b555197f964a52081e127e3","categoryId":"4bf58dd8d48988d11f941735","category":"Nightclub","checkinsCount":1473,"usersCount":748,"tipCount":14,"visitsCount":1560,"url":"http://downstairspc.com","tier":"","message":"","currency":"","rating":6.8},{"name":"Club 90","phone":"8015663254","twitter":"club90slc","address":"9065 S Monroe St","lat":40.58696889090744,"lng":-111.89577717681286,"city_fetched":"Summit Park,US","state":"UT","country":"United States","canonicalUrl":"https://foursquare.com/v/club-90/4b889ac4f964a520df0332e3","categoryId":"4bf58dd8d48988d11f941735","category":"Nightclub","checkinsCount":658,"usersCount":400,"tipCount":5,"visitsCount":837,"url":"http://www.club90slc.com","tier":2,"message":"Moderate","currency":"$","rating":6.7},{"name":"Bout Time Pub & Grub","phone":"8017330228","twitter":"bouttimepub","address":"6522 S Big Cottonwood Canyon Rd #400","lat":40.63249639140228,"lng":-111.80576519831935,"city_fetched":"Summit Park,US","state":"UT","country":"United States","canonicalUrl":"https://foursquare.com/v/bout-time-pub--grub/4d2642e6849f3704130a5d41","categoryId":"4bf58dd8d48988d11d941735","category":"Sports Bar","checkinsCount":724,"usersCount":401,"tipCount":5,"visitsCount":856,"url":"http://www.bouttimepub.com","tier":1,"message":"Cheap","currency":"$","rating":6.7},{"name":"The Spur Bar & Grill","phone":"4356151618","address":"350 1/2 Main St","lat":40.64311660266925,"lng":-111.49500825267597,"city_fetched":"Summit Park,US","state":"UT","country":"United States","canonicalUrl":"https://foursquare.com/v/the-spur-bar--grill/4b0586a6f964a520106922e3","categoryId":"4bf58dd8d48988d11b941735","category":"Pub","checkinsCount":1277,"usersCount":983,"tipCount":12,"visitsCount":1332,"url":"http://www.thespurbarandgrill.com","tier":"","message":"","currency":"","rating":6.7},{"name":"O'Shucks Bar & Grill","phone":"4356453999","address":"427 Main St","lat":40.64383990552101,"lng":-111.49607956357775,"city_fetched":"Summit Park,US","state":"UT","country":"United States","canonicalUrl":"https://foursquare.com/v/oshucks-bar--grill/4b0586a6f964a5200f6922e3","categoryId":"4bf58dd8d48988d116941735","category":"Bar","checkinsCount":2414,"usersCount":1259,"tipCount":16,"visitsCount":2418,"tier":"","message":"","currency":"","rating":6.6},{"name":"Sugar House Pub","phone":"8014132857","address":"1992 S 1100 E","lat":40.726803044415526,"lng":-111.85985991884286,"neighborhood":"Sugar House","city_fetched":"Summit Park,US","state":"UT","country":"United States","canonicalUrl":"https://foursquare.com/v/sugar-house-pub/4b9c9026f964a520677036e3","categoryId":"4bf58dd8d48988d11b941735","category":"Pub","checkinsCount":2699,"usersCount":639,"tipCount":14,"visitsCount":2773,"tier":"","message":"","currency":"","rating":6.6},{"name":"Flanagan's Irish Pub & Restaurant","phone":"4356498600","address":"438 Main St","lat":40.643783462466835,"lng":-111.49574769007772,"city_fetched":"Summit Park,US","state":"UT","country":"United States","canonicalUrl":"https://foursquare.com/v/flanagans-irish-pub--restaurant/4d3b38f9325ff04de3152445","categoryId":"4bf58dd8d48988d11b941735","category":"Pub","checkinsCount":2988,"usersCount":2309,"tipCount":32,"visitsCount":3034,"url":"http://www.flanagansonmain.com","tier":2,"message":"Moderate","currency":"$","rating":6.6},{"name":"Huddle Sports Bar & Grill","phone":"8014388300","address":"2400 E Fort Union Blvd","lat":40.62350327769456,"lng":-111.82231797203404,"city_fetched":"Summit Park,US","state":"UT","country":"United States","canonicalUrl":"https://foursquare.com/v/huddle-sports-bar--grill/4b7359c9f964a52027aa2de3","categoryId":"4bf58dd8d48988d11d941735","category":"Sports Bar","checkinsCount":1173,"usersCount":380,"tipCount":14,"visitsCount":1327,"url":"http://www.thehuddlesportsbar.com","tier":"","message":"","currency":"","rating":6.6},{"name":"Manny's Too","phone":"8014676289","address":"1704 S Main St","lat":40.73328268,"lng":-111.89144968986511,"city_fetched":"Summit Park,US","state":"UT","country":"United States","canonicalUrl":"https://foursquare.com/v/mannys-too/4cfb319d29348eecbbd5663b","categoryId":"4bf58dd8d48988d118941735","category":"Dive Bar","checkinsCount":251,"usersCount":44,"tipCount":4,"visitsCount":272,"tier":"","message":"","currency":"","rating":6.6},{"name":"Trails Gentlemen's Club","twitter":"trailsclub","address":"921 S 300 W","lat":40.74904761932452,"lng":-111.89925884669442,"city_fetched":"Summit Park,US","state":"UT","country":"United States","canonicalUrl":"https://foursquare.com/v/trails-gentlemens-club/4bdbaa673904a59352b04b9e","categoryId":"4bf58dd8d48988d1d6941735","category":"Strip Club","checkinsCount":427,"usersCount":358,"tipCount":5,"visitsCount":571,"tier":"","message":"","currency":"","rating":6.5},{"name":"Squatters Pub Brewery","phone":"8015752002","address":"Salt Lake City International Airport","lat":40.78777957155369,"lng":-111.98141098022461,"city_fetched":"Summit Park,US","state":"UT","country":"United States","canonicalUrl":"https://foursquare.com/v/squatters-pub-brewery/4aeb2df4f964a52054bf21e3","categoryId":"50327c8591d4c4b30a586d5d","category":"Brewery","checkinsCount":6056,"usersCount":4879,"tipCount":140,"visitsCount":6103,"url":"http://www.squatters.com","tier":2,"message":"Moderate","currency":"$","rating":6.5},{"name":"The Moose Lounge","address":"180 W 400 S","lat":40.76092635,"lng":-111.896218,"neighborhood":"Rio Grande","city_fetched":"Summit Park,US","state":"UT","country":"United States","canonicalUrl":"https://foursquare.com/v/the-moose-lounge/4d7c410086cfa1434f98c6a0","categoryId":"4bf58dd8d48988d11f941735","category":"Nightclub","checkinsCount":438,"usersCount":249,"tipCount":7,"visitsCount":468,"tier":"","message":"","currency":"","rating":6.5},{"name":"Aerie Lounge","address":"Cliff Lodge at Snowbird","lat":40.58255371932077,"lng":-111.65370285497747,"city_fetched":"Summit Park,US","state":"UT","country":"United States","canonicalUrl":"https://foursquare.com/v/aerie-lounge/4bb6a82a1344b71320e79d04","categoryId":"4bf58dd8d48988d121941735","category":"Lounge","checkinsCount":496,"usersCount":370,"tipCount":8,"visitsCount":506,"tier":"","message":"","currency":"","rating":6.5},{"name":"Copper Canyon Grill House & Tavern","phone":"8015217800","twitter":"radisson","address":"215 W South Temple","lat":40.76922922958382,"lng":-111.89785569915593,"neighborhood":"Rio Grande","city_fetched":"Summit Park,US","state":"UT","country":"United States","canonicalUrl":"https://foursquare.com/v/copper-canyon-grill-house--tavern/4c8f8d934e95236ac4f784ca","categoryId":"4bf58dd8d48988d1d5941735","category":"Hotel Bar","checkinsCount":701,"usersCount":436,"tipCount":10,"visitsCount":704,"url":"http://www.radisson.com","tier":2,"message":"Moderate","currency":"$","rating":6.5},{"name":"Johnny's On Second","phone":"8017463334","twitter":"johnnysonsecond","address":"165 E 200 S","lat":40.7651748738782,"lng":-111.88603081447029,"neighborhood":"Central City","city_fetched":"Summit Park,US","state":"UT","country":"United States","canonicalUrl":"https://foursquare.com/v/johnnys-on-second/4afe3197f964a520a72e22e3","categoryId":"4bf58dd8d48988d118941735","category":"Dive Bar","checkinsCount":1504,"usersCount":600,"tipCount":19,"visitsCount":1545,"url":"http://www.johnnysonsecond.com","tier":"","message":"","currency":"","rating":6.5},{"name":"Collie's Sports Bar & Grill","address":"738 Main St","lat":40.64747171400971,"lng":-111.49809409421698,"city_fetched":"Summit Park,US","state":"UT","country":"United States","canonicalUrl":"https://foursquare.com/v/collies-sports-bar--grill/522fb224498eecebae31a821","categoryId":"4bf58dd8d48988d11d941735","category":"Sports Bar","checkinsCount":503,"usersCount":487,"tipCount":6,"visitsCount":555,"tier":"","message":"","currency":"","rating":6.4},{"name":"Twilite Lounge","phone":"8015329400","address":"347 E 200 S","lat":40.76522841940075,"lng":-111.88090144751651,"neighborhood":"Central City","city_fetched":"Summit Park,US","state":"UT","country":"United States","canonicalUrl":"https://foursquare.com/v/twilite-lounge/4ad4f28ff964a52042fd20e3","categoryId":"4bf58dd8d48988d118941735","category":"Dive Bar","checkinsCount":1716,"usersCount":597,"tipCount":23,"visitsCount":1908,"url":"http://www.twilitelounge.com","tier":"","message":"","currency":"","rating":6.4},{"name":"Sky Blue Roof Top Bar","address":"201 heber ave.","lat":40.64675379,"lng":-111.497112,"city_fetched":"Summit Park,US","state":"UT","country":"United States","canonicalUrl":"https://foursquare.com/v/sky-blue-roof-top-bar/4d390f809ca8236af835b1e8","categoryId":"4bf58dd8d48988d121941735","category":"Lounge","checkinsCount":129,"usersCount":115,"tipCount":6,"visitsCount":129,"tier":"","message":"","currency":"","rating":6.4},{"name":"The Fifth","phone":"8012959983","address":"980 N 500 W","lat":40.8989935,"lng":-111.89183592796326,"city_fetched":"Summit Park,US","state":"UT","country":"United States","canonicalUrl":"https://foursquare.com/v/the-fifth/4bbea917b083a5930670a2e9","categoryId":"4bf58dd8d48988d116941735","category":"Bar","checkinsCount":318,"usersCount":131,"tipCount":3,"visitsCount":325,"tier":"","message":"","currency":"","rating":6.4},{"name":"Vino Volo Ale House","lat":40.787178630895085,"lng":-111.98449469164078,"city_fetched":"Summit Park,US","state":"UT","country":"United States","canonicalUrl":"https://foursquare.com/v/vino-volo-ale-house/4f9ad011e4b0edc56031d808","categoryId":"4bf58dd8d48988d116941735","category":"Bar","checkinsCount":1414,"usersCount":1049,"tipCount":38,"visitsCount":1435,"tier":2,"message":"Moderate","currency":"$","rating":6.3},{"name":"Metro Bar","phone":"8558103516","address":"540 W 200 S","lat":40.76685718416351,"lng":-111.90897024445232,"neighborhood":"Rio Grande","city_fetched":"Summit Park,US","state":"UT","country":"United States","canonicalUrl":"https://foursquare.com/v/metro-bar/4d3e2c1e6b3d236abd6e7064","categoryId":"4bf58dd8d48988d11f941735","category":"Nightclub","checkinsCount":2662,"usersCount":674,"tipCount":13,"visitsCount":2786,"url":"http://www.metrobarslc.com","tier":"","message":"","currency":"","rating":6.3},{"name":"Oscars Social Club","phone":"8015663222","twitter":"oscars_utah","address":"8136 S State St","lat":40.60376822948456,"lng":-111.89125182,"city_fetched":"Summit Park,US","state":"UT","country":"United States","canonicalUrl":"https://foursquare.com/v/oscars-social-club/4bbad0533db7b713bdba239a","categoryId":"4bf58dd8d48988d11d941735","category":"Sports Bar","checkinsCount":409,"usersCount":180,"tipCount":6,"visitsCount":409,"url":"http://oscarsutah.com","tier":"","message":"","currency":"","rating":6.2},{"name":"The Westerner Dance Hall, Bar & Grill","phone":"8019725447","address":"3360 S Redwood Rd","lat":40.698763153732166,"lng":-111.93896770477295,"city_fetched":"Summit Park,US","state":"UT","country":"United States","canonicalUrl":"https://foursquare.com/v/the-westerner-dance-hall-bar--grill/4b5bda01f964a520d41929e3","categoryId":"4bf58dd8d48988d11f941735","category":"Nightclub","checkinsCount":1040,"usersCount":765,"tipCount":4,"visitsCount":1436,"url":"http://www.westernerslc.com","tier":"","message":"","currency":"","rating":6.2},{"name":"Rock & Reilly's Irish Rock Pub","phone":"4356552926","twitter":"rockandreillys","address":"427 Main St","lat":40.643648,"lng":-111.496027,"city_fetched":"Summit Park,US","state":"UT","country":"United States","canonicalUrl":"https://foursquare.com/v/rock--reillys-irish-rock-pub/50fa36ebe4b0e6d77a494479","categoryId":"4bf58dd8d48988d116941735","category":"Bar","checkinsCount":362,"usersCount":260,"tipCount":4,"visitsCount":368,"url":"http://rnrpub.com","tier":"","message":"","currency":"","rating":6.2},{"name":"Goldminer's Daughter Saloon","address":"1024 W Oglethorpe Hwy","lat":40.58857211360165,"lng":-111.63843656456247,"city_fetched":"Summit Park,US","state":"UT","country":"United States","canonicalUrl":"https://foursquare.com/v/goldminers-daughter-saloon/4d864a6a9324236a2d73e00e","categoryId":"4bf58dd8d48988d11d941735","category":"Sports Bar","checkinsCount":275,"usersCount":178,"tipCount":10,"visitsCount":277,"tier":"","message":"","currency":"","rating":6.2},{"name":"Wasatch Brew Pub","address":"Terminal 2, Concourse D","lat":40.78851071957625,"lng":-111.98465770894855,"city_fetched":"Summit Park,US","state":"UT","country":"United States","canonicalUrl":"https://foursquare.com/v/wasatch-brew-pub/4c49be28fbafc928415a55db","categoryId":"4bf58dd8d48988d116941735","category":"Bar","checkinsCount":585,"usersCount":480,"tipCount":7,"visitsCount":585,"tier":"","message":"","currency":"","rating":6.1},{"name":"TAO Park City","address":"819 Main St","lat":40.647623559127744,"lng":-111.49855405936981,"city_fetched":"Summit Park,US","state":"UT","country":"United States","canonicalUrl":"https://foursquare.com/v/tao-park-city/4b5bb3b0f964a520f41029e3","categoryId":"4bf58dd8d48988d11f941735","category":"Nightclub","checkinsCount":505,"usersCount":379,"tipCount":1,"visitsCount":533,"tier":"","message":"","currency":"","rating":6.1},{"name":"EPIC Nightclub","phone":"4356157000","twitter":"epicparkcity","address":"268 Main Street","lat":40.642,"lng":-111.49484,"neighborhood":"Historic Main Street","city_fetched":"Summit Park,US","state":"UT","country":"United States","canonicalUrl":"https://foursquare.com/v/epic-nightclub/4b0586a6f964a520096922e3","categoryId":"4bf58dd8d48988d116941735","category":"Bar","checkinsCount":486,"usersCount":296,"tipCount":6,"visitsCount":489,"url":"http://www.epicparkcity.com","tier":"","message":"","currency":"","rating":6.1},{"name":"Drafts Sports Bar and Grill","phone":"4356552270","address":"3000 Navajo Trail","lat":40.68469403994237,"lng":-111.55597417208615,"city_fetched":"Summit Park,US","state":"UT","country":"United States","canonicalUrl":"https://foursquare.com/v/drafts-sports-bar-and-grill/507a4118e4b0602b630856c5","categoryId":"4bf58dd8d48988d11d941735","category":"Sports Bar","checkinsCount":971,"usersCount":707,"tipCount":28,"visitsCount":1007,"url":"http://draftsparkcity.com","tier":"","message":"","currency":"","rating":6.1},{"name":"Circle Lounge","phone":"8015315400","address":"350 S State St","lat":40.76179219,"lng":-111.88847780227661,"neighborhood":"Rio Grande","city_fetched":"Summit Park,US","state":"UT","country":"United States","canonicalUrl":"https://foursquare.com/v/circle-lounge/4afcee53f964a520942622e3","categoryId":"4bf58dd8d48988d11f941735","category":"Nightclub","checkinsCount":499,"usersCount":298,"tipCount":6,"visitsCount":506,"tier":"","message":"","currency":"","rating":6.1},{"name":"O'Shucks Bar & Grill","phone":"4356580233","address":"8178 Gorgoza Pines Rd","lat":40.7496289670445,"lng":-111.5718110335875,"city_fetched":"Summit Park,US","state":"UT","country":"United States","canonicalUrl":"https://foursquare.com/v/oshucks-bar--grill/4b8dd451f964a520950f33e3","categoryId":"4bf58dd8d48988d116941735","category":"Bar","checkinsCount":441,"usersCount":181,"tipCount":3,"visitsCount":487,"tier":"","message":"","currency":"","rating":6.1},{"name":"Elevate Lounge","phone":"8014784310","twitter":"thehotelelevate","address":"155 W 200 S","lat":40.764604938323366,"lng":-111.89567819953216,"neighborhood":"Rio Grande","city_fetched":"Summit Park,US","state":"UT","country":"United States","canonicalUrl":"https://foursquare.com/v/elevate-lounge/4c75ff01c219224b973da428","categoryId":"4bf58dd8d48988d11f941735","category":"Nightclub","checkinsCount":1614,"usersCount":1070,"tipCount":10,"visitsCount":1623,"url":"http://www.thehotelelevate.com","tier":"","message":"","currency":"","rating":6.1},{"name":"Kristauf's Martini Bar","phone":"8013669490","twitter":"kristaufmartini","address":"16 W Market St","lat":40.761949,"lng":-111.8915336,"neighborhood":"Rio Grande","city_fetched":"Summit Park,US","state":"UT","country":"United States","canonicalUrl":"https://foursquare.com/v/kristaufs-martini-bar/4b90a3c9f964a520029333e3","categoryId":"4bf58dd8d48988d11e941735","category":"Cocktail Bar","checkinsCount":840,"usersCount":554,"tipCount":12,"visitsCount":845,"url":"http://martinibarslc-hub.com","tier":"","message":"","currency":"","rating":6},{"name":"The Paper Moon","phone":"8017130678","twitter":"saltscene","address":"3737 S State St","lat":40.689622087673705,"lng":-111.88786480910983,"neighborhood":"South Salt Lake City","city_fetched":"Summit Park,US","state":"UT","country":"United States","canonicalUrl":"https://foursquare.com/v/the-paper-moon/4c4129edcc410f4730e5aa61","categoryId":"4bf58dd8d48988d1d8941735","category":"Gay Bar","checkinsCount":372,"usersCount":202,"tipCount":7,"visitsCount":385,"tier":"","message":"","currency":"","rating":6},{"name":"Habits","phone":"8012682228","address":"832 E 3900 S","lat":40.68674061293952,"lng":-111.86751033647333,"city_fetched":"Summit Park,US","state":"UT","country":"United States","canonicalUrl":"https://foursquare.com/v/habits/4b67d04ef964a520555e2be3","categoryId":"4bf58dd8d48988d11f941735","category":"Nightclub","checkinsCount":577,"usersCount":403,"tipCount":10,"visitsCount":770,"tier":2,"message":"Moderate","currency":"$","rating":6},{"name":"Tap Room","address":"2021 S Windsor St Ste A","lat":40.726022909387964,"lng":-111.86614036560059,"neighborhood":"Sugar House","city_fetched":"Summit Park,US","state":"UT","country":"United States","canonicalUrl":"https://foursquare.com/v/tap-room/4ad4f28ef964a5201efd20e3","categoryId":"4bf58dd8d48988d116941735","category":"Bar","checkinsCount":592,"usersCount":234,"tipCount":8,"visitsCount":614,"url":"http://www.slctaproom.com","tier":1,"message":"Cheap","currency":"$","rating":6},{"name":"Gordon Biersch Brewing Company","address":"SLC airport","lat":40.78572708989503,"lng":-111.97940039647524,"city_fetched":"Summit Park,US","state":"UT","country":"United States","canonicalUrl":"https://foursquare.com/v/gordon-biersch-brewing-company/506876a6e4b0bf441b057fd0","categoryId":"50327c8591d4c4b30a586d5d","category":"Brewery","checkinsCount":2129,"usersCount":1792,"tipCount":34,"visitsCount":2150,"tier":2,"message":"Moderate","currency":"$","rating":5.9},{"name":"The Royal","phone":"8015909940","address":"4760 S 900 E","lat":40.666876402351754,"lng":-111.86556571096222,"city_fetched":"Summit Park,US","state":"UT","country":"United States","canonicalUrl":"https://foursquare.com/v/the-royal/51831b4e91191bfed6f5b4eb","categoryId":"4bf58dd8d48988d116941735","category":"Bar","checkinsCount":458,"usersCount":193,"tipCount":2,"visitsCount":560,"tier":"","message":"","currency":"","rating":5.9},{"name":"Lumpy's Sports Bar","phone":"8014845597","twitter":"lumpysslc","address":"3000 S Highland Dr","lat":40.70616472801814,"lng":-111.85345888137817,"neighborhood":"Sugar House","city_fetched":"Summit Park,US","state":"UT","country":"United States","canonicalUrl":"https://foursquare.com/v/lumpys-sports-bar/4ad7dadcf964a520810f21e3","categoryId":"4bf58dd8d48988d11d941735","category":"Sports Bar","checkinsCount":1260,"usersCount":499,"tipCount":13,"visitsCount":1348,"url":"http://lumpysbar.com","tier":"","message":"","currency":"","rating":5.9},{"name":"X Wife's Place","phone":"8015321954","address":"465 S 700 E","lat":40.75912299257628,"lng":-111.87091051801858,"neighborhood":"Central City","city_fetched":"Summit Park,US","state":"UT","country":"United States","canonicalUrl":"https://foursquare.com/v/x-wifes-place/4b64f081f964a5202adb2ae3","categoryId":"4bf58dd8d48988d118941735","category":"Dive Bar","checkinsCount":1333,"usersCount":462,"tipCount":15,"visitsCount":1419,"tier":"","message":"","currency":"","rating":5.9},{"name":"Bout Time Pub & Grub","phone":"8014564252","twitter":"bouttimepub","address":"169 S Rio Grande St","lat":40.76609528933006,"lng":-111.90332651138304,"neighborhood":"Rio Grande","city_fetched":"Summit Park,US","state":"UT","country":"United States","canonicalUrl":"https://foursquare.com/v/bout-time-pub--grub/4e6d317a88776961e588e0e6","categoryId":"4bf58dd8d48988d11d941735","category":"Sports Bar","checkinsCount":1325,"usersCount":790,"tipCount":19,"visitsCount":1347,"url":"http://www.bouttimepub.com","tier":2,"message":"Moderate","currency":"$","rating":5.9},{"name":"Iggy's Sports Grill","phone":"8016760677","address":"7640 S Union Park Ave","lat":40.612161137343804,"lng":-111.85584839352694,"city_fetched":"Summit Park,US","state":"UT","country":"United States","canonicalUrl":"https://foursquare.com/v/iggys-sports-grill/4b119a06f964a520528023e3","categoryId":"4bf58dd8d48988d11d941735","category":"Sports Bar","checkinsCount":760,"usersCount":527,"tipCount":8,"visitsCount":782,"tier":2,"message":"Moderate","currency":"$","rating":5.9},{"name":"The Hotel Nightclub","address":"W 200 S","lat":40.76465698208684,"lng":-111.89588779847669,"neighborhood":"Rio Grande","city_fetched":"Summit Park,US","state":"UT","country":"United States","canonicalUrl":"https://foursquare.com/v/the-hotel-nightclub/4f9268a3e4b0949d2018e72b","categoryId":"4bf58dd8d48988d11f941735","category":"Nightclub","checkinsCount":525,"usersCount":306,"tipCount":7,"visitsCount":528,"tier":"","message":"","currency":"","rating":5.9},{"name":"VFW","phone":"8014660964","address":"2920 S Highland Dr","lat":40.70762146768573,"lng":-111.85390958546184,"neighborhood":"Sugar House","city_fetched":"Summit Park,US","state":"UT","country":"United States","canonicalUrl":"https://foursquare.com/v/vfw/4ade5b82f964a5204c7521e3","categoryId":"4bf58dd8d48988d118941735","category":"Dive Bar","checkinsCount":430,"usersCount":198,"tipCount":6,"visitsCount":438,"tier":"","message":"","currency":"","rating":5.8},{"name":"Puck Restaurant & Sports Bar","phone":"8019757825","twitter":"puckabar","address":"3396 Decker Lake Dr","lat":40.69862186908722,"lng":-111.94778174,"city_fetched":"Summit Park,US","state":"UT","country":"United States","canonicalUrl":"https://foursquare.com/v/puck-restaurant--sports-bar/4b1328cdf964a520ea9423e3","categoryId":"4bf58dd8d48988d11d941735","category":"Sports Bar","checkinsCount":888,"usersCount":441,"tipCount":9,"visitsCount":945,"url":"http://www.thepuck.org","tier":1,"message":"Cheap","currency":"$","rating":5.8},{"name":"Sandy Station","phone":"8012552078","twitter":"thesandystation","address":"8925 S Harrison St","lat":40.58939053619284,"lng":-111.8991424029337,"city_fetched":"Summit Park,US","state":"UT","country":"United States","canonicalUrl":"https://foursquare.com/thesandystation","categoryId":"4bf58dd8d48988d11d941735","category":"Sports Bar","checkinsCount":944,"usersCount":419,"tipCount":4,"visitsCount":1092,"url":"http://www.sandystation.com","tier":"","message":"","currency":"","rating":5.8},{"name":"Daly's Grill & Pub","address":"Montage Deer Valley","lat":40.61564630883407,"lng":-111.51084503549387,"city_fetched":"Summit Park,US","state":"UT","country":"United States","canonicalUrl":"https://foursquare.com/v/dalys-grill--pub/4e6436a7ae60e9edf68566d2","categoryId":"4bf58dd8d48988d11b941735","category":"Pub","checkinsCount":448,"usersCount":260,"tipCount":9,"visitsCount":454,"tier":"","message":"","currency":"","rating":5.7},{"name":"Huka Bar & Grill","phone":"8016540524","address":"151 E 6100 S","lat":40.638637835517294,"lng":-111.88706134488895,"city_fetched":"Summit Park,US","state":"UT","country":"United States","canonicalUrl":"https://foursquare.com/v/huka-bar--grill/4b2b9a6cf964a52019b824e3","categoryId":"4bf58dd8d48988d119941735","category":"Hookah Bar","checkinsCount":1351,"usersCount":716,"tipCount":6,"visitsCount":1614,"url":"http://www.thehukabar.com","tier":"","message":"","currency":"","rating":5.6},{"name":"EXTRA INNINGS - Sheraton Salt Lake City","address":"150 W 500 S","lat":40.759065,"lng":-111.895954,"neighborhood":"Rio Grande","city_fetched":"Summit Park,US","state":"UT","country":"United States","canonicalUrl":"https://foursquare.com/v/extra-innings--sheraton-salt-lake-city/4c11aa8dd41e76b06ee9310d","categoryId":"4bf58dd8d48988d116941735","category":"Bar","checkinsCount":255,"usersCount":193,"tipCount":2,"visitsCount":257,"tier":"","message":"","currency":"","rating":5.4},{"name":"O'Shucks Bar & Grill","phone":"8015968600","address":"22 E 100 S","lat":40.76699690061837,"lng":-111.89022280105057,"neighborhood":"Rio Grande","city_fetched":"Summit Park,US","state":"UT","country":"United States","canonicalUrl":"https://foursquare.com/v/oshucks-bar--grill/4ad4f28ff964a52043fd20e3","categoryId":"4bf58dd8d48988d116941735","category":"Bar","checkinsCount":928,"usersCount":465,"tipCount":7,"visitsCount":930,"tier":1,"message":"Cheap","currency":"$","rating":5.3}]