[{"name":"J. O'Gradys","phone":"8039385699","address":"5 S Main St","lat":33.920253,"lng":-80.341585,"city_fetched":"Sumter","state":"SC","country":"United States","canonicalUrl":"https://foursquare.com/v/j-ogradys/522b4ed611d23a04f59b35be","category":"Restaurant","checkinsCount":109,"usersCount":64,"tipCount":1,"visitsCount":129,"tier":"","message":"","currency":"","rating":7.9},{"name":"Brewers Bar & Grill","phone":"8034362841","address":"160 E Wesmark Blvd","lat":33.95473896438538,"lng":-80.3728820105265,"city_fetched":"Sumter","state":"SC","country":"United States","canonicalUrl":"https://foursquare.com/v/brewers-bar--grill/4bca806768f976b0f2a55f83","category":"Bar","checkinsCount":1907,"usersCount":228,"tipCount":11,"visitsCount":1955,"tier":"","message":"","currency":"","rating":7.3},{"name":"Shuckers sports bar","phone":"8037755304","lat":33.95152245660903,"lng":-80.37180503280256,"city_fetched":"Sumter","state":"SC","country":"United States","canonicalUrl":"https://foursquare.com/v/shuckers-sports-bar/4bc115c0920eb713ff371a2c","category":"Sports Bar","checkinsCount":529,"usersCount":136,"tipCount":7,"visitsCount":612,"tier":"","message":"","currency":"","rating":7.2},{"name":"Chuckwagon","phone":"8037744477","address":"1090 B Broad St","lat":33.95066814826779,"lng":-80.37760060396315,"city_fetched":"Sumter","state":"SC","country":"United States","canonicalUrl":"https://foursquare.com/v/chuckwagon/4c7f2e3f1415b7135fcefe5c","category":"Music Venue","checkinsCount":1400,"usersCount":147,"tipCount":8,"visitsCount":1403,"tier":"","message":"","currency":"","rating":7.2},{"name":"Tavern On Main","phone":"8037730495","address":"24 N Main St","lat":33.921211977097684,"lng":-80.34199990599659,"city_fetched":"Sumter","state":"SC","country":"United States","canonicalUrl":"https://foursquare.com/v/tavern-on-main/4c06e7fcb4aa0f470fdc6462","category":"Sports Bar","checkinsCount":1743,"usersCount":163,"tipCount":9,"visitsCount":1761,"tier":"","message":"","currency":"","rating":7.1},{"name":"Legacies","phone":"8034697800","address":"1312 Broad St","lat":33.955597,"lng":-80.38976,"city_fetched":"Sumter","state":"SC","country":"United States","canonicalUrl":"https://foursquare.com/v/legacies/4bee15cd2c082d7f040b3042","category":"Bar","checkinsCount":806,"usersCount":218,"tipCount":4,"visitsCount":808,"tier":"","message":"","currency":"","rating":6.1},{"name":"Savannah Breaks","address":"1965 McCrays Mill Rd","lat":33.90542887735334,"lng":-80.37664376430112,"city_fetched":"Sumter","state":"SC","country":"United States","canonicalUrl":"https://foursquare.com/v/savannah-breaks/4d000a9c4f56b60c71ba9f37","category":"Bar","checkinsCount":918,"usersCount":82,"tipCount":2,"visitsCount":983,"tier":"","message":"","currency":"","rating":5.8},{"name":"Sports & Wings","address":"841 Broad St","lat":33.944119,"lng":-80.370487,"city_fetched":"Sumter","state":"SC","country":"United States","canonicalUrl":"https://foursquare.com/v/sports--wings/4c16aedf127f952107452525","category":"Sports Bar","checkinsCount":362,"usersCount":130,"tipCount":10,"visitsCount":362,"tier":"","message":"","currency":"","rating":5.4}]