[{"name":"Al's Wine And Whiskey Lounge","phone":"3157034773","twitter":"alswhiskey","address":"321 S Clinton St","lat":43.048069718407035,"lng":-76.15362685605706,"city_fetched":"Syracuse","state":"NY","country":"United States","canonicalUrl":"https://foursquare.com/v/als-wine-and-whiskey-lounge/4b36e215f964a520cc3d25e3","category":"Wine Bar","checkinsCount":7785,"usersCount":2836,"tipCount":69,"visitsCount":8041,"url":"http://www.alswineandwhiskey.com","tier":2,"message":"Moderate","currency":"$","rating":9.1},{"name":"Kitty Hoynes","phone":"3154241974","address":"301 W Fayette St","lat":43.04856506600022,"lng":-76.15556307971914,"city_fetched":"Syracuse","state":"NY","country":"United States","canonicalUrl":"https://foursquare.com/v/kitty-hoynes/4b62d1d7f964a52004542ae3","category":"Pub","checkinsCount":7085,"usersCount":2795,"tipCount":66,"visitsCount":7360,"url":"http://kittyhoynes.com","tier":2,"message":"Moderate","currency":"$","rating":9.1},{"name":"Blarney Stone","phone":"3154879675","address":"314 Avery Ave","lat":43.04834937469871,"lng":-76.19173049926758,"city_fetched":"Syracuse","state":"NY","country":"United States","canonicalUrl":"https://foursquare.com/v/blarney-stone/4b908c59f964a5206c8f33e3","category":"Pub","checkinsCount":6048,"usersCount":1698,"tipCount":35,"visitsCount":7125,"url":"http://www.blarneystonesyr.com","tier":1,"message":"Cheap","currency":"$","rating":9},{"name":"Laci's Tapas Bar","phone":"3152185903","twitter":"lacistapasbar","address":"304 Hawley Ave","lat":43.05314674393295,"lng":-76.14152200216579,"city_fetched":"Syracuse","state":"NY","country":"United States","canonicalUrl":"https://foursquare.com/v/lacis-tapas-bar/4c256b36136d20a143aae361","category":"Tapas Restaurant","checkinsCount":1447,"usersCount":832,"tipCount":35,"visitsCount":1722,"url":"http://www.lacistapasbar.com","tier":2,"message":"Moderate","currency":"$","rating":9},{"name":"Empire Brewing Company","phone":"3154752337","twitter":"empirebrew","address":"120 Walton St","lat":43.048025842641266,"lng":-76.15457232544553,"city_fetched":"Syracuse","state":"NY","country":"United States","canonicalUrl":"https://foursquare.com/v/empire-brewing-company/4b529011f964a520628227e3","category":"Brewery","checkinsCount":16324,"usersCount":6375,"tipCount":138,"visitsCount":16686,"url":"http://empirebrew.com","tier":2,"message":"Moderate","currency":"$","rating":9},{"name":"Blue Tusk","phone":"3154721934","twitter":"thebluetusk","address":"165 Walton St","lat":43.047983,"lng":-76.15470268333333,"city_fetched":"Syracuse","state":"NY","country":"United States","canonicalUrl":"https://foursquare.com/v/blue-tusk/4b6dc9eef964a520ff8f2ce3","category":"Pub","checkinsCount":10246,"usersCount":3783,"tipCount":71,"visitsCount":10398,"url":"http://www.bluetusk.com","tier":2,"message":"Moderate","currency":"$","rating":8.7},{"name":"Francesca's Cucina","phone":"3154251556","address":"541 N Salina St","lat":43.05853695958884,"lng":-76.15223977827961,"city_fetched":"Syracuse","state":"NY","country":"United States","canonicalUrl":"https://foursquare.com/v/francescas-cucina/4bf5ae86abdaef3bda19a184","category":"Italian Restaurant","checkinsCount":1962,"usersCount":1424,"tipCount":29,"visitsCount":2555,"url":"http://francescas-cucina.com","tier":2,"message":"Moderate","currency":"$","rating":8.7},{"name":"Kelley's Bar & Restaurant","phone":"3154786773","address":"5076 Velasko Rd","lat":43.016396,"lng":-76.184141,"city_fetched":"Syracuse","state":"NY","country":"United States","canonicalUrl":"https://foursquare.com/v/kelleys-bar--restaurant/4bd1d1319854d13a4844fa4d","category":"Bar","checkinsCount":985,"usersCount":520,"tipCount":12,"visitsCount":1206,"url":"http://www.kelleysbarandrestaurant.com","tier":2,"message":"Moderate","currency":"$","rating":8.7},{"name":"World of Beer","phone":"3154222330","address":"10347 Destiny USA Dr","lat":43.06885382,"lng":-76.17127265,"city_fetched":"Syracuse","state":"NY","country":"United States","canonicalUrl":"https://foursquare.com/v/world-of-beer/529b7ed211d2bb6289152f3d","category":"Bar","checkinsCount":2604,"usersCount":1176,"tipCount":22,"visitsCount":2884,"url":"http://worldofbeer.com/Locations/Syracuse","tier":2,"message":"Moderate","currency":"$","rating":8.7},{"name":"J Ryans","phone":"3153995533","twitter":"jryanspub1","address":"253 E Water St","lat":43.050702,"lng":-76.149577,"neighborhood":"Downtown Syracuse","city_fetched":"Syracuse","state":"NY","country":"United States","canonicalUrl":"https://foursquare.com/v/j-ryans/4b819f86f964a52068b330e3","category":"Pub","checkinsCount":5810,"usersCount":1606,"tipCount":49,"visitsCount":6629,"url":"http://jryanspub.com","tier":2,"message":"Moderate","currency":"$","rating":8.7},{"name":"Beer Belly Deli","phone":"3152997533","twitter":"beerbellydeli","address":"510 Westcott St","lat":43.041606,"lng":-76.119541,"city_fetched":"Syracuse","state":"NY","country":"United States","canonicalUrl":"https://foursquare.com/v/beer-belly-deli/508d77a5e4b086e59ac4f446","category":"Gastropub","checkinsCount":1956,"usersCount":873,"tipCount":36,"visitsCount":2220,"url":"http://www.beerbellywestcott.com","tier":2,"message":"Moderate","currency":"$","rating":8.5},{"name":"Shifty's Bar & Grill","phone":"3154740048","address":"1401 Burnet Ave","lat":43.05513878239251,"lng":-76.11924111843109,"neighborhood":"Eastwood","city_fetched":"Syracuse","state":"NY","country":"United States","canonicalUrl":"https://foursquare.com/v/shiftys-bar--grill/4bc7e31f14d79521215468e9","category":"Bar","checkinsCount":3374,"usersCount":923,"tipCount":28,"visitsCount":3735,"url":"http://shiftysbar.com","tier":1,"message":"Cheap","currency":"$","rating":8.5},{"name":"Faegan's Cafe & Pub","phone":"3154724721","twitter":"faegans","address":"734 S Crouse Ave","lat":43.04167901395999,"lng":-76.13648271363355,"city_fetched":"Syracuse","state":"NY","country":"United States","canonicalUrl":"https://foursquare.com/v/faegans-cafe--pub/4b5e7b0af964a520549029e3","category":"Pub","checkinsCount":17541,"usersCount":4591,"tipCount":68,"visitsCount":18012,"url":"http://www.faeganspub.com","tier":2,"message":"Moderate","currency":"$","rating":8.5},{"name":"Roji Tea Lounge","phone":"3154280844","address":"108 E Washington St","lat":43.049586,"lng":-76.151532,"neighborhood":"Downtown Syracuse","city_fetched":"Syracuse","state":"NY","country":"United States","canonicalUrl":"https://foursquare.com/v/roji-tea-lounge/4b6f0042f964a520e8d52ce3","category":"Lounge","checkinsCount":1364,"usersCount":629,"tipCount":26,"visitsCount":1450,"url":"http://www.roji-tealounge.com","tier":2,"message":"Moderate","currency":"$","rating":8.5},{"name":"Clark's Ale House","twitter":"clarksalehouse","address":"100 E Washington St","lat":43.04955571551736,"lng":-76.15205860789166,"neighborhood":"Downtown Syracuse","city_fetched":"Syracuse","state":"NY","country":"United States","canonicalUrl":"https://foursquare.com/v/clarks-ale-house/54550963498eefcc848a196b","category":"Bar","checkinsCount":777,"usersCount":411,"tipCount":13,"visitsCount":1097,"tier":"","message":"","currency":"","rating":8.4},{"name":"Wolff's Biergarten","address":"106 Montgomery St","lat":43.05017701234884,"lng":-76.14946558024593,"neighborhood":"Downtown Syracuse","city_fetched":"Syracuse","state":"NY","country":"United States","canonicalUrl":"https://foursquare.com/v/wolffs-biergarten/563d34cacd10564a7bfc1cc8","category":"Beer Garden","checkinsCount":330,"usersCount":255,"tipCount":5,"visitsCount":450,"tier":"","message":"","currency":"","rating":8.3},{"name":"Tully's Good Times","phone":"3154499339","address":"2943 Erie Blvd E","lat":43.05586,"lng":-76.08900506,"city_fetched":"Syracuse","state":"NY","country":"United States","canonicalUrl":"https://foursquare.com/v/tullys-good-times/4b48104cf964a520704726e3","category":"American Restaurant","checkinsCount":8256,"usersCount":3561,"tipCount":41,"visitsCount":9770,"url":"http://www.tullysgoodtimes.com","tier":2,"message":"Moderate","currency":"$","rating":8.3},{"name":"Eastwood Brewing Company","address":"418 Walter Drive","lat":43.07009006056242,"lng":-76.09828564683549,"neighborhood":"Eastwood","city_fetched":"Syracuse","state":"NY","country":"United States","canonicalUrl":"https://foursquare.com/v/eastwood-brewing-company/5287a70e11d214168a94349a","category":"Brewery","checkinsCount":337,"usersCount":187,"tipCount":10,"visitsCount":449,"tier":"","message":"","currency":"","rating":8.3},{"name":"The Inn Complete","address":"Skytop Rd.","lat":43.01290054474908,"lng":-76.11800193786621,"city_fetched":"Syracuse","state":"NY","country":"United States","canonicalUrl":"https://foursquare.com/v/the-inn-complete/4b563ceff964a520db0628e3","category":"Bar","checkinsCount":2275,"usersCount":923,"tipCount":18,"visitsCount":2529,"tier":1,"message":"Cheap","currency":"$","rating":8.2},{"name":"The York","lat":43.04874806519298,"lng":-76.15502524258166,"neighborhood":"Downtown Syracuse","city_fetched":"Syracuse","state":"NY","country":"United States","canonicalUrl":"https://foursquare.com/v/the-york/553ec1af498e8a29cd346a7b","category":"Gastropub","checkinsCount":183,"usersCount":126,"tipCount":4,"visitsCount":217,"tier":"","message":"","currency":"","rating":8.2},{"name":"Middle Ages Brewing Company","phone":"3154764250","twitter":"middleagesbeer","address":"120 Wilkinson St","lat":43.05102912882992,"lng":-76.16199431453774,"city_fetched":"Syracuse","state":"NY","country":"United States","canonicalUrl":"https://foursquare.com/v/middle-ages-brewing-company/4b895307f964a520aa2b32e3","category":"Brewery","checkinsCount":1712,"usersCount":872,"tipCount":17,"visitsCount":1937,"url":"http://middleagesbrewing.com","tier":2,"message":"Moderate","currency":"$","rating":8.2},{"name":"Attilios Restaurant","phone":"3152185085","address":"700 N Salina St","lat":43.060453385812345,"lng":-76.15312298046145,"city_fetched":"Syracuse","state":"NY","country":"United States","canonicalUrl":"https://foursquare.com/v/attilios-restaurant/4bf5b1c1abdaef3bac1aa184","category":"Italian Restaurant","checkinsCount":710,"usersCount":402,"tipCount":8,"visitsCount":759,"url":"http://www.attiliosyracuse.com","tier":1,"message":"Cheap","currency":"$","rating":8.1},{"name":"Goldstein Auditorium","phone":"3154434240","twitter":"syracuseu","address":"303 University Pl","lat":43.03986400404371,"lng":-76.13370819426719,"city_fetched":"Syracuse","state":"NY","country":"United States","canonicalUrl":"https://foursquare.com/v/goldstein-auditorium/4bc7a8372f94d13adb65127f","category":"College Theater","checkinsCount":3382,"usersCount":1168,"tipCount":4,"visitsCount":3402,"url":"https://plus.google.com/u/0/106896646425057170350/posts","tier":"","message":"","currency":"","rating":8},{"name":"Riley's","phone":"3154717111","address":"312 Park St","lat":43.06325904603585,"lng":-76.13725843648768,"city_fetched":"Syracuse","state":"NY","country":"United States","canonicalUrl":"https://foursquare.com/v/rileys/4b91a599f964a5209fcc33e3","category":"Gastropub","checkinsCount":1141,"usersCount":689,"tipCount":15,"visitsCount":1465,"tier":2,"message":"Moderate","currency":"$","rating":8},{"name":"Bittersweet","phone":"3154749463","address":"121 W Fayette St","lat":43.048707,"lng":-76.15323406249999,"neighborhood":"Downtown Syracuse","city_fetched":"Syracuse","state":"NY","country":"United States","canonicalUrl":"https://foursquare.com/v/bittersweet/4ca68554f47ea143e1a26121","category":"Wine Bar","checkinsCount":1923,"usersCount":1004,"tipCount":24,"visitsCount":1992,"url":"http://bittersweetofsyracuse.com","tier":1,"message":"Cheap","currency":"$","rating":7.9},{"name":"Taps Bar","address":"515 Westcott St","lat":43.04103542214119,"lng":-76.11910423173865,"city_fetched":"Syracuse","state":"NY","country":"United States","canonicalUrl":"https://foursquare.com/v/taps-bar/4b5e3cdef964a520808529e3","category":"Bar","checkinsCount":795,"usersCount":335,"tipCount":15,"visitsCount":797,"tier":1,"message":"Cheap","currency":"$","rating":7.9},{"name":"Singers Karaoke Club","phone":"3154847464","address":"1345 Milton Ave","lat":43.05973306390875,"lng":-76.20027535754136,"city_fetched":"Syracuse","state":"NY","country":"United States","canonicalUrl":"https://foursquare.com/v/singers-karaoke-club/4b724bdbf964a52000772de3","category":"Karaoke Bar","checkinsCount":3108,"usersCount":679,"tipCount":23,"visitsCount":3313,"url":"http://www.singersentertainment.com","tier":2,"message":"Moderate","currency":"$","rating":7.9},{"name":"Gordon Biersch","phone":"3154780990","address":"9090 Destiny USA Dr","lat":43.06746492037602,"lng":-76.17144812915322,"city_fetched":"Syracuse","state":"NY","country":"United States","canonicalUrl":"https://foursquare.com/v/gordon-biersch/50bd66e4e4b0e286ce055def","category":"Brewery","checkinsCount":5067,"usersCount":2318,"tipCount":64,"visitsCount":5248,"url":"http://gordonbiersch.com","tier":2,"message":"Moderate","currency":"$","rating":7.8},{"name":"Now & Later","address":"620 Ulster St.","lat":43.046469,"lng":-76.1902,"city_fetched":"Syracuse","state":"NY","country":"United States","canonicalUrl":"https://foursquare.com/v/now--later/567c49b5498e888ed06bfd83","category":"Beer Garden","checkinsCount":209,"usersCount":138,"tipCount":1,"visitsCount":378,"tier":"","message":"","currency":"","rating":7.8},{"name":"Genesee Grande Hotel","address":"1060 E Genesee St","lat":43.046530016268996,"lng":-76.13531062765367,"city_fetched":"Syracuse","state":"NY","country":"United States","canonicalUrl":"https://foursquare.com/v/genesee-grande-hotel/4b5a1e7ef964a52075ae28e3","category":"Hotel","checkinsCount":3184,"usersCount":1616,"tipCount":20,"visitsCount":3521,"url":"http://www.1060restaurant.com","tier":"","message":"","currency":"","rating":7.8},{"name":"Rain Lounge","phone":"3152185951","address":"103 N Geddes St","lat":43.048804,"lng":-76.171217,"city_fetched":"Syracuse","state":"NY","country":"United States","canonicalUrl":"https://foursquare.com/v/rain-lounge/4ea71bf1722e38f63471a3e3","category":"Gay Bar","checkinsCount":1415,"usersCount":459,"tipCount":9,"visitsCount":1608,"tier":"","message":"","currency":"","rating":7.7},{"name":"Club 44","phone":"3154431419","twitter":"carrierdome","address":"Carrier Dome","lat":43.036148504337255,"lng":-76.13697052001953,"city_fetched":"Syracuse","state":"NY","country":"United States","canonicalUrl":"https://foursquare.com/v/club-44/4b3f74c8f964a52028a725e3","category":"Lounge","checkinsCount":884,"usersCount":362,"tipCount":3,"visitsCount":896,"url":"http://www.carrierdome.com/premiumservices/club44.aspx","tier":"","message":"","currency":"","rating":7.7},{"name":"Dave & Buster's","phone":"3154013700","address":"10335 Destiny USA Dr","lat":43.06844746696611,"lng":-76.17144246838365,"city_fetched":"Syracuse","state":"NY","country":"United States","canonicalUrl":"https://foursquare.com/v/dave--busters/51ddbc7d498e24f089950a23","category":"American Restaurant","checkinsCount":2689,"usersCount":1519,"tipCount":44,"visitsCount":2770,"url":"http://daveandbusters.com","tier":2,"message":"Moderate","currency":"$","rating":7.6},{"name":"OC's Fat Boy BBQ","phone":"3154223624","address":"317 N Salina St","lat":43.05530453041591,"lng":-76.1522001472779,"city_fetched":"Syracuse","state":"NY","country":"United States","canonicalUrl":"https://foursquare.com/v/ocs-fat-boy-bbq/4e0d0abeb0fb59de67c90b35","category":"BBQ Joint","checkinsCount":273,"usersCount":76,"tipCount":6,"visitsCount":284,"url":"http://www.ocstavern.com","tier":"","message":"","currency":"","rating":7.6},{"name":"Change of Pace","phone":"3154724409","address":"1802 Grant Blvd","lat":43.07240689212609,"lng":-76.14009516636932,"city_fetched":"Syracuse","state":"NY","country":"United States","canonicalUrl":"https://foursquare.com/v/change-of-pace/4bc7c9076501c9b606333f29","category":"Bar","checkinsCount":886,"usersCount":404,"tipCount":16,"visitsCount":1333,"url":"http://www.change-of-pace.com","tier":"","message":"","currency":"","rating":7.5},{"name":"ALFA bar & dining room","phone":"3154451976","twitter":"alfasyracuse","address":"200 Waring Rd","lat":43.02245649273317,"lng":-76.1005964622517,"city_fetched":"Syracuse","state":"NY","country":"United States","canonicalUrl":"https://foursquare.com/alfasyracuse","category":"American Restaurant","checkinsCount":424,"usersCount":155,"tipCount":8,"visitsCount":516,"url":"http://alfarestaurant.com","tier":4,"message":"Very Expensive","currency":"$","rating":7.4},{"name":"Funny Bone","address":"Destiny USA","lat":43.06832345479276,"lng":-76.1713688783576,"city_fetched":"Syracuse","state":"NY","country":"United States","canonicalUrl":"https://foursquare.com/v/funny-bone/50ef198ce4b090489309c909","category":"Comedy Club","checkinsCount":1397,"usersCount":781,"tipCount":22,"visitsCount":1431,"tier":"","message":"","currency":"","rating":7.3},{"name":"Maxwell's","address":"122 E Genesee St","lat":43.050477,"lng":-76.151295,"neighborhood":"Downtown Syracuse","city_fetched":"Syracuse","state":"NY","country":"United States","canonicalUrl":"https://foursquare.com/v/maxwells/549e2b72498e56a9c61378c8","category":"Nightclub","checkinsCount":170,"usersCount":56,"tipCount":2,"visitsCount":203,"tier":"","message":"","currency":"","rating":7.3},{"name":"Sitrus at Sheraton Syracuse","phone":"3154753000","twitter":"sheratoncuse","address":"801 University Ave","lat":43.04125987469902,"lng":-76.13431972584051,"city_fetched":"Syracuse","state":"NY","country":"United States","canonicalUrl":"https://foursquare.com/v/sitrus-at-sheraton-syracuse/4babcfb8f964a52088cb3ae3","category":"Hotel Bar","checkinsCount":1409,"usersCount":657,"tipCount":14,"visitsCount":1424,"url":"http://sheratonsyracuse.com","tier":3,"message":"Expensive","currency":"$","rating":7.2},{"name":"McAvan's Pub","phone":"3154231583","address":"1217 W Fayette St","lat":43.04706706509948,"lng":-76.17659367087761,"city_fetched":"Syracuse","state":"NY","country":"United States","canonicalUrl":"https://foursquare.com/v/mcavans-pub/4b8b06bcf964a520fa8e32e3","category":"Bar","checkinsCount":539,"usersCount":209,"tipCount":3,"visitsCount":615,"tier":"","message":"","currency":"","rating":7.2},{"name":"Mulrooney's (aka Mully's)","phone":"3154796163","address":"239 W Fayette St","lat":43.04863992469134,"lng":-76.15483841444602,"city_fetched":"Syracuse","state":"NY","country":"United States","canonicalUrl":"https://foursquare.com/v/mulrooneys-aka-mullys/4b8a011ff964a5202f5b32e3","category":"Pub","checkinsCount":2168,"usersCount":973,"tipCount":5,"visitsCount":2228,"url":"http://www.mullys.com","tier":"","message":"","currency":"","rating":7.2},{"name":"Ukrainian National Home (UNH)","phone":"3154789272","address":"1317 W Fayette St","lat":43.04763939573073,"lng":-76.1782295612295,"city_fetched":"Syracuse","state":"NY","country":"United States","canonicalUrl":"https://foursquare.com/v/ukrainian-national-home-unh/4bd26254046076b0f8017471","category":"Other Nightlife","checkinsCount":755,"usersCount":165,"tipCount":0,"visitsCount":895,"tier":"","message":"","currency":"","rating":7.1},{"name":"Chuck's Cafe","phone":"3154771544","twitter":"chucks_cuse","address":"727 S Crouse Ave","lat":43.04200812616828,"lng":-76.13605856895447,"city_fetched":"Syracuse","state":"NY","country":"United States","canonicalUrl":"https://foursquare.com/v/chucks-cafe/4b5e7b6cf964a5205e9029e3","category":"Bar","checkinsCount":29174,"usersCount":3802,"tipCount":79,"visitsCount":29356,"url":"http://campusfood.com/restaurant.asp?campusid=117&mlid=256053","tier":1,"message":"Cheap","currency":"$","rating":7.1},{"name":"End Zone Bar & Grill","phone":"3154512928","address":"110 Old Liverpool Rd","lat":43.08073733810576,"lng":-76.17872714996338,"city_fetched":"Syracuse","state":"NY","country":"United States","canonicalUrl":"https://foursquare.com/v/end-zone-bar--grill/4bbfb24f4cdfc9b6b0ba9121","category":"Bar","checkinsCount":616,"usersCount":246,"tipCount":7,"visitsCount":779,"tier":"","message":"","currency":"","rating":7.1},{"name":"Rosie's Sports Pub & Grille","phone":"3154681269","address":"1443 W Genesee St","lat":43.05176439669755,"lng":-76.1826,"city_fetched":"Syracuse","state":"NY","country":"United States","canonicalUrl":"https://foursquare.com/v/rosies-sports-pub--grille/4bca6c860687ef3b091ddccc","category":"Bar","checkinsCount":3457,"usersCount":1281,"tipCount":13,"visitsCount":4017,"url":"http://www.rosiessportspub.com","tier":1,"message":"Cheap","currency":"$","rating":7.1},{"name":"Thompson Road Tavern","phone":"3154371827","address":"6266 Thompson Rd","lat":43.074459852257036,"lng":-76.08915527902127,"city_fetched":"Syracuse","state":"NY","country":"United States","canonicalUrl":"https://foursquare.com/v/thompson-road-tavern/4c5a2b432091a59366ee5ed0","category":"Bar","checkinsCount":330,"usersCount":122,"tipCount":4,"visitsCount":376,"tier":"","message":"","currency":"","rating":7.1},{"name":"The Penny","address":"321 W Fayette St","lat":43.04874458802614,"lng":-76.15626509551515,"neighborhood":"Downtown Syracuse","city_fetched":"Syracuse","state":"NY","country":"United States","canonicalUrl":"https://foursquare.com/v/the-penny/524b5940498e1fa3e7ba845b","category":"Bar","checkinsCount":481,"usersCount":153,"tipCount":4,"visitsCount":527,"tier":1,"message":"Cheap","currency":"$","rating":7.1},{"name":"Holmes Pub","phone":"3154783091","address":"321 W Fayette St","lat":43.048685,"lng":-76.156248,"city_fetched":"Syracuse","state":"NY","country":"United States","canonicalUrl":"https://foursquare.com/v/holmes-pub/4d390a84c5285481170cdfb9","category":"Pub","checkinsCount":1106,"usersCount":280,"tipCount":7,"visitsCount":1111,"tier":"","message":"","currency":"","rating":7},{"name":"Benjamin's On Franklin","phone":"3152994756","address":"314 S Franklin St","lat":43.048231,"lng":-76.155715,"city_fetched":"Syracuse","state":"NY","country":"United States","canonicalUrl":"https://foursquare.com/v/benjamins-on-franklin/4d27bff8ec272d438fbc344c","category":"Cocktail Bar","checkinsCount":2464,"usersCount":1159,"tipCount":14,"visitsCount":2524,"tier":"","message":"","currency":"","rating":7}]