[{"name":"Cabo's Island Grill & Bar","phone":"8508787707","address":"1221 Apalachee Pkwy","lat":30.436245252375375,"lng":-84.26354631612027,"city_fetched":"Tallahassee,US","state":"FL","country":"United States","canonicalUrl":"https://foursquare.com/v/cabos-island-grill--bar/4b4f8b1cf964a520c10a27e3","categoryId":"4bf58dd8d48988d116941735","category":"Bar","checkinsCount":3456,"usersCount":1350,"tipCount":42,"visitsCount":3838,"url":"http://www. cabosgrill.com","tier":1,"message":"Cheap","currency":"$","rating":9.2},{"name":"Aladdin's Sheesha Cafe","phone":"8503855125","twitter":"aladdinssheesha","address":"535 Silver Slipper Ln","lat":30.471750215168733,"lng":-84.28744934994747,"city_fetched":"Tallahassee,US","state":"FL","country":"United States","canonicalUrl":"https://foursquare.com/v/aladdins-sheesha-cafe/4b4d55f0f964a520ead026e3","categoryId":"4bf58dd8d48988d119941735","category":"Hookah Bar","checkinsCount":1256,"usersCount":447,"tipCount":18,"visitsCount":1475,"url":"http://aladdinstallahassee.com","tier":1,"message":"Cheap","currency":"$","rating":9.1},{"name":"Fermentation Lounge","phone":"8507274033","address":"113 All Saints St","lat":30.43391091455026,"lng":-84.28650990128517,"neighborhood":"All Saints","city_fetched":"Tallahassee,US","state":"FL","country":"United States","canonicalUrl":"https://foursquare.com/v/fermentation-lounge/4b38ebaff964a5203f5225e3","categoryId":"4bf58dd8d48988d116941735","category":"Bar","checkinsCount":5466,"usersCount":1330,"tipCount":46,"visitsCount":6010,"tier":2,"message":"Moderate","currency":"$","rating":8.9},{"name":"Waterworks","phone":"8502241887","address":"1133 Thomasville Rd","lat":30.45539959939581,"lng":-84.27766101460183,"neighborhood":"Lafayette Park","city_fetched":"Tallahassee,US","state":"FL","country":"United States","canonicalUrl":"https://foursquare.com/v/waterworks/4b492767f964a5200a6826e3","categoryId":"4bf58dd8d48988d116941735","category":"Bar","checkinsCount":4133,"usersCount":1039,"tipCount":34,"visitsCount":4354,"url":"http://waterworkstallahassee.com","tier":2,"message":"Moderate","currency":"$","rating":8.6},{"name":"Proof Brewing Company","phone":"8508945638","twitter":"proofbrewingco","address":"1717 W Tennessee St","lat":30.44875761491673,"lng":-84.30993995217487,"city_fetched":"Tallahassee,US","state":"FL","country":"United States","canonicalUrl":"https://foursquare.com/v/proof-brewing-company/4b47ac7af964a520163a26e3","categoryId":"4bf58dd8d48988d116941735","category":"Bar","checkinsCount":7611,"usersCount":1986,"tipCount":44,"visitsCount":7792,"url":"http://www.proofbrewingco.com","tier":2,"message":"Moderate","currency":"$","rating":8.6},{"name":"Proof Brewing Company at Railroad Square","phone":"8508945638","twitter":"proofbrewingco","address":"644 McDonnell Dr","lat":30.432801556297342,"lng":-84.2930985001479,"city_fetched":"Tallahassee,US","state":"FL","country":"United States","canonicalUrl":"https://foursquare.com/v/proof-brewing-company-at-railroad-square/53251d23498e50342fa532f3","categoryId":"50327c8591d4c4b30a586d5d","category":"Brewery","checkinsCount":747,"usersCount":609,"tipCount":14,"visitsCount":1460,"url":"http://www.proofbrewingco.com","tier":"","message":"","currency":"","rating":8.6},{"name":"Bullwinkles","phone":"8502240651","twitter":"bull_winkl","address":"620 W Tennessee St","lat":30.44495067856648,"lng":-84.29177236032392,"city_fetched":"Tallahassee,US","state":"FL","country":"United States","canonicalUrl":"https://foursquare.com/v/bullwinkles/4b418202f964a5203dc725e3","categoryId":"4bf58dd8d48988d116941735","category":"Bar","checkinsCount":6548,"usersCount":1952,"tipCount":29,"visitsCount":6682,"url":"http://www.bullwinklessaloon.com","tier":1,"message":"Cheap","currency":"$","rating":8.5},{"name":"Krewe de Gras","phone":"8502220378","address":"1304-B N. Monroe Street","lat":30.456697378165384,"lng":-84.28110048225079,"city_fetched":"Tallahassee,US","state":"FL","country":"United States","canonicalUrl":"https://foursquare.com/v/krewe-de-gras/4b4d253df964a5209dcc26e3","categoryId":"4bf58dd8d48988d116941735","category":"Bar","checkinsCount":11875,"usersCount":1321,"tipCount":36,"visitsCount":12453,"url":"http://krewedegras.com","tier":2,"message":"Moderate","currency":"$","rating":8.5},{"name":"GrassLands Brewing Company","twitter":"grasslandsbrew","address":"603 W Gaines St","lat":30.43533621452732,"lng":-84.29068778208011,"city_fetched":"Tallahassee,US","state":"FL","country":"United States","canonicalUrl":"https://foursquare.com/v/grasslands-brewing-company/53218744498e711dc71fdd85","categoryId":"50327c8591d4c4b30a586d5d","category":"Brewery","checkinsCount":313,"usersCount":163,"tipCount":2,"visitsCount":362,"url":"http://www.grasslandsbrewery.com","tier":"","message":"","currency":"","rating":8.4},{"name":"Potbelly's","phone":"8502242233","twitter":"potbellystally","address":"W College Ave.","lat":30.440587,"lng":-84.28830279,"neighborhood":"Downtown Tallahassee","city_fetched":"Tallahassee,US","state":"FL","country":"United States","canonicalUrl":"https://foursquare.com/potbellystally","categoryId":"4bf58dd8d48988d116941735","category":"Bar","checkinsCount":2856,"usersCount":1569,"tipCount":9,"visitsCount":3411,"url":"http://www.potbellys.net","tier":"","message":"","currency":"","rating":8.4},{"name":"The Brass Tap Midtown","phone":"8503206300","twitter":"brasstaptlh","address":"1321 Thomasville Rd","lat":30.45706229935826,"lng":-84.27668631076813,"neighborhood":"Lafayette Park","city_fetched":"Tallahassee,US","state":"FL","country":"United States","canonicalUrl":"https://foursquare.com/v/the-brass-tap-midtown/538ffcf7498e1eb3d513e222","categoryId":"4bf58dd8d48988d117941735","category":"Beer Garden","checkinsCount":618,"usersCount":354,"tipCount":9,"visitsCount":869,"url":"http://brasstapbeerbar.com/MidtownTallahassee","tier":"","message":"","currency":"","rating":8.3},{"name":"The Wine Loft","phone":"8886053332","address":"1240 Thomasville Rd","lat":30.456111098827776,"lng":-84.27791852801789,"city_fetched":"Tallahassee,US","state":"FL","country":"United States","canonicalUrl":"https://foursquare.com/v/the-wine-loft/4b4bd10ef964a520a6a826e3","categoryId":"4bf58dd8d48988d123941735","category":"Wine Bar","checkinsCount":3604,"usersCount":1360,"tipCount":27,"visitsCount":3814,"url":"http://thewinelofttallahassee.net","tier":"","message":"","currency":"","rating":8.3},{"name":"Zingales Billiards And Sports Bar","address":"1861 W Tennessee St","lat":30.447925010855922,"lng":-84.3142407704586,"city_fetched":"Tallahassee,US","state":"FL","country":"United States","canonicalUrl":"https://foursquare.com/v/zingales-billiards-and-sports-bar/4d573bfa9e508cfa4e79199b","categoryId":"4bf58dd8d48988d116941735","category":"Bar","checkinsCount":1465,"usersCount":440,"tipCount":7,"visitsCount":1645,"tier":"","message":"","currency":"","rating":8.2},{"name":"Level 8 Lounge","phone":"8502246000","twitter":"level8lounge","address":"415 N Monroe St","lat":30.445956950000003,"lng":-84.2805004119873,"city_fetched":"Tallahassee,US","state":"FL","country":"United States","canonicalUrl":"https://foursquare.com/v/level-8-lounge/4b70dd06f964a52028322de3","categoryId":"4bf58dd8d48988d1d5941735","category":"Hotel Bar","checkinsCount":4601,"usersCount":2030,"tipCount":31,"visitsCount":4658,"url":"http://hotelduval.com/portfolio/level-8-lounge/","tier":2,"message":"Moderate","currency":"$","rating":8.1},{"name":"Liberty","phone":"8502847966","address":"1307-2 N Monroe St","lat":30.456869,"lng":-84.280336,"city_fetched":"Tallahassee,US","state":"FL","country":"United States","canonicalUrl":"https://foursquare.com/v/liberty/52e9b2c211d22288fc00cb32","categoryId":"4bf58dd8d48988d116941735","category":"Bar","checkinsCount":839,"usersCount":368,"tipCount":14,"visitsCount":981,"url":"http://www.libertytlh.com","tier":2,"message":"Moderate","currency":"$","rating":8.1},{"name":"Market Square Lounge","address":"1391 Timberlane Rd","lat":30.50355556873213,"lng":-84.25409865185999,"city_fetched":"Tallahassee,US","state":"FL","country":"United States","canonicalUrl":"https://foursquare.com/v/market-square-lounge/4deadecb45dd3993a8988d7a","categoryId":"4bf58dd8d48988d121941735","category":"Lounge","checkinsCount":306,"usersCount":123,"tipCount":2,"visitsCount":313,"tier":"","message":"","currency":"","rating":8},{"name":"Corner Pocket Bar & Grill","phone":"8505742724","address":"2475 Apalachee Pkwy","lat":30.427695391709143,"lng":-84.23933013712796,"city_fetched":"Tallahassee,US","state":"FL","country":"United States","canonicalUrl":"https://foursquare.com/v/corner-pocket-bar--grill/4b75e7a7f964a520952d2ee3","categoryId":"4bf58dd8d48988d11d941735","category":"Sports Bar","checkinsCount":5486,"usersCount":1190,"tipCount":39,"visitsCount":6074,"url":"http://cornerpocketsportsbar.com","tier":2,"message":"Moderate","currency":"$","rating":7.8},{"name":"Beef 'O' Brady's","phone":"8502222157","address":"1800 Thomasville Rd","lat":30.463886767947102,"lng":-84.27223663631989,"neighborhood":"Glenview-Pinegrove","city_fetched":"Tallahassee,US","state":"FL","country":"United States","canonicalUrl":"https://foursquare.com/v/beef-o-bradys/4b590442f964a520a57828e3","categoryId":"4bf58dd8d48988d11d941735","category":"Sports Bar","checkinsCount":3975,"usersCount":1085,"tipCount":15,"visitsCount":4275,"url":"http://beefobradys.com","tier":2,"message":"Moderate","currency":"$","rating":7.8},{"name":"Prime Time","phone":"8503297148","twitter":"primetimetally","address":"1921 W Tennessee St","lat":30.448864090334624,"lng":-84.31520674165704,"city_fetched":"Tallahassee,US","state":"FL","country":"United States","canonicalUrl":"https://foursquare.com/v/prime-time/5033c6888055015093ff9dd8","categoryId":"4bf58dd8d48988d11d941735","category":"Sports Bar","checkinsCount":1725,"usersCount":993,"tipCount":33,"visitsCount":2489,"url":"http://primetimetallahassee.com","tier":2,"message":"Moderate","currency":"$","rating":7.7},{"name":"4th Quarter Bar & Grill","phone":"8503850017","twitter":"4thquartergrill","address":"2033 N Monroe St","lat":30.468098944446176,"lng":-84.28605625574383,"city_fetched":"Tallahassee,US","state":"FL","country":"United States","canonicalUrl":"https://foursquare.com/v/4th-quarter-bar--grill/4bb455340cbcef3bc6e7582a","categoryId":"4bf58dd8d48988d11d941735","category":"Sports Bar","checkinsCount":2126,"usersCount":551,"tipCount":17,"visitsCount":2220,"url":"http://www.4thquartersportsbar.com","tier":2,"message":"Moderate","currency":"$","rating":7.6},{"name":"Top Flite","phone":"8505757365","address":"623 Osceola St","lat":30.421538466666668,"lng":-84.29284876666667,"city_fetched":"Tallahassee,US","state":"FL","country":"United States","canonicalUrl":"https://foursquare.com/v/top-flite/4bad6e49f964a520a94f3be3","categoryId":"4bf58dd8d48988d11f941735","category":"Nightclub","checkinsCount":853,"usersCount":410,"tipCount":12,"visitsCount":1178,"tier":"","message":"","currency":"","rating":7.6},{"name":"Club Rehab","phone":"8507288152","address":"926 W Tharpe St","lat":30.464195,"lng":-84.29787656666667,"city_fetched":"Tallahassee,US","state":"FL","country":"United States","canonicalUrl":"https://foursquare.com/v/club-rehab/4c8665c6c5a9952162629c05","categoryId":"4bf58dd8d48988d11f941735","category":"Nightclub","checkinsCount":2679,"usersCount":567,"tipCount":4,"visitsCount":2721,"url":"http://pugmahonestally.com","tier":"","message":"","currency":"","rating":7.3},{"name":"Mint Lounge","phone":"8505770222","address":"215 W College Ave Ste 102","lat":30.44047396094358,"lng":-84.28390681743622,"neighborhood":"Downtown Tallahassee","city_fetched":"Tallahassee,US","state":"FL","country":"United States","canonicalUrl":"https://foursquare.com/v/mint-lounge/4bb4cbb16ebfc9b65b62edfa","categoryId":"4bf58dd8d48988d121941735","category":"Lounge","checkinsCount":1852,"usersCount":847,"tipCount":18,"visitsCount":1918,"tier":"","message":"","currency":"","rating":7.3},{"name":"Palace Saloon","phone":"8505753418","address":"1303 Jackson Bluff Rd","lat":30.434253668338307,"lng":-84.30425643270489,"city_fetched":"Tallahassee,US","state":"FL","country":"United States","canonicalUrl":"https://foursquare.com/v/palace-saloon/4b4523f7f964a5200a0626e3","categoryId":"4bf58dd8d48988d116941735","category":"Bar","checkinsCount":4474,"usersCount":1165,"tipCount":21,"visitsCount":4707,"tier":"","message":"","currency":"","rating":7.3},{"name":"Governor's Club Lounge","phone":"8502240650","address":"202 S Adams St","lat":30.440447884474498,"lng":-84.28206699336413,"neighborhood":"Downtown Tallahassee","city_fetched":"Tallahassee,US","state":"FL","country":"United States","canonicalUrl":"https://foursquare.com/v/governors-club-lounge/4babf16ff964a520b9d73ae3","categoryId":"4bf58dd8d48988d121941735","category":"Lounge","checkinsCount":992,"usersCount":195,"tipCount":2,"visitsCount":1004,"url":"http://www.govclub.com","tier":"","message":"","currency":"","rating":7.2},{"name":"Fifth Avenue Tap Room","phone":"8502224225","twitter":"5thavetap","address":"1122 Thomasville Rd #1","lat":30.454446514080992,"lng":-84.2788537972408,"city_fetched":"Tallahassee,US","state":"FL","country":"United States","canonicalUrl":"https://foursquare.com/v/fifth-avenue-tap-room/4cc9b3a141e75481ee195e84","categoryId":"4bf58dd8d48988d116941735","category":"Bar","checkinsCount":4625,"usersCount":1260,"tipCount":24,"visitsCount":4706,"tier":2,"message":"Moderate","currency":"$","rating":7.2},{"name":"Skyline Motor Lounge","phone":"8502548533","address":"1700-19 N Monroe St","lat":30.463357314426663,"lng":-84.2838046173987,"city_fetched":"Tallahassee,US","state":"FL","country":"United States","canonicalUrl":"https://foursquare.com/v/skyline-motor-lounge/50480e18e4b04d063dd9b4f1","categoryId":"4bf58dd8d48988d123941735","category":"Wine Bar","checkinsCount":604,"usersCount":170,"tipCount":2,"visitsCount":620,"tier":"","message":"","currency":"","rating":7.2},{"name":"Clyde's and Costellos","phone":"8502242173","address":"210 S Adams St","lat":30.440364258760663,"lng":-84.28219037662937,"neighborhood":"Downtown Tallahassee","city_fetched":"Tallahassee,US","state":"FL","country":"United States","canonicalUrl":"https://foursquare.com/v/clydes-and-costellos/4b9b0b01f964a52032ee35e3","categoryId":"4bf58dd8d48988d116941735","category":"Bar","checkinsCount":1920,"usersCount":781,"tipCount":1,"visitsCount":1935,"tier":1,"message":"Cheap","currency":"$","rating":7.2},{"name":"The Warehouse","phone":"8502226188","address":"706 W Gaines St","lat":30.435639739145262,"lng":-84.29441947042723,"city_fetched":"Tallahassee,US","state":"FL","country":"United States","canonicalUrl":"https://foursquare.com/v/the-warehouse/4b4524def964a5202b0626e3","categoryId":"4bf58dd8d48988d116941735","category":"Bar","checkinsCount":889,"usersCount":489,"tipCount":3,"visitsCount":961,"tier":"","message":"","currency":"","rating":7.2},{"name":"Finnegan's Wake","phone":"8502224225","address":"1122 Thomasville Rd","lat":30.45451037393968,"lng":-84.27894633972022,"city_fetched":"Tallahassee,US","state":"FL","country":"United States","canonicalUrl":"https://foursquare.com/v/finnegans-wake/4b4d4709f964a520eccf26e3","categoryId":"4bf58dd8d48988d116941735","category":"Bar","checkinsCount":4268,"usersCount":1455,"tipCount":14,"visitsCount":4390,"tier":2,"message":"Moderate","currency":"$","rating":7.1},{"name":"Pocket's Pool & Sports Pub","phone":"8503857665","twitter":"pocketspool","address":"2810 Sharer Rd","lat":30.479058398960735,"lng":-84.29739540074904,"city_fetched":"Tallahassee,US","state":"FL","country":"United States","canonicalUrl":"https://foursquare.com/v/pockets-pool--sports-pub/4b4687d1f964a520782326e3","categoryId":"4bf58dd8d48988d11d941735","category":"Sports Bar","checkinsCount":5098,"usersCount":1397,"tipCount":27,"visitsCount":5507,"url":"http://www.pocketspoolandpub.com","tier":"","message":"","currency":"","rating":7},{"name":"Calico Jack's","phone":"8503856653","twitter":"calicojacksfl","address":"2745 Capital Circle NE","lat":30.48956036567688,"lng":-84.24114209,"city_fetched":"Tallahassee,US","state":"FL","country":"United States","canonicalUrl":"https://foursquare.com/v/calico-jacks/4b831075f964a52069f530e3","categoryId":"4bf58dd8d48988d116941735","category":"Bar","checkinsCount":1248,"usersCount":640,"tipCount":12,"visitsCount":1264,"tier":"","message":"","currency":"","rating":6.9},{"name":"The Side Bar Theatre","twitter":"sidebartheatre","address":"809 Railroad Ave","lat":30.435026647391084,"lng":-84.28954664044332,"city_fetched":"Tallahassee,US","state":"FL","country":"United States","canonicalUrl":"https://foursquare.com/v/the-side-bar-theatre/5023f2d6ebca64a1e5865bac","categoryId":"4bf58dd8d48988d121941735","category":"Lounge","checkinsCount":488,"usersCount":221,"tipCount":4,"visitsCount":498,"tier":"","message":"","currency":"","rating":6.8},{"name":"w xyz lounge","phone":"8505130313","twitter":"wxyztallahassee","address":"200 N Monroe St","lat":30.44393274421669,"lng":-84.28101822525952,"neighborhood":"Downtown Tallahassee","city_fetched":"Tallahassee,US","state":"FL","country":"United States","canonicalUrl":"https://foursquare.com/v/w-xyz-lounge/4b546425f964a52099b927e3","categoryId":"4bf58dd8d48988d116941735","category":"Bar","checkinsCount":510,"usersCount":253,"tipCount":4,"visitsCount":511,"url":"http://www.alofttallahassee.com","tier":"","message":"","currency":"","rating":6.8},{"name":"The Brass Tap Downtown | Gaines","phone":"8505838974","twitter":"brasstaptlh","address":"699 W Gaines St Ste 110","lat":30.435291414556197,"lng":-84.29361249986113,"city_fetched":"Tallahassee,US","state":"FL","country":"United States","canonicalUrl":"https://foursquare.com/v/the-brass-tap-downtown--gaines/53b71650498e7e8bccf9a152","categoryId":"4bf58dd8d48988d117941735","category":"Beer Garden","checkinsCount":227,"usersCount":271,"tipCount":5,"visitsCount":479,"url":"http://www.brasstapbeerbar.com/StadiumCentreTallahassee","tier":"","message":"","currency":"","rating":6.8},{"name":"Poor Paul's Pourhouse","phone":"8502222978","twitter":"poorpaulspour","address":"618 1/2 W Tennessee St","lat":30.44507850789845,"lng":-84.29167469769229,"city_fetched":"Tallahassee,US","state":"FL","country":"United States","canonicalUrl":"https://foursquare.com/v/poor-pauls-pourhouse/4b07f003f964a520590123e3","categoryId":"4bf58dd8d48988d118941735","category":"Dive Bar","checkinsCount":3783,"usersCount":985,"tipCount":18,"visitsCount":3881,"url":"http://www.poorpaulspourhouse.com","tier":1,"message":"Cheap","currency":"$","rating":6.8},{"name":"Geo's Pool And  Pub","address":"3260 Mahan Dr","lat":30.463145186006223,"lng":-84.22164528611414,"city_fetched":"Tallahassee,US","state":"FL","country":"United States","canonicalUrl":"https://foursquare.com/v/geos-pool-and--pub/4ca694dd97c8a1cd341772a5","categoryId":"4bf58dd8d48988d116941735","category":"Bar","checkinsCount":859,"usersCount":238,"tipCount":11,"visitsCount":868,"tier":"","message":"","currency":"","rating":6.8},{"name":"Club Downunder","phone":"8506446673","twitter":"floridastate","address":"PO Box","lat":30.44452977587924,"lng":-84.29741081968834,"city_fetched":"Tallahassee,US","state":"FL","country":"United States","canonicalUrl":"https://foursquare.com/v/club-downunder/4b4d49dcf964a5202ad026e3","categoryId":"4bf58dd8d48988d11f941735","category":"Nightclub","checkinsCount":888,"usersCount":401,"tipCount":9,"visitsCount":897,"url":"http://www.facebook.com/floridastate","tier":"","message":"","currency":"","rating":6.7},{"name":"Cafe Shisha","phone":"8502220405","address":"1416 W Tennessee St","lat":30.449610683333333,"lng":-84.30589166,"city_fetched":"Tallahassee,US","state":"FL","country":"United States","canonicalUrl":"https://foursquare.com/v/cafe-shisha/4b529499f964a520f88227e3","categoryId":"4bf58dd8d48988d119941735","category":"Hookah Bar","checkinsCount":1091,"usersCount":455,"tipCount":19,"visitsCount":1096,"url":"http://www.cafeshisha.us","tier":"","message":"","currency":"","rating":6.7},{"name":"The Spaceport","phone":"8502241887","address":"1133 Thomasville Rd","lat":30.45531928539276,"lng":-84.27740303333333,"neighborhood":"Lafayette Park","city_fetched":"Tallahassee,US","state":"FL","country":"United States","canonicalUrl":"https://foursquare.com/v/the-spaceport/4c9eb659d3c2b60cf14fcebc","categoryId":"4bf58dd8d48988d116941735","category":"Bar","checkinsCount":672,"usersCount":177,"tipCount":18,"visitsCount":672,"tier":"","message":"","currency":"","rating":6.6},{"name":"Paradigm","phone":"8502249980","address":"115 W College Ave","lat":30.44063687324524,"lng":-84.282709,"neighborhood":"Downtown Tallahassee","city_fetched":"Tallahassee,US","state":"FL","country":"United States","canonicalUrl":"https://foursquare.com/v/paradigm/4b99729df964a520167c35e3","categoryId":"4bf58dd8d48988d116941735","category":"Bar","checkinsCount":2029,"usersCount":687,"tipCount":6,"visitsCount":2032,"tier":"","message":"","currency":"","rating":6.5},{"name":"Baja's Beachclub","phone":"8505742020","twitter":"bajasbeachclub","address":"2020 W. Pensacola St.","lat":30.441822409629822,"lng":-84.31975623,"city_fetched":"Tallahassee,US","state":"FL","country":"United States","canonicalUrl":"https://foursquare.com/v/bajas-beachclub/4b451f6df964a5206f0526e3","categoryId":"4bf58dd8d48988d11f941735","category":"Nightclub","checkinsCount":761,"usersCount":400,"tipCount":5,"visitsCount":774,"url":"http://www.bajasbeachclub.com","tier":"","message":"","currency":"","rating":6.3},{"name":"Jacob's On the Plaza","address":"101 S Adams St","lat":30.44143,"lng":-84.281884,"neighborhood":"Downtown Tallahassee","city_fetched":"Tallahassee,US","state":"FL","country":"United States","canonicalUrl":"https://foursquare.com/v/jacobs-on-the-plaza/4b635c37f964a52078742ae3","categoryId":"4bf58dd8d48988d116941735","category":"Bar","checkinsCount":387,"usersCount":179,"tipCount":6,"visitsCount":388,"tier":"","message":"","currency":"","rating":6.3},{"name":"Midtown Pass Sports Bar","phone":"8505979614","twitter":"midtownpass","address":"1019 N Monroe St","lat":30.453001011859396,"lng":-84.28022396549129,"city_fetched":"Tallahassee,US","state":"FL","country":"United States","canonicalUrl":"https://foursquare.com/v/midtown-pass-sports-bar/4ee0357b722e103a021d543f","categoryId":"4bf58dd8d48988d11d941735","category":"Sports Bar","checkinsCount":1967,"usersCount":678,"tipCount":22,"visitsCount":2140,"url":"http://www.midtownpass.com","tier":1,"message":"Cheap","currency":"$","rating":6.1},{"name":"Recess","address":"705 S Woodward Ave","lat":30.436268821186335,"lng":-84.29778601264243,"city_fetched":"Tallahassee,US","state":"FL","country":"United States","canonicalUrl":"https://foursquare.com/v/recess/5202fcd734569ee4325a7531","categoryId":"4bf58dd8d48988d116941735","category":"Bar","checkinsCount":273,"usersCount":182,"tipCount":2,"visitsCount":273,"tier":"","message":"","currency":"","rating":6},{"name":"Leon Pub","phone":"8504254639","address":"215 E 6th Ave","lat":30.45618,"lng":-84.28009502,"city_fetched":"Tallahassee,US","state":"FL","country":"United States","canonicalUrl":"https://foursquare.com/v/leon-pub/4b525dfcf964a520af7927e3","categoryId":"4bf58dd8d48988d11b941735","category":"Pub","checkinsCount":1575,"usersCount":563,"tipCount":20,"visitsCount":1685,"tier":"","message":"","currency":"","rating":6},{"name":"Ken's Tavern","phone":"8505999062","twitter":"kenstavern","address":"656 W Tennessee St","lat":30.444867,"lng":-84.293209,"city_fetched":"Tallahassee,US","state":"FL","country":"United States","canonicalUrl":"https://foursquare.com/v/kens-tavern/4b74bb07f964a52007ef2de3","categoryId":"4bf58dd8d48988d116941735","category":"Bar","checkinsCount":3206,"usersCount":839,"tipCount":18,"visitsCount":3264,"tier":"","message":"","currency":"","rating":6},{"name":"Fire Betty's Arcade Bar","phone":"8509335959","address":"1122 Thomasville Rd","lat":30.45430402598597,"lng":-84.27857102766039,"city_fetched":"Tallahassee,US","state":"FL","country":"United States","canonicalUrl":"https://foursquare.com/v/fire-bettys-arcade-bar/54e54e14498e0342300ed4ea","categoryId":"4bf58dd8d48988d116941735","category":"Bar","checkinsCount":305,"usersCount":135,"tipCount":2,"visitsCount":333,"url":"http://www.firebettys.com","tier":"","message":"","currency":"","rating":5.7},{"name":"Samuel Adams Restaurant","address":"3300 Capital Cir SW","lat":30.395169613708436,"lng":-84.34492320383029,"city_fetched":"Tallahassee,US","state":"FL","country":"United States","canonicalUrl":"https://foursquare.com/v/samuel-adams-restaurant/4c9f8b7f2fb1a143e9c0f440","categoryId":"4bf58dd8d48988d116941735","category":"Bar","checkinsCount":190,"usersCount":145,"tipCount":5,"visitsCount":190,"tier":"","message":"","currency":"","rating":5.7},{"name":"Coliseum Night Club","phone":"8502227662","address":"1833 W Tennessee St","lat":30.44778404218537,"lng":-84.3135008669709,"city_fetched":"Tallahassee,US","state":"FL","country":"United States","canonicalUrl":"https://foursquare.com/v/coliseum-night-club/4f04fc57722e1ef4e2bc02d8","categoryId":"4bf58dd8d48988d11f941735","category":"Nightclub","checkinsCount":1301,"usersCount":691,"tipCount":10,"visitsCount":1426,"url":"http://www.tallahasseenightclubs.net","tier":"","message":"","currency":"","rating":5.5},{"name":"Pug Mahones Pub & Grill","phone":"8507288152","address":"926 W Tharpe St","lat":30.464058965040394,"lng":-84.29794534043923,"city_fetched":"Tallahassee,US","state":"FL","country":"United States","canonicalUrl":"https://foursquare.com/v/pug-mahones-pub--grill/4ce74fd0baa6a1cd7519276c","categoryId":"4bf58dd8d48988d11b941735","category":"Pub","checkinsCount":1560,"usersCount":330,"tipCount":2,"visitsCount":1571,"url":"http://www.pugmahonespub.com","tier":"","message":"","currency":"","rating":5.3}]